[
  {
    "service_request": "2023-973404",
    "request_type": "Traffic Signals/Signs/Striping/Streetlights",
    "request_reason": "Street Light Outage/Malfunction",
    "date_created": "2023-02-07T01:43:28.000",
    "date_modified": "2023-02-07T01:43:29.000",
    "request_status": "Pending",
    "responsible_agency": "Department of Public Works",
    "final_address": "4760 Major Dr",
    "address_councildis": "E",
    "status": "Assigned to Contractor",
    "contractor": "Legacy Professional Services",
    "rowid": "973404",
    "final_x": "3718146.94828",
    "final_y": "557034.244826",
    "longitude": "-89.95138222211426",
    "latitude": "30.024486469193167",
    "geocoded_column": {
      "latitude": "30.024486469193167",
      "longitude": "-89.95138222211426"
    }
  },
  {
    "service_request": "2023-973403",
    "request_type": "Traffic Signals/Signs/Striping/Streetlights",
    "request_reason": "Street Light Outage/Malfunction",
    "date_created": "2023-02-07T01:32:33.000",
    "date_modified": "2023-02-07T01:32:33.000",
    "request_status": "Pending",
    "responsible_agency": "Department of Public Works",
    "final_address": "1815 Marais St",
    "address_councildis": "C",
    "status": "Assigned to Contractor",
    "contractor": "Legacy Professional Services",
    "rowid": "973403",
    "final_x": "3683616.7318",
    "final_y": "536592.648135",
    "longitude": "-90.06120862479816",
    "latitude": "29.969379283761157",
    "geocoded_column": {
      "latitude": "29.969379283761157",
      "longitude": "-90.06120862479816"
    }
  },
  {
    "service_request": "2023-973402",
    "request_type": "Trash/Recycling",
    "request_reason": "Dead Animal Pick Up",
    "date_created": "2023-02-06T22:43:41.000",
    "date_modified": "2023-02-06T22:43:41.000",
    "request_status": "Pending",
    "responsible_agency": "Department of Sanitation",
    "final_address": "1328 Harrison Ave",
    "address_councildis": "D",
    "status": "Assigned to Contractor",
    "contractor": "IV Waste",
    "rowid": "973402",
    "final_x": "3677522.41973",
    "final_y": "547522.50517",
    "longitude": "-90.080077423001",
    "latitude": "29.999617228307688",
    "geocoded_column": {
      "latitude": "29.999617228307688",
      "longitude": "-90.080077423001"
    }
  },
  {
    "service_request": "2023-973401",
    "request_type": "Abandoned Vehicles",
    "request_reason": "Abandoned/Junk Vehicles",
    "date_created": "2023-02-06T22:43:18.000",
    "date_modified": "2023-02-06T22:43:18.000",
    "request_status": "Pending",
    "responsible_agency": "Department of Public Works",
    "final_address": "3605 Iberville St, New Orleans, Louisiana, 70119",
    "address_councildis": "B",
    "status": "Pending",
    "rowid": "973401",
    "final_x": "3672830.83028",
    "final_y": "537614.691912",
    "longitude": "-90.09523654648098",
    "latitude": "29.972514411751387",
    "geocoded_column": {
      "latitude": "29.972514411751387",
      "longitude": "-90.09523654648098"
    }
  },
  {
    "service_request": "2023-973400",
    "request_type": "Roads/Drainage",
    "request_reason": "Street Subsidence (Sinking)",
    "date_created": "2023-02-06T21:11:37.000",
    "date_modified": "2023-02-06T21:11:37.000",
    "request_status": "Pending",
    "responsible_agency": "Department of Public Works",
    "final_address": "4802 Constance St",
    "address_councildis": "B",
    "status": "Pending",
    "rowid": "973400",
    "final_x": "3669586.51719",
    "final_y": "518235.30079",
    "longitude": "-90.10613818734679",
    "latitude": "29.919323390114982",
    "geocoded_column": {
      "latitude": "29.919323390114982",
      "longitude": "-90.10613818734679"
    }
  },
  {
    "service_request": "2023-973399",
    "request_type": "Property Maintenance",
    "request_reason": "Property Maintenance",
    "date_created": "2023-02-06T20:13:33.000",
    "date_modified": "2023-02-06T20:13:33.000",
    "request_status": "Pending",
    "responsible_agency": "Department of Code Enforcement",
    "final_address": "8621 Pritchard Pl",
    "address_councildis": "A",
    "status": "Pending",
    "rowid": "973399",
    "final_x": "3664651.2642",
    "final_y": "534220.473605",
    "longitude": "-90.12118258738316",
    "latitude": "29.963421915434942",
    "geocoded_column": {
      "latitude": "29.963421915434942",
      "longitude": "-90.12118258738316"
    }
  },
  {
    "service_request": "2023-973398",
    "request_type": "Trash/Recycling",
    "request_reason": "Request a Large Item Pick Up",
    "date_created": "2023-02-06T19:47:25.000",
    "date_modified": "2023-02-06T19:47:26.000",
    "request_status": "Pending",
    "responsible_agency": "Department of Sanitation",
    "final_address": "614 Esplanade Ave, New Orleans, Louisiana, 70116",
    "address_councildis": "C",
    "status": "Assigned to Contractor",
    "contractor": "Empire Services",
    "rowid": "973398",
    "final_x": "3684193.25231",
    "final_y": "534226.798277",
    "longitude": "-90.05947099322388",
    "latitude": "29.962856401929088",
    "geocoded_column": {
      "latitude": "29.962856401929088",
      "longitude": "-90.05947099322388"
    }
  },
  {
    "service_request": "2023-973397",
    "request_type": "Property Maintenance",
    "request_reason": "Property Maintenance",
    "date_created": "2023-02-06T19:38:07.000",
    "date_modified": "2023-02-06T19:38:07.000",
    "request_status": "Pending",
    "responsible_agency": "Department of Code Enforcement",
    "final_address": "2837 Milan St",
    "address_councildis": "B",
    "status": "Pending",
    "rowid": "973397",
    "final_x": "3671183.03867",
    "final_y": "525465.503805",
    "longitude": "-90.10085328448618",
    "latitude": "29.93915701639153",
    "geocoded_column": {
      "latitude": "29.93915701639153",
      "longitude": "-90.10085328448618"
    }
  },
  {
    "service_request": "2023-973396",
    "request_type": "Trash/Recycling",
    "request_reason": "Replace Recycling Cart",
    "date_created": "2023-02-06T19:36:57.000",
    "date_modified": "2023-02-06T19:36:57.000",
    "request_status": "Pending",
    "responsible_agency": "Department of Sanitation",
    "final_address": "1227 Independence St",
    "address_councildis": "D",
    "status": "Pending",
    "rowid": "973396",
    "final_x": "3691132.23228",
    "final_y": "536084.353415",
    "longitude": "-90.0374923191007",
    "latitude": "29.967750086609687",
    "geocoded_column": {
      "latitude": "29.967750086609687",
      "longitude": "-90.0374923191007"
    }
  },
  {
    "service_request": "2023-973395",
    "request_type": "Abandoned Vehicles",
    "request_reason": "Abandoned/Junk Vehicles",
    "date_created": "2023-02-06T19:28:12.000",
    "date_modified": "2023-02-06T19:28:12.000",
    "request_status": "Pending",
    "responsible_agency": "Department of Public Works",
    "final_address": "1129 Ursulines Ave",
    "address_councildis": "C",
    "status": "Pending",
    "rowid": "973395",
    "final_x": "3682085.86146",
    "final_y": "534723.999494",
    "longitude": "-90.06610849542253",
    "latitude": "29.96428778683779",
    "geocoded_column": {
      "latitude": "29.96428778683779",
      "longitude": "-90.06610849542253"
    }
  },
  {
    "service_request": "2023-973394",
    "request_type": "Abandoned Vehicles",
    "request_reason": "Abandoned/Junk Vehicles",
    "date_created": "2023-02-06T19:22:19.000",
    "date_modified": "2023-02-06T19:22:19.000",
    "request_status": "Pending",
    "responsible_agency": "Department of Public Works",
    "final_address": "1125 Ursulines Ave",
    "address_councildis": "C",
    "status": "Pending",
    "rowid": "973394",
    "final_x": "3682104.41404",
    "final_y": "534706.60135",
    "longitude": "-90.06605051559497",
    "latitude": "29.96423938372255",
    "geocoded_column": {
      "latitude": "29.96423938372255",
      "longitude": "-90.06605051559497"
    }
  },
  {
    "service_request": "2023-973393",
    "request_type": "Trash/Recycling",
    "request_reason": "Request a Large Item Pick Up",
    "date_created": "2023-02-06T18:59:50.000",
    "date_modified": "2023-02-06T18:59:50.000",
    "request_status": "Pending",
    "responsible_agency": "Department of Sanitation",
    "final_address": "720 Marengo St",
    "address_councildis": "B",
    "status": "Assigned to Contractor",
    "contractor": "Richards Disposal",
    "rowid": "973393",
    "final_x": "3672168.87751",
    "final_y": "518326.283126",
    "longitude": "-90.09798386448773",
    "latitude": "29.91949726196619",
    "geocoded_column": {
      "latitude": "29.91949726196619",
      "longitude": "-90.09798386448773"
    }
  },
  {
    "service_request": "2023-973392",
    "request_type": "Trash/Recycling",
    "request_reason": "Request a Large Item Pick Up",
    "date_created": "2023-02-06T18:59:49.000",
    "date_modified": "2023-02-06T18:59:50.000",
    "request_status": "Pending",
    "responsible_agency": "Department of Sanitation",
    "final_address": "720 Marengo St",
    "address_councildis": "B",
    "status": "Assigned to Contractor",
    "contractor": "Richards Disposal",
    "rowid": "973392",
    "final_x": "3672168.87751",
    "final_y": "518326.283126",
    "longitude": "-90.09798386448773",
    "latitude": "29.91949726196619",
    "geocoded_column": {
      "latitude": "29.91949726196619",
      "longitude": "-90.09798386448773"
    }
  },
  {
    "service_request": "2023-973391",
    "request_type": "Traffic Signals/Signs/Striping/Streetlights",
    "request_reason": "Street Light Outage/Malfunction",
    "date_created": "2023-02-06T18:58:34.000",
    "date_modified": "2023-02-06T18:58:35.000",
    "request_status": "Pending",
    "responsible_agency": "Department of Public Works",
    "final_address": "345 Bellaire Dr",
    "address_councildis": "A",
    "status": "Assigned to Contractor",
    "contractor": "Legacy Professional Services",
    "rowid": "973391",
    "final_x": "3663986.46522",
    "final_y": "541876.704012",
    "longitude": "-90.12302658101453",
    "latitude": "29.98449332818907",
    "geocoded_column": {
      "latitude": "29.98449332818907",
      "longitude": "-90.12302658101453"
    }
  },
  {
    "service_request": "2023-973390",
    "request_type": "Trash/Recycling",
    "request_reason": "Order Recycling Cart",
    "date_created": "2023-02-06T18:52:06.000",
    "date_modified": "2023-02-06T18:52:06.000",
    "request_status": "Pending",
    "responsible_agency": "Department of Sanitation",
    "final_address": "4515 Paris Ave",
    "address_councildis": "D",
    "status": "Pending",
    "rowid": "973390",
    "final_x": "3679513.47938",
    "final_y": "549166.464467",
    "longitude": "-90.07373050399403",
    "latitude": "30.004077501456866",
    "geocoded_column": {
      "latitude": "30.004077501456866",
      "longitude": "-90.07373050399403"
    }
  },
  {
    "service_request": "2023-973389",
    "request_type": "Trash/Recycling",
    "request_reason": "Request a Large Item Pick Up",
    "date_created": "2023-02-06T18:50:20.000",
    "date_modified": "2023-02-06T18:50:21.000",
    "request_status": "Pending",
    "responsible_agency": "Department of Sanitation",
    "final_address": "2921 Broadway St",
    "address_councildis": "B",
    "status": "Assigned to Contractor",
    "contractor": "Richards Disposal",
    "rowid": "973389",
    "final_x": "3667636.37543",
    "final_y": "531699.327491",
    "longitude": "-90.1118407713134",
    "latitude": "29.956402425823846",
    "geocoded_column": {
      "latitude": "29.956402425823846",
      "longitude": "-90.1118407713134"
    }
  },
  {
    "service_request": "2023-973388",
    "request_type": "Trash/Recycling",
    "request_reason": "MIssed Recycling Pick-Up",
    "date_created": "2023-02-06T18:35:33.000",
    "date_modified": "2023-02-06T18:35:33.000",
    "request_status": "Pending",
    "responsible_agency": "Department of Sanitation",
    "final_address": "622 N Bernadotte St",
    "address_councildis": "A",
    "status": "Assigned to Contractor",
    "contractor": "Richards Disposal",
    "rowid": "973388",
    "final_x": "3670052.83226",
    "final_y": "541624.307212",
    "longitude": "-90.10387411204971",
    "latitude": "29.983621739614833",
    "geocoded_column": {
      "latitude": "29.983621739614833",
      "longitude": "-90.10387411204971"
    }
  },
  {
    "service_request": "2023-973387",
    "request_type": "Property Maintenance",
    "request_reason": "Property Maintenance",
    "date_created": "2023-02-06T18:33:33.000",
    "date_modified": "2023-02-06T18:33:33.000",
    "request_status": "Pending",
    "responsible_agency": "Department of Code Enforcement",
    "final_address": "2901 Leon C Simon Dr",
    "address_councildis": "D",
    "status": "Pending",
    "rowid": "973387",
    "final_x": "3689200.0422",
    "final_y": "558937.249116",
    "longitude": "-90.04278136410075",
    "latitude": "30.030647189520923",
    "geocoded_column": {
      "latitude": "30.030647189520923",
      "longitude": "-90.04278136410075"
    }
  },
  {
    "service_request": "2023-973386",
    "request_type": "Roads/Drainage",
    "request_reason": "Pothole",
    "date_created": "2023-02-06T18:31:25.000",
    "date_modified": "2023-02-06T18:31:25.000",
    "request_status": "Pending",
    "responsible_agency": "Department of Public Works",
    "final_address": "1501 S Norman C Francis Prkwy",
    "address_councildis": "B",
    "status": "Pending",
    "rowid": "973386",
    "final_x": "3669570.73594",
    "final_y": "531460.015683",
    "longitude": "-90.10574078011284",
    "latitude": "29.955687555313272",
    "geocoded_column": {
      "latitude": "29.955687555313272",
      "longitude": "-90.10574078011284"
    }
  },
  {
    "service_request": "2023-973385",
    "request_type": "Trash/Recycling",
    "request_reason": "Request a Large Item Pick Up",
    "date_created": "2023-02-06T18:31:13.000",
    "date_modified": "2023-02-06T18:31:13.000",
    "request_status": "Pending",
    "responsible_agency": "Department of Sanitation",
    "final_address": "4312 Coliseum St, New Orleans, Louisiana, 70115",
    "address_councildis": "B",
    "status": "Assigned to Contractor",
    "contractor": "Richards Disposal",
    "rowid": "973385",
    "final_x": "3671244.94766",
    "final_y": "519766.51916",
    "longitude": "-90.10085135858562",
    "latitude": "29.92348481027771",
    "geocoded_column": {
      "latitude": "29.92348481027771",
      "longitude": "-90.10085135858562"
    }
  },
  {
    "service_request": "2023-973384",
    "request_type": "Traffic Signals/Signs/Striping/Streetlights",
    "request_reason": "Street Light Outage/Malfunction",
    "date_created": "2023-02-06T18:21:37.000",
    "date_modified": "2023-02-06T18:21:38.000",
    "request_status": "Pending",
    "responsible_agency": "Department of Public Works",
    "final_address": "321 22Nd St",
    "address_councildis": "A",
    "status": "Assigned to Contractor",
    "contractor": "Legacy Professional Services",
    "rowid": "973384",
    "final_x": "3665035.51424",
    "final_y": "549386.228499",
    "longitude": "-90.11946180961557",
    "latitude": "30.005111447725866",
    "geocoded_column": {
      "latitude": "30.005111447725866",
      "longitude": "-90.11946180961557"
    }
  },
  {
    "service_request": "2023-973383",
    "request_type": "Trash/Recycling",
    "request_reason": "Request a Large Item Pick Up",
    "date_created": "2023-02-06T18:21:25.000",
    "date_modified": "2023-02-06T18:21:25.000",
    "request_status": "Pending",
    "responsible_agency": "Department of Sanitation",
    "final_address": "2300 Bristol Pl",
    "address_councildis": "C",
    "status": "Assigned to Contractor",
    "contractor": "Richards Disposal",
    "rowid": "973383",
    "final_x": "3702686.35281",
    "final_y": "522508.838714",
    "longitude": "-90.0015026569236",
    "latitude": "29.93005789097889",
    "geocoded_column": {
      "latitude": "29.93005789097889",
      "longitude": "-90.0015026569236"
    }
  },
  {
    "service_request": "2023-973382",
    "request_type": "Roads/Drainage",
    "request_reason": "Accessibility Ramps, Curbs and Sidewalk Repair",
    "date_created": "2023-02-06T18:16:44.000",
    "date_modified": "2023-02-06T18:16:44.000",
    "request_status": "Pending",
    "responsible_agency": "Department of Public Works",
    "final_address": "12151 N Interstate 10 Service Rd",
    "address_councildis": "E",
    "status": "Pending",
    "rowid": "973382",
    "final_x": "3715510.55301",
    "final_y": "565646.608226",
    "longitude": "-89.95938636273246",
    "latitude": "30.04825416619287",
    "geocoded_column": {
      "latitude": "30.04825416619287",
      "longitude": "-89.95938636273246"
    }
  },
  {
    "service_request": "2023-973381",
    "request_type": "Trash/Recycling",
    "request_reason": "Order Trash Cart",
    "date_created": "2023-02-06T18:12:12.000",
    "date_modified": "2023-02-06T18:12:13.000",
    "request_status": "Pending",
    "responsible_agency": "Department of Sanitation",
    "final_address": "2714 N Galvez St",
    "address_councildis": "D",
    "status": "Assigned to Contractor",
    "contractor": "IV Waste",
    "rowid": "973381",
    "final_x": "3688512.11587",
    "final_y": "540049.597003",
    "longitude": "-90.04562596827297",
    "latitude": "29.978734326136202",
    "geocoded_column": {
      "latitude": "29.978734326136202",
      "longitude": "-90.04562596827297"
    }
  },
  {
    "service_request": "2023-973380",
    "request_type": "Trash/Recycling",
    "request_reason": "Order Trash Cart",
    "date_created": "2023-02-06T18:09:39.000",
    "date_modified": "2023-02-06T18:09:40.000",
    "request_status": "Pending",
    "responsible_agency": "Department of Sanitation",
    "final_address": "2714 N Galvez St",
    "address_councildis": "D",
    "status": "Assigned to Contractor",
    "contractor": "IV Waste",
    "rowid": "973380",
    "final_x": "3688512.11587",
    "final_y": "540049.597003",
    "longitude": "-90.04562596827297",
    "latitude": "29.978734326136202",
    "geocoded_column": {
      "latitude": "29.978734326136202",
      "longitude": "-90.04562596827297"
    }
  },
  {
    "service_request": "2023-973379",
    "request_type": "Property Maintenance",
    "request_reason": "Property Maintenance",
    "date_created": "2023-02-06T18:06:11.000",
    "date_modified": "2023-02-06T18:06:11.000",
    "request_status": "Pending",
    "responsible_agency": "Department of Code Enforcement",
    "final_address": "830 Flood St",
    "address_councildis": "E",
    "status": "Pending",
    "rowid": "973379",
    "final_x": "3697404.71696",
    "final_y": "532927.669828",
    "longitude": "-90.0177982023389",
    "latitude": "29.958873788940576",
    "geocoded_column": {
      "latitude": "29.958873788940576",
      "longitude": "-90.0177982023389"
    }
  },
  {
    "service_request": "2023-973378",
    "request_type": "Trash/Recycling",
    "request_reason": "MIssed Recycling Pick-Up",
    "date_created": "2023-02-06T17:56:07.000",
    "date_modified": "2023-02-06T17:56:08.000",
    "request_status": "Pending",
    "responsible_agency": "Department of Sanitation",
    "final_address": "6509 Maumus Ave",
    "address_councildis": "C",
    "status": "Assigned to Contractor",
    "contractor": "Richards Disposal",
    "rowid": "973378",
    "final_x": "3707906.6284",
    "final_y": "516627.742197",
    "longitude": "-89.98524168073136",
    "latitude": "29.913719059426814",
    "geocoded_column": {
      "latitude": "29.913719059426814",
      "longitude": "-89.98524168073136"
    }
  },
  {
    "service_request": "2023-973377",
    "request_type": "Trash/Recycling",
    "request_reason": "Missed Trash Pick-Up",
    "date_created": "2023-02-06T17:54:01.000",
    "date_modified": "2023-02-06T17:54:01.000",
    "request_status": "Pending",
    "responsible_agency": "Department of Sanitation",
    "final_address": "101 N Gayoso St",
    "address_councildis": "B",
    "status": "Assigned to Contractor",
    "contractor": "Richards Disposal",
    "rowid": "973377",
    "final_x": "3674380.72814",
    "final_y": "535941.022663",
    "longitude": "-90.09039902168836",
    "latitude": "29.967866249331305",
    "geocoded_column": {
      "latitude": "29.967866249331305",
      "longitude": "-90.09039902168836"
    }
  },
  {
    "service_request": "2023-973376",
    "request_type": "Roads/Drainage",
    "request_reason": "Pothole",
    "date_created": "2023-02-06T17:51:40.000",
    "date_modified": "2023-02-06T17:51:41.000",
    "request_status": "Pending",
    "responsible_agency": "Department of Public Works",
    "final_address": "2800 BLK Dante St",
    "address_councildis": "A",
    "status": "Pending",
    "rowid": "973376",
    "final_x": "3665409.79644",
    "final_y": "533237.29519",
    "longitude": "-90.11882012413197",
    "latitude": "29.96069641179029",
    "geocoded_column": {
      "latitude": "29.96069641179029",
      "longitude": "-90.11882012413197"
    }
  },
  {
    "service_request": "2023-973375",
    "request_type": "Trash/Recycling",
    "request_reason": "Request a Large Item Pick Up",
    "date_created": "2023-02-06T17:37:35.000",
    "date_modified": "2023-02-06T17:37:36.000",
    "request_status": "Pending",
    "responsible_agency": "Department of Sanitation",
    "final_address": "4741 St Anthony Ave",
    "address_councildis": "D",
    "status": "Assigned to Contractor",
    "contractor": "IV Waste",
    "rowid": "973375",
    "final_x": "3682479.86012",
    "final_y": "550147.297108",
    "longitude": "-90.06432487206015",
    "latitude": "30.006684441657036",
    "geocoded_column": {
      "latitude": "30.006684441657036",
      "longitude": "-90.06432487206015"
    }
  },
  {
    "service_request": "2023-973374",
    "request_type": "Traffic Signals/Signs/Striping/Streetlights",
    "request_reason": "Street Light Outage/Malfunction",
    "date_created": "2023-02-06T17:36:09.000",
    "date_modified": "2023-02-06T17:36:09.000",
    "request_status": "Pending",
    "responsible_agency": "Department of Public Works",
    "final_address": "8823 Oleander St",
    "address_councildis": "A",
    "status": "Assigned to Contractor",
    "contractor": "Legacy Professional Services",
    "rowid": "973374",
    "final_x": "3664798.95661",
    "final_y": "535505.243846",
    "longitude": "-90.12067325126387",
    "latitude": "29.966950313832882",
    "geocoded_column": {
      "latitude": "29.966950313832882",
      "longitude": "-90.12067325126387"
    }
  },
  {
    "service_request": "2023-973373",
    "request_type": "Roads/Drainage",
    "request_reason": "Catch Basin - Clogged",
    "date_created": "2023-02-06T17:35:40.000",
    "date_modified": "2023-02-06T17:35:40.000",
    "request_status": "Pending",
    "responsible_agency": "Department of Public Works",
    "final_address": "501 Tchoupitoulas St",
    "address_councildis": "B",
    "status": "Pending",
    "rowid": "973373",
    "final_x": "3681811.71298",
    "final_y": "528981.979328",
    "longitude": "-90.06717460171518",
    "latitude": "29.948507515789377",
    "geocoded_column": {
      "latitude": "29.948507515789377",
      "longitude": "-90.06717460171518"
    }
  },
  {
    "service_request": "2023-973372",
    "request_type": "Roads/Drainage",
    "request_reason": "Catch Basin - Broken/Damage",
    "date_created": "2023-02-06T17:29:15.000",
    "date_modified": "2023-02-06T17:29:15.000",
    "request_status": "Pending",
    "responsible_agency": "Department of Public Works",
    "final_address": "501 Tchoupitoulas St",
    "address_councildis": "B",
    "status": "Pending",
    "rowid": "973372",
    "final_x": "3681811.71298",
    "final_y": "528981.979328",
    "longitude": "-90.06717460171518",
    "latitude": "29.948507515789377",
    "geocoded_column": {
      "latitude": "29.948507515789377",
      "longitude": "-90.06717460171518"
    }
  },
  {
    "service_request": "2023-973371",
    "request_type": "Trash/Recycling",
    "request_reason": "Request a Large Item Pick Up",
    "date_created": "2023-02-06T17:23:55.000",
    "date_modified": "2023-02-06T17:23:56.000",
    "request_status": "Pending",
    "responsible_agency": "Department of Sanitation",
    "final_address": "721 Upperline St",
    "address_councildis": "B",
    "status": "Assigned to Contractor",
    "contractor": "Richards Disposal",
    "rowid": "973371",
    "final_x": "3669062.88814",
    "final_y": "518077.874614",
    "longitude": "-90.10779634001662",
    "latitude": "29.918905927791354",
    "geocoded_column": {
      "latitude": "29.918905927791354",
      "longitude": "-90.10779634001662"
    }
  },
  {
    "service_request": "2023-973370",
    "request_type": "Property Maintenance",
    "request_reason": "Property Maintenance",
    "date_created": "2023-02-06T17:23:51.000",
    "date_modified": "2023-02-06T17:23:51.000",
    "request_status": "Pending",
    "responsible_agency": "Department of Code Enforcement",
    "final_address": "1639 Eagle St",
    "address_councildis": "A",
    "status": "Pending",
    "rowid": "973370",
    "final_x": "3661299.38931",
    "final_y": "531283.573698",
    "longitude": "-90.13186474494655",
    "latitude": "29.95544346590656",
    "geocoded_column": {
      "latitude": "29.95544346590656",
      "longitude": "-90.13186474494655"
    }
  },
  {
    "service_request": "2023-973369",
    "request_type": "Traffic Signals/Signs/Striping/Streetlights",
    "request_reason": "Striping/Road Surface Markings",
    "date_created": "2023-02-06T17:23:41.000",
    "date_modified": "2023-02-06T17:23:41.000",
    "request_status": "Pending",
    "responsible_agency": "Department of Public Works",
    "final_address": "8639 Colapissa St",
    "address_councildis": "A",
    "status": "Pending",
    "rowid": "973369",
    "final_x": "3665019.13991",
    "final_y": "534833.28775",
    "longitude": "-90.12000037929286",
    "latitude": "29.965096246890027",
    "geocoded_column": {
      "latitude": "29.965096246890027",
      "longitude": "-90.12000037929286"
    }
  },
  {
    "service_request": "2023-973368",
    "request_type": "Roads/Drainage",
    "request_reason": "Accessibility Ramps, Curbs and Sidewalk Repair",
    "date_created": "2023-02-06T17:22:20.000",
    "date_modified": "2023-02-06T17:22:20.000",
    "request_status": "Pending",
    "responsible_agency": "Department of Public Works",
    "final_address": "8823 Edinburgh St",
    "address_councildis": "A",
    "status": "Pending",
    "rowid": "973368",
    "final_x": "3665527.6978",
    "final_y": "536262.160391",
    "longitude": "-90.11834652955079",
    "latitude": "29.96901035737029",
    "geocoded_column": {
      "latitude": "29.96901035737029",
      "longitude": "-90.11834652955079"
    }
  },
  {
    "service_request": "2023-973367",
    "request_type": "Trash/Recycling",
    "request_reason": "Repair Recycling Cart",
    "date_created": "2023-02-06T17:21:53.000",
    "date_modified": "2023-02-06T17:21:53.000",
    "request_status": "Pending",
    "responsible_agency": "Department of Sanitation",
    "final_address": "714 Mandeville St",
    "address_councildis": "C",
    "status": "Pending",
    "rowid": "973367",
    "final_x": "3685854.70383",
    "final_y": "535067.182022",
    "longitude": "-90.05419472580313",
    "latitude": "29.965116273420932",
    "geocoded_column": {
      "latitude": "29.965116273420932",
      "longitude": "-90.05419472580313"
    }
  },
  {
    "service_request": "2023-973366",
    "request_type": "Trash/Recycling",
    "request_reason": "Request a Large Item Pick Up",
    "date_created": "2023-02-06T17:20:53.000",
    "date_modified": "2023-02-06T17:20:53.000",
    "request_status": "Pending",
    "responsible_agency": "Department of Sanitation",
    "final_address": "1657 Rousselin Dr",
    "address_councildis": "D",
    "status": "Assigned to Contractor",
    "contractor": "IV Waste",
    "rowid": "973366",
    "final_x": "3679583.41442",
    "final_y": "540403.201163",
    "longitude": "-90.073813879894",
    "latitude": "29.97997949852187",
    "geocoded_column": {
      "latitude": "29.97997949852187",
      "longitude": "-90.073813879894"
    }
  },
  {
    "service_request": "2023-973365",
    "request_type": "Trash/Recycling",
    "request_reason": "Request a Large Item Pick Up",
    "date_created": "2023-02-06T17:16:07.000",
    "date_modified": "2023-02-06T17:16:07.000",
    "request_status": "Pending",
    "responsible_agency": "Department of Sanitation",
    "final_address": "2406 Burgundy St",
    "address_councildis": "C",
    "status": "Assigned to Contractor",
    "contractor": "IV Waste",
    "rowid": "973365",
    "final_x": "3685916.41545",
    "final_y": "535621.675462",
    "longitude": "-90.05398029343797",
    "latitude": "29.966639043668927",
    "geocoded_column": {
      "latitude": "29.966639043668927",
      "longitude": "-90.05398029343797"
    }
  },
  {
    "service_request": "2023-973364",
    "request_type": "Property Maintenance",
    "request_reason": "Property Maintenance",
    "date_created": "2023-02-06T17:15:59.000",
    "date_modified": "2023-02-06T17:15:59.000",
    "request_status": "Pending",
    "responsible_agency": "Department of Code Enforcement",
    "final_address": "8830 Green St",
    "address_councildis": "A",
    "status": "Pending",
    "rowid": "973364",
    "final_x": "3661145.95661",
    "final_y": "531437.108931",
    "longitude": "-90.13234415106363",
    "latitude": "29.95587006109095",
    "geocoded_column": {
      "latitude": "29.95587006109095",
      "longitude": "-90.13234415106363"
    }
  },
  {
    "service_request": "2023-973363",
    "request_type": "Trash/Recycling",
    "request_reason": "Missed Trash Pick-Up",
    "date_created": "2023-02-06T17:08:45.000",
    "date_modified": "2023-02-06T17:08:46.000",
    "request_status": "Pending",
    "responsible_agency": "Department of Sanitation",
    "final_address": "4310 Burgundy St",
    "address_councildis": "C",
    "status": "Assigned to Contractor",
    "contractor": "IV Waste",
    "rowid": "973363",
    "final_x": "3692579.93533",
    "final_y": "534215.364101",
    "longitude": "-90.03298743337676",
    "latitude": "29.962565926976843",
    "geocoded_column": {
      "latitude": "29.962565926976843",
      "longitude": "-90.03298743337676"
    }
  },
  {
    "service_request": "2023-973362",
    "request_type": "Trash/Recycling",
    "request_reason": "Start Trash Service",
    "date_created": "2023-02-06T17:01:47.000",
    "date_modified": "2023-02-06T17:01:48.000",
    "request_status": "Pending",
    "responsible_agency": "Department of Sanitation",
    "final_address": "6364 Colbert St",
    "address_councildis": "A",
    "status": "Assigned to Contractor",
    "contractor": "IV Waste",
    "rowid": "973362",
    "final_x": "3667577.4866",
    "final_y": "549927.184276",
    "longitude": "-90.11141293109604",
    "latitude": "30.006524597865223",
    "geocoded_column": {
      "latitude": "30.006524597865223",
      "longitude": "-90.11141293109604"
    }
  },
  {
    "service_request": "2023-973361",
    "request_type": "Trash/Recycling",
    "request_reason": "Request a Large Item Pick Up",
    "date_created": "2023-02-06T16:55:53.000",
    "date_modified": "2023-02-06T16:55:54.000",
    "request_status": "Pending",
    "responsible_agency": "Department of Sanitation",
    "final_address": "2314 Annette St",
    "address_councildis": "D",
    "status": "Assigned to Contractor",
    "contractor": "IV Waste",
    "rowid": "973361",
    "final_x": "3682744.40975",
    "final_y": "540707.310219",
    "longitude": "-90.06381951452394",
    "latitude": "29.980719773987953",
    "geocoded_column": {
      "latitude": "29.980719773987953",
      "longitude": "-90.06381951452394"
    }
  },
  {
    "service_request": "2023-973360",
    "request_type": "Abandoned Vehicles",
    "request_reason": "Abandoned/Junk Vehicles",
    "date_created": "2023-02-06T16:55:33.000",
    "date_modified": "2023-02-06T16:55:33.000",
    "request_status": "Pending",
    "responsible_agency": "Department of Public Works",
    "final_address": "815 Third St",
    "address_councildis": "B",
    "status": "Pending",
    "rowid": "973360",
    "final_x": "3678131.32302",
    "final_y": "520383.657272",
    "longitude": "-90.07909230681322",
    "latitude": "29.92497627288507",
    "geocoded_column": {
      "latitude": "29.92497627288507",
      "longitude": "-90.07909230681322"
    }
  },
  {
    "service_request": "2023-973359",
    "request_type": "Roads/Drainage",
    "request_reason": "Pothole",
    "date_created": "2023-02-06T16:53:33.000",
    "date_modified": "2023-02-06T16:53:33.000",
    "request_status": "Pending",
    "responsible_agency": "Department of Public Works",
    "final_address": "4400 BLK Saint Charles Ave",
    "address_councildis": "B",
    "status": "Pending",
    "rowid": "973359",
    "final_x": "3670634.03599",
    "final_y": "520799.88765",
    "longitude": "-90.10274475180441",
    "latitude": "29.926344298324366",
    "geocoded_column": {
      "latitude": "29.926344298324366",
      "longitude": "-90.10274475180441"
    }
  },
  {
    "service_request": "2023-973358",
    "request_type": "Trash/Recycling",
    "request_reason": "Damaged Caused By Contractor",
    "date_created": "2023-02-06T16:51:08.000",
    "date_modified": "2023-02-06T16:51:09.000",
    "request_status": "Pending",
    "responsible_agency": "Department of Sanitation",
    "final_address": "2201 Delachaise St",
    "address_councildis": "B",
    "status": "Assigned to Contractor",
    "contractor": "Richards Disposal",
    "rowid": "973358",
    "final_x": "3672995.1668",
    "final_y": "523392.633467",
    "longitude": "-90.09520287648348",
    "latitude": "29.93340357675567",
    "geocoded_column": {
      "latitude": "29.93340357675567",
      "longitude": "-90.09520287648348"
    }
  },
  {
    "service_request": "2023-973357",
    "request_type": "Trash/Recycling",
    "request_reason": "Order Recycling Cart",
    "date_created": "2023-02-06T16:41:06.000",
    "date_modified": "2023-02-06T16:41:07.000",
    "request_status": "Pending",
    "responsible_agency": "Department of Sanitation",
    "final_address": "5144 Marigny St",
    "address_councildis": "D",
    "status": "Pending",
    "rowid": "973357",
    "final_x": "3684256.94383",
    "final_y": "551731.772501",
    "longitude": "-90.05865492437651",
    "latitude": "30.01098693825116",
    "geocoded_column": {
      "latitude": "30.01098693825116",
      "longitude": "-90.05865492437651"
    }
  },
  {
    "service_request": "2023-973356",
    "request_type": "Abandoned Vehicles",
    "request_reason": "Abandoned/Junk Vehicles",
    "date_created": "2023-02-06T16:34:23.000",
    "date_modified": "2023-02-06T16:34:23.000",
    "request_status": "Pending",
    "responsible_agency": "Department of Public Works",
    "final_address": "3212 Orleans Ave",
    "address_councildis": "A",
    "status": "Pending",
    "rowid": "973356",
    "final_x": "3674883.84481",
    "final_y": "538367.334729",
    "longitude": "-90.08872693308172",
    "latitude": "29.974522767453784",
    "geocoded_column": {
      "latitude": "29.974522767453784",
      "longitude": "-90.08872693308172"
    }
  },
  {
    "service_request": "2023-973355",
    "request_type": "Trash/Recycling",
    "request_reason": "Request a Large Item Pick Up",
    "date_created": "2023-02-06T16:23:30.000",
    "date_modified": "2023-02-06T16:23:31.000",
    "request_status": "Pending",
    "responsible_agency": "Department of Sanitation",
    "final_address": "4227 Palmyra St",
    "address_councildis": "A",
    "status": "Assigned to Contractor",
    "contractor": "Richards Disposal",
    "rowid": "973355",
    "final_x": "3669935.01857",
    "final_y": "538271.646409",
    "longitude": "-90.10435980896244",
    "latitude": "29.974406533597218",
    "geocoded_column": {
      "latitude": "29.974406533597218",
      "longitude": "-90.10435980896244"
    }
  },
  {
    "service_request": "2023-973354",
    "request_type": "Trash/Recycling",
    "request_reason": "Illegal Dumping",
    "date_created": "2023-02-06T16:19:51.000",
    "date_modified": "2023-02-06T16:19:52.000",
    "request_status": "Pending",
    "responsible_agency": "Department of Sanitation",
    "final_address": "SISTER ST & ST CLAUDE BRIDGE",
    "address_councildis": "E",
    "status": "Pending",
    "rowid": "973354",
    "final_x": "3694666.15",
    "final_y": "534609.74",
    "longitude": "-90.02638527850932",
    "latitude": "29.963585057833345",
    "geocoded_column": {
      "latitude": "29.963585057833345",
      "longitude": "-90.02638527850932"
    }
  },
  {
    "service_request": "2023-973353",
    "request_type": "Trash/Recycling",
    "request_reason": "Repair Trash Cart",
    "date_created": "2023-02-06T16:18:42.000",
    "date_modified": "2023-02-06T16:18:42.000",
    "request_status": "Pending",
    "responsible_agency": "Department of Sanitation",
    "final_address": "1024 Robert St",
    "address_councildis": "B",
    "status": "Assigned to Contractor",
    "contractor": "Richards Disposal",
    "rowid": "973353",
    "final_x": "3668621.38689",
    "final_y": "519165.358839",
    "longitude": "-90.10915326229221",
    "latitude": "29.92190914309281",
    "geocoded_column": {
      "latitude": "29.92190914309281",
      "longitude": "-90.10915326229221"
    }
  },
  {
    "service_request": "2023-973352",
    "request_type": "Safety & Permits",
    "request_reason": "Safety & Permits Request (Cyber Incident Back Up)",
    "date_created": "2023-02-06T16:13:54.000",
    "date_modified": "2023-02-06T16:13:54.000",
    "request_status": "Pending",
    "responsible_agency": "Safety and Permits",
    "status": "Pending",
    "rowid": "973352",
    "longitude": "0.0",
    "latitude": "0.0",
    "geocoded_column": {
      "latitude": "0.0",
      "longitude": "0.0"
    }
  },
  {
    "service_request": "2023-973351",
    "request_type": "Roads/Drainage",
    "request_reason": "Street Flooding / Drainage",
    "date_created": "2023-02-06T16:12:14.000",
    "date_modified": "2023-02-06T16:12:15.000",
    "request_status": "Pending",
    "responsible_agency": "Department of Public Works",
    "final_address": "1115 Canal St",
    "address_councildis": "C",
    "status": "Pending",
    "rowid": "973351",
    "final_x": "3679954.64975",
    "final_y": "531732.683267",
    "longitude": "-90.07294259289498",
    "latitude": "29.95612731997034",
    "geocoded_column": {
      "latitude": "29.95612731997034",
      "longitude": "-90.07294259289498"
    }
  },
  {
    "service_request": "2023-973350",
    "request_type": "Trash/Recycling",
    "request_reason": "Request a Large Item Pick Up",
    "date_created": "2023-02-06T16:12:07.000",
    "date_modified": "2023-02-06T16:12:07.000",
    "request_status": "Pending",
    "responsible_agency": "Department of Sanitation",
    "final_address": "7661 Wave Dr",
    "address_councildis": "E",
    "status": "Assigned to Contractor",
    "contractor": "Waste Pro",
    "rowid": "973350",
    "final_x": "3714906.95352",
    "final_y": "568974.38167",
    "longitude": "-89.9611681134045",
    "latitude": "30.057424067034063",
    "geocoded_column": {
      "latitude": "30.057424067034063",
      "longitude": "-89.9611681134045"
    }
  },
  {
    "service_request": "2023-973349",
    "request_type": "Abandoned Vehicles",
    "request_reason": "Abandoned/Junk Vehicles",
    "date_created": "2023-02-06T16:10:15.000",
    "date_modified": "2023-02-06T16:10:15.000",
    "request_status": "Pending",
    "responsible_agency": "Department of Public Works",
    "final_address": "3017 First St",
    "address_councildis": "B",
    "status": "Pending",
    "rowid": "973349",
    "final_x": "3674096.50856",
    "final_y": "527637.854719",
    "longitude": "-90.09158076297514",
    "latitude": "29.945043779417926",
    "geocoded_column": {
      "latitude": "29.945043779417926",
      "longitude": "-90.09158076297514"
    }
  },
  {
    "service_request": "2023-973347",
    "request_type": "Trash/Recycling",
    "request_reason": "Request a Large Item Pick Up",
    "date_created": "2023-02-06T16:08:42.000",
    "date_modified": "2023-02-06T16:08:43.000",
    "request_status": "Pending",
    "responsible_agency": "Department of Sanitation",
    "final_address": "11409 N Easterlyn Cir",
    "address_councildis": "E",
    "status": "Assigned to Contractor",
    "contractor": "Waste Pro",
    "rowid": "973347",
    "final_x": "3718245.64069",
    "final_y": "560874.454494",
    "longitude": "-89.95092397950832",
    "latitude": "30.03504222851605",
    "geocoded_column": {
      "latitude": "30.03504222851605",
      "longitude": "-89.95092397950832"
    }
  },
  {
    "service_request": "2023-973346",
    "request_type": "Trash/Recycling",
    "request_reason": "Dead Animal Pick Up",
    "date_created": "2023-02-06T16:04:59.000",
    "date_modified": "2023-02-06T16:04:59.000",
    "request_status": "Pending",
    "responsible_agency": "Department of Sanitation",
    "final_address": "4469 Woodland Dr",
    "address_councildis": "C",
    "status": "Assigned to Contractor",
    "contractor": "Richards Disposal",
    "rowid": "973346",
    "final_x": "3705518.49508",
    "final_y": "513561.359538",
    "longitude": "-89.99289255013865",
    "latitude": "29.905364599463695",
    "geocoded_column": {
      "latitude": "29.905364599463695",
      "longitude": "-89.99289255013865"
    }
  },
  {
    "service_request": "2023-973344",
    "request_type": "Traffic Signals/Signs/Striping/Streetlights",
    "request_reason": "Street Light Outage/Malfunction",
    "date_created": "2023-02-06T16:03:45.000",
    "date_modified": "2023-02-06T16:03:46.000",
    "request_status": "Pending",
    "responsible_agency": "Department of Public Works",
    "final_address": "1761 Rousselin Dr",
    "address_councildis": "D",
    "status": "Assigned to Contractor",
    "contractor": "Legacy Professional Services",
    "rowid": "973344",
    "final_x": "3680073.23586",
    "final_y": "540997.988299",
    "longitude": "-90.07224614573212",
    "latitude": "29.981600142566453",
    "geocoded_column": {
      "latitude": "29.981600142566453",
      "longitude": "-90.07224614573212"
    }
  },
  {
    "service_request": "2023-973343",
    "request_type": "Traffic Signals/Signs/Striping/Streetlights",
    "request_reason": "Street Light Outage/Malfunction",
    "date_created": "2023-02-06T16:02:47.000",
    "date_modified": "2023-02-06T16:02:50.000",
    "request_status": "Pending",
    "responsible_agency": "Department of Public Works",
    "final_address": "5531 Clements Dr",
    "address_councildis": "E",
    "status": "Assigned to Contractor",
    "contractor": "Legacy Professional Services",
    "rowid": "973343",
    "final_x": "3702487.21674",
    "final_y": "556117.463514",
    "longitude": "-90.00089755186711",
    "latitude": "30.022475686299167",
    "geocoded_column": {
      "latitude": "30.022475686299167",
      "longitude": "-90.00089755186711"
    }
  },
  {
    "service_request": "2023-973342",
    "request_type": "Traffic Signals/Signs/Striping/Streetlights",
    "request_reason": "Street Light Outage/Malfunction",
    "date_created": "2023-02-06T15:49:14.000",
    "date_modified": "2023-02-06T15:49:15.000",
    "request_status": "Pending",
    "responsible_agency": "Department of Public Works",
    "final_address": "2428 Columbus St",
    "address_councildis": "D",
    "status": "Assigned to Contractor",
    "contractor": "Legacy Professional Services",
    "rowid": "973342",
    "final_x": "3679284.61928",
    "final_y": "539036.001162",
    "longitude": "-90.07480502743655",
    "latitude": "29.97622919926626",
    "geocoded_column": {
      "latitude": "29.97622919926626",
      "longitude": "-90.07480502743655"
    }
  },
  {
    "service_request": "2023-973341",
    "request_type": "Trash/Recycling",
    "request_reason": "Repair Trash Cart",
    "date_created": "2023-02-06T15:48:00.000",
    "date_modified": "2023-02-06T15:48:00.000",
    "request_status": "Pending",
    "responsible_agency": "Department of Sanitation",
    "final_address": "1418 Spain St",
    "address_councildis": "C",
    "status": "Assigned to Contractor",
    "contractor": "IV Waste",
    "rowid": "973341",
    "final_x": "3685989.59049",
    "final_y": "537661.142536",
    "longitude": "-90.05367727991816",
    "latitude": "29.972244621092255",
    "geocoded_column": {
      "latitude": "29.972244621092255",
      "longitude": "-90.05367727991816"
    }
  },
  {
    "service_request": "2023-973340",
    "request_type": "Trash/Recycling",
    "request_reason": "Order Recycling Cart",
    "date_created": "2023-02-06T15:47:14.000",
    "date_modified": "2023-02-06T15:47:14.000",
    "request_status": "Pending",
    "responsible_agency": "Department of Sanitation",
    "final_address": "1418 Spain St",
    "address_councildis": "C",
    "status": "Pending",
    "rowid": "973340",
    "final_x": "3685989.59049",
    "final_y": "537661.142536",
    "longitude": "-90.05367727991816",
    "latitude": "29.972244621092255",
    "geocoded_column": {
      "latitude": "29.972244621092255",
      "longitude": "-90.05367727991816"
    }
  },
  {
    "service_request": "2023-973339",
    "request_type": "Abandoned Vehicles",
    "request_reason": "Abandoned/Junk Vehicles",
    "date_created": "2023-02-06T15:39:03.000",
    "date_modified": "2023-02-06T15:40:09.000",
    "request_status": "Pending",
    "responsible_agency": "Department of Public Works",
    "final_address": "1500 BLK Leboeuf St",
    "address_councildis": "C",
    "status": "Pending",
    "rowid": "973339",
    "final_x": "3689672.40704",
    "final_y": "525820.014093",
    "longitude": "-90.04246764997222",
    "latitude": "29.93957201210385",
    "geocoded_column": {
      "latitude": "29.93957201210385",
      "longitude": "-90.04246764997222"
    }
  },
  {
    "service_request": "2023-973338",
    "request_type": "Trash/Recycling",
    "request_reason": "Request a Large Item Pick Up",
    "date_created": "2023-02-06T15:38:08.000",
    "date_modified": "2023-02-06T15:38:08.000",
    "request_status": "Pending",
    "responsible_agency": "Department of Sanitation",
    "final_address": "2327 Peniston St",
    "address_councildis": "B",
    "status": "Assigned to Contractor",
    "contractor": "Richards Disposal",
    "rowid": "973338",
    "final_x": "3672278.30561",
    "final_y": "523815.567419",
    "longitude": "-90.09745156870869",
    "latitude": "29.934587787832125",
    "geocoded_column": {
      "latitude": "29.934587787832125",
      "longitude": "-90.09745156870869"
    }
  },
  {
    "service_request": "2023-973337",
    "request_type": "Property Maintenance",
    "request_reason": "Property Maintenance",
    "date_created": "2023-02-06T15:37:48.000",
    "date_modified": "2023-02-06T15:37:48.000",
    "request_status": "Pending",
    "responsible_agency": "Department of Code Enforcement",
    "final_address": "1304 Leboeuf St",
    "address_councildis": "C",
    "status": "Pending",
    "rowid": "973337",
    "final_x": "3689898.31612",
    "final_y": "526539.352574",
    "longitude": "-90.04172882708916",
    "latitude": "29.94154294807934",
    "geocoded_column": {
      "latitude": "29.94154294807934",
      "longitude": "-90.04172882708916"
    }
  },
  {
    "service_request": "2023-973336",
    "request_type": "Trash/Recycling",
    "request_reason": "Missed Trash Pick-Up",
    "date_created": "2023-02-06T15:30:49.000",
    "date_modified": "2023-02-06T15:30:50.000",
    "request_status": "Pending",
    "responsible_agency": "Department of Sanitation",
    "final_address": "609 St Ferdinand St",
    "address_councildis": "C",
    "status": "Assigned to Contractor",
    "contractor": "IV Waste",
    "rowid": "973336",
    "final_x": "3687305.28258",
    "final_y": "534556.358725",
    "longitude": "-90.0496319625393",
    "latitude": "29.963667081130623",
    "geocoded_column": {
      "latitude": "29.963667081130623",
      "longitude": "-90.0496319625393"
    }
  },
  {
    "service_request": "2023-973335",
    "request_type": "Trash/Recycling",
    "request_reason": "Repair Trash Cart",
    "date_created": "2023-02-06T15:29:15.000",
    "date_modified": "2023-02-06T15:29:16.000",
    "request_status": "Pending",
    "responsible_agency": "Department of Sanitation",
    "final_address": "1521 Dufossat St",
    "address_councildis": "B",
    "status": "Assigned to Contractor",
    "contractor": "Richards Disposal",
    "rowid": "973335",
    "final_x": "3668149.52641",
    "final_y": "520626.382968",
    "longitude": "-90.11059351789582",
    "latitude": "29.925940350412205",
    "geocoded_column": {
      "latitude": "29.925940350412205",
      "longitude": "-90.11059351789582"
    }
  },
  {
    "service_request": "2023-973334",
    "request_type": "Trash/Recycling",
    "request_reason": "Repair Trash Cart",
    "date_created": "2023-02-06T15:28:51.000",
    "date_modified": "2023-02-06T15:28:52.000",
    "request_status": "Pending",
    "responsible_agency": "Department of Sanitation",
    "final_address": "2739 Bay St",
    "address_councildis": "D",
    "status": "Assigned to Contractor",
    "contractor": "IV Waste",
    "rowid": "973334",
    "final_x": "3688296.90383",
    "final_y": "545313.235919",
    "longitude": "-90.04611893008448",
    "latitude": "29.99321410304127",
    "geocoded_column": {
      "latitude": "29.99321410304127",
      "longitude": "-90.04611893008448"
    }
  },
  {
    "service_request": "2023-973333",
    "request_type": "Trash/Recycling",
    "request_reason": "Missed Trash Pick-Up",
    "date_created": "2023-02-06T15:25:52.000",
    "date_modified": "2023-02-06T15:25:52.000",
    "request_status": "Pending",
    "responsible_agency": "Department of Sanitation",
    "final_address": "2519 Memorial Park Dr",
    "address_councildis": "C",
    "status": "Assigned to Contractor",
    "contractor": "Richards Disposal",
    "rowid": "973333",
    "final_x": "3692712.43715",
    "final_y": "521117.329657",
    "longitude": "-90.0330383838204",
    "latitude": "29.926546709190188",
    "geocoded_column": {
      "latitude": "29.926546709190188",
      "longitude": "-90.0330383838204"
    }
  },
  {
    "service_request": "2023-973332",
    "request_type": "Trash/Recycling",
    "request_reason": "MIssed Recycling Pick-Up",
    "date_created": "2023-02-06T15:23:49.000",
    "date_modified": "2023-02-06T15:23:50.000",
    "request_status": "Pending",
    "responsible_agency": "Department of Sanitation",
    "final_address": "3460 Wall Blvd",
    "address_councildis": "C",
    "status": "Assigned to Contractor",
    "contractor": "Richards Disposal",
    "rowid": "973332",
    "final_x": "3696916.94275",
    "final_y": "523904.63462",
    "longitude": "-90.01966511744463",
    "latitude": "29.934078979007033",
    "geocoded_column": {
      "latitude": "29.934078979007033",
      "longitude": "-90.01966511744463"
    }
  },
  {
    "service_request": "2023-973331",
    "request_type": "Trash/Recycling",
    "request_reason": "Missed Trash Pick-Up",
    "date_created": "2023-02-06T15:21:22.000",
    "date_modified": "2023-02-06T15:21:23.000",
    "request_status": "Pending",
    "responsible_agency": "Department of Sanitation",
    "final_address": "201 S Solomon St",
    "address_councildis": "A",
    "status": "Assigned to Contractor",
    "contractor": "Richards Disposal",
    "rowid": "973331",
    "final_x": "3670241.26241",
    "final_y": "538411.785737",
    "longitude": "-90.10338786451712",
    "latitude": "29.97478283433782",
    "geocoded_column": {
      "latitude": "29.97478283433782",
      "longitude": "-90.10338786451712"
    }
  },
  {
    "service_request": "2023-973330",
    "request_type": "Property Maintenance",
    "request_reason": "Property Maintenance",
    "date_created": "2023-02-06T15:21:05.000",
    "date_modified": "2023-02-06T15:21:05.000",
    "request_status": "Pending",
    "responsible_agency": "Department of Code Enforcement",
    "final_address": "5618 N Villere St",
    "address_councildis": "E",
    "status": "Pending",
    "rowid": "973330",
    "final_x": "3698462.63972",
    "final_y": "534706.863686",
    "longitude": "-90.01439290041242",
    "latitude": "29.96373249934232",
    "geocoded_column": {
      "latitude": "29.96373249934232",
      "longitude": "-90.01439290041242"
    }
  },
  {
    "service_request": "2023-973328",
    "request_type": "Roads/Drainage",
    "request_reason": "Road Shoulder Repair",
    "date_created": "2023-02-06T15:17:45.000",
    "date_modified": "2023-02-06T15:17:45.000",
    "request_status": "Pending",
    "responsible_agency": "Department of Public Works",
    "final_address": "1901 Ellen Park Pl",
    "address_councildis": "C",
    "status": "Pending",
    "rowid": "973328",
    "final_x": "3702880.71447",
    "final_y": "523961.918012",
    "longitude": "-90.00083575010268",
    "latitude": "29.93404713917782",
    "geocoded_column": {
      "latitude": "29.93404713917782",
      "longitude": "-90.00083575010268"
    }
  },
  {
    "service_request": "2023-973327",
    "request_type": "Roads/Drainage",
    "request_reason": "Pothole",
    "date_created": "2023-02-06T15:17:19.000",
    "date_modified": "2023-02-06T15:17:19.000",
    "request_status": "Pending",
    "responsible_agency": "Department of Public Works",
    "final_address": "I 10 W SERVICE RD & GANNON RD",
    "address_councildis": "E",
    "status": "Pending",
    "rowid": "973327",
    "final_x": "3718223.7",
    "final_y": "567461.38",
    "longitude": "-89.95074214948008",
    "latitude": "30.05315431040316",
    "geocoded_column": {
      "latitude": "30.05315431040316",
      "longitude": "-89.95074214948008"
    }
  },
  {
    "service_request": "2023-973326",
    "request_type": "Trash/Recycling",
    "request_reason": "Request a Large Item Pick Up",
    "date_created": "2023-02-06T15:16:14.000",
    "date_modified": "2023-02-06T15:16:15.000",
    "request_status": "Pending",
    "responsible_agency": "Department of Sanitation",
    "final_address": "4425 S Roman St",
    "address_councildis": "B",
    "status": "Assigned to Contractor",
    "contractor": "Richards Disposal",
    "rowid": "973326",
    "final_x": "3669997.70855",
    "final_y": "526633.250814",
    "longitude": "-90.10455599205035",
    "latitude": "29.942402946116587",
    "geocoded_column": {
      "latitude": "29.942402946116587",
      "longitude": "-90.10455599205035"
    }
  },
  {
    "service_request": "2023-973325",
    "request_type": "Trash/Recycling",
    "request_reason": "Request a Large Item Pick Up",
    "date_created": "2023-02-06T15:09:36.000",
    "date_modified": "2023-02-06T15:09:37.000",
    "request_status": "Pending",
    "responsible_agency": "Department of Sanitation",
    "final_address": "4951 Good Dr",
    "address_councildis": "E",
    "status": "Assigned to Contractor",
    "contractor": "Waste Pro",
    "rowid": "973325",
    "final_x": "3714757.63416",
    "final_y": "557766.828635",
    "longitude": "-89.96206403653781",
    "latitude": "30.026612744998793",
    "geocoded_column": {
      "latitude": "30.026612744998793",
      "longitude": "-89.96206403653781"
    }
  },
  {
    "service_request": "2023-973324",
    "request_type": "Property Maintenance",
    "request_reason": "Property Maintenance",
    "date_created": "2023-02-06T15:06:33.000",
    "date_modified": "2023-02-06T15:06:33.000",
    "request_status": "Pending",
    "responsible_agency": "Department of Code Enforcement",
    "final_address": "2204 Monticello St",
    "address_councildis": "E",
    "status": "Pending",
    "rowid": "973324",
    "final_x": "3700550.58705",
    "final_y": "537522.476104",
    "longitude": "-90.00769654845931",
    "latitude": "29.971408170110404",
    "geocoded_column": {
      "latitude": "29.971408170110404",
      "longitude": "-90.00769654845931"
    }
  },
  {
    "service_request": "2023-973323",
    "request_type": "Trash/Recycling",
    "request_reason": "Request a Large Item Pick Up",
    "date_created": "2023-02-06T15:06:20.000",
    "date_modified": "2023-02-06T15:06:20.000",
    "request_status": "Pending",
    "responsible_agency": "Department of Sanitation",
    "final_address": "15 St Claude Ct",
    "address_councildis": "E",
    "status": "Assigned to Contractor",
    "contractor": "Waste Pro",
    "rowid": "973323",
    "final_x": "3697509.32016",
    "final_y": "533639.439621",
    "longitude": "-90.01744208237321",
    "latitude": "29.960827601002112",
    "geocoded_column": {
      "latitude": "29.960827601002112",
      "longitude": "-90.01744208237321"
    }
  },
  {
    "service_request": "2023-973322",
    "request_type": "Trash/Recycling",
    "request_reason": "Replace Trash Cart",
    "date_created": "2023-02-06T15:06:17.000",
    "date_modified": "2023-02-06T15:06:17.000",
    "request_status": "Pending",
    "responsible_agency": "Department of Sanitation",
    "final_address": "5020 Warren Dr",
    "address_councildis": "E",
    "status": "Assigned to Contractor",
    "contractor": "Waste Pro",
    "rowid": "973322",
    "final_x": "3713256.04517",
    "final_y": "557593.309083",
    "longitude": "-89.96681538312515",
    "latitude": "30.02618496038349",
    "geocoded_column": {
      "latitude": "30.02618496038349",
      "longitude": "-89.96681538312515"
    }
  },
  {
    "service_request": "2023-973321",
    "request_type": "Property Maintenance",
    "request_reason": "Property Maintenance",
    "date_created": "2023-02-06T15:05:39.000",
    "date_modified": "2023-02-06T15:05:40.000",
    "request_status": "Pending",
    "responsible_agency": "Department of Code Enforcement",
    "final_address": "1737 France St",
    "address_councildis": "D",
    "status": "Pending",
    "rowid": "973321",
    "final_x": "3693068.33609",
    "final_y": "537701.05524",
    "longitude": "-90.03132006129223",
    "latitude": "29.972135096199807",
    "geocoded_column": {
      "latitude": "29.972135096199807",
      "longitude": "-90.03132006129223"
    }
  },
  {
    "service_request": "2023-973320",
    "request_type": "Trash/Recycling",
    "request_reason": "Request a Large Item Pick Up",
    "date_created": "2023-02-06T15:05:16.000",
    "date_modified": "2023-02-06T15:05:17.000",
    "request_status": "Pending",
    "responsible_agency": "Department of Sanitation",
    "final_address": "1012 Race St",
    "address_councildis": "B",
    "status": "Assigned to Contractor",
    "contractor": "Richards Disposal",
    "rowid": "973320",
    "final_x": "3680423.53045",
    "final_y": "523744.574267",
    "longitude": "-90.071739745988",
    "latitude": "29.934148500571137",
    "geocoded_column": {
      "latitude": "29.934148500571137",
      "longitude": "-90.071739745988"
    }
  },
  {
    "service_request": "2023-973319",
    "request_type": "Traffic Signals/Signs/Striping/Streetlights",
    "request_reason": "Traffic Sign Missing/Damaged",
    "date_created": "2023-02-06T15:03:49.000",
    "date_modified": "2023-02-06T15:03:49.000",
    "request_status": "Pending",
    "responsible_agency": "Department of Public Works",
    "final_address": "6249 Canal Blvd",
    "address_councildis": "A",
    "status": "Pending",
    "rowid": "973319",
    "final_x": "3668800.89498",
    "final_y": "549093.002515",
    "longitude": "-90.10757605162142",
    "latitude": "30.004194959285186",
    "geocoded_column": {
      "latitude": "30.004194959285186",
      "longitude": "-90.10757605162142"
    }
  },
  {
    "service_request": "2023-973317",
    "request_type": "Trash/Recycling",
    "request_reason": "Request a Large Item Pick Up",
    "date_created": "2023-02-06T14:59:22.000",
    "date_modified": "2023-02-06T14:59:23.000",
    "request_status": "Pending",
    "responsible_agency": "Department of Sanitation",
    "final_address": "28 Tennyson Pl",
    "address_councildis": "C",
    "status": "Assigned to Contractor",
    "contractor": "Richards Disposal",
    "rowid": "973317",
    "final_x": "3705210.65278",
    "final_y": "517717.065782",
    "longitude": "-89.99371077249883",
    "latitude": "29.916801263593168",
    "geocoded_column": {
      "latitude": "29.916801263593168",
      "longitude": "-89.99371077249883"
    }
  },
  {
    "service_request": "2023-973316",
    "request_type": "Trash/Recycling",
    "request_reason": "MIssed Recycling Pick-Up",
    "date_created": "2023-02-06T14:57:05.000",
    "date_modified": "2023-02-06T15:41:39.000",
    "case_close_date": "2023-02-06T09:41:39.000",
    "request_status": "Closed",
    "responsible_agency": "Department of Sanitation",
    "final_address": "3 Christopher Ct",
    "address_councildis": "E",
    "status": "Assigned to Contractor",
    "contractor": "Waste Pro",
    "contractor_action": "Completed",
    "rowid": "973316",
    "final_x": "3716320.72242",
    "final_y": "570231.909543",
    "longitude": "-89.9566516722686",
    "latitude": "30.06083512127162",
    "geocoded_column": {
      "latitude": "30.06083512127162",
      "longitude": "-89.9566516722686"
    }
  },
  {
    "service_request": "2023-973315",
    "request_type": "Parks & Parkways",
    "request_reason": "Request Tree Service (Right of Way/Public Property)",
    "date_created": "2023-02-06T14:56:08.000",
    "date_modified": "2023-02-06T14:56:08.000",
    "request_status": "Pending",
    "responsible_agency": "Department of Parks & Parkway",
    "final_address": "1206 Jefferson Ave",
    "address_councildis": "A",
    "status": "Pending",
    "rowid": "973315",
    "final_x": "3666900.94433",
    "final_y": "519906.93676",
    "longitude": "-90.1145590940449",
    "latitude": "29.92399867754222",
    "geocoded_column": {
      "latitude": "29.92399867754222",
      "longitude": "-90.1145590940449"
    }
  },
  {
    "service_request": "2023-973314",
    "request_type": "Mosquito, Termite & Rodent Control",
    "request_reason": "Non-Rodent Complaint (Mice, Possums, Snakes)",
    "date_created": "2023-02-06T14:55:28.000",
    "date_modified": "2023-02-06T14:55:28.000",
    "request_status": "Pending",
    "responsible_agency": "Mosquito, Termite & Rodent Control Board",
    "final_address": "6015 West End Blvd",
    "address_councildis": "A",
    "status": "Pending",
    "rowid": "973314",
    "final_x": "3666528.81857",
    "final_y": "547688.591442",
    "longitude": "-90.1148011633107",
    "latitude": "30.000399949919426",
    "geocoded_column": {
      "latitude": "30.000399949919426",
      "longitude": "-90.1148011633107"
    }
  },
  {
    "service_request": "2023-973312",
    "request_type": "Abandoned Vehicles",
    "request_reason": "Abandoned/Junk Vehicles",
    "date_created": "2023-02-06T14:53:28.000",
    "date_modified": "2023-02-06T14:53:28.000",
    "request_status": "Pending",
    "responsible_agency": "Department of Public Works",
    "final_address": "2020 Spain St",
    "address_councildis": "D",
    "status": "Pending",
    "rowid": "973312",
    "final_x": "3685822.2374",
    "final_y": "539899.154506",
    "longitude": "-90.05412690160783",
    "latitude": "29.97840350758461",
    "geocoded_column": {
      "latitude": "29.97840350758461",
      "longitude": "-90.05412690160783"
    }
  },
  {
    "service_request": "2023-973311",
    "request_type": "Roads/Drainage",
    "request_reason": "Alley Way",
    "date_created": "2023-02-06T14:52:27.000",
    "date_modified": "2023-02-06T14:53:34.000",
    "request_status": "Pending",
    "responsible_agency": "Department of Public Works",
    "final_address": "5562 Woodlawn Pl",
    "address_councildis": "A",
    "status": "Pending",
    "rowid": "973311",
    "final_x": "3667379.10599",
    "final_y": "544294.851791",
    "longitude": "-90.11222929614186",
    "latitude": "29.991043441299844",
    "geocoded_column": {
      "latitude": "29.991043441299844",
      "longitude": "-90.11222929614186"
    }
  },
  {
    "service_request": "2023-973310",
    "request_type": "Trash/Recycling",
    "request_reason": "Request a Large Item Pick Up",
    "date_created": "2023-02-06T14:49:31.000",
    "date_modified": "2023-02-06T14:50:15.000",
    "request_status": "Pending",
    "responsible_agency": "Department of Sanitation",
    "final_address": "7538 Dearborn Rd",
    "address_councildis": "E",
    "status": "Assigned to Contractor",
    "contractor": "Waste Pro",
    "rowid": "973310",
    "final_x": "3709421.01061",
    "final_y": "564314.864673",
    "longitude": "-89.9786824124341",
    "latitude": "30.044791771785487",
    "geocoded_column": {
      "latitude": "30.044791771785487",
      "longitude": "-89.9786824124341"
    }
  },
  {
    "service_request": "2023-973309",
    "request_type": "Trash/Recycling",
    "request_reason": "Missed Trash Pick-Up",
    "date_created": "2023-02-06T14:46:33.000",
    "date_modified": "2023-02-06T15:30:44.000",
    "request_status": "Pending",
    "responsible_agency": "Department of Sanitation",
    "final_address": "6645 Louis Xiv St, New Orleans, Louisiana, 70124",
    "address_councildis": "A",
    "status": "Assigned to Contractor",
    "contractor": "IV Waste",
    "rowid": "973309",
    "final_x": "3668588.08417",
    "final_y": "551894.611862",
    "longitude": "-90.10815372532853",
    "latitude": "30.011904663080667",
    "geocoded_column": {
      "latitude": "30.011904663080667",
      "longitude": "-90.10815372532853"
    }
  },
  {
    "service_request": "2023-973308",
    "request_type": "Abandoned Vehicles",
    "request_reason": "Abandoned/Junk Vehicles",
    "date_created": "2023-02-06T14:44:23.000",
    "date_modified": "2023-02-06T14:47:10.000",
    "request_status": "Pending",
    "responsible_agency": "Department of Public Works",
    "final_address": "6300 BLK Chartres St",
    "address_councildis": "E",
    "status": "Pending",
    "rowid": "973308",
    "final_x": "3699574.05784",
    "final_y": "531230.082013",
    "longitude": "-90.0110098781357",
    "latitude": "29.954137363392014",
    "geocoded_column": {
      "latitude": "29.954137363392014",
      "longitude": "-90.0110098781357"
    }
  },
  {
    "service_request": "2023-973307",
    "request_type": "Abandoned Vehicles",
    "request_reason": "Abandoned/Junk Vehicles",
    "date_created": "2023-02-06T14:43:54.000",
    "date_modified": "2023-02-06T14:45:05.000",
    "request_status": "Pending",
    "responsible_agency": "Department of Public Works",
    "final_address": "300 BLK Newton St",
    "address_councildis": "C",
    "status": "Inspected",
    "rowid": "973307",
    "final_x": "3686376.22596",
    "final_y": "527907.607686",
    "longitude": "-90.05280046398796",
    "latitude": "29.945413881920206",
    "geocoded_column": {
      "latitude": "29.945413881920206",
      "longitude": "-90.05280046398796"
    }
  },
  {
    "service_request": "2023-973306",
    "request_type": "Property Maintenance",
    "request_reason": "Property Maintenance",
    "date_created": "2023-02-06T14:42:55.000",
    "date_modified": "2023-02-06T14:42:55.000",
    "request_status": "Pending",
    "responsible_agency": "Department of Code Enforcement",
    "final_address": "2031 Laharpe St",
    "address_councildis": "D",
    "status": "Pending",
    "rowid": "973306",
    "final_x": "3680641.12968",
    "final_y": "538554.958025",
    "longitude": "-90.07053751131076",
    "latitude": "29.974865459890808",
    "geocoded_column": {
      "latitude": "29.974865459890808",
      "longitude": "-90.07053751131076"
    }
  },
  {
    "service_request": "2023-973305",
    "request_type": "Trash/Recycling",
    "request_reason": "Illegal Dumping",
    "date_created": "2023-02-06T14:42:00.000",
    "date_modified": "2023-02-06T14:42:01.000",
    "request_status": "Pending",
    "responsible_agency": "Department of Sanitation",
    "final_address": "MAYO RD & WALES ST",
    "address_councildis": "E",
    "status": "Pending",
    "rowid": "973305",
    "final_x": "3700534.14",
    "final_y": "561542.54",
    "longitude": "-90.00687032543836",
    "latitude": "30.037454853848566",
    "geocoded_column": {
      "latitude": "30.037454853848566",
      "longitude": "-90.00687032543836"
    }
  },
  {
    "service_request": "2023-973304",
    "request_type": "Traffic Signals/Signs/Striping/Streetlights",
    "request_reason": "Street Light Outage/Malfunction",
    "date_created": "2023-02-06T14:40:59.000",
    "date_modified": "2023-02-06T14:41:00.000",
    "request_status": "Pending",
    "responsible_agency": "Department of Public Works",
    "final_address": "310 Audubon Blvd",
    "address_councildis": "A",
    "status": "Assigned to Contractor",
    "contractor": "Legacy Professional Services",
    "rowid": "973304",
    "final_x": "3667030.05127",
    "final_y": "529843.736129",
    "longitude": "-90.11381770996283",
    "latitude": "29.951317914251497",
    "geocoded_column": {
      "latitude": "29.951317914251497",
      "longitude": "-90.11381770996283"
    }
  },
  {
    "service_request": "2023-973303",
    "request_type": "Trash/Recycling",
    "request_reason": "Request a Large Item Pick Up",
    "date_created": "2023-02-06T14:39:40.000",
    "date_modified": "2023-02-06T14:39:41.000",
    "request_status": "Pending",
    "responsible_agency": "Department of Sanitation",
    "final_address": "230 Leboeuf St",
    "address_councildis": "C",
    "status": "Assigned to Contractor",
    "contractor": "Richards Disposal",
    "rowid": "973303",
    "final_x": "3689950.4527",
    "final_y": "530889.829698",
    "longitude": "-90.0414093578819",
    "latitude": "29.953503651025603",
    "geocoded_column": {
      "latitude": "29.953503651025603",
      "longitude": "-90.0414093578819"
    }
  },
  {
    "service_request": "2023-973302",
    "request_type": "Trash/Recycling",
    "request_reason": "Request a Large Item Pick Up",
    "date_created": "2023-02-06T14:39:36.000",
    "date_modified": "2023-02-06T14:39:37.000",
    "request_status": "Pending",
    "responsible_agency": "Department of Sanitation",
    "final_address": "7023 Canal Blvd",
    "address_councildis": "A",
    "status": "Assigned to Contractor",
    "contractor": "IV Waste",
    "rowid": "973302",
    "final_x": "3669273.27143",
    "final_y": "554176.195224",
    "longitude": "-90.10591170334108",
    "latitude": "30.01815804872968",
    "geocoded_column": {
      "latitude": "30.01815804872968",
      "longitude": "-90.10591170334108"
    }
  },
  {
    "service_request": "2023-973301",
    "request_type": "Trash/Recycling",
    "request_reason": "Missed Trash Pick-Up",
    "date_created": "2023-02-06T14:32:14.000",
    "date_modified": "2023-02-06T14:32:14.000",
    "request_status": "Pending",
    "responsible_agency": "Department of Sanitation",
    "final_address": "6075 Wales St",
    "address_councildis": "E",
    "status": "Assigned to Contractor",
    "contractor": "Waste Pro",
    "rowid": "973301",
    "final_x": "3695439.34883",
    "final_y": "559609.141917",
    "longitude": "-90.0230408527442",
    "latitude": "30.032299937511972",
    "geocoded_column": {
      "latitude": "30.032299937511972",
      "longitude": "-90.0230408527442"
    }
  },
  {
    "service_request": "2023-973300",
    "request_type": "Trash/Recycling",
    "request_reason": "Request a Large Item Pick Up",
    "date_created": "2023-02-06T14:31:21.000",
    "date_modified": "2023-02-06T14:31:21.000",
    "request_status": "Pending",
    "responsible_agency": "Department of Sanitation",
    "final_address": "4423 Constance St",
    "address_councildis": "B",
    "status": "Assigned to Contractor",
    "contractor": "Richards Disposal",
    "rowid": "973300",
    "final_x": "3670853.1282",
    "final_y": "518434.669366",
    "longitude": "-90.10213336317265",
    "latitude": "29.91983422922515",
    "geocoded_column": {
      "latitude": "29.91983422922515",
      "longitude": "-90.10213336317265"
    }
  },
  {
    "service_request": "2023-973299",
    "request_type": "Trash/Recycling",
    "request_reason": "Order Recycling Cart",
    "date_created": "2023-02-06T14:29:16.000",
    "date_modified": "2023-02-06T14:29:17.000",
    "request_status": "Pending",
    "responsible_agency": "Department of Sanitation",
    "final_address": "2315 Fourth St",
    "address_councildis": "B",
    "status": "Pending",
    "rowid": "973299",
    "final_x": "3674766.15867",
    "final_y": "524906.893116",
    "longitude": "-90.08956006208399",
    "latitude": "29.93751455971264",
    "geocoded_column": {
      "latitude": "29.93751455971264",
      "longitude": "-90.08956006208399"
    }
  },
  {
    "service_request": "2023-973298",
    "request_type": "Trash/Recycling",
    "request_reason": "Order Trash Cart",
    "date_created": "2023-02-06T14:28:39.000",
    "date_modified": "2023-02-06T14:28:40.000",
    "request_status": "Pending",
    "responsible_agency": "Department of Sanitation",
    "final_address": "2315 Fourth St",
    "address_councildis": "B",
    "status": "Assigned to Contractor",
    "contractor": "Richards Disposal",
    "rowid": "973298",
    "final_x": "3674766.15867",
    "final_y": "524906.893116",
    "longitude": "-90.08956006208399",
    "latitude": "29.93751455971264",
    "geocoded_column": {
      "latitude": "29.93751455971264",
      "longitude": "-90.08956006208399"
    }
  },
  {
    "service_request": "2023-973297",
    "request_type": "Trash/Recycling",
    "request_reason": "Request a Large Item Pick Up",
    "date_created": "2023-02-06T14:23:26.000",
    "date_modified": "2023-02-06T14:23:27.000",
    "request_status": "Pending",
    "responsible_agency": "Department of Sanitation",
    "final_address": "2324 St Ann St",
    "address_councildis": "D",
    "status": "Assigned to Contractor",
    "contractor": "Richards Disposal",
    "rowid": "973297",
    "final_x": "3678098.00379",
    "final_y": "536285.084743",
    "longitude": "-90.07864784691483",
    "latitude": "29.96870090560809",
    "geocoded_column": {
      "latitude": "29.96870090560809",
      "longitude": "-90.07864784691483"
    }
  },
  {
    "service_request": "2023-973296",
    "request_type": "Trash/Recycling",
    "request_reason": "Request a Large Item Pick Up",
    "date_created": "2023-02-06T14:22:38.000",
    "date_modified": "2023-02-06T14:22:39.000",
    "request_status": "Pending",
    "responsible_agency": "Department of Sanitation",
    "final_address": "1121 Piety St",
    "address_councildis": "C",
    "status": "Assigned to Contractor",
    "contractor": "IV Waste",
    "rowid": "973296",
    "final_x": "3689930.46057",
    "final_y": "536039.111687",
    "longitude": "-90.04128914600228",
    "latitude": "29.96766300340999",
    "geocoded_column": {
      "latitude": "29.96766300340999",
      "longitude": "-90.04128914600228"
    }
  },
  {
    "service_request": "2023-973295",
    "request_type": "Trash/Recycling",
    "request_reason": "MIssed Recycling Pick-Up",
    "date_created": "2023-02-06T14:19:02.000",
    "date_modified": "2023-02-06T14:19:02.000",
    "request_status": "Pending",
    "responsible_agency": "Department of Sanitation",
    "final_address": "2833 S Liberty St",
    "address_councildis": "B",
    "status": "Assigned to Contractor",
    "contractor": "Richards Disposal",
    "rowid": "973295",
    "final_x": "3674286.65134",
    "final_y": "524479.15078",
    "longitude": "-90.09108854333479",
    "latitude": "29.936352710840243",
    "geocoded_column": {
      "latitude": "29.936352710840243",
      "longitude": "-90.09108854333479"
    }
  },
  {
    "service_request": "2023-973293",
    "request_type": "Trash/Recycling",
    "request_reason": "Missed Trash Pick-Up",
    "date_created": "2023-02-06T14:17:11.000",
    "date_modified": "2023-02-06T14:17:11.000",
    "request_status": "Pending",
    "responsible_agency": "Department of Sanitation",
    "final_address": "5530 New England Dr",
    "address_councildis": "E",
    "status": "Assigned to Contractor",
    "contractor": "Waste Pro",
    "rowid": "973293",
    "final_x": "3723625.88582",
    "final_y": "563753.894689",
    "longitude": "-89.93381065186179",
    "latitude": "30.042779928847647",
    "geocoded_column": {
      "latitude": "30.042779928847647",
      "longitude": "-89.93381065186179"
    }
  },
  {
    "service_request": "2023-973292",
    "request_type": "Roads/Drainage",
    "request_reason": "Pothole",
    "date_created": "2023-02-06T14:14:09.000",
    "date_modified": "2023-02-06T14:14:09.000",
    "request_status": "Pending",
    "responsible_agency": "Department of Public Works",
    "final_address": "6900 BLK Orleans Ave",
    "address_councildis": "A",
    "status": "Pending",
    "rowid": "973292",
    "final_x": "3671466.18853",
    "final_y": "553440.809573",
    "longitude": "-90.0990079237775",
    "latitude": "30.016071227316434",
    "geocoded_column": {
      "latitude": "30.016071227316434",
      "longitude": "-90.0990079237775"
    }
  },
  {
    "service_request": "2023-973291",
    "request_type": "Trash/Recycling",
    "request_reason": "Repair Trash Cart",
    "date_created": "2023-02-06T14:13:41.000",
    "date_modified": "2023-02-06T14:13:42.000",
    "request_status": "Pending",
    "responsible_agency": "Department of Sanitation",
    "final_address": "4759 Rosalia Dr",
    "address_councildis": "E",
    "status": "Assigned to Contractor",
    "contractor": "Waste Pro",
    "rowid": "973291",
    "final_x": "3711250.90315",
    "final_y": "555951.987289",
    "longitude": "-89.97321288614319",
    "latitude": "30.021737570430474",
    "geocoded_column": {
      "latitude": "30.021737570430474",
      "longitude": "-89.97321288614319"
    }
  },
  {
    "service_request": "2023-973290",
    "request_type": "Trash/Recycling",
    "request_reason": "Replace Trash Cart",
    "date_created": "2023-02-06T14:12:29.000",
    "date_modified": "2023-02-06T14:12:30.000",
    "request_status": "Pending",
    "responsible_agency": "Department of Sanitation",
    "final_address": "2332 Iberville St",
    "address_councildis": "B",
    "status": "Assigned to Contractor",
    "contractor": "Richards Disposal",
    "rowid": "973290",
    "final_x": "3676731.4491",
    "final_y": "534558.061829",
    "longitude": "-90.083023021852",
    "latitude": "29.963993252806713",
    "geocoded_column": {
      "latitude": "29.963993252806713",
      "longitude": "-90.083023021852"
    }
  },
  {
    "service_request": "2023-973289",
    "request_type": "Trash/Recycling",
    "request_reason": "Missed Trash Pick-Up",
    "date_created": "2023-02-06T14:12:22.000",
    "date_modified": "2023-02-06T14:12:23.000",
    "request_status": "Pending",
    "responsible_agency": "Department of Sanitation",
    "final_address": "3304 Conti St",
    "address_councildis": "B",
    "status": "Assigned to Contractor",
    "contractor": "Richards Disposal",
    "rowid": "973289",
    "final_x": "3674208.3202",
    "final_y": "537399.121672",
    "longitude": "-90.09089356295742",
    "latitude": "29.971880669053185",
    "geocoded_column": {
      "latitude": "29.971880669053185",
      "longitude": "-90.09089356295742"
    }
  },
  {
    "service_request": "2023-973288",
    "request_type": "Trash/Recycling",
    "request_reason": "Repair Trash Cart",
    "date_created": "2023-02-06T14:10:25.000",
    "date_modified": "2023-02-06T14:10:26.000",
    "request_status": "Pending",
    "responsible_agency": "Department of Sanitation",
    "final_address": "5191 De Montluzin St",
    "address_councildis": "D",
    "status": "Assigned to Contractor",
    "contractor": "IV Waste",
    "rowid": "973288",
    "final_x": "3687088.87862",
    "final_y": "552012.973078",
    "longitude": "-90.04969778792577",
    "latitude": "30.011673209346938",
    "geocoded_column": {
      "latitude": "30.011673209346938",
      "longitude": "-90.04969778792577"
    }
  },
  {
    "service_request": "2023-973287",
    "request_type": "Roads/Drainage",
    "request_reason": "Street Flooding / Drainage",
    "date_created": "2023-02-06T14:09:32.000",
    "date_modified": "2023-02-06T14:09:32.000",
    "request_status": "Pending",
    "responsible_agency": "Department of Public Works",
    "final_address": "1625 Terpsichore St",
    "address_councildis": "B",
    "status": "Pending",
    "rowid": "973287",
    "final_x": "3678863.49378",
    "final_y": "525421.050173",
    "longitude": "-90.07660667948495",
    "latitude": "29.938805393521243",
    "geocoded_column": {
      "latitude": "29.938805393521243",
      "longitude": "-90.07660667948495"
    }
  },
  {
    "service_request": "2023-973286",
    "request_type": "Trash/Recycling",
    "request_reason": "Repair Trash Cart",
    "date_created": "2023-02-06T14:08:55.000",
    "date_modified": "2023-02-06T14:08:55.000",
    "request_status": "Pending",
    "responsible_agency": "Department of Sanitation",
    "final_address": "7617 Sycamore St",
    "address_councildis": "A",
    "status": "Assigned to Contractor",
    "contractor": "Richards Disposal",
    "rowid": "973286",
    "final_x": "3665551.48135",
    "final_y": "529917.488001",
    "longitude": "-90.11848385587831",
    "latitude": "29.95156389498944",
    "geocoded_column": {
      "latitude": "29.95156389498944",
      "longitude": "-90.11848385587831"
    }
  },
  {
    "service_request": "2023-973285",
    "request_type": "Trash/Recycling",
    "request_reason": "Request a Large Item Pick Up",
    "date_created": "2023-02-06T14:08:35.000",
    "date_modified": "2023-02-06T14:08:36.000",
    "request_status": "Pending",
    "responsible_agency": "Department of Sanitation",
    "final_address": "3323 Constance St, New Orleans, Louisiana, 70115",
    "address_councildis": "B",
    "status": "Assigned to Contractor",
    "contractor": "Richards Disposal",
    "rowid": "973285",
    "final_x": "3675353.47752",
    "final_y": "519399.017655",
    "longitude": "-90.08789485471031",
    "latitude": "29.922352146645018",
    "geocoded_column": {
      "latitude": "29.922352146645018",
      "longitude": "-90.08789485471031"
    }
  },
  {
    "service_request": "2023-973284",
    "request_type": "Trash/Recycling",
    "request_reason": "Missed Trash Pick-Up",
    "date_created": "2023-02-06T14:07:38.000",
    "date_modified": "2023-02-06T14:17:26.000",
    "request_status": "Pending",
    "responsible_agency": "Department of Sanitation",
    "final_address": "3323 Constance St, New Orleans, Louisiana, 70115",
    "address_councildis": "B",
    "status": "Assigned to Contractor",
    "contractor": "Richards Disposal",
    "rowid": "973284",
    "final_x": "3675353.47752",
    "final_y": "519399.017655",
    "longitude": "-90.08789485471031",
    "latitude": "29.922352146645018",
    "geocoded_column": {
      "latitude": "29.922352146645018",
      "longitude": "-90.08789485471031"
    }
  },
  {
    "service_request": "2023-973283",
    "request_type": "Roads/Drainage",
    "request_reason": "Pothole",
    "date_created": "2023-02-06T14:07:08.000",
    "date_modified": "2023-02-06T14:07:08.000",
    "request_status": "Pending",
    "responsible_agency": "Department of Public Works",
    "final_address": "8200 BLK Willow St",
    "address_councildis": "A",
    "status": "Pending",
    "rowid": "973283",
    "final_x": "3662038.30089",
    "final_y": "529255.579728",
    "longitude": "-90.12959878991529",
    "latitude": "29.949845811031704",
    "geocoded_column": {
      "latitude": "29.949845811031704",
      "longitude": "-90.12959878991529"
    }
  },
  {
    "service_request": "2023-973282",
    "request_type": "Trash/Recycling",
    "request_reason": "Replace Trash Cart",
    "date_created": "2023-02-06T14:07:00.000",
    "date_modified": "2023-02-06T14:07:01.000",
    "request_status": "Pending",
    "responsible_agency": "Department of Sanitation",
    "final_address": "1222 Broadway St",
    "address_councildis": "A",
    "status": "Assigned to Contractor",
    "contractor": "Richards Disposal",
    "rowid": "973282",
    "final_x": "3664228.51284",
    "final_y": "526677.931646",
    "longitude": "-90.12276923561986",
    "latitude": "29.942694659203937",
    "geocoded_column": {
      "latitude": "29.942694659203937",
      "longitude": "-90.12276923561986"
    }
  },
  {
    "service_request": "2023-973281",
    "request_type": "Trash/Recycling",
    "request_reason": "Repair Trash Cart",
    "date_created": "2023-02-06T14:06:54.000",
    "date_modified": "2023-02-06T14:06:55.000",
    "request_status": "Pending",
    "responsible_agency": "Department of Sanitation",
    "final_address": "3008 Conti St",
    "address_councildis": "B",
    "status": "Assigned to Contractor",
    "contractor": "Richards Disposal",
    "rowid": "973281",
    "final_x": "3674947.74088",
    "final_y": "536825.6706",
    "longitude": "-90.08857802620145",
    "latitude": "29.970281807121484",
    "geocoded_column": {
      "latitude": "29.970281807121484",
      "longitude": "-90.08857802620145"
    }
  },
  {
    "service_request": "2023-973280",
    "request_type": "Trash/Recycling",
    "request_reason": "Request a Large Item Pick Up",
    "date_created": "2023-02-06T14:04:37.000",
    "date_modified": "2023-02-06T14:04:37.000",
    "request_status": "Pending",
    "responsible_agency": "Department of Sanitation",
    "final_address": "2129 Cadiz St",
    "address_councildis": "B",
    "status": "Assigned to Contractor",
    "contractor": "Richards Disposal",
    "rowid": "973280",
    "final_x": "3669945.2091",
    "final_y": "522795.948859",
    "longitude": "-90.10485163536771",
    "latitude": "29.931853151836762",
    "geocoded_column": {
      "latitude": "29.931853151836762",
      "longitude": "-90.10485163536771"
    }
  },
  {
    "service_request": "2023-973279",
    "request_type": "Trash/Recycling",
    "request_reason": "Request a Large Item Pick Up",
    "date_created": "2023-02-06T14:03:30.000",
    "date_modified": "2023-02-06T14:03:31.000",
    "request_status": "Pending",
    "responsible_agency": "Department of Sanitation",
    "final_address": "3323 Constance St",
    "address_councildis": "B",
    "status": "Assigned to Contractor",
    "contractor": "Richards Disposal",
    "rowid": "973279",
    "final_x": "3675353.47752",
    "final_y": "519399.017655",
    "longitude": "-90.08789485471031",
    "latitude": "29.922352146645018",
    "geocoded_column": {
      "latitude": "29.922352146645018",
      "longitude": "-90.08789485471031"
    }
  },
  {
    "service_request": "2023-973278",
    "request_type": "Trash/Recycling",
    "request_reason": "MIssed Recycling Pick-Up",
    "date_created": "2023-02-06T14:03:24.000",
    "date_modified": "2023-02-06T14:03:25.000",
    "request_status": "Pending",
    "responsible_agency": "Department of Sanitation",
    "final_address": "6038 Carlisle Ct",
    "address_councildis": "C",
    "status": "Assigned to Contractor",
    "contractor": "Richards Disposal",
    "rowid": "973278",
    "final_x": "3706250.37227",
    "final_y": "516529.110133",
    "longitude": "-89.99047295698473",
    "latitude": "29.91350133148088",
    "geocoded_column": {
      "latitude": "29.91350133148088",
      "longitude": "-89.99047295698473"
    }
  },
  {
    "service_request": "2023-973277",
    "request_type": "Traffic Signals/Signs/Striping/Streetlights",
    "request_reason": "Traffic Sign Missing/Damaged",
    "date_created": "2023-02-06T13:57:28.000",
    "date_modified": "2023-02-06T13:57:28.000",
    "request_status": "Pending",
    "responsible_agency": "Department of Public Works",
    "final_address": "700 Piety St",
    "address_councildis": "C",
    "status": "Pending",
    "rowid": "973277",
    "final_x": "3689344.71446",
    "final_y": "534360.966853",
    "longitude": "-90.04319861100625",
    "latitude": "29.96306683973878",
    "geocoded_column": {
      "latitude": "29.96306683973878",
      "longitude": "-90.04319861100625"
    }
  },
  {
    "service_request": "2023-973276",
    "request_type": "Trash/Recycling",
    "request_reason": "MIssed Recycling Pick-Up",
    "date_created": "2023-02-06T13:55:33.000",
    "date_modified": "2023-02-06T13:55:34.000",
    "request_status": "Pending",
    "responsible_agency": "Department of Sanitation",
    "final_address": "7802 Mill St",
    "address_councildis": "E",
    "status": "Assigned to Contractor",
    "contractor": "Waste Pro",
    "rowid": "973276",
    "final_x": "3696360.33879",
    "final_y": "559603.585181",
    "longitude": "-90.02013067489715",
    "latitude": "30.032255668185496",
    "geocoded_column": {
      "latitude": "30.032255668185496",
      "longitude": "-90.02013067489715"
    }
  },
  {
    "service_request": "2023-973275",
    "request_type": "Trash/Recycling",
    "request_reason": "Repair Trash Cart",
    "date_created": "2023-02-06T13:53:02.000",
    "date_modified": "2023-02-06T13:53:02.000",
    "request_status": "Pending",
    "responsible_agency": "Department of Sanitation",
    "final_address": "1943 Odeon St",
    "address_councildis": "C",
    "status": "Assigned to Contractor",
    "contractor": "Richards Disposal",
    "rowid": "973275",
    "final_x": "3695840.00432",
    "final_y": "523983.5879",
    "longitude": "-90.02306210390793",
    "latitude": "29.93432997890751",
    "geocoded_column": {
      "latitude": "29.93432997890751",
      "longitude": "-90.02306210390793"
    }
  },
  {
    "service_request": "2023-973274",
    "request_type": "Trash/Recycling",
    "request_reason": "Request a Large Item Pick Up",
    "date_created": "2023-02-06T13:48:51.000",
    "date_modified": "2023-02-06T15:29:24.000",
    "case_close_date": "2023-02-06T09:29:24.000",
    "request_status": "Closed",
    "responsible_agency": "Department of Sanitation",
    "final_address": "5906 Marigny St",
    "address_councildis": "D",
    "status": "Assigned to Contractor",
    "contractor": "IV Waste",
    "contractor_action": "Completed",
    "rowid": "973274",
    "final_x": "3683900.45141",
    "final_y": "554698.42556",
    "longitude": "-90.05967704025576",
    "latitude": "30.019155049663656",
    "geocoded_column": {
      "latitude": "30.019155049663656",
      "longitude": "-90.05967704025576"
    }
  },
  {
    "service_request": "2023-973273",
    "request_type": "Trash/Recycling",
    "request_reason": "Replace Trash Cart",
    "date_created": "2023-02-06T13:43:49.000",
    "date_modified": "2023-02-06T13:43:50.000",
    "request_status": "Pending",
    "responsible_agency": "Department of Sanitation",
    "final_address": "9300 Olive St",
    "address_councildis": "A",
    "status": "Assigned to Contractor",
    "contractor": "Richards Disposal",
    "rowid": "973273",
    "final_x": "3664073.22112",
    "final_y": "537021.237768",
    "longitude": "-90.12291456256565",
    "latitude": "29.971139895718146",
    "geocoded_column": {
      "latitude": "29.971139895718146",
      "longitude": "-90.12291456256565"
    }
  },
  {
    "service_request": "2023-973272",
    "request_type": "Trash/Recycling",
    "request_reason": "Order Recycling Cart",
    "date_created": "2023-02-06T13:43:11.000",
    "date_modified": "2023-02-06T13:44:09.000",
    "request_status": "Pending",
    "responsible_agency": "Department of Sanitation",
    "final_address": "New Orleans,LA",
    "address_councildis": "A",
    "rowid": "973272",
    "final_x": "3676305.53217",
    "final_y": "537276.924168",
    "longitude": "-90.08427443633565",
    "latitude": "29.971481973276305",
    "geocoded_column": {
      "latitude": "29.971481973276305",
      "longitude": "-90.08427443633565"
    }
  },
  {
    "service_request": "2023-973271",
    "request_type": "Roads/Drainage",
    "request_reason": "Pothole",
    "date_created": "2023-02-06T13:41:34.000",
    "date_modified": "2023-02-06T13:42:04.000",
    "case_close_date": "2023-02-06T07:42:04.000",
    "request_status": "Closed",
    "responsible_agency": "Department of Public Works",
    "final_address": "1115 Nunez St",
    "address_councildis": "C",
    "status": "Resolved",
    "rowid": "973271",
    "final_x": "3686944.20143",
    "final_y": "527417.562751",
    "longitude": "-90.05102450239306",
    "latitude": "29.944048959308784",
    "geocoded_column": {
      "latitude": "29.944048959308784",
      "longitude": "-90.05102450239306"
    }
  },
  {
    "service_request": "2023-973270",
    "request_type": "Trash/Recycling",
    "request_reason": "Request a Large Item Pick Up",
    "date_created": "2023-02-06T13:41:11.000",
    "date_modified": "2023-02-06T13:41:12.000",
    "request_status": "Pending",
    "responsible_agency": "Department of Sanitation",
    "final_address": "7803 Shubert St",
    "address_councildis": "E",
    "status": "Assigned to Contractor",
    "contractor": "Waste Pro",
    "rowid": "973270",
    "final_x": "3695625.43069",
    "final_y": "559337.128413",
    "longitude": "-90.02246265748587",
    "latitude": "30.031546152321695",
    "geocoded_column": {
      "latitude": "30.031546152321695",
      "longitude": "-90.02246265748587"
    }
  },
  {
    "service_request": "2023-973269",
    "request_type": "Traffic Signals/Signs/Striping/Streetlights",
    "request_reason": "Street Light Outage/Malfunction",
    "date_created": "2023-02-06T13:39:45.000",
    "date_modified": "2023-02-06T13:39:45.000",
    "request_status": "Pending",
    "responsible_agency": "Department of Public Works",
    "final_address": "1037 Allen Toussaint Blvd",
    "address_councildis": "D",
    "status": "Assigned to Contractor",
    "contractor": "Legacy Professional Services",
    "rowid": "973269",
    "final_x": "3673226.12635",
    "final_y": "554457.090904",
    "longitude": "-90.09341254217539",
    "latitude": "30.018813391253786",
    "geocoded_column": {
      "latitude": "30.018813391253786",
      "longitude": "-90.09341254217539"
    }
  },
  {
    "service_request": "2023-973268",
    "request_type": "Trash/Recycling",
    "request_reason": "Missed Trash Pick-Up",
    "date_created": "2023-02-06T13:39:20.000",
    "date_modified": "2023-02-06T13:39:21.000",
    "request_status": "Pending",
    "responsible_agency": "Department of Sanitation",
    "final_address": "3951 Camp St",
    "address_councildis": "B",
    "status": "Assigned to Contractor",
    "contractor": "Richards Disposal",
    "rowid": "973268",
    "final_x": "3672573.44404",
    "final_y": "519365.668151",
    "longitude": "-90.0966714385185",
    "latitude": "29.92234323980825",
    "geocoded_column": {
      "latitude": "29.92234323980825",
      "longitude": "-90.0966714385185"
    }
  },
  {
    "service_request": "2023-973267",
    "request_type": "Trash/Recycling",
    "request_reason": "Repair Trash Cart",
    "date_created": "2023-02-06T13:38:35.000",
    "date_modified": "2023-02-06T13:38:35.000",
    "request_status": "Pending",
    "responsible_agency": "Department of Sanitation",
    "final_address": "3951 Camp St",
    "address_councildis": "B",
    "status": "Assigned to Contractor",
    "contractor": "Richards Disposal",
    "rowid": "973267",
    "final_x": "3672573.44404",
    "final_y": "519365.668151",
    "longitude": "-90.0966714385185",
    "latitude": "29.92234323980825",
    "geocoded_column": {
      "latitude": "29.92234323980825",
      "longitude": "-90.0966714385185"
    }
  },
  {
    "service_request": "2023-973266",
    "request_type": "Trash/Recycling",
    "request_reason": "Replace Recycling Cart",
    "date_created": "2023-02-06T13:37:27.000",
    "date_modified": "2023-02-06T13:37:27.000",
    "request_status": "Pending",
    "responsible_agency": "Department of Sanitation",
    "final_address": "3951 Camp St",
    "address_councildis": "B",
    "status": "Pending",
    "rowid": "973266",
    "final_x": "3672573.44404",
    "final_y": "519365.668151",
    "longitude": "-90.0966714385185",
    "latitude": "29.92234323980825",
    "geocoded_column": {
      "latitude": "29.92234323980825",
      "longitude": "-90.0966714385185"
    }
  },
  {
    "service_request": "2023-973265",
    "request_type": "Traffic Signals/Signs/Striping/Streetlights",
    "request_reason": "Street Light Outage/Malfunction",
    "date_created": "2023-02-06T13:36:53.000",
    "date_modified": "2023-02-06T13:36:54.000",
    "request_status": "Pending",
    "responsible_agency": "Department of Public Works",
    "final_address": "2647 Ramsey Dr",
    "address_councildis": "C",
    "status": "Assigned to Contractor",
    "contractor": "Legacy Professional Services",
    "rowid": "973265",
    "final_x": "3703067.58705",
    "final_y": "521132.230841",
    "longitude": "-90.00034972690618",
    "latitude": "29.926260507923722",
    "geocoded_column": {
      "latitude": "29.926260507923722",
      "longitude": "-90.00034972690618"
    }
  },
  {
    "service_request": "2023-973263",
    "request_type": "Trash/Recycling",
    "request_reason": "Request a Large Item Pick Up",
    "date_created": "2023-02-06T13:31:53.000",
    "date_modified": "2023-02-06T13:31:53.000",
    "request_status": "Pending",
    "responsible_agency": "Department of Sanitation",
    "final_address": "86 Fontainebleau Dr",
    "address_councildis": "A",
    "status": "Assigned to Contractor",
    "contractor": "Richards Disposal",
    "rowid": "973263",
    "final_x": "3666910.29447",
    "final_y": "530715.840898",
    "longitude": "-90.11416654538185",
    "latitude": "29.953719422193565",
    "geocoded_column": {
      "latitude": "29.953719422193565",
      "longitude": "-90.11416654538185"
    }
  },
  {
    "service_request": "2023-973262",
    "request_type": "Trash/Recycling",
    "request_reason": "Missed Trash Pick-Up",
    "date_created": "2023-02-06T13:30:08.000",
    "date_modified": "2023-02-06T13:30:09.000",
    "request_status": "Pending",
    "responsible_agency": "Department of Sanitation",
    "final_address": "7542 Scottwood Dr",
    "address_councildis": "E",
    "status": "Assigned to Contractor",
    "contractor": "Waste Pro",
    "rowid": "973262",
    "final_x": "3717479.99135",
    "final_y": "570321.060455",
    "longitude": "-89.95298390021838",
    "latitude": "30.06104190130109",
    "geocoded_column": {
      "latitude": "30.06104190130109",
      "longitude": "-89.95298390021838"
    }
  },
  {
    "service_request": "2023-973261",
    "request_type": "Trash/Recycling",
    "request_reason": "MIssed Recycling Pick-Up",
    "date_created": "2023-02-06T13:29:19.000",
    "date_modified": "2023-02-06T15:28:19.000",
    "request_status": "Pending",
    "responsible_agency": "Department of Sanitation",
    "final_address": "7140 Queensway Dr",
    "address_councildis": "E",
    "contractor": "Waste Pro",
    "rowid": "973261",
    "final_x": "3718814.50233",
    "final_y": "569823.496614",
    "longitude": "-89.94878459114724",
    "latitude": "30.059629536896672",
    "geocoded_column": {
      "latitude": "30.059629536896672",
      "longitude": "-89.94878459114724"
    }
  },