[
  {
    "service_request": "2025-1171807",
    "request_type": "Roads and Streets",
    "request_reason": "Sidewalk Damaged or Missing",
    "date_created": "2025-02-26T23:10:25.000",
    "date_modified": "2025-02-26T23:10:27.000",
    "request_status": "Pending",
    "responsible_agency": "Department of Public Works",
    "final_address": "400 N Carrollton Ave",
    "address_councildis": "A",
    "status": "Pending",
    "rowid": "1171807",
    "final_x": "3672315.02676",
    "final_y": "539084.368074",
    "longitude": "-90.09681546128527",
    "latitude": "29.976570837739217",
    "geocoded_column": {
      "latitude": "29.976570837739217",
      "longitude": "-90.09681546128527"
    }
  },
  {
    "service_request": "2025-1171806",
    "request_type": "Streetlights",
    "request_reason": "Streetlight Outage/Malfunction",
    "date_created": "2025-02-26T22:28:00.000",
    "date_modified": "2025-02-26T22:28:01.000",
    "request_status": "Pending",
    "responsible_agency": "Department of Public Works",
    "final_address": "827 St Charles Ave",
    "address_councildis": "B",
    "status": "Pending",
    "contractor": "Legacy Professional Services",
    "rowid": "1171806",
    "final_x": "3680295.83919",
    "final_y": "527806.738879",
    "longitude": "-90.07200169592296",
    "latitude": "29.945321969188562",
    "geocoded_column": {
      "latitude": "29.945321969188562",
      "longitude": "-90.07200169592296"
    }
  },
  {
    "service_request": "2025-1171805",
    "request_type": "Trash/Recycling",
    "request_reason": "Order Trash Cart",
    "date_created": "2025-02-26T22:00:04.000",
    "date_modified": "2025-02-26T22:00:12.000",
    "request_status": "Pending",
    "responsible_agency": "Department of Sanitation",
    "final_address": "5401 Mckenna St",
    "address_councildis": "A",
    "status": "Assigned to Contractor",
    "contractor": "IV Waste",
    "rowid": "1171805",
    "final_x": "3668914.12334",
    "final_y": "529009.187648",
    "longitude": "-90.10789690099182",
    "latitude": "29.948967907348113",
    "geocoded_column": {
      "latitude": "29.948967907348113",
      "longitude": "-90.10789690099182"
    }
  },
  {
    "service_request": "2025-1171804",
    "request_type": "Trash/Recycling",
    "request_reason": "Order Recycling Cart",
    "date_created": "2025-02-26T21:59:04.000",
    "date_modified": "2025-02-26T21:59:05.000",
    "request_status": "Pending",
    "responsible_agency": "Department of Sanitation",
    "final_address": "5401 Mckenna St",
    "address_councildis": "A",
    "status": "Pending",
    "rowid": "1171804",
    "final_x": "3668914.12334",
    "final_y": "529009.187648",
    "longitude": "-90.10789690099182",
    "latitude": "29.948967907348113",
    "geocoded_column": {
      "latitude": "29.948967907348113",
      "longitude": "-90.10789690099182"
    }
  },
  {
    "service_request": "2025-1171803",
    "request_type": "Trash/Recycling",
    "request_reason": "Request a Large Item Pick Up",
    "date_created": "2025-02-26T21:04:28.000",
    "date_modified": "2025-02-26T21:04:32.000",
    "request_status": "Pending",
    "responsible_agency": "Department of Sanitation",
    "final_address": "4648 Lafon Dr",
    "address_councildis": "E",
    "status": "Assigned to Contractor",
    "contractor": "Waste Pro",
    "rowid": "1171803",
    "final_x": "3701120.12868",
    "final_y": "553727.447767",
    "longitude": "-90.00530471953822",
    "latitude": "30.01594769647007",
    "geocoded_column": {
      "latitude": "30.01594769647007",
      "longitude": "-90.00530471953822"
    }
  },
  {
    "service_request": "2025-1171802",
    "request_type": "Streetlights",
    "request_reason": "Streetlight Outage/Malfunction",
    "date_created": "2025-02-26T20:14:29.000",
    "date_modified": "2025-02-26T20:14:30.000",
    "request_status": "Pending",
    "responsible_agency": "Department of Public Works",
    "final_address": "5961 General Diaz St",
    "address_councildis": "A",
    "status": "Pending",
    "contractor": "Legacy Professional Services",
    "rowid": "1171802",
    "final_x": "3669573.68135",
    "final_y": "546987.167633",
    "longitude": "-90.10520597689062",
    "latitude": "29.998381891961117",
    "geocoded_column": {
      "latitude": "29.998381891961117",
      "longitude": "-90.10520597689062"
    }
  },
  {
    "service_request": "2025-1171801",
    "request_type": "Traffic Signals",
    "request_reason": "Traffic Signal Malfunctioning or Damaged",
    "date_created": "2025-02-26T20:02:20.000",
    "date_modified": "2025-02-26T20:02:22.000",
    "request_status": "Pending",
    "responsible_agency": "Department of Public Works",
    "final_address": "5924 Tullis Dr",
    "address_councildis": "C",
    "status": "Pending",
    "rowid": "1171801",
    "final_x": "3706347.40862",
    "final_y": "513843.96581",
    "longitude": "-89.9902660216389",
    "latitude": "29.90611498061661",
    "geocoded_column": {
      "latitude": "29.90611498061661",
      "longitude": "-89.9902660216389"
    }
  },
  {
    "service_request": "2025-1171800",
    "request_type": "Abandoned Vehicles",
    "request_reason": "Abandoned/Junk Vehicles",
    "date_created": "2025-02-26T20:01:17.000",
    "date_modified": "2025-02-26T20:01:19.000",
    "request_status": "Pending",
    "responsible_agency": "Department of Public Works",
    "final_address": "2763 Banks St",
    "address_councildis": "B",
    "status": "Pending",
    "rowid": "1171800",
    "final_x": "3674242.81416",
    "final_y": "534518.297157",
    "longitude": "-90.09088327736426",
    "latitude": "29.96395834656929",
    "geocoded_column": {
      "latitude": "29.96395834656929",
      "longitude": "-90.09088327736426"
    }
  },
  {
    "service_request": "2025-1171799",
    "request_type": "Abandoned Vehicles",
    "request_reason": "Abandoned/Junk Vehicles",
    "date_created": "2025-02-26T20:01:04.000",
    "date_modified": "2025-02-26T20:01:05.000",
    "request_status": "Pending",
    "responsible_agency": "Department of Public Works",
    "final_address": "2763 Banks St",
    "address_councildis": "B",
    "status": "Pending",
    "rowid": "1171799",
    "final_x": "3674242.81416",
    "final_y": "534518.297157",
    "longitude": "-90.09088327736426",
    "latitude": "29.96395834656929",
    "geocoded_column": {
      "latitude": "29.96395834656929",
      "longitude": "-90.09088327736426"
    }
  },
  {
    "service_request": "2025-1171798",
    "request_type": "Traffic Signals",
    "request_reason": "Traffic Signal Malfunctioning or Damaged",
    "date_created": "2025-02-26T20:00:08.000",
    "date_modified": "2025-02-26T20:00:10.000",
    "request_status": "Pending",
    "responsible_agency": "Department of Public Works",
    "final_address": "5924 Tullis Dr",
    "address_councildis": "C",
    "status": "Pending",
    "rowid": "1171798",
    "final_x": "3706347.40862",
    "final_y": "513843.96581",
    "longitude": "-89.9902660216389",
    "latitude": "29.90611498061661",
    "geocoded_column": {
      "latitude": "29.90611498061661",
      "longitude": "-89.9902660216389"
    }
  },
  {
    "service_request": "2025-1171797",
    "request_type": "Streetlights",
    "request_reason": "Streetlight Outage/Malfunction",
    "date_created": "2025-02-26T19:58:48.000",
    "date_modified": "2025-02-26T19:58:49.000",
    "request_status": "Pending",
    "responsible_agency": "Department of Public Works",
    "final_address": "5954 General Diaz St",
    "address_councildis": "A",
    "status": "Pending",
    "contractor": "Legacy Professional Services",
    "rowid": "1171797",
    "final_x": "3669390.2249",
    "final_y": "546985.603089",
    "longitude": "-90.10578556999916",
    "latitude": "29.99838299539543",
    "geocoded_column": {
      "latitude": "29.99838299539543",
      "longitude": "-90.10578556999916"
    }
  },
  {
    "service_request": "2025-1171796",
    "request_type": "Trash/Recycling",
    "request_reason": "Request a Large Item Pick Up",
    "date_created": "2025-02-26T19:53:01.000",
    "date_modified": "2025-02-26T19:53:03.000",
    "request_status": "Pending",
    "responsible_agency": "Department of Sanitation",
    "final_address": "4211 Tchoupitoulas St",
    "address_councildis": "B",
    "status": "Assigned to Contractor",
    "contractor": "IV Waste",
    "rowid": "1171796",
    "final_x": "3671831.70337",
    "final_y": "517561.264374",
    "longitude": "-90.09907416865757",
    "latitude": "29.917403694404722",
    "geocoded_column": {
      "latitude": "29.917403694404722",
      "longitude": "-90.09907416865757"
    }
  },
  {
    "service_request": "2025-1171795",
    "request_type": "Health Related Request",
    "request_reason": "Noise Ordinance Complaint",
    "date_created": "2025-02-26T19:51:32.000",
    "date_modified": "2025-02-26T19:51:34.000",
    "request_status": "Pending",
    "responsible_agency": "Health Department",
    "final_address": "627 Bourbon St, New Orleans, Louisiana, 70130",
    "address_councildis": "C",
    "status": "Pending",
    "rowid": "1171795",
    "final_x": "3682141.6317",
    "final_y": "532568.551812",
    "longitude": "-90.06600766166021",
    "latitude": "29.958359346530433",
    "geocoded_column": {
      "latitude": "29.958359346530433",
      "longitude": "-90.06600766166021"
    }
  },
  {
    "service_request": "2025-1171794",
    "request_type": "Trash/Recycling",
    "request_reason": "Request a Large Item Pick Up",
    "date_created": "2025-02-26T19:49:45.000",
    "date_modified": "2025-02-26T19:49:48.000",
    "request_status": "Pending",
    "responsible_agency": "Department of Sanitation",
    "final_address": "822 Lamanche St",
    "address_councildis": "E",
    "status": "Assigned to Contractor",
    "contractor": "Waste Pro",
    "rowid": "1171794",
    "final_x": "3698064.07011",
    "final_y": "532747.256388",
    "longitude": "-90.01572269521631",
    "latitude": "29.958356884530023",
    "geocoded_column": {
      "latitude": "29.958356884530023",
      "longitude": "-90.01572269521631"
    }
  },
  {
    "service_request": "2025-1171793",
    "request_type": "Abandoned Vehicles",
    "request_reason": "Abandoned/Junk Vehicles",
    "date_created": "2025-02-26T19:46:05.000",
    "date_modified": "2025-02-26T19:46:07.000",
    "request_status": "Pending",
    "responsible_agency": "Department of Public Works",
    "final_address": "2761 Banks St",
    "address_councildis": "B",
    "status": "Pending",
    "rowid": "1171793",
    "final_x": "3674252.60635",
    "final_y": "534513.144389",
    "longitude": "-90.09085253092961",
    "latitude": "29.963943886233192",
    "geocoded_column": {
      "latitude": "29.963943886233192",
      "longitude": "-90.09085253092961"
    }
  },
  {
    "service_request": "2025-1171792",
    "request_type": "Mosquito, Termite & Rodent Control",
    "request_reason": "Rodent Complaint (Rats)",
    "date_created": "2025-02-26T19:41:59.000",
    "date_modified": "2025-02-26T19:42:01.000",
    "request_status": "Pending",
    "responsible_agency": "Mosquito, Termite & Rodent Control Board",
    "final_address": "907 Charbonnet St",
    "address_councildis": "E",
    "status": "Pending",
    "rowid": "1171792",
    "final_x": "3698499.75536",
    "final_y": "532935.242372",
    "longitude": "-90.01434009376521",
    "latitude": "29.958859996379196",
    "geocoded_column": {
      "latitude": "29.958859996379196",
      "longitude": "-90.01434009376521"
    }
  },
  {
    "service_request": "2025-1171791",
    "request_type": "Mosquito, Termite & Rodent Control",
    "request_reason": "Rodent Complaint (Rats)",
    "date_created": "2025-02-26T19:40:14.000",
    "date_modified": "2025-02-26T19:40:16.000",
    "request_status": "Pending",
    "responsible_agency": "Mosquito, Termite & Rodent Control Board",
    "final_address": "911 Charbonnet St",
    "address_councildis": "E",
    "status": "Pending",
    "rowid": "1171791",
    "final_x": "3698511.47453",
    "final_y": "532978.644932",
    "longitude": "-90.01430151012606",
    "latitude": "29.958978967077407",
    "geocoded_column": {
      "latitude": "29.958978967077407",
      "longitude": "-90.01430151012606"
    }
  },
  {
    "service_request": "2025-1171790",
    "request_type": "Abandoned Vehicles",
    "request_reason": "Abandoned/Junk Vehicles",
    "date_created": "2025-02-26T19:38:18.000",
    "date_modified": "2025-02-26T19:50:59.000",
    "request_status": "Pending",
    "responsible_agency": "Department of Public Works",
    "final_address": "N RAMPART ST & CHARBONNET ST",
    "address_councildis": "E",
    "status": "Pending",
    "rowid": "1171790",
    "final_x": "3698515.6",
    "final_y": "533180.58",
    "longitude": "-90.01428114248681",
    "latitude": "29.95953408623075",
    "geocoded_column": {
      "latitude": "29.95953408623075",
      "longitude": "-90.01428114248681"
    }
  },
  {
    "service_request": "2025-1171789",
    "request_type": "Roads and Streets",
    "request_reason": "Push-up/Pavement Expansion",
    "date_created": "2025-02-26T18:48:43.000",
    "date_modified": "2025-02-26T18:48:44.000",
    "request_status": "Pending",
    "responsible_agency": "Department of Public Works",
    "final_address": "I 610 W & GENTILLY BLVD",
    "address_councildis": "D",
    "status": "Pending",
    "rowid": "1171789",
    "final_x": "3680526.7",
    "final_y": "544375.37",
    "longitude": "-90.07069634845135",
    "latitude": "29.990873028093365",
    "geocoded_column": {
      "latitude": "29.990873028093365",
      "longitude": "-90.07069634845135"
    }
  },
  {
    "service_request": "2025-1171788",
    "request_type": "Streetlights",
    "request_reason": "Streetlight Outage/Malfunction",
    "date_created": "2025-02-26T18:44:23.000",
    "date_modified": "2025-02-26T18:44:24.000",
    "request_status": "Pending",
    "responsible_agency": "Department of Public Works",
    "final_address": "201 Roselyn Park Pl",
    "address_councildis": "C",
    "status": "Pending",
    "contractor": "Legacy Professional Services",
    "rowid": "1171788",
    "final_x": "3702588.53079",
    "final_y": "523558.903675",
    "longitude": "-90.00177294112547",
    "latitude": "29.932948329970436",
    "geocoded_column": {
      "latitude": "29.932948329970436",
      "longitude": "-90.00177294112547"
    }
  },
  {
    "service_request": "2025-1171787",
    "request_type": "Trash/Recycling",
    "request_reason": "Return Recycling Cart",
    "date_created": "2025-02-26T18:42:34.000",
    "date_modified": "2025-02-26T18:42:36.000",
    "request_status": "Pending",
    "responsible_agency": "Department of Sanitation",
    "final_address": "4904 Baronne St",
    "address_councildis": "B",
    "status": "Pending",
    "rowid": "1171787",
    "final_x": "3669014.02574",
    "final_y": "521387.997689",
    "longitude": "-90.10783882697797",
    "latitude": "29.92800915399018",
    "geocoded_column": {
      "latitude": "29.92800915399018",
      "longitude": "-90.10783882697797"
    }
  },
  {
    "service_request": "2025-1171786",
    "request_type": "Streetlights",
    "request_reason": "Streetlight Outage/Malfunction",
    "date_created": "2025-02-26T18:41:23.000",
    "date_modified": "2025-02-26T18:41:24.000",
    "request_status": "Pending",
    "responsible_agency": "Department of Public Works",
    "final_address": "201 Roselyn Park Pl",
    "address_councildis": "C",
    "status": "Pending",
    "contractor": "Legacy Professional Services",
    "rowid": "1171786",
    "final_x": "3702588.53079",
    "final_y": "523558.903675",
    "longitude": "-90.00177294112547",
    "latitude": "29.932948329970436",
    "geocoded_column": {
      "latitude": "29.932948329970436",
      "longitude": "-90.00177294112547"
    }
  },
  {
    "service_request": "2025-1171785",
    "request_type": "Roads and Streets",
    "request_reason": "Street Subsidence (Sinking)",
    "date_created": "2025-02-26T18:37:41.000",
    "date_modified": "2025-02-26T18:43:01.000",
    "request_status": "Pending",
    "responsible_agency": "Department of Public Works",
    "final_address": "1900 BLK Gentilly Blvd",
    "address_councildis": "A",
    "status": "Pending",
    "rowid": "1171785",
    "final_x": "3679072.35179",
    "final_y": "543297.336749",
    "longitude": "-90.07532767098454",
    "latitude": "29.987952800017563",
    "geocoded_column": {
      "latitude": "29.987952800017563",
      "longitude": "-90.07532767098454"
    }
  },
  {
    "service_request": "2025-1171784",
    "request_type": "Abandoned Vehicles",
    "request_reason": "Abandoned/Junk Vehicles",
    "date_created": "2025-02-26T18:34:35.000",
    "date_modified": "2025-02-26T18:34:37.000",
    "request_status": "Pending",
    "responsible_agency": "Department of Public Works",
    "final_address": "811 Jewel St",
    "address_councildis": "D",
    "status": "Pending",
    "rowid": "1171784",
    "final_x": "3670495.59553",
    "final_y": "556050.141209",
    "longitude": "-90.10198598074199",
    "latitude": "30.02327467255748",
    "geocoded_column": {
      "latitude": "30.02327467255748",
      "longitude": "-90.10198598074199"
    }
  },
  {
    "service_request": "2025-1171783",
    "request_type": "General Services",
    "request_reason": "General Service Request",
    "date_created": "2025-02-26T18:31:02.000",
    "date_modified": "2025-02-26T18:31:03.000",
    "request_status": "Pending",
    "responsible_agency": "Orleans Parish Communication District",
    "final_address": "1722 Jackson Ave",
    "address_councildis": "B",
    "status": "Pending",
    "rowid": "1171783",
    "final_x": "3677241.93698",
    "final_y": "524111.458812",
    "longitude": "-90.0817712788119",
    "latitude": "29.935253250327126",
    "geocoded_column": {
      "latitude": "29.935253250327126",
      "longitude": "-90.0817712788119"
    }
  },
  {
    "service_request": "2025-1171782",
    "request_type": "Abandoned Vehicles",
    "request_reason": "Abandoned/Junk Vehicles",
    "date_created": "2025-02-26T18:30:01.000",
    "date_modified": "2025-02-26T18:30:04.000",
    "request_status": "Pending",
    "responsible_agency": "Department of Public Works",
    "final_address": "811 Jewel St",
    "address_councildis": "D",
    "status": "Pending",
    "rowid": "1171782",
    "final_x": "3670495.59553",
    "final_y": "556050.141209",
    "longitude": "-90.10198598074199",
    "latitude": "30.02327467255748",
    "geocoded_column": {
      "latitude": "30.02327467255748",
      "longitude": "-90.10198598074199"
    }
  },
  {
    "service_request": "2025-1171781",
    "request_type": "Alley Ways",
    "request_reason": "Alley Way Regrading",
    "date_created": "2025-02-26T18:20:55.000",
    "date_modified": "2025-02-26T18:20:57.000",
    "request_status": "Pending",
    "responsible_agency": "Department of Public Works",
    "final_address": "6416 Louisville St",
    "address_councildis": "A",
    "status": "Pending",
    "rowid": "1171781",
    "final_x": "3667966.55258",
    "final_y": "550276.707284",
    "longitude": "-90.11017198072554",
    "latitude": "30.007474250247903",
    "geocoded_column": {
      "latitude": "30.007474250247903",
      "longitude": "-90.11017198072554"
    }
  },
  {
    "service_request": "2025-1171780",
    "request_type": "Trash/Recycling",
    "request_reason": "Illegal Dumping",
    "date_created": "2025-02-26T18:17:08.000",
    "date_modified": "2025-02-26T18:17:10.000",
    "request_status": "Pending",
    "responsible_agency": "Department of Sanitation",
    "final_address": "7700 BLK S Coronet Ct",
    "address_councildis": "E",
    "status": "Pending",
    "rowid": "1171780",
    "final_x": "3702661.28624",
    "final_y": "557229.069385",
    "longitude": "-90.00030667602594",
    "latitude": "30.02552660707308",
    "geocoded_column": {
      "latitude": "30.02552660707308",
      "longitude": "-90.00030667602594"
    }
  },
  {
    "service_request": "2025-1171779",
    "request_type": "Property Maintenance",
    "request_reason": "Property Maintenance",
    "date_created": "2025-02-26T18:16:28.000",
    "date_modified": "2025-02-26T18:16:30.000",
    "request_status": "Pending",
    "responsible_agency": "Department of Code Enforcement",
    "final_address": "7289 Canal Blvd",
    "address_councildis": "D",
    "status": "Pending",
    "rowid": "1171779",
    "final_x": "3669382.17786",
    "final_y": "555493.860761",
    "longitude": "-90.10552298733997",
    "latitude": "30.02177795228603",
    "geocoded_column": {
      "latitude": "30.02177795228603",
      "longitude": "-90.10552298733997"
    }
  },
  {
    "service_request": "2025-1171778",
    "request_type": "Roads and Streets",
    "request_reason": "Sidewalk Damaged or Missing",
    "date_created": "2025-02-26T18:00:05.000",
    "date_modified": "2025-02-26T18:00:08.000",
    "request_status": "Pending",
    "responsible_agency": "Department of Public Works",
    "final_address": "2814 George Nick Connor Dr",
    "address_councildis": "D",
    "status": "Pending",
    "rowid": "1171778",
    "final_x": "3680998.15688",
    "final_y": "542856.759501",
    "longitude": "-90.06926004919573",
    "latitude": "29.98668309038838",
    "geocoded_column": {
      "latitude": "29.98668309038838",
      "longitude": "-90.06926004919573"
    }
  },
  {
    "service_request": "2025-1171777",
    "request_type": "Trash/Recycling",
    "request_reason": "Request a Large Item Pick Up",
    "date_created": "2025-02-26T17:43:59.000",
    "date_modified": "2025-02-26T17:44:02.000",
    "request_status": "Pending",
    "responsible_agency": "Department of Sanitation",
    "final_address": "6070 Annunciation St",
    "address_councildis": "A",
    "status": "Assigned to Contractor",
    "contractor": "IV Waste",
    "rowid": "1171777",
    "final_x": "3663670.40851",
    "final_y": "518023.069366",
    "longitude": "-90.12481951106739",
    "latitude": "29.918912718032427",
    "geocoded_column": {
      "latitude": "29.918912718032427",
      "longitude": "-90.12481951106739"
    }
  },
  {
    "service_request": "2025-1171776",
    "request_type": "Trash/Recycling",
    "request_reason": "Repair Recycling Cart",
    "date_created": "2025-02-26T17:34:15.000",
    "date_modified": "2025-02-26T17:34:16.000",
    "request_status": "Pending",
    "responsible_agency": "Department of Sanitation",
    "final_address": "1424 Arabella St",
    "address_councildis": "A",
    "status": "Pending",
    "rowid": "1171776",
    "final_x": "3666262.52308",
    "final_y": "521122.607737",
    "longitude": "-90.11653361927125",
    "latitude": "29.927360045598025",
    "geocoded_column": {
      "latitude": "29.927360045598025",
      "longitude": "-90.11653361927125"
    }
  },
  {
    "service_request": "2025-1171775",
    "request_type": "Trash/Recycling",
    "request_reason": "Repair Recycling Cart",
    "date_created": "2025-02-26T17:15:46.000",
    "date_modified": "2025-02-26T17:15:49.000",
    "request_status": "Pending",
    "responsible_agency": "Department of Sanitation",
    "final_address": "5825 W Louis Prima Dr",
    "address_councildis": "E",
    "status": "Pending",
    "rowid": "1171775",
    "final_x": "3715550.6165",
    "final_y": "562695.269792",
    "longitude": "-89.95937158999101",
    "latitude": "30.040137863219535",
    "geocoded_column": {
      "latitude": "30.040137863219535",
      "longitude": "-89.95937158999101"
    }
  },
  {
    "service_request": "2025-1171774",
    "request_type": "Drainage",
    "request_reason": "Street Flooding",
    "date_created": "2025-02-26T17:01:39.000",
    "date_modified": "2025-02-26T17:01:41.000",
    "request_status": "Pending",
    "responsible_agency": "Sewerage & Water Board ",
    "final_address": "3340 Dickens Dr",
    "address_councildis": "C",
    "status": "Pending",
    "rowid": "1171774",
    "final_x": "3708339.71806",
    "final_y": "518330.50047",
    "longitude": "-89.9838114265212",
    "latitude": "29.918387034837004",
    "geocoded_column": {
      "latitude": "29.918387034837004",
      "longitude": "-89.9838114265212"
    }
  },
  {
    "service_request": "2025-1171773",
    "request_type": "Streetlights",
    "request_reason": "Streetlight Outage/Malfunction",
    "date_created": "2025-02-26T16:55:56.000",
    "date_modified": "2025-02-26T16:55:57.000",
    "request_status": "Pending",
    "responsible_agency": "Department of Public Works",
    "final_address": "3375 Roger Williams St",
    "address_councildis": "D",
    "status": "Pending",
    "contractor": "Legacy Professional Services",
    "rowid": "1171773",
    "final_x": "3677037.12238",
    "final_y": "544049.148558",
    "longitude": "-90.08173034845795",
    "latitude": "29.99008130308076",
    "geocoded_column": {
      "latitude": "29.99008130308076",
      "longitude": "-90.08173034845795"
    }
  },
  {
    "service_request": "2025-1171772",
    "request_type": "Trash/Recycling",
    "request_reason": "Request a Large Item Pick Up",
    "date_created": "2025-02-26T16:54:47.000",
    "date_modified": "2025-02-26T16:55:09.000",
    "request_status": "Pending",
    "responsible_agency": "Department of Sanitation",
    "final_address": "4420 General Pershing St",
    "address_councildis": "B",
    "status": "Assigned to Contractor",
    "contractor": "IV Waste",
    "rowid": "1171772",
    "final_x": "3669234.35252",
    "final_y": "529803.132097",
    "longitude": "-90.10685896331229",
    "latitude": "29.951141574259584",
    "geocoded_column": {
      "latitude": "29.951141574259584",
      "longitude": "-90.10685896331229"
    }
  },
  {
    "service_request": "2025-1171771",
    "request_type": "Trash/Recycling",
    "request_reason": "Request a Large Item Pick Up",
    "date_created": "2025-02-26T16:51:40.000",
    "date_modified": "2025-02-26T16:51:41.000",
    "request_status": "Pending",
    "responsible_agency": "Department of Sanitation",
    "final_address": "860 Taft Pl",
    "address_councildis": "A",
    "status": "Assigned to Contractor",
    "contractor": "IV Waste",
    "rowid": "1171771",
    "final_x": "3673862.46452",
    "final_y": "539858.93569",
    "longitude": "-90.09190166604417",
    "latitude": "29.978654627086406",
    "geocoded_column": {
      "latitude": "29.978654627086406",
      "longitude": "-90.09190166604417"
    }
  },
  {
    "service_request": "2025-1171770",
    "request_type": "Trash/Recycling",
    "request_reason": "Illegal Dumping",
    "date_created": "2025-02-26T16:51:25.000",
    "date_modified": "2025-02-26T16:51:28.000",
    "request_status": "Pending",
    "responsible_agency": "Department of Sanitation",
    "final_address": "14000 BLK Morrison Rd",
    "address_councildis": "E",
    "status": "Pending",
    "rowid": "1171770",
    "final_x": "3718872.63341",
    "final_y": "571005.73376",
    "longitude": "-89.94855568255136",
    "latitude": "30.062878264425763",
    "geocoded_column": {
      "latitude": "30.062878264425763",
      "longitude": "-89.94855568255136"
    }
  },
  {
    "service_request": "2025-1171769",
    "request_type": "Roads and Streets",
    "request_reason": "Pothole",
    "date_created": "2025-02-26T16:47:20.000",
    "date_modified": "2025-02-26T16:47:22.000",
    "request_status": "Pending",
    "responsible_agency": "Department of Public Works",
    "final_address": "14500 Beekman Rd",
    "address_councildis": "E",
    "status": "Pending",
    "rowid": "1171769",
    "final_x": "3720786.10393",
    "final_y": "572758.553577",
    "longitude": "-89.94243994685621",
    "latitude": "30.067634058513985",
    "geocoded_column": {
      "latitude": "30.067634058513985",
      "longitude": "-89.94243994685621"
    }
  },
  {
    "service_request": "2025-1171768",
    "request_type": "Trash/Recycling",
    "request_reason": "Request a Large Item Pick Up",
    "date_created": "2025-02-26T16:46:49.000",
    "date_modified": "2025-02-26T16:46:50.000",
    "request_status": "Pending",
    "responsible_agency": "Department of Sanitation",
    "final_address": "3 Caddo Pl",
    "address_councildis": "E",
    "status": "Assigned to Contractor",
    "contractor": "Waste Pro",
    "rowid": "1171768",
    "final_x": "3725982.5326",
    "final_y": "564268.460961",
    "longitude": "-89.92634283885545",
    "latitude": "30.04411541705881",
    "geocoded_column": {
      "latitude": "30.04411541705881",
      "longitude": "-89.92634283885545"
    }
  },
  {
    "service_request": "2025-1171767",
    "request_type": "Trash/Recycling",
    "request_reason": "Request a Large Item Pick Up",
    "date_created": "2025-02-26T16:45:26.000",
    "date_modified": "2025-02-26T16:45:29.000",
    "request_status": "Pending",
    "responsible_agency": "Department of Sanitation",
    "final_address": "1306 Feliciana St",
    "address_councildis": "C",
    "status": "Assigned to Contractor",
    "contractor": "IV Waste",
    "rowid": "1171767",
    "final_x": "3688902.90787",
    "final_y": "536890.93332",
    "longitude": "-90.04450391576084",
    "latitude": "29.97003703355111",
    "geocoded_column": {
      "latitude": "29.97003703355111",
      "longitude": "-90.04450391576084"
    }
  },
  {
    "service_request": "2025-1171766",
    "request_type": "Trash/Recycling",
    "request_reason": "Repair Recycling Cart",
    "date_created": "2025-02-26T16:40:25.000",
    "date_modified": "2025-02-26T16:40:28.000",
    "request_status": "Pending",
    "responsible_agency": "Department of Sanitation",
    "final_address": "6129 Constance St",
    "address_councildis": "A",
    "status": "Pending",
    "rowid": "1171766",
    "final_x": "3663845.92141",
    "final_y": "519216.564215",
    "longitude": "-90.12422575250766",
    "latitude": "29.922189365599124",
    "geocoded_column": {
      "latitude": "29.922189365599124",
      "longitude": "-90.12422575250766"
    }
  },
  {
    "service_request": "2025-1171765",
    "request_type": "Trash/Recycling",
    "request_reason": "Request a Large Item Pick Up",
    "date_created": "2025-02-26T16:35:32.000",
    "date_modified": "2025-02-26T16:35:34.000",
    "request_status": "Pending",
    "responsible_agency": "Department of Sanitation",
    "final_address": "213 S Clark St",
    "address_councildis": "B",
    "status": "Assigned to Contractor",
    "contractor": "IV Waste",
    "rowid": "1171765",
    "final_x": "3672487.14446",
    "final_y": "536569.307847",
    "longitude": "-90.09635761083415",
    "latitude": "29.96965016518078",
    "geocoded_column": {
      "latitude": "29.96965016518078",
      "longitude": "-90.09635761083415"
    }
  },
  {
    "service_request": "2025-1171764",
    "request_type": "Safety & Permits",
    "request_reason": "Construction permit",
    "date_created": "2025-02-26T16:33:38.000",
    "date_modified": "2025-02-26T16:33:40.000",
    "request_status": "Pending",
    "responsible_agency": "Safety and Permits",
    "final_address": "2127 Piety St",
    "address_councildis": "D",
    "status": "Pending",
    "rowid": "1171764",
    "final_x": "3690858.77244",
    "final_y": "539749.009802",
    "longitude": "-90.0382251028675",
    "latitude": "29.9778350959377",
    "geocoded_column": {
      "latitude": "29.9778350959377",
      "longitude": "-90.0382251028675"
    }
  },
  {
    "service_request": "2025-1171763",
    "request_type": "Trash/Recycling",
    "request_reason": "Request a Large Item Pick Up",
    "date_created": "2025-02-26T16:33:09.000",
    "date_modified": "2025-02-26T16:33:11.000",
    "request_status": "Pending",
    "responsible_agency": "Department of Sanitation",
    "final_address": "2304 Spain St",
    "address_councildis": "D",
    "status": "Assigned to Contractor",
    "contractor": "IV Waste",
    "rowid": "1171763",
    "final_x": "3685738.43503",
    "final_y": "540850.666187",
    "longitude": "-90.05435803559728",
    "latitude": "29.981022401811853",
    "geocoded_column": {
      "latitude": "29.981022401811853",
      "longitude": "-90.05435803559728"
    }
  },
  {
    "service_request": "2025-1171762",
    "request_type": "Trash/Recycling",
    "request_reason": "Request a Large Item Pick Up",
    "date_created": "2025-02-26T16:28:35.000",
    "date_modified": "2025-02-26T16:28:37.000",
    "request_status": "Pending",
    "responsible_agency": "Department of Sanitation",
    "final_address": "1340 Reynes St",
    "address_councildis": "E",
    "status": "Assigned to Contractor",
    "contractor": "Waste Pro",
    "rowid": "1171762",
    "final_x": "3696184.06243",
    "final_y": "535343.182982",
    "longitude": "-90.02156537898446",
    "latitude": "29.965554072571706",
    "geocoded_column": {
      "latitude": "29.965554072571706",
      "longitude": "-90.02156537898446"
    }
  },
  {
    "service_request": "2025-1171761",
    "request_type": "Trash/Recycling",
    "request_reason": "Missed Trash Pick-Up",
    "date_created": "2025-02-26T16:27:50.000",
    "date_modified": "2025-02-26T16:27:57.000",
    "request_status": "Pending",
    "responsible_agency": "Department of Sanitation",
    "final_address": "7721 Weaver Ave",
    "address_councildis": "E",
    "status": "Assigned to Contractor",
    "contractor": "Waste Pro",
    "rowid": "1171761",
    "final_x": "3707302.58328",
    "final_y": "564672.875938",
    "longitude": "-89.9853642641713",
    "latitude": "30.04584485314581",
    "geocoded_column": {
      "latitude": "30.04584485314581",
      "longitude": "-89.9853642641713"
    }
  },
  {
    "service_request": "2025-1171760",
    "request_type": "Trash/Recycling",
    "request_reason": "Return Recycling Cart",
    "date_created": "2025-02-26T16:26:16.000",
    "date_modified": "2025-02-26T16:26:18.000",
    "request_status": "Pending",
    "responsible_agency": "Department of Sanitation",
    "final_address": "15 Bonita Bay Dr",
    "address_councildis": "C",
    "status": "Pending",
    "rowid": "1171760",
    "final_x": "3719799.15967",
    "final_y": "512682.966449",
    "longitude": "-89.9478560944826",
    "latitude": "29.90248224727472",
    "geocoded_column": {
      "latitude": "29.90248224727472",
      "longitude": "-89.9478560944826"
    }
  },
  {
    "service_request": "2025-1171759",
    "request_type": "Trash/Recycling",
    "request_reason": "Request a Large Item Pick Up",
    "date_created": "2025-02-26T16:19:41.000",
    "date_modified": "2025-02-26T16:19:42.000",
    "request_status": "Pending",
    "responsible_agency": "Department of Sanitation",
    "final_address": "4730 Laurel St",
    "address_councildis": "B",
    "status": "Assigned to Contractor",
    "contractor": "IV Waste",
    "rowid": "1171759",
    "final_x": "3669770.99105",
    "final_y": "517829.842422",
    "longitude": "-90.10556960805988",
    "latitude": "29.918203073819697",
    "geocoded_column": {
      "latitude": "29.918203073819697",
      "longitude": "-90.10556960805988"
    }
  },
  {
    "service_request": "2025-1171758",
    "request_type": "Trash/Recycling",
    "request_reason": "Request a Large Item Pick Up",
    "date_created": "2025-02-26T16:14:30.000",
    "date_modified": "2025-02-26T16:14:32.000",
    "request_status": "Pending",
    "responsible_agency": "Department of Sanitation",
    "final_address": "5901 Elysian Fields Ave",
    "address_councildis": "D",
    "status": "Assigned to Contractor",
    "contractor": "IV Waste",
    "rowid": "1171758",
    "final_x": "3683694.75548",
    "final_y": "554659.145368",
    "longitude": "-90.06032834648964",
    "latitude": "30.019053328737336",
    "geocoded_column": {
      "latitude": "30.019053328737336",
      "longitude": "-90.06032834648964"
    }
  },
  {
    "service_request": "2025-1171757",
    "request_type": "Roads and Streets",
    "request_reason": "Street Subsidence (Sinking)",
    "date_created": "2025-02-26T16:14:23.000",
    "date_modified": "2025-02-26T16:14:25.000",
    "request_status": "Pending",
    "responsible_agency": "Department of Public Works",
    "final_address": "2529 Lavender St",
    "address_councildis": "D",
    "status": "Pending",
    "rowid": "1171757",
    "final_x": "3686600.46127",
    "final_y": "546929.760529",
    "longitude": "-90.05142057083673",
    "latitude": "29.997711257061358",
    "geocoded_column": {
      "latitude": "29.997711257061358",
      "longitude": "-90.05142057083673"
    }
  },
  {
    "service_request": "2025-1171756",
    "request_type": "Property Maintenance",
    "request_reason": "Property Maintenance",
    "date_created": "2025-02-26T16:12:22.000",
    "date_modified": "2025-02-26T16:12:24.000",
    "request_status": "Pending",
    "responsible_agency": "Department of Code Enforcement",
    "final_address": "6301 Canal Blvd",
    "address_councildis": "A",
    "status": "Pending",
    "rowid": "1171756",
    "final_x": "3668805.38932",
    "final_y": "549369.744083",
    "longitude": "-90.10755250041724",
    "latitude": "30.004955769971186",
    "geocoded_column": {
      "latitude": "30.004955769971186",
      "longitude": "-90.10755250041724"
    }
  },
  {
    "service_request": "2025-1171755",
    "request_type": "Trash/Recycling",
    "request_reason": "Return Recycling Cart",
    "date_created": "2025-02-26T16:11:09.000",
    "date_modified": "2025-02-26T16:11:48.000",
    "request_status": "Pending",
    "responsible_agency": "Department of Sanitation",
    "final_address": "5935 Franklin Ave",
    "address_councildis": "D",
    "status": "Assigned to Contractor",
    "contractor": "IV Waste",
    "rowid": "1171755",
    "final_x": "3686500.71241",
    "final_y": "555140.186841",
    "longitude": "-90.05144551435318",
    "latitude": "30.020290000479136",
    "geocoded_column": {
      "latitude": "30.020290000479136",
      "longitude": "-90.05144551435318"
    }
  },
  {
    "service_request": "2025-1171754",
    "request_type": "Trash/Recycling",
    "request_reason": "Request a Large Item Pick Up",
    "date_created": "2025-02-26T16:08:56.000",
    "date_modified": "2025-02-26T16:09:36.000",
    "request_status": "Pending",
    "responsible_agency": "Department of Sanitation",
    "final_address": "7580 Rochon Ave",
    "address_councildis": "E",
    "status": "Assigned to Contractor",
    "contractor": "Waste Pro",
    "rowid": "1171754",
    "final_x": "3718755.8398",
    "final_y": "571486.197096",
    "longitude": "-89.94890651739419",
    "latitude": "30.064203218217134",
    "geocoded_column": {
      "latitude": "30.064203218217134",
      "longitude": "-89.94890651739419"
    }
  },
  {
    "service_request": "2025-1171753",
    "request_type": "Trash/Recycling",
    "request_reason": "Request a Large Item Pick Up",
    "date_created": "2025-02-26T16:01:30.000",
    "date_modified": "2025-02-26T16:01:32.000",
    "request_status": "Pending",
    "responsible_agency": "Department of Sanitation",
    "final_address": "8006 Mullet St",
    "address_councildis": "E",
    "status": "Assigned to Contractor",
    "contractor": "Waste Pro",
    "rowid": "1171753",
    "final_x": "3698656.93104",
    "final_y": "561170.798622",
    "longitude": "-90.01281625046893",
    "latitude": "30.0364923281965",
    "geocoded_column": {
      "latitude": "30.0364923281965",
      "longitude": "-90.01281625046893"
    }
  },
  {
    "service_request": "2025-1171752",
    "request_type": "Drainage",
    "request_reason": "Street Flooding",
    "date_created": "2025-02-26T16:01:01.000",
    "date_modified": "2025-02-26T16:01:03.000",
    "request_status": "Pending",
    "responsible_agency": "Sewerage & Water Board ",
    "final_address": "2285 Lakeshore Dr",
    "address_councildis": "D",
    "status": "Pending",
    "rowid": "1171752",
    "final_x": "3684038.87836",
    "final_y": "559467.901341",
    "longitude": "-90.0590720708281",
    "latitude": "30.032265110840207",
    "geocoded_column": {
      "latitude": "30.032265110840207",
      "longitude": "-90.0590720708281"
    }
  },
  {
    "service_request": "2025-1171751",
    "request_type": "Trash/Recycling",
    "request_reason": "Repair Trash Cart",
    "date_created": "2025-02-26T15:57:52.000",
    "date_modified": "2025-02-26T15:57:53.000",
    "request_status": "Pending",
    "responsible_agency": "Department of Sanitation",
    "final_address": "9630 Lincoln Beach Blvd",
    "address_councildis": "E",
    "status": "Assigned to Contractor",
    "contractor": "Waste Pro",
    "rowid": "1171751",
    "final_x": "3706682.38423",
    "final_y": "564793.307042",
    "longitude": "-89.98731991601589",
    "latitude": "30.046196037343538",
    "geocoded_column": {
      "latitude": "30.046196037343538",
      "longitude": "-89.98731991601589"
    }
  },
  {
    "service_request": "2025-1171750",
    "request_type": "Roads and Streets",
    "request_reason": "Debris in Driving Lanes",
    "date_created": "2025-02-26T15:56:57.000",
    "date_modified": "2025-02-26T15:56:59.000",
    "request_status": "Pending",
    "responsible_agency": "Department of Public Works",
    "final_address": "4773 Western St",
    "address_councildis": "D",
    "status": "Pending",
    "rowid": "1171750",
    "final_x": "3684143.22185",
    "final_y": "550679.5821",
    "longitude": "-90.05905118585747",
    "latitude": "30.008097274898507",
    "geocoded_column": {
      "latitude": "30.008097274898507",
      "longitude": "-90.05905118585747"
    }
  },
  {
    "service_request": "2025-1171749",
    "request_type": "Trash/Recycling",
    "request_reason": "Request a Large Item Pick Up",
    "date_created": "2025-02-26T15:54:38.000",
    "date_modified": "2025-02-26T16:20:49.000",
    "request_status": "Pending",
    "responsible_agency": "Department of Sanitation",
    "final_address": "2343 N Claiborne Ave",
    "address_councildis": "D",
    "status": "Assigned to Contractor",
    "contractor": "IV Waste",
    "rowid": "1171749",
    "final_x": "3686014.57513",
    "final_y": "538270.117385",
    "longitude": "-90.05357689417272",
    "latitude": "29.97391832169293",
    "geocoded_column": {
      "latitude": "29.97391832169293",
      "longitude": "-90.05357689417272"
    }
  },
  {
    "service_request": "2025-1171748",
    "request_type": "Roads and Streets",
    "request_reason": "Road Shoulder Damage",
    "date_created": "2025-02-26T15:54:33.000",
    "date_modified": "2025-02-26T15:54:34.000",
    "request_status": "Pending",
    "responsible_agency": "Department of Public Works",
    "final_address": "2715 N Claiborne Ave",
    "address_councildis": "D",
    "status": "Pending",
    "rowid": "1171748",
    "final_x": "3688045.59855",
    "final_y": "538280.571209",
    "longitude": "-90.04716211621383",
    "latitude": "29.973884536799815",
    "geocoded_column": {
      "latitude": "29.973884536799815",
      "longitude": "-90.04716211621383"
    }
  },
  {
    "service_request": "2025-1171747",
    "request_type": "Streetlights",
    "request_reason": "Streetlight Outage/Malfunction",
    "date_created": "2025-02-26T15:52:29.000",
    "date_modified": "2025-02-26T15:52:30.000",
    "request_status": "Pending",
    "responsible_agency": "Department of Public Works",
    "final_address": "AUBRY ST & N DUPRE ST",
    "address_councildis": "D",
    "status": "Pending",
    "contractor": "Legacy Professional Services",
    "rowid": "1171747",
    "final_x": "3679188.5",
    "final_y": "541490.38",
    "longitude": "-90.07502347543073",
    "latitude": "29.982980792808643",
    "geocoded_column": {
      "latitude": "29.982980792808643",
      "longitude": "-90.07502347543073"
    }
  },
  {
    "service_request": "2025-1171746",
    "request_type": "Trash/Recycling",
    "request_reason": "Order Trash Cart",
    "date_created": "2025-02-26T15:52:23.000",
    "date_modified": "2025-02-26T15:52:31.000",
    "request_status": "Pending",
    "responsible_agency": "Department of Sanitation",
    "final_address": "6616 Brunswick Ct",
    "address_councildis": "C",
    "status": "Assigned to Contractor",
    "contractor": "Richards Disposal",
    "rowid": "1171746",
    "final_x": "3708397.15396",
    "final_y": "516975.710261",
    "longitude": "-89.98368050344963",
    "latitude": "29.91465997311583",
    "geocoded_column": {
      "latitude": "29.91465997311583",
      "longitude": "-89.98368050344963"
    }
  },
  {
    "service_request": "2025-1171745",
    "request_type": "General Services",
    "request_reason": "General Service Request",
    "date_created": "2025-02-26T15:47:37.000",
    "date_modified": "2025-02-26T15:47:39.000",
    "request_status": "Pending",
    "responsible_agency": "Orleans Parish Communication District",
    "final_address": "New Orleans,LA",
    "status": "Pending",
    "rowid": "1171745",
    "longitude": "0.0",
    "latitude": "0.0",
    "geocoded_column": {
      "latitude": "0.0",
      "longitude": "0.0"
    }
  },
  {
    "service_request": "2025-1171744",
    "request_type": "Roads and Streets",
    "request_reason": "Road Shoulder Damage",
    "date_created": "2025-02-26T15:46:52.000",
    "date_modified": "2025-02-26T15:46:53.000",
    "request_status": "Pending",
    "responsible_agency": "Department of Public Works",
    "final_address": "936 Girod St",
    "address_councildis": "B",
    "status": "Pending",
    "rowid": "1171744",
    "final_x": "3679515.70728",
    "final_y": "528740.350912",
    "longitude": "-90.07443243461238",
    "latitude": "29.9479126804506",
    "geocoded_column": {
      "latitude": "29.9479126804506",
      "longitude": "-90.07443243461238"
    }
  },
  {
    "service_request": "2025-1171743",
    "request_type": "Trash/Recycling",
    "request_reason": "MIssed Recycling Pick-Up",
    "date_created": "2025-02-26T15:46:30.000",
    "date_modified": "2025-02-26T16:46:32.000",
    "case_close_date": "2025-02-26T10:46:31.000",
    "request_status": "Closed",
    "responsible_agency": "Department of Sanitation",
    "final_address": "5813 Baccich St",
    "address_councildis": "D",
    "status": "Invalid Request",
    "contractor": "IV Waste",
    "contractor_action": "Invalid Request",
    "rowid": "1171743",
    "final_x": "3687578.26095",
    "final_y": "554705.382936",
    "longitude": "-90.04805621248688",
    "latitude": "30.01906126033572",
    "geocoded_column": {
      "latitude": "30.01906126033572",
      "longitude": "-90.04805621248688"
    }
  },
  {
    "service_request": "2025-1171742",
    "request_type": "Safety & Permits",
    "request_reason": "Zoning Enforcement",
    "date_created": "2025-02-26T15:44:54.000",
    "date_modified": "2025-02-26T15:50:42.000",
    "case_close_date": "2025-02-26T09:50:40.000",
    "request_status": "Closed",
    "responsible_agency": "Safety and Permits",
    "final_address": "6894 Parc Brittany Blvd",
    "address_councildis": "E",
    "status": "Resolved",
    "rowid": "1171742",
    "final_x": "3702639.54161",
    "final_y": "557901.223067",
    "longitude": "-90.00035067757878",
    "latitude": "30.02737546541244",
    "geocoded_column": {
      "latitude": "30.02737546541244",
      "longitude": "-90.00035067757878"
    }
  },
  {
    "service_request": "2025-1171741",
    "request_type": "Trash/Recycling",
    "request_reason": "Request a Large Item Pick Up",
    "date_created": "2025-02-26T15:41:53.000",
    "date_modified": "2025-02-26T18:53:28.000",
    "case_close_date": "2025-02-26T12:53:27.000",
    "request_status": "Closed",
    "responsible_agency": "Department of Sanitation",
    "final_address": "6890 Parc Brittany Blvd",
    "address_councildis": "E",
    "status": "Invalid Request",
    "contractor": "Waste Pro",
    "contractor_action": "Invalid Request",
    "rowid": "1171741",
    "final_x": "3702646.93335",
    "final_y": "557860.424667",
    "longitude": "-90.0003288202442",
    "latitude": "30.027263049158076",
    "geocoded_column": {
      "latitude": "30.027263049158076",
      "longitude": "-90.0003288202442"
    }
  },
  {
    "service_request": "2025-1171740",
    "request_type": "Trash/Recycling",
    "request_reason": "Request a Large Item Pick Up",
    "date_created": "2025-02-26T15:41:29.000",
    "date_modified": "2025-02-26T16:19:48.000",
    "request_status": "Pending",
    "responsible_agency": "Department of Sanitation",
    "final_address": "2318 Valence St",
    "address_councildis": "B",
    "status": "Assigned to Contractor",
    "contractor": "IV Waste",
    "rowid": "1171740",
    "final_x": "3669392.50593",
    "final_y": "523416.714875",
    "longitude": "-90.10657548386166",
    "latitude": "29.933576341418576",
    "geocoded_column": {
      "latitude": "29.933576341418576",
      "longitude": "-90.10657548386166"
    }
  },
  {
    "service_request": "2025-1171739",
    "request_type": "Trash/Recycling",
    "request_reason": "Request a Large Item Pick Up",
    "date_created": "2025-02-26T15:38:51.000",
    "date_modified": "2025-02-26T15:38:52.000",
    "request_status": "Pending",
    "responsible_agency": "Department of Sanitation",
    "final_address": "7731 S Coronet Ct",
    "address_councildis": "E",
    "status": "Assigned to Contractor",
    "contractor": "Waste Pro",
    "rowid": "1171739",
    "final_x": "3702644.14026",
    "final_y": "557278.068571",
    "longitude": "-90.00035905331774",
    "latitude": "30.02566188436741",
    "geocoded_column": {
      "latitude": "30.02566188436741",
      "longitude": "-90.00035905331774"
    }
  },
  {
    "service_request": "2025-1171738",
    "request_type": "Property Maintenance",
    "request_reason": "Property Maintenance",
    "date_created": "2025-02-26T15:36:41.000",
    "date_modified": "2025-02-26T15:36:43.000",
    "request_status": "Pending",
    "responsible_agency": "Department of Code Enforcement",
    "final_address": "7729 N Coronet Ct",
    "address_councildis": "E",
    "status": "Pending",
    "rowid": "1171738",
    "final_x": "3702562.75741",
    "final_y": "557622.267355",
    "longitude": "-90.00060355987745",
    "latitude": "30.026610900965757",
    "geocoded_column": {
      "latitude": "30.026610900965757",
      "longitude": "-90.00060355987745"
    }
  },
  {
    "service_request": "2025-1171737",
    "request_type": "Property Maintenance",
    "request_reason": "Property Maintenance",
    "date_created": "2025-02-26T15:33:06.000",
    "date_modified": "2025-02-26T15:33:07.000",
    "request_status": "Pending",
    "responsible_agency": "Department of Code Enforcement",
    "final_address": "7740 N Coronet Ct",
    "address_councildis": "E",
    "status": "Pending",
    "rowid": "1171737",
    "final_x": "3702597.40708",
    "final_y": "557504.407707",
    "longitude": "-90.00049840347286",
    "latitude": "30.026285724314963",
    "geocoded_column": {
      "latitude": "30.026285724314963",
      "longitude": "-90.00049840347286"
    }
  },
  {
    "service_request": "2025-1171736",
    "request_type": "Trash/Recycling",
    "request_reason": "Order Recycling Cart",
    "date_created": "2025-02-26T15:31:07.000",
    "date_modified": "2025-02-26T15:31:08.000",
    "request_status": "Pending",
    "responsible_agency": "Department of Sanitation",
    "final_address": "1417 Joliet St",
    "address_councildis": "A",
    "status": "Pending",
    "rowid": "1171736",
    "final_x": "3661498.51501",
    "final_y": "529932.061889",
    "longitude": "-90.13128074422804",
    "latitude": "29.951721501048866",
    "geocoded_column": {
      "latitude": "29.951721501048866",
      "longitude": "-90.13128074422804"
    }
  },
  {
    "service_request": "2025-1171735",
    "request_type": "Trash/Recycling",
    "request_reason": "Request a Large Item Pick Up",
    "date_created": "2025-02-26T15:30:59.000",
    "date_modified": "2025-02-26T18:56:05.000",
    "case_close_date": "2025-02-26T12:56:04.000",
    "request_status": "Closed",
    "responsible_agency": "Department of Sanitation",
    "final_address": "7740 N Coronet Ct",
    "address_councildis": "E",
    "status": "Invalid Request",
    "contractor": "Waste Pro",
    "contractor_action": "Invalid Request",
    "rowid": "1171735",
    "final_x": "3702597.40708",
    "final_y": "557504.407707",
    "longitude": "-90.00049840347286",
    "latitude": "30.026285724314963",
    "geocoded_column": {
      "latitude": "30.026285724314963",
      "longitude": "-90.00049840347286"
    }
  },
  {
    "service_request": "2025-1171734",
    "request_type": "Trash/Recycling",
    "request_reason": "Replace Trash Cart",
    "date_created": "2025-02-26T15:30:55.000",
    "date_modified": "2025-02-26T15:30:58.000",
    "request_status": "Pending",
    "responsible_agency": "Department of Sanitation",
    "final_address": "5525 Pasteur Blvd",
    "address_councildis": "D",
    "status": "Assigned to Contractor",
    "contractor": "IV Waste",
    "rowid": "1171734",
    "final_x": "3682987.1597",
    "final_y": "553290.209879",
    "longitude": "-90.06261206813852",
    "latitude": "30.015310853165264",
    "geocoded_column": {
      "latitude": "30.015310853165264",
      "longitude": "-90.06261206813852"
    }
  },
  {
    "service_request": "2025-1171733",
    "request_type": "Trash/Recycling",
    "request_reason": "Request a Large Item Pick Up",
    "date_created": "2025-02-26T15:27:33.000",
    "date_modified": "2025-02-26T15:28:51.000",
    "request_status": "Pending",
    "responsible_agency": "Department of Sanitation",
    "final_address": "1131 Eighth St",
    "address_councildis": "B",
    "status": "Assigned to Contractor",
    "contractor": "IV Waste",
    "rowid": "1171733",
    "final_x": "3675998.91041",
    "final_y": "520448.032312",
    "longitude": "-90.0858214334673",
    "latitude": "29.925217292639708",
    "geocoded_column": {
      "latitude": "29.925217292639708",
      "longitude": "-90.0858214334673"
    }
  },
  {
    "service_request": "2025-1171732",
    "request_type": "Trash/Recycling",
    "request_reason": "Request a Large Item Pick Up",
    "date_created": "2025-02-26T15:26:38.000",
    "date_modified": "2025-02-26T18:57:10.000",
    "case_close_date": "2025-02-26T12:57:09.000",
    "request_status": "Closed",
    "responsible_agency": "Department of Sanitation",
    "final_address": "7737 N Coronet Ct",
    "address_councildis": "E",
    "status": "Invalid Request",
    "contractor": "Waste Pro",
    "contractor_action": "Invalid Request",
    "rowid": "1171732",
    "final_x": "3702601.94084",
    "final_y": "557630.343131",
    "longitude": "-90.00047944855234",
    "latitude": "30.026631853044968",
    "geocoded_column": {
      "latitude": "30.026631853044968",
      "longitude": "-90.00047944855234"
    }
  },
  {
    "service_request": "2025-1171731",
    "request_type": "Trash/Recycling",
    "request_reason": "Request a Large Item Pick Up",
    "date_created": "2025-02-26T15:26:02.000",
    "date_modified": "2025-02-26T15:26:03.000",
    "request_status": "Pending",
    "responsible_agency": "Department of Sanitation",
    "final_address": "9026 Colapissa St",
    "address_councildis": "A",
    "status": "Assigned to Contractor",
    "contractor": "IV Waste",
    "rowid": "1171731",
    "final_x": "3664001.65837",
    "final_y": "535660.14919",
    "longitude": "-90.1231859659006",
    "latitude": "29.967399429881773",
    "geocoded_column": {
      "latitude": "29.967399429881773",
      "longitude": "-90.1231859659006"
    }
  },
  {
    "service_request": "2025-1171730",
    "request_type": "Streetlights",
    "request_reason": "Streetlight Outage/Malfunction",
    "date_created": "2025-02-26T15:25:43.000",
    "date_modified": "2025-02-26T15:25:44.000",
    "request_status": "Pending",
    "responsible_agency": "Department of Public Works",
    "final_address": "3419 S Robertson St",
    "address_councildis": "B",
    "status": "Pending",
    "contractor": "Legacy Professional Services",
    "rowid": "1171730",
    "final_x": "3672533.86977",
    "final_y": "524815.58918",
    "longitude": "-90.09661068203891",
    "latitude": "29.93732994147611",
    "geocoded_column": {
      "latitude": "29.93732994147611",
      "longitude": "-90.09661068203891"
    }
  },
  {
    "service_request": "2025-1171729",
    "request_type": "Property Maintenance",
    "request_reason": "Property Maintenance",
    "date_created": "2025-02-26T15:25:14.000",
    "date_modified": "2025-02-26T15:25:16.000",
    "request_status": "Pending",
    "responsible_agency": "Department of Code Enforcement",
    "final_address": "5650 Norgate Dr",
    "address_councildis": "E",
    "status": "Pending",
    "rowid": "1171729",
    "final_x": "3707916.0915",
    "final_y": "558276.687388",
    "longitude": "-89.983663399057",
    "latitude": "30.028238008430666",
    "geocoded_column": {
      "latitude": "30.028238008430666",
      "longitude": "-89.983663399057"
    }
  },
  {
    "service_request": "2025-1171728",
    "request_type": "Trash/Recycling",
    "request_reason": "Request a Large Item Pick Up",
    "date_created": "2025-02-26T15:24:08.000",
    "date_modified": "2025-02-26T15:24:09.000",
    "request_status": "Pending",
    "responsible_agency": "Department of Sanitation",
    "final_address": "6817 E Coronet Ct",
    "address_councildis": "E",
    "status": "Assigned to Contractor",
    "contractor": "Waste Pro",
    "rowid": "1171728",
    "final_x": "3703559.0826",
    "final_y": "557562.912795",
    "longitude": "-89.99745749072706",
    "latitude": "30.026415797834687",
    "geocoded_column": {
      "latitude": "30.026415797834687",
      "longitude": "-89.99745749072706"
    }
  },
  {
    "service_request": "2025-1171727",
    "request_type": "Trash/Recycling",
    "request_reason": "Request a Large Item Pick Up",
    "date_created": "2025-02-26T15:22:57.000",
    "date_modified": "2025-02-26T15:22:59.000",
    "request_status": "Pending",
    "responsible_agency": "Department of Sanitation",
    "final_address": "4716 Pauger St",
    "address_councildis": "D",
    "status": "Assigned to Contractor",
    "contractor": "IV Waste",
    "rowid": "1171727",
    "final_x": "3682723.91381",
    "final_y": "549964.031572",
    "longitude": "-90.06356025977934",
    "latitude": "30.00617309334956",
    "geocoded_column": {
      "latitude": "30.00617309334956",
      "longitude": "-90.06356025977934"
    }
  },
  {
    "service_request": "2025-1171726",
    "request_type": "Trash/Recycling",
    "request_reason": "Request a Large Item Pick Up",
    "date_created": "2025-02-26T15:21:38.000",
    "date_modified": "2025-02-26T18:58:50.000",
    "case_close_date": "2025-02-26T12:58:49.000",
    "request_status": "Closed",
    "responsible_agency": "Department of Sanitation",
    "final_address": "7803 S Coronet Ct",
    "address_councildis": "E",
    "status": "Invalid Request",
    "contractor": "Waste Pro",
    "contractor_action": "Invalid Request",
    "rowid": "1171726",
    "final_x": "3702958.38289",
    "final_y": "557370.224027",
    "longitude": "-89.99936270737273",
    "latitude": "30.025905220873042",
    "geocoded_column": {
      "latitude": "30.025905220873042",
      "longitude": "-89.99936270737273"
    }
  },
  {
    "service_request": "2025-1171725",
    "request_type": "Trash/Recycling",
    "request_reason": "Request a Large Item Pick Up",
    "date_created": "2025-02-26T15:19:51.000",
    "date_modified": "2025-02-26T15:19:52.000",
    "request_status": "Pending",
    "responsible_agency": "Department of Sanitation",
    "final_address": "7808 S Coronet Ct",
    "address_councildis": "E",
    "status": "Assigned to Contractor",
    "contractor": "Waste Pro",
    "rowid": "1171725",
    "final_x": "3703022.37758",
    "final_y": "557272.427227",
    "longitude": "-89.99916409216972",
    "latitude": "30.025634268808705",
    "geocoded_column": {
      "latitude": "30.025634268808705",
      "longitude": "-89.99916409216972"
    }
  },
  {
    "service_request": "2025-1171724",
    "request_type": "Trash/Recycling",
    "request_reason": "Request a Large Item Pick Up",
    "date_created": "2025-02-26T15:15:13.000",
    "date_modified": "2025-02-26T15:25:30.000",
    "request_status": "Pending",
    "responsible_agency": "Department of Sanitation",
    "final_address": "1943 Port St",
    "address_councildis": "D",
    "status": "Assigned to Contractor",
    "contractor": "IV Waste",
    "rowid": "1171724",
    "final_x": "3688304.31311",
    "final_y": "539728.200394",
    "longitude": "-90.04629368733777",
    "latitude": "29.97785701881487",
    "geocoded_column": {
      "latitude": "29.97785701881487",
      "longitude": "-90.04629368733777"
    }
  },
  {
    "service_request": "2025-1171723",
    "request_type": "Trash/Recycling",
    "request_reason": "Request a Large Item Pick Up",
    "date_created": "2025-02-26T15:14:42.000",
    "date_modified": "2025-02-26T15:14:44.000",
    "request_status": "Pending",
    "responsible_agency": "Department of Sanitation",
    "final_address": "1526 Poland Ave",
    "address_councildis": "D",
    "status": "Assigned to Contractor",
    "contractor": "IV Waste",
    "rowid": "1171723",
    "final_x": "3693397.53033",
    "final_y": "536722.103495",
    "longitude": "-90.03031557343351",
    "latitude": "29.969433037060792",
    "geocoded_column": {
      "latitude": "29.969433037060792",
      "longitude": "-90.03031557343351"
    }
  },
  {
    "service_request": "2025-1171722",
    "request_type": "Trash/Recycling",
    "request_reason": "Request a Large Item Pick Up",
    "date_created": "2025-02-26T15:13:10.000",
    "date_modified": "2025-02-26T15:13:12.000",
    "request_status": "Pending",
    "responsible_agency": "Department of Sanitation",
    "final_address": "12951 Chanelle Ct",
    "address_councildis": "E",
    "status": "Assigned to Contractor",
    "contractor": "Waste Pro",
    "rowid": "1171722",
    "final_x": "3717168.79608",
    "final_y": "567543.422052",
    "longitude": "-89.95407325751852",
    "latitude": "30.053414848901177",
    "geocoded_column": {
      "latitude": "30.053414848901177",
      "longitude": "-89.95407325751852"
    }
  },
  {
    "service_request": "2025-1171721",
    "request_type": "Trash/Recycling",
    "request_reason": "Order Second Trash Cart",
    "date_created": "2025-02-26T15:12:16.000",
    "date_modified": "2025-02-26T15:12:19.000",
    "request_status": "Pending",
    "responsible_agency": "Department of Sanitation",
    "final_address": "16 Shoal Creek Dr",
    "address_councildis": "C",
    "status": "Assigned to Contractor",
    "contractor": "Richards Disposal",
    "rowid": "1171721",
    "final_x": "3719997.14719",
    "final_y": "512222.381489",
    "longitude": "-89.9472488447159",
    "latitude": "29.901209217404862",
    "geocoded_column": {
      "latitude": "29.901209217404862",
      "longitude": "-89.9472488447159"
    }
  },
  {
    "service_request": "2025-1171720",
    "request_type": "Trash/Recycling",
    "request_reason": "Replace Trash Cart",
    "date_created": "2025-02-26T15:08:16.000",
    "date_modified": "2025-02-26T15:08:17.000",
    "request_status": "Pending",
    "responsible_agency": "Department of Sanitation",
    "final_address": "9042 Morrison Rd",
    "address_councildis": "E",
    "status": "Assigned to Contractor",
    "contractor": "Waste Pro",
    "rowid": "1171720",
    "final_x": "3706174.33406",
    "final_y": "562002.446687",
    "longitude": "-89.9890290840378",
    "latitude": "30.038538679032467",
    "geocoded_column": {
      "latitude": "30.038538679032467",
      "longitude": "-89.9890290840378"
    }
  },
  {
    "service_request": "2025-1171719",
    "request_type": "Health Related Request",
    "request_reason": "Homeless Encampment Complaint",
    "date_created": "2025-02-26T15:06:17.000",
    "date_modified": "2025-02-26T15:06:19.000",
    "request_status": "Pending",
    "responsible_agency": "Health Department",
    "final_address": "2600 Almonaster Ave",
    "address_councildis": "D",
    "status": "Pending",
    "rowid": "1171719",
    "final_x": "3688469.39939",
    "final_y": "542185.151565",
    "longitude": "-90.04568508642636",
    "latitude": "29.98460766235142",
    "geocoded_column": {
      "latitude": "29.98460766235142",
      "longitude": "-90.04568508642636"
    }
  },
  {
    "service_request": "2025-1171718",
    "request_type": "Trash/Recycling",
    "request_reason": "Request a Large Item Pick Up",
    "date_created": "2025-02-26T14:59:10.000",
    "date_modified": "2025-02-26T14:59:12.000",
    "request_status": "Pending",
    "responsible_agency": "Department of Sanitation",
    "final_address": "2224 Desire St",
    "address_councildis": "D",
    "status": "Assigned to Contractor",
    "contractor": "IV Waste",
    "rowid": "1171718",
    "final_x": "3691221.24425",
    "final_y": "540040.069195",
    "longitude": "-90.03706989593447",
    "latitude": "29.978624135536318",
    "geocoded_column": {
      "latitude": "29.978624135536318",
      "longitude": "-90.03706989593447"
    }
  },
  {
    "service_request": "2025-1171717",
    "request_type": "Street and Traffic Signs",
    "request_reason": "Stop Sign Missing or Damaged",
    "date_created": "2025-02-26T14:55:45.000",
    "date_modified": "2025-02-26T14:55:47.000",
    "request_status": "Pending",
    "responsible_agency": "Department of Public Works",
    "final_address": "3805 Carondelet St",
    "address_councildis": "B",
    "status": "Pending",
    "rowid": "1171717",
    "final_x": "3672736.36116",
    "final_y": "521497.796857",
    "longitude": "-90.09608450313026",
    "latitude": "29.928201074347534",
    "geocoded_column": {
      "latitude": "29.928201074347534",
      "longitude": "-90.09608450313026"
    }
  },
  {
    "service_request": "2025-1171716",
    "request_type": "Abandoned Vehicles",
    "request_reason": "Abandoned/Junk Vehicles",
    "date_created": "2025-02-26T14:51:47.000",
    "date_modified": "2025-02-26T14:54:39.000",
    "request_status": "Pending",
    "responsible_agency": "Department of Public Works",
    "final_address": "METROPOLITAN DR & STEPHEN GIRARD AVE",
    "address_councildis": "D",
    "status": "Pending",
    "rowid": "1171716",
    "final_x": "3690827.8",
    "final_y": "550268.18",
    "longitude": "-90.03794733265165",
    "latitude": "30.006759971877297",
    "geocoded_column": {
      "latitude": "30.006759971877297",
      "longitude": "-90.03794733265165"
    }
  },
  {
    "service_request": "2025-1171715",
    "request_type": "Abandoned Vehicles",
    "request_reason": "Abandoned/Junk Vehicles",
    "date_created": "2025-02-26T14:50:32.000",
    "date_modified": "2025-02-26T14:50:34.000",
    "request_status": "Pending",
    "responsible_agency": "Department of Public Works",
    "final_address": "FLORIDA BLVD & CANAL BLVD",
    "address_councildis": "A",
    "status": "Pending",
    "rowid": "1171715",
    "final_x": "3668233.5",
    "final_y": "545358.38",
    "longitude": "-90.10949457615558",
    "latitude": "29.993942715547814",
    "geocoded_column": {
      "latitude": "29.993942715547814",
      "longitude": "-90.10949457615558"
    }
  },
  {
    "service_request": "2025-1171714",
    "request_type": "Abandoned Vehicles",
    "request_reason": "Abandoned/Junk Vehicles",
    "date_created": "2025-02-26T14:48:51.000",
    "date_modified": "2025-02-26T14:48:53.000",
    "request_status": "Pending",
    "responsible_agency": "Department of Public Works",
    "final_address": "100 BLK N Alexander St",
    "address_councildis": "A",
    "status": "Pending",
    "rowid": "1171714",
    "final_x": "3670145.15836",
    "final_y": "539367.876432",
    "longitude": "-90.10365898098513",
    "latitude": "29.977414596940125",
    "geocoded_column": {
      "latitude": "29.977414596940125",
      "longitude": "-90.10365898098513"
    }
  },
  {
    "service_request": "2025-1171713",
    "request_type": "Trash/Recycling",
    "request_reason": "Order Trash Cart",
    "date_created": "2025-02-26T14:47:47.000",
    "date_modified": "2025-02-26T14:47:49.000",
    "request_status": "Pending",
    "responsible_agency": "Department of Sanitation",
    "final_address": "33 Egret St",
    "address_councildis": "D",
    "status": "Assigned to Contractor",
    "contractor": "IV Waste",
    "rowid": "1171713",
    "final_x": "3673817.29192",
    "final_y": "554964.761688",
    "longitude": "-90.09152728201131",
    "latitude": "30.020191700887114",
    "geocoded_column": {
      "latitude": "30.020191700887114",
      "longitude": "-90.09152728201131"
    }
  },
  {
    "service_request": "2025-1171712",
    "request_type": "Trash/Recycling",
    "request_reason": "Order Trash Cart",
    "date_created": "2025-02-26T14:45:43.000",
    "date_modified": "2025-02-26T14:45:45.000",
    "request_status": "Pending",
    "responsible_agency": "Department of Sanitation",
    "final_address": "843 Josephine St",
    "address_councildis": "B",
    "status": "Assigned to Contractor",
    "contractor": "IV Waste",
    "rowid": "1171712",
    "final_x": "3679697.61365",
    "final_y": "521687.582777",
    "longitude": "-90.07410280397163",
    "latitude": "29.928514406590672",
    "geocoded_column": {
      "latitude": "29.928514406590672",
      "longitude": "-90.07410280397163"
    }
  },
  {
    "service_request": "2025-1171711",
    "request_type": "Trash/Recycling",
    "request_reason": "Replace Trash Cart",
    "date_created": "2025-02-26T14:43:06.000",
    "date_modified": "2025-02-26T14:43:08.000",
    "request_status": "Pending",
    "responsible_agency": "Department of Sanitation",
    "final_address": "33 Egret St",
    "address_councildis": "D",
    "status": "Assigned to Contractor",
    "contractor": "IV Waste",
    "rowid": "1171711",
    "final_x": "3673817.29192",
    "final_y": "554964.761688",
    "longitude": "-90.09152728201131",
    "latitude": "30.020191700887114",
    "geocoded_column": {
      "latitude": "30.020191700887114",
      "longitude": "-90.09152728201131"
    }
  },
  {
    "service_request": "2025-1171710",
    "request_type": "Trash/Recycling",
    "request_reason": "Order Trash Cart",
    "date_created": "2025-02-26T14:42:58.000",
    "date_modified": "2025-02-26T14:43:00.000",
    "request_status": "Pending",
    "responsible_agency": "Department of Sanitation",
    "final_address": "9004 Dixon St",
    "address_councildis": "A",
    "status": "Assigned to Contractor",
    "contractor": "IV Waste",
    "rowid": "1171710",
    "final_x": "3666013.52749",
    "final_y": "537611.347464",
    "longitude": "-90.11676700228968",
    "latitude": "29.9727059996633",
    "geocoded_column": {
      "latitude": "29.9727059996633",
      "longitude": "-90.11676700228968"
    }
  },
  {
    "service_request": "2025-1171709",
    "request_type": "Trash/Recycling",
    "request_reason": "Request a Large Item Pick Up",
    "date_created": "2025-02-26T14:40:29.000",
    "date_modified": "2025-02-26T14:40:31.000",
    "request_status": "Pending",
    "responsible_agency": "Department of Sanitation",
    "final_address": "824 Andry St",
    "address_councildis": "E",
    "status": "Assigned to Contractor",
    "contractor": "Waste Pro",
    "rowid": "1171709",
    "final_x": "3696863.52381",
    "final_y": "533059.286212",
    "longitude": "-90.01950237851065",
    "latitude": "29.959252761130653",
    "geocoded_column": {
      "latitude": "29.959252761130653",
      "longitude": "-90.01950237851065"
    }
  },
  {
    "service_request": "2025-1171708",
    "request_type": "Trash/Recycling",
    "request_reason": "Request a Large Item Pick Up",
    "date_created": "2025-02-26T14:40:06.000",
    "date_modified": "2025-02-26T14:40:08.000",
    "request_status": "Pending",
    "responsible_agency": "Department of Sanitation",
    "final_address": "4973 Lafon Dr",
    "address_councildis": "E",
    "status": "Assigned to Contractor",
    "contractor": "Waste Pro",
    "rowid": "1171708",
    "final_x": "3701109.74359",
    "final_y": "555519.518937",
    "longitude": "-90.00527190584964",
    "latitude": "30.020875539119082",
    "geocoded_column": {
      "latitude": "30.020875539119082",
      "longitude": "-90.00527190584964"
    }
  },
  {
    "service_request": "2025-1171707",
    "request_type": "Trash/Recycling",
    "request_reason": "Illegal Dumping",
    "date_created": "2025-02-26T14:39:40.000",
    "date_modified": "2025-02-26T14:39:42.000",
    "request_status": "Pending",
    "responsible_agency": "Department of Sanitation",
    "final_address": "7521 Morel St",
    "address_councildis": "E",
    "status": "Pending",
    "rowid": "1171707",
    "final_x": "3719223.03289",
    "final_y": "571522.09764",
    "longitude": "-89.94742832733601",
    "latitude": "30.06428640065357",
    "geocoded_column": {
      "latitude": "30.06428640065357",
      "longitude": "-89.94742832733601"
    }
  },
  {
    "service_request": "2025-1171706",
    "request_type": "Trash/Recycling",
    "request_reason": "Replace Trash Cart",
    "date_created": "2025-02-26T14:29:33.000",
    "date_modified": "2025-02-26T14:29:35.000",
    "request_status": "Pending",
    "responsible_agency": "Department of Sanitation",
    "final_address": "7123 Bunker Hill Rd",
    "address_councildis": "E",
    "status": "Assigned to Contractor",
    "contractor": "Waste Pro",
    "rowid": "1171706",
    "final_x": "3705750.54494",
    "final_y": "560853.469278",
    "longitude": "-89.99041091685731",
    "latitude": "30.035393107957344",
    "geocoded_column": {
      "latitude": "30.035393107957344",
      "longitude": "-89.99041091685731"
    }
  },
  {
    "service_request": "2025-1171705",
    "request_type": "Trash/Recycling",
    "request_reason": "Request a Large Item Pick Up",
    "date_created": "2025-02-26T14:27:38.000",
    "date_modified": "2025-02-26T14:27:39.000",
    "request_status": "Pending",
    "responsible_agency": "Department of Sanitation",
    "final_address": "2217 Lapeyrouse St",
    "address_councildis": "D",
    "status": "Assigned to Contractor",
    "contractor": "IV Waste",
    "rowid": "1171705",
    "final_x": "3680409.9741",
    "final_y": "539176.524106",
    "longitude": "-90.07124593664615",
    "latitude": "29.976581554199818",
    "geocoded_column": {
      "latitude": "29.976581554199818",
      "longitude": "-90.07124593664615"
    }
  },
  {
    "service_request": "2025-1171704",
    "request_type": "Trash/Recycling",
    "request_reason": "MIssed Recycling Pick-Up",
    "date_created": "2025-02-26T14:25:57.000",
    "date_modified": "2025-02-26T14:25:59.000",
    "request_status": "Pending",
    "responsible_agency": "Department of Sanitation",
    "final_address": "4709 Crowder Blvd",
    "address_councildis": "E",
    "status": "Assigned to Contractor",
    "contractor": "Waste Pro",
    "rowid": "1171704",
    "final_x": "3706530.36222",
    "final_y": "555421.785305",
    "longitude": "-89.98814809510012",
    "latitude": "30.0204329459861",
    "geocoded_column": {
      "latitude": "30.0204329459861",
      "longitude": "-89.98814809510012"
    }
  },
  {
    "service_request": "2025-1171703",
    "request_type": "Trash/Recycling",
    "request_reason": "Request a Large Item Pick Up",
    "date_created": "2025-02-26T14:23:28.000",
    "date_modified": "2025-02-26T14:23:30.000",
    "request_status": "Pending",
    "responsible_agency": "Department of Sanitation",
    "final_address": "7320 Lake Barrington Dr",
    "address_councildis": "E",
    "status": "Assigned to Contractor",
    "contractor": "Waste Pro",
    "rowid": "1171703",
    "final_x": "3712113.0947",
    "final_y": "564927.730082",
    "longitude": "-89.97015121222577",
    "latitude": "30.046389118196586",
    "geocoded_column": {
      "latitude": "30.046389118196586",
      "longitude": "-89.97015121222577"
    }
  },
  {
    "service_request": "2025-1171702",
    "request_type": "Trash/Recycling",
    "request_reason": "Request a Large Item Pick Up",
    "date_created": "2025-02-26T14:22:35.000",
    "date_modified": "2025-02-26T14:22:36.000",
    "request_status": "Pending",
    "responsible_agency": "Department of Sanitation",
    "final_address": "1964 Mirabeau Ave",
    "address_councildis": "D",
    "status": "Assigned to Contractor",
    "contractor": "IV Waste",
    "rowid": "1171702",
    "final_x": "3682210.54613",
    "final_y": "550490.804692",
    "longitude": "-90.06516369342746",
    "latitude": "30.007637162054845",
    "geocoded_column": {
      "latitude": "30.007637162054845",
      "longitude": "-90.06516369342746"
    }
  },
  {
    "service_request": "2025-1171701",
    "request_type": "Roads and Streets",
    "request_reason": "Pothole",
    "date_created": "2025-02-26T14:20:12.000",
    "date_modified": "2025-02-26T14:20:14.000",
    "request_status": "Pending",
    "responsible_agency": "Department of Public Works",
    "final_address": "1500 BLK Harmony St",
    "address_councildis": "B",
    "status": "Pending",
    "rowid": "1171701",
    "final_x": "3674990.93017",
    "final_y": "521584.518627",
    "longitude": "-90.08896435060474",
    "latitude": "29.928372399860375",
    "geocoded_column": {
      "latitude": "29.928372399860375",
      "longitude": "-90.08896435060474"
    }
  },
  {
    "service_request": "2025-1171700",
    "request_type": "Mosquito, Termite & Rodent Control",
    "request_reason": "Rodent Complaint (Mice)",
    "date_created": "2025-02-26T14:19:48.000",
    "date_modified": "2025-02-26T14:22:34.000",
    "case_close_date": "2025-02-26T08:22:34.000",
    "request_status": "Closed",
    "responsible_agency": "Mosquito, Termite & Rodent Control Board",
    "final_address": "1228 Touro St",
    "address_councildis": "C",
    "status": "Duplicate Request",
    "rowid": "1171700",
    "final_x": "3684152.93173",
    "final_y": "536843.311496",
    "longitude": "-90.05950646512585",
    "latitude": "29.970052141601826",
    "geocoded_column": {
      "latitude": "29.970052141601826",
      "longitude": "-90.05950646512585"
    }
  },
  {
    "service_request": "2025-1171699",
    "request_type": "Trash/Recycling",
    "request_reason": "Request a Large Item Pick Up",
    "date_created": "2025-02-26T14:19:47.000",
    "date_modified": "2025-02-26T14:22:58.000",
    "request_status": "Pending",
    "responsible_agency": "Department of Sanitation",
    "final_address": "2631 N Miro St",
    "address_councildis": "D",
    "status": "Assigned to Contractor",
    "contractor": "IV Waste",
    "rowid": "1171699",
    "final_x": "3687920.13571",
    "final_y": "540648.334155",
    "longitude": "-90.04747443769875",
    "latitude": "29.980398920786904",
    "geocoded_column": {
      "latitude": "29.980398920786904",
      "longitude": "-90.04747443769875"
    }
  },
  {
    "service_request": "2025-1171698",
    "request_type": "Trash/Recycling",
    "request_reason": "Repair Recycling Cart",
    "date_created": "2025-02-26T14:18:10.000",
    "date_modified": "2025-02-26T14:18:12.000",
    "request_status": "Pending",
    "responsible_agency": "Department of Sanitation",
    "final_address": "5183 Forest Park Ln",
    "address_councildis": "C",
    "status": "Pending",
    "rowid": "1171698",
    "final_x": "3703564.90679",
    "final_y": "510550.451631",
    "longitude": "-89.99916877808377",
    "latitude": "29.89714831759517",
    "geocoded_column": {
      "latitude": "29.89714831759517",
      "longitude": "-89.99916877808377"
    }
  },
  {
    "service_request": "2025-1171697",
    "request_type": "Trash/Recycling",
    "request_reason": "Request a Large Item Pick Up",
    "date_created": "2025-02-26T14:16:01.000",
    "date_modified": "2025-02-26T14:16:03.000",
    "request_status": "Pending",
    "responsible_agency": "Department of Sanitation",
    "final_address": "4901 Michoud Blvd",
    "address_councildis": "E",
    "status": "Assigned to Contractor",
    "contractor": "Waste Pro",
    "rowid": "1171697",
    "final_x": "3725089.9056",
    "final_y": "561155.121182",
    "longitude": "-89.92928446490467",
    "latitude": "30.035585125654556",
    "geocoded_column": {
      "latitude": "30.035585125654556",
      "longitude": "-89.92928446490467"
    }
  },
  {
    "service_request": "2025-1171696",
    "request_type": "Trash/Recycling",
    "request_reason": "Request a Large Item Pick Up",
    "date_created": "2025-02-26T14:15:50.000",
    "date_modified": "2025-02-26T14:59:19.000",
    "request_status": "Pending",
    "responsible_agency": "Department of Sanitation",
    "final_address": "1923 Short St",
    "address_councildis": "A",
    "status": "Pending",
    "rowid": "1171696",
    "final_x": "3664108.02669",
    "final_y": "529993.172737",
    "longitude": "-90.12303908257924",
    "latitude": "29.951814005183977",
    "geocoded_column": {
      "latitude": "29.951814005183977",
      "longitude": "-90.12303908257924"
    }
  },
  {
    "service_request": "2025-1171695",
    "request_type": "Trash/Recycling",
    "request_reason": "Request a Large Item Pick Up",
    "date_created": "2025-02-26T14:14:01.000",
    "date_modified": "2025-02-26T14:14:03.000",
    "request_status": "Pending",
    "responsible_agency": "Department of Sanitation",
    "final_address": "3040 Ridgeway Blvd",
    "address_councildis": "E",
    "status": "Assigned to Contractor",
    "contractor": "Waste Pro",
    "rowid": "1171695",
    "final_x": "3744350.29851",
    "final_y": "596738.788479",
    "longitude": "-89.86698049752366",
    "latitude": "30.132761121812887",
    "geocoded_column": {
      "latitude": "30.132761121812887",
      "longitude": "-89.86698049752366"
    }
  },
  {
    "service_request": "2025-1171694",
    "request_type": "Trash/Recycling",
    "request_reason": "Request a Large Item Pick Up",
    "date_created": "2025-02-26T14:11:16.000",
    "date_modified": "2025-02-26T14:22:00.000",
    "request_status": "Pending",
    "responsible_agency": "Department of Sanitation",
    "final_address": "1922 Burgundy St",
    "address_councildis": "C",
    "status": "Assigned to Contractor",
    "contractor": "IV Waste",
    "rowid": "1171694",
    "final_x": "3684145.05474",
    "final_y": "535475.144454",
    "longitude": "-90.05957937292675",
    "latitude": "29.96629039671483",
    "geocoded_column": {
      "latitude": "29.96629039671483",
      "longitude": "-90.05957937292675"
    }
  },
  {
    "service_request": "2025-1171693",
    "request_type": "Mosquito, Termite & Rodent Control",
    "request_reason": "Rodent Complaint (Rats)",
    "date_created": "2025-02-26T14:08:50.000",
    "date_modified": "2025-02-26T14:08:52.000",
    "request_status": "Pending",
    "responsible_agency": "Mosquito, Termite & Rodent Control Board",
    "final_address": "1228 Touro St",
    "address_councildis": "C",
    "status": "Pending",
    "rowid": "1171693",
    "final_x": "3684152.93173",
    "final_y": "536843.311496",
    "longitude": "-90.05950646512585",
    "latitude": "29.970052141601826",
    "geocoded_column": {
      "latitude": "29.970052141601826",
      "longitude": "-90.05950646512585"
    }
  },
  {
    "service_request": "2025-1171692",
    "request_type": "Abandoned Vehicles",
    "request_reason": "Abandoned/Junk Vehicles",
    "date_created": "2025-02-26T14:05:52.000",
    "date_modified": "2025-02-26T14:05:53.000",
    "request_status": "Pending",
    "responsible_agency": "Department of Public Works",
    "final_address": "926 Esplanade Ave",
    "address_councildis": "C",
    "status": "Pending",
    "rowid": "1171692",
    "final_x": "3683257.6989",
    "final_y": "534939.562566",
    "longitude": "-90.06240038284064",
    "latitude": "29.964844824180176",
    "geocoded_column": {
      "latitude": "29.964844824180176",
      "longitude": "-90.06240038284064"
    }
  },
  {
    "service_request": "2025-1171691",
    "request_type": "Abandoned Vehicles",
    "request_reason": "Abandoned/Junk Vehicles",
    "date_created": "2025-02-26T14:05:49.000",
    "date_modified": "2025-02-26T14:05:51.000",
    "request_status": "Pending",
    "responsible_agency": "Department of Public Works",
    "final_address": "926 Esplanade Ave",
    "address_councildis": "C",
    "status": "Pending",
    "rowid": "1171691",
    "final_x": "3683257.6989",
    "final_y": "534939.562566",
    "longitude": "-90.06240038284064",
    "latitude": "29.964844824180176",
    "geocoded_column": {
      "latitude": "29.964844824180176",
      "longitude": "-90.06240038284064"
    }
  },
  {
    "service_request": "2025-1171690",
    "request_type": "Abandoned Vehicles",
    "request_reason": "Abandoned/Junk Vehicles",
    "date_created": "2025-02-26T14:05:46.000",
    "date_modified": "2025-02-26T14:05:48.000",
    "request_status": "Pending",
    "responsible_agency": "Department of Public Works",
    "final_address": "926 Esplanade Ave",
    "address_councildis": "C",
    "status": "Pending",
    "rowid": "1171690",
    "final_x": "3683257.6989",
    "final_y": "534939.562566",
    "longitude": "-90.06240038284064",
    "latitude": "29.964844824180176",
    "geocoded_column": {
      "latitude": "29.964844824180176",
      "longitude": "-90.06240038284064"
    }
  },
  {
    "service_request": "2025-1171689",
    "request_type": "Abandoned Vehicles",
    "request_reason": "Abandoned/Junk Vehicles",
    "date_created": "2025-02-26T14:03:44.000",
    "date_modified": "2025-02-26T14:03:46.000",
    "request_status": "Pending",
    "responsible_agency": "Department of Public Works",
    "final_address": "926 Esplanade Ave",
    "address_councildis": "C",
    "status": "Pending",
    "rowid": "1171689",
    "final_x": "3683257.6989",
    "final_y": "534939.562566",
    "longitude": "-90.06240038284064",
    "latitude": "29.964844824180176",
    "geocoded_column": {
      "latitude": "29.964844824180176",
      "longitude": "-90.06240038284064"
    }
  },
  {
    "service_request": "2025-1171688",
    "request_type": "Trash/Recycling",
    "request_reason": "Request a Large Item Pick Up",
    "date_created": "2025-02-26T14:03:18.000",
    "date_modified": "2025-02-26T14:03:19.000",
    "request_status": "Pending",
    "responsible_agency": "Department of Sanitation",
    "final_address": "6637 Louis Xiv St",
    "address_councildis": "A",
    "status": "Assigned to Contractor",
    "contractor": "IV Waste",
    "rowid": "1171688",
    "final_x": "3668583.56929",
    "final_y": "551844.86255",
    "longitude": "-90.10816967040705",
    "latitude": "30.011768002690836",
    "geocoded_column": {
      "latitude": "30.011768002690836",
      "longitude": "-90.10816967040705"
    }
  },
  {
    "service_request": "2025-1171687",
    "request_type": "Trash/Recycling",
    "request_reason": "Repair Trash Cart",
    "date_created": "2025-02-26T13:59:35.000",
    "date_modified": "2025-02-26T13:59:37.000",
    "request_status": "Pending",
    "responsible_agency": "Department of Sanitation",
    "final_address": "618 N Alexander St",
    "address_councildis": "A",
    "status": "Assigned to Contractor",
    "contractor": "IV Waste",
    "rowid": "1171687",
    "final_x": "3671221.5307",
    "final_y": "540720.179659",
    "longitude": "-90.10021346639385",
    "latitude": "29.981101165293257",
    "geocoded_column": {
      "latitude": "29.981101165293257",
      "longitude": "-90.10021346639385"
    }
  },
  {
    "service_request": "2025-1171686",
    "request_type": "Trash/Recycling",
    "request_reason": "Request a Large Item Pick Up",
    "date_created": "2025-02-26T13:56:20.000",
    "date_modified": "2025-02-26T13:56:22.000",
    "request_status": "Pending",
    "responsible_agency": "Department of Sanitation",
    "final_address": "10122 Pressburg St",
    "address_councildis": "E",
    "status": "Assigned to Contractor",
    "contractor": "Waste Pro",
    "rowid": "1171686",
    "final_x": "3712919.15198",
    "final_y": "557087.803162",
    "longitude": "-89.96789894774632",
    "latitude": "30.024806061955424",
    "geocoded_column": {
      "latitude": "30.024806061955424",
      "longitude": "-89.96789894774632"
    }
  },
  {
    "service_request": "2025-1171685",
    "request_type": "Trash/Recycling",
    "request_reason": "Request a Large Item Pick Up",
    "date_created": "2025-02-26T13:53:23.000",
    "date_modified": "2025-02-26T13:53:25.000",
    "request_status": "Pending",
    "responsible_agency": "Department of Sanitation",
    "final_address": "8720 Lomond Rd",
    "address_councildis": "E",
    "status": "Assigned to Contractor",
    "contractor": "Waste Pro",
    "rowid": "1171685",
    "final_x": "3704671.56676",
    "final_y": "562472.664479",
    "longitude": "-89.9937608235621",
    "latitude": "30.039879984261596",
    "geocoded_column": {
      "latitude": "30.039879984261596",
      "longitude": "-89.9937608235621"
    }
  },
  {
    "service_request": "2025-1171684",
    "request_type": "Trash/Recycling",
    "request_reason": "MIssed Recycling Pick-Up",
    "date_created": "2025-02-26T13:50:01.000",
    "date_modified": "2025-02-26T13:50:03.000",
    "request_status": "Pending",
    "responsible_agency": "Department of Sanitation",
    "final_address": "7221 E Renaissance Ct",
    "address_councildis": "E",
    "status": "Assigned to Contractor",
    "contractor": "Waste Pro",
    "rowid": "1171684",
    "final_x": "3717025.27852",
    "final_y": "568356.158245",
    "longitude": "-89.95449596203733",
    "latitude": "30.055654287632233",
    "geocoded_column": {
      "latitude": "30.055654287632233",
      "longitude": "-89.95449596203733"
    }
  },
  {
    "service_request": "2025-1171683",
    "request_type": "Parks & Parkways",
    "request_reason": "Request Tree Service (Right of Way/Public Property)",
    "date_created": "2025-02-26T13:49:42.000",
    "date_modified": "2025-02-26T13:49:44.000",
    "request_status": "Pending",
    "responsible_agency": "Department of Parks & Parkway",
    "final_address": "3925 Franklin Ave",
    "address_councildis": "D",
    "status": "Pending",
    "rowid": "1171683",
    "final_x": "3687110.03561",
    "final_y": "547444.679761",
    "longitude": "-90.049792620576",
    "latitude": "29.999111413816934",
    "geocoded_column": {
      "latitude": "29.999111413816934",
      "longitude": "-90.049792620576"
    }
  },
  {
    "service_request": "2025-1171682",
    "request_type": "Trash/Recycling",
    "request_reason": "Order Trash Cart",
    "date_created": "2025-02-26T13:47:01.000",
    "date_modified": "2025-02-26T13:47:04.000",
    "request_status": "Pending",
    "responsible_agency": "Department of Sanitation",
    "final_address": "3215 Nashville Ave",
    "address_councildis": "A",
    "status": "Assigned to Contractor",
    "contractor": "IV Waste",
    "rowid": "1171682",
    "final_x": "3667956.13876",
    "final_y": "527539.890879",
    "longitude": "-90.11097117391796",
    "latitude": "29.944955954763785",
    "geocoded_column": {
      "latitude": "29.944955954763785",
      "longitude": "-90.11097117391796"
    }
  },
  {
    "service_request": "2025-1171681",
    "request_type": "Trash/Recycling",
    "request_reason": "Repair Recycling Cart",
    "date_created": "2025-02-26T13:45:53.000",
    "date_modified": "2025-02-26T13:48:52.000",
    "request_status": "Pending",
    "responsible_agency": "Department of Sanitation",
    "final_address": "7221 E Renaissance Ct",
    "address_councildis": "E",
    "status": "Pending",
    "rowid": "1171681",
    "final_x": "3717025.27852",
    "final_y": "568356.158245",
    "longitude": "-89.95449596203733",
    "latitude": "30.055654287632233",
    "geocoded_column": {
      "latitude": "30.055654287632233",
      "longitude": "-89.95449596203733"
    }
  },
  {
    "service_request": "2025-1171680",
    "request_type": "Parks & Parkways",
    "request_reason": "Request Tree Service (Right of Way/Public Property)",
    "date_created": "2025-02-26T13:34:10.000",
    "date_modified": "2025-02-26T13:34:12.000",
    "request_status": "Pending",
    "responsible_agency": "Department of Parks & Parkway",
    "final_address": "4443 Arts St",
    "address_councildis": "D",
    "status": "Pending",
    "rowid": "1171680",
    "final_x": "3686074.66492",
    "final_y": "549250.176979",
    "longitude": "-90.05299964038981",
    "latitude": "30.00410772806479",
    "geocoded_column": {
      "latitude": "30.00410772806479",
      "longitude": "-90.05299964038981"
    }
  },
  {
    "service_request": "2025-1171679",
    "request_type": "Abandoned Vehicles",
    "request_reason": "Abandoned/Junk Vehicles",
    "date_created": "2025-02-26T13:31:13.000",
    "date_modified": "2025-02-26T13:39:35.000",
    "request_status": "Pending",
    "responsible_agency": "Department of Public Works",
    "final_address": "2300 BLK Lafitte Ave",
    "address_councildis": "D",
    "status": "Inspected",
    "rowid": "1171679",
    "final_x": "3677642.66633",
    "final_y": "535613.648049",
    "longitude": "-90.0801090211622",
    "latitude": "29.96686838510165",
    "geocoded_column": {
      "latitude": "29.96686838510165",
      "longitude": "-90.0801090211622"
    }
  },
  {
    "service_request": "2025-1171678",
    "request_type": "Abandoned Vehicles",
    "request_reason": "Abandoned/Junk Vehicles",
    "date_created": "2025-02-26T13:30:10.000",
    "date_modified": "2025-02-26T13:30:12.000",
    "request_status": "Pending",
    "responsible_agency": "Department of Public Works",
    "final_address": "4800 Read Blvd",
    "address_councildis": "E",
    "status": "Pending",
    "rowid": "1171678",
    "final_x": "3712638.34501",
    "final_y": "556440.655514",
    "longitude": "-89.96881059327092",
    "latitude": "30.02303585900835",
    "geocoded_column": {
      "latitude": "30.02303585900835",
      "longitude": "-89.96881059327092"
    }
  },
  {
    "service_request": "2025-1171677",
    "request_type": "Abandoned Vehicles",
    "request_reason": "Abandoned/Junk Vehicles",
    "date_created": "2025-02-26T13:27:31.000",
    "date_modified": "2025-02-26T13:27:33.000",
    "request_status": "Pending",
    "responsible_agency": "Department of Public Works",
    "final_address": "100 BLK Hathaway Pl",
    "address_councildis": "D",
    "status": "Pending",
    "rowid": "1171677",
    "final_x": "3678062.1668",
    "final_y": "543789.632353",
    "longitude": "-90.07850148121031",
    "latitude": "29.989336897824444",
    "geocoded_column": {
      "latitude": "29.989336897824444",
      "longitude": "-90.07850148121031"
    }
  },
  {
    "service_request": "2025-1171676",
    "request_type": "Trash/Recycling",
    "request_reason": "Request a Large Item Pick Up",
    "date_created": "2025-02-26T13:26:04.000",
    "date_modified": "2025-02-26T13:26:06.000",
    "request_status": "Pending",
    "responsible_agency": "Department of Sanitation",
    "final_address": "3741 Inwood Ave",
    "address_councildis": "C",
    "status": "Assigned to Contractor",
    "contractor": "Richards Disposal",
    "rowid": "1171676",
    "final_x": "3704705.18462",
    "final_y": "514632.755187",
    "longitude": "-89.99541990003623",
    "latitude": "29.908336708074568",
    "geocoded_column": {
      "latitude": "29.908336708074568",
      "longitude": "-89.99541990003623"
    }
  },
  {
    "service_request": "2025-1171675",
    "request_type": "Alley Ways",
    "request_reason": "Alley Way Regrading",
    "date_created": "2025-02-26T13:24:48.000",
    "date_modified": "2025-02-26T13:24:50.000",
    "request_status": "Pending",
    "responsible_agency": "Department of Public Works",
    "final_address": "6338 Colbert St",
    "address_councildis": "A",
    "status": "Pending",
    "rowid": "1171675",
    "final_x": "3667535.90861",
    "final_y": "549742.999572",
    "longitude": "-90.1115504915677",
    "latitude": "30.006019373139583",
    "geocoded_column": {
      "latitude": "30.006019373139583",
      "longitude": "-90.1115504915677"
    }
  },
  {
    "service_request": "2025-1171674",
    "request_type": "Traffic Signals",
    "request_reason": "Traffic Signal Malfunctioning or Damaged",
    "date_created": "2025-02-26T13:17:13.000",
    "date_modified": "2025-02-26T13:17:15.000",
    "request_status": "Pending",
    "responsible_agency": "Department of Public Works",
    "final_address": "GENTILLY BLVD & NEW ORLEANS ST",
    "address_councildis": "D",
    "status": "Pending",
    "rowid": "1171674",
    "final_x": "3681687.07",
    "final_y": "545123.35",
    "longitude": "-90.06700490994255",
    "latitude": "29.99289449916709",
    "geocoded_column": {
      "latitude": "29.99289449916709",
      "longitude": "-90.06700490994255"
    }
  },
  {
    "service_request": "2025-1171673",
    "request_type": "Streetlights",
    "request_reason": "Streetlight Outage/Malfunction",
    "date_created": "2025-02-26T13:17:10.000",
    "date_modified": "2025-02-26T13:17:11.000",
    "request_status": "Pending",
    "responsible_agency": "Department of Public Works",
    "final_address": "7518 Scottwood Dr",
    "address_councildis": "E",
    "status": "Pending",
    "contractor": "Legacy Professional Services",
    "rowid": "1171673",
    "final_x": "3717598.67346",
    "final_y": "570160.314791",
    "longitude": "-89.9526148753239",
    "latitude": "30.060595985860388",
    "geocoded_column": {
      "latitude": "30.060595985860388",
      "longitude": "-89.9526148753239"
    }
  },
  {
    "service_request": "2025-1171672",
    "request_type": "Roads and Streets",
    "request_reason": "Pothole",
    "date_created": "2025-02-26T13:15:43.000",
    "date_modified": "2025-02-26T13:16:10.000",
    "case_close_date": "2025-02-26T07:16:10.000",
    "request_status": "Closed",
    "responsible_agency": "Department of Public Works",
    "final_address": "3604 Canal St",
    "address_councildis": "B",
    "status": "Resolved",
    "rowid": "1171672",
    "final_x": "3672479.94599",
    "final_y": "537170.779848",
    "longitude": "-90.09635983850714",
    "latitude": "29.971304223889558",
    "geocoded_column": {
      "latitude": "29.971304223889558",
      "longitude": "-90.09635983850714"
    }
  },
  {
    "service_request": "2025-1171671",
    "request_type": "Abandoned Vehicles",
    "request_reason": "Abandoned/Junk Vehicles",
    "date_created": "2025-02-26T13:15:26.000",
    "date_modified": "2025-02-26T13:17:48.000",
    "request_status": "Pending",
    "responsible_agency": "Department of Public Works",
    "final_address": "S PETERS ST & ST JAMES ST",
    "address_councildis": "B",
    "status": "Inspected",
    "rowid": "1171671",
    "final_x": "3682466.7",
    "final_y": "521768.98",
    "longitude": "-90.0653585550271",
    "latitude": "29.928654256131434",
    "geocoded_column": {
      "latitude": "29.928654256131434",
      "longitude": "-90.0653585550271"
    }
  },
  {
    "service_request": "2025-1171670",
    "request_type": "Safety & Permits",
    "request_reason": "Licenses & Permits",
    "date_created": "2025-02-26T13:14:36.000",
    "date_modified": "2025-02-26T15:39:20.000",
    "case_close_date": "2025-02-26T09:39:19.000",
    "request_status": "Closed",
    "responsible_agency": "Safety and Permits",
    "final_address": "4920 Camp St",
    "address_councildis": "B",
    "status": "Resolved",
    "rowid": "1171670",
    "final_x": "3668829.47758",
    "final_y": "518888.438583",
    "longitude": "-90.10850574963433",
    "latitude": "29.921141585271084",
    "geocoded_column": {
      "latitude": "29.921141585271084",
      "longitude": "-90.10850574963433"
    }
  },