[
  {
    "service_request": "2023-1013923",
    "request_type": "Trash/Recycling",
    "request_reason": "Replace Trash Cart",
    "date_created": "2023-07-04T02:08:33.000",
    "date_modified": "2023-07-04T02:08:34.000",
    "request_status": "Pending",
    "responsible_agency": "Department of Sanitation",
    "final_address": "5800 Chatham Dr",
    "address_councildis": "D",
    "status": "Assigned to Contractor",
    "contractor": "IV Waste",
    "rowid": "1013923",
    "final_x": "3679560.97883",
    "final_y": "553888.440343",
    "longitude": "-90.07341641771033",
    "latitude": "30.01705980009586",
    "geocoded_column": {
      "latitude": "30.01705980009586",
      "longitude": "-90.07341641771033"
    }
  },
  {
    "service_request": "2023-1013922",
    "request_type": "Trash/Recycling",
    "request_reason": "Order Recycling Cart",
    "date_created": "2023-07-04T02:05:44.000",
    "date_modified": "2023-07-04T02:05:44.000",
    "request_status": "Pending",
    "responsible_agency": "Department of Sanitation",
    "final_address": "4447 Cartier Ave",
    "address_councildis": "D",
    "status": "Pending",
    "rowid": "1013922",
    "final_x": "3678032.53294",
    "final_y": "548847.967699",
    "longitude": "-90.07842009850538",
    "latitude": "30.003246429100326",
    "geocoded_column": {
      "latitude": "30.003246429100326",
      "longitude": "-90.07842009850538"
    }
  },
  {
    "service_request": "2023-1013921",
    "request_type": "Health Related Request",
    "request_reason": "Noise Ordinance Complaint",
    "date_created": "2023-07-04T01:31:07.000",
    "date_modified": "2023-07-04T01:31:07.000",
    "request_status": "Pending",
    "responsible_agency": "Health Department",
    "final_address": "5709 Wildair Dr, New Orleans, Louisiana, 70122",
    "address_councildis": "D",
    "status": "Pending",
    "rowid": "1013921",
    "final_x": "3681633.35048",
    "final_y": "553834.301655",
    "longitude": "-90.06687047035255",
    "latitude": "30.016848119881896",
    "geocoded_column": {
      "latitude": "30.016848119881896",
      "longitude": "-90.06687047035255"
    }
  },
  {
    "service_request": "2023-1013920",
    "request_type": "Trash/Recycling",
    "request_reason": "Illegal Dumping",
    "date_created": "2023-07-04T01:19:54.000",
    "date_modified": "2023-07-04T01:19:54.000",
    "request_status": "Pending",
    "responsible_agency": "Department of Sanitation",
    "final_address": "713 S Solomon St",
    "address_councildis": "A",
    "status": "Pending",
    "rowid": "1013920",
    "final_x": "3669065.12346",
    "final_y": "536774.157384",
    "longitude": "-90.10715776355593",
    "latitude": "29.970314566919317",
    "geocoded_column": {
      "latitude": "29.970314566919317",
      "longitude": "-90.10715776355593"
    }
  },
  {
    "service_request": "2023-1013919",
    "request_type": "Trash/Recycling",
    "request_reason": "Illegal Dumping",
    "date_created": "2023-07-04T01:15:52.000",
    "date_modified": "2023-07-04T01:15:52.000",
    "request_status": "Pending",
    "responsible_agency": "Department of Sanitation",
    "final_address": "4210 Ulloa St",
    "address_councildis": "A",
    "status": "Pending",
    "rowid": "1013919",
    "final_x": "3669048.07994",
    "final_y": "536906.353224",
    "longitude": "-90.10720712159522",
    "latitude": "29.97067856272226",
    "geocoded_column": {
      "latitude": "29.97067856272226",
      "longitude": "-90.10720712159522"
    }
  },
  {
    "service_request": "2023-1013918",
    "request_type": "Trash/Recycling",
    "request_reason": "MIssed Recycling Pick-Up",
    "date_created": "2023-07-04T01:07:50.000",
    "date_modified": "2023-07-04T01:07:51.000",
    "request_status": "Pending",
    "responsible_agency": "Department of Sanitation",
    "status": "Assigned to Contractor",
    "rowid": "1013918",
    "longitude": "0.0",
    "latitude": "0.0",
    "geocoded_column": {
      "latitude": "0.0",
      "longitude": "0.0"
    }
  },
  {
    "service_request": "2023-1013917",
    "request_type": "Abandoned Vehicles",
    "request_reason": "Abandoned/Junk Vehicles",
    "date_created": "2023-07-04T01:07:34.000",
    "date_modified": "2023-07-04T01:07:34.000",
    "request_status": "Pending",
    "responsible_agency": "Department of Public Works",
    "final_address": "4235 Tulane Ave A",
    "address_councildis": "A",
    "status": "Pending",
    "rowid": "1013917",
    "final_x": "3668708.64954",
    "final_y": "536686.285511",
    "longitude": "-90.10828651745078",
    "latitude": "29.970083432854718",
    "geocoded_column": {
      "latitude": "29.970083432854718",
      "longitude": "-90.10828651745078"
    }
  },
  {
    "service_request": "2023-1013916",
    "request_type": "Abandoned Vehicles",
    "request_reason": "Abandoned/Junk Vehicles",
    "date_created": "2023-07-04T01:00:50.000",
    "date_modified": "2023-07-04T01:00:50.000",
    "request_status": "Pending",
    "responsible_agency": "Department of Public Works",
    "final_address": "4235 Tulane Ave A",
    "address_councildis": "A",
    "status": "Pending",
    "rowid": "1013916",
    "final_x": "3668708.64954",
    "final_y": "536686.285511",
    "longitude": "-90.10828651745078",
    "latitude": "29.970083432854718",
    "geocoded_column": {
      "latitude": "29.970083432854718",
      "longitude": "-90.10828651745078"
    }
  },
  {
    "service_request": "2023-1013915",
    "request_type": "Roads/Drainage",
    "request_reason": "Pothole",
    "date_created": "2023-07-04T00:04:29.000",
    "date_modified": "2023-07-04T00:04:29.000",
    "request_status": "Pending",
    "responsible_agency": "Department of Public Works",
    "final_address": "3718 Camp St",
    "address_councildis": "B",
    "status": "Pending",
    "rowid": "1013915",
    "final_x": "3673410.40558",
    "final_y": "519398.175799",
    "longitude": "-90.09402837859666",
    "latitude": "29.922407761054036",
    "geocoded_column": {
      "latitude": "29.922407761054036",
      "longitude": "-90.09402837859666"
    }
  },
  {
    "service_request": "2023-1013914",
    "request_type": "Property Maintenance",
    "request_reason": "Property Maintenance",
    "date_created": "2023-07-03T23:44:10.000",
    "date_modified": "2023-07-03T23:44:10.000",
    "request_status": "Pending",
    "responsible_agency": "Department of Code Enforcement",
    "final_address": "4201 Chestnut St",
    "address_councildis": "B",
    "status": "Pending",
    "rowid": "1013914",
    "final_x": "3671660.57556",
    "final_y": "519628.850872",
    "longitude": "-90.09954405244584",
    "latitude": "29.923093967293724",
    "geocoded_column": {
      "latitude": "29.923093967293724",
      "longitude": "-90.09954405244584"
    }
  },
  {
    "service_request": "2023-1013913",
    "request_type": "Trash/Recycling",
    "request_reason": "MIssed Recycling Pick-Up",
    "date_created": "2023-07-03T22:20:24.000",
    "date_modified": "2023-07-03T22:20:51.000",
    "request_status": "Pending",
    "responsible_agency": "Department of Sanitation",
    "final_address": "1023 Nunez St",
    "address_councildis": "C",
    "status": "Assigned to Contractor",
    "contractor": "Richards Disposal",
    "rowid": "1013913",
    "final_x": "3686921.52226",
    "final_y": "527734.768447",
    "longitude": "-90.05108489935172",
    "latitude": "29.94492186514002",
    "geocoded_column": {
      "latitude": "29.94492186514002",
      "longitude": "-90.05108489935172"
    }
  },
  {
    "service_request": "2023-1013912",
    "request_type": "Trash/Recycling",
    "request_reason": "Request a Large Item Pick Up",
    "date_created": "2023-07-03T22:06:39.000",
    "date_modified": "2023-07-03T22:11:26.000",
    "request_status": "Pending",
    "responsible_agency": "Department of Sanitation",
    "final_address": "4571 Veronese Rd",
    "address_councildis": "E",
    "status": "Assigned to Contractor",
    "contractor": "Waste Pro",
    "rowid": "1013912",
    "final_x": "3763056.96157",
    "final_y": "574111.805418",
    "longitude": "-89.80876045321",
    "latitude": "30.069876258440456",
    "geocoded_column": {
      "latitude": "30.069876258440456",
      "longitude": "-89.80876045321"
    }
  },
  {
    "service_request": "2023-1013911",
    "request_type": "Trash/Recycling",
    "request_reason": "Request a Large Item Pick Up",
    "date_created": "2023-07-03T22:00:19.000",
    "date_modified": "2023-07-03T22:00:19.000",
    "request_status": "Pending",
    "responsible_agency": "Department of Sanitation",
    "final_address": "2941 Bruxelles St",
    "address_councildis": "D",
    "status": "Assigned to Contractor",
    "contractor": "IV Waste",
    "rowid": "1013911",
    "final_x": "3680315.09192",
    "final_y": "543299.526158",
    "longitude": "-90.07140219363374",
    "latitude": "29.987921245624303",
    "geocoded_column": {
      "latitude": "29.987921245624303",
      "longitude": "-90.07140219363374"
    }
  },
  {
    "service_request": "2023-1013909",
    "request_type": "Traffic Signals/Signs/Striping/Streetlights",
    "request_reason": "Street Light Outage/Malfunction",
    "date_created": "2023-07-03T21:45:30.000",
    "date_modified": "2023-07-03T21:45:31.000",
    "request_status": "Pending",
    "responsible_agency": "Department of Public Works",
    "final_address": "1314 Napoleon Ave Unit 28",
    "address_councildis": "B",
    "status": "Assigned to Contractor",
    "contractor": "Legacy Professional Services",
    "rowid": "1013909",
    "final_x": "3670550.37998",
    "final_y": "520183.466232",
    "longitude": "-90.10302972396032",
    "latitude": "29.92465180615712",
    "geocoded_column": {
      "latitude": "29.92465180615712",
      "longitude": "-90.10302972396032"
    }
  },
  {
    "service_request": "2023-1013908",
    "request_type": "Traffic Signals/Signs/Striping/Streetlights",
    "request_reason": "Street Light Outage/Malfunction",
    "date_created": "2023-07-03T21:36:52.000",
    "date_modified": "2023-07-03T21:36:52.000",
    "request_status": "Pending",
    "responsible_agency": "Department of Public Works",
    "final_address": "44 Yosemite Dr",
    "address_councildis": "C",
    "status": "Assigned to Contractor",
    "contractor": "Legacy Professional Services",
    "rowid": "1013908",
    "final_x": "3700015.00663",
    "final_y": "516968.635125",
    "longitude": "-90.01013756761661",
    "latitude": "29.914909335566335",
    "geocoded_column": {
      "latitude": "29.914909335566335",
      "longitude": "-90.01013756761661"
    }
  },
  {
    "service_request": "2023-1013907",
    "request_type": "Trash/Recycling",
    "request_reason": "Replace Trash Cart",
    "date_created": "2023-07-03T21:07:00.000",
    "date_modified": "2023-07-03T21:07:01.000",
    "request_status": "Pending",
    "responsible_agency": "Department of Sanitation",
    "final_address": "1920 Dumaine St",
    "address_councildis": "D",
    "status": "Assigned to Contractor",
    "contractor": "Richards Disposal",
    "rowid": "1013907",
    "final_x": "3679453.13551",
    "final_y": "535683.536327",
    "longitude": "-90.07438913537655",
    "latitude": "29.96700598270174",
    "geocoded_column": {
      "latitude": "29.96700598270174",
      "longitude": "-90.07438913537655"
    }
  },
  {
    "service_request": "2023-1013906",
    "request_type": "Abandoned Vehicles",
    "request_reason": "Abandoned/Junk Vehicles",
    "date_created": "2023-07-03T20:23:23.000",
    "date_modified": "2023-07-03T20:23:23.000",
    "request_status": "Pending",
    "responsible_agency": "Department of Public Works",
    "final_address": "1813 Wagner St",
    "address_councildis": "C",
    "status": "Pending",
    "rowid": "1013906",
    "final_x": "3690272.15945",
    "final_y": "524249.841468",
    "longitude": "-90.04063008252673",
    "latitude": "29.93523597872691",
    "geocoded_column": {
      "latitude": "29.93523597872691",
      "longitude": "-90.04063008252673"
    }
  },
  {
    "service_request": "2023-1013905",
    "request_type": "Trash/Recycling",
    "request_reason": "Return Trash Cart",
    "date_created": "2023-07-03T20:19:53.000",
    "date_modified": "2023-07-03T20:19:54.000",
    "request_status": "Pending",
    "responsible_agency": "Department of Sanitation",
    "final_address": "9009 Heaton St",
    "address_councildis": "A",
    "status": "Assigned to Contractor",
    "contractor": "Richards Disposal",
    "rowid": "1013905",
    "final_x": "3666957.57972",
    "final_y": "538813.395849",
    "longitude": "-90.11374509395326",
    "latitude": "29.975983636399985",
    "geocoded_column": {
      "latitude": "29.975983636399985",
      "longitude": "-90.11374509395326"
    }
  },
  {
    "service_request": "2023-1013904",
    "request_type": "Roads/Drainage",
    "request_reason": "Damaged Sidewalk",
    "date_created": "2023-07-03T20:12:15.000",
    "date_modified": "2023-07-03T20:12:15.000",
    "request_status": "Pending",
    "responsible_agency": "Department of Public Works",
    "final_address": "10201 Chevy Chase Dr",
    "address_councildis": "E",
    "status": "Pending",
    "rowid": "1013904",
    "final_x": "3709952.25745",
    "final_y": "563232.614944",
    "longitude": "-89.97704392618412",
    "latitude": "30.04179873876961",
    "geocoded_column": {
      "latitude": "30.04179873876961",
      "longitude": "-89.97704392618412"
    }
  },
  {
    "service_request": "2023-1013903",
    "request_type": "Abandoned Vehicles",
    "request_reason": "Abandoned/Junk Vehicles",
    "date_created": "2023-07-03T20:01:00.000",
    "date_modified": "2023-07-03T20:01:00.000",
    "request_status": "Pending",
    "responsible_agency": "Department of Public Works",
    "final_address": "1100 BLK Crete St",
    "address_councildis": "A",
    "status": "Pending",
    "rowid": "1013903",
    "final_x": "3677671.15118",
    "final_y": "538895.971208",
    "longitude": "-90.07990567757352",
    "latitude": "29.975892794275552",
    "geocoded_column": {
      "latitude": "29.975892794275552",
      "longitude": "-90.07990567757352"
    }
  },
  {
    "service_request": "2023-1013902",
    "request_type": "Trash/Recycling",
    "request_reason": "Request a Large Item Pick Up",
    "date_created": "2023-07-03T19:51:37.000",
    "date_modified": "2023-07-03T19:51:38.000",
    "request_status": "Pending",
    "responsible_agency": "Department of Sanitation",
    "final_address": "2842 Baronne St",
    "address_councildis": "B",
    "status": "Assigned to Contractor",
    "contractor": "Richards Disposal",
    "rowid": "1013902",
    "final_x": "3675234.28149",
    "final_y": "522924.098555",
    "longitude": "-90.08815018873362",
    "latitude": "29.932048541034376",
    "geocoded_column": {
      "latitude": "29.932048541034376",
      "longitude": "-90.08815018873362"
    }
  },
  {
    "service_request": "2023-1013901",
    "request_type": "Trash/Recycling",
    "request_reason": "Repair Recycling Cart",
    "date_created": "2023-07-03T19:35:55.000",
    "date_modified": "2023-07-03T19:35:55.000",
    "request_status": "Pending",
    "responsible_agency": "Department of Sanitation",
    "final_address": "6030 Coliseum St",
    "address_councildis": "A",
    "status": "Pending",
    "rowid": "1013901",
    "final_x": "3664743.47194",
    "final_y": "520238.86124",
    "longitude": "-90.12135841230429",
    "latitude": "29.924974288917436",
    "geocoded_column": {
      "latitude": "29.924974288917436",
      "longitude": "-90.12135841230429"
    }
  },
  {
    "service_request": "2023-1013900",
    "request_type": "Trash/Recycling",
    "request_reason": "Request a Large Item Pick Up",
    "date_created": "2023-07-03T19:35:32.000",
    "date_modified": "2023-07-03T19:35:32.000",
    "request_status": "Pending",
    "responsible_agency": "Department of Sanitation",
    "final_address": "7569 Avalon Way",
    "address_councildis": "E",
    "status": "Assigned to Contractor",
    "contractor": "Waste Pro",
    "rowid": "1013900",
    "final_x": "3709173.9155",
    "final_y": "564402.016289",
    "longitude": "-89.97946008676786",
    "latitude": "30.04503943378443",
    "geocoded_column": {
      "latitude": "30.04503943378443",
      "longitude": "-89.97946008676786"
    }
  },
  {
    "service_request": "2023-1013899",
    "request_type": "Trash/Recycling",
    "request_reason": "Replace Trash Cart",
    "date_created": "2023-07-03T19:34:27.000",
    "date_modified": "2023-07-03T19:34:28.000",
    "request_status": "Pending",
    "responsible_agency": "Department of Sanitation",
    "status": "Assigned to Contractor",
    "rowid": "1013899",
    "longitude": "0.0",
    "latitude": "0.0",
    "geocoded_column": {
      "latitude": "0.0",
      "longitude": "0.0"
    }
  },
  {
    "service_request": "2023-1013897",
    "request_type": "Trash/Recycling",
    "request_reason": "Order Recycling Cart",
    "date_created": "2023-07-03T19:21:01.000",
    "date_modified": "2023-07-03T19:21:01.000",
    "request_status": "Pending",
    "responsible_agency": "Department of Sanitation",
    "final_address": "5305 Vicksburg St",
    "address_councildis": "A",
    "status": "Pending",
    "rowid": "1013897",
    "final_x": "3668422.22023",
    "final_y": "542415.814925",
    "longitude": "-90.10899775314306",
    "latitude": "29.9858461241976",
    "geocoded_column": {
      "latitude": "29.9858461241976",
      "longitude": "-90.10899775314306"
    }
  },
  {
    "service_request": "2023-1013895",
    "request_type": "Trash/Recycling",
    "request_reason": "Order Trash Cart",
    "date_created": "2023-07-03T18:57:30.000",
    "date_modified": "2023-07-03T18:57:30.000",
    "request_status": "Pending",
    "responsible_agency": "Department of Sanitation",
    "final_address": "5522 Eads St",
    "address_councildis": "D",
    "status": "Assigned to Contractor",
    "contractor": "IV Waste",
    "rowid": "1013895",
    "final_x": "3686875.06991",
    "final_y": "553501.506647",
    "longitude": "-90.0503206385591",
    "latitude": "30.015772714054236",
    "geocoded_column": {
      "latitude": "30.015772714054236",
      "longitude": "-90.0503206385591"
    }
  },
  {
    "service_request": "2023-1013894",
    "request_type": "Trash/Recycling",
    "request_reason": "Request a Large Item Pick Up",
    "date_created": "2023-07-03T18:53:17.000",
    "date_modified": "2023-07-03T18:53:17.000",
    "request_status": "Pending",
    "responsible_agency": "Department of Sanitation",
    "final_address": "5312 Wickfield Dr",
    "address_councildis": "D",
    "status": "Assigned to Contractor",
    "contractor": "IV Waste",
    "rowid": "1013894",
    "final_x": "3681095.41147",
    "final_y": "552401.477654",
    "longitude": "-90.06862009981054",
    "latitude": "30.012924711468724",
    "geocoded_column": {
      "latitude": "30.012924711468724",
      "longitude": "-90.06862009981054"
    }
  },
  {
    "service_request": "2023-1013893",
    "request_type": "Trash/Recycling",
    "request_reason": "Request a Large Item Pick Up",
    "date_created": "2023-07-03T18:52:58.000",
    "date_modified": "2023-07-03T18:52:58.000",
    "request_status": "Pending",
    "responsible_agency": "Department of Sanitation",
    "final_address": "6239 Pasteur Blvd",
    "address_councildis": "D",
    "status": "Assigned to Contractor",
    "contractor": "IV Waste",
    "rowid": "1013893",
    "final_x": "3682780.0484",
    "final_y": "556220.383194",
    "longitude": "-90.06316381742268",
    "latitude": "30.023374070171368",
    "geocoded_column": {
      "latitude": "30.023374070171368",
      "longitude": "-90.06316381742268"
    }
  },
  {
    "service_request": "2023-1013892",
    "request_type": "Traffic Signals/Signs/Striping/Streetlights",
    "request_reason": "Traffic Signal Malfunctioning/Damaged",
    "date_created": "2023-07-03T18:50:53.000",
    "date_modified": "2023-07-03T18:50:53.000",
    "request_status": "Pending",
    "responsible_agency": "Department of Public Works",
    "status": "Pending",
    "rowid": "1013892",
    "longitude": "0.0",
    "latitude": "0.0",
    "geocoded_column": {
      "latitude": "0.0",
      "longitude": "0.0"
    }
  },
  {
    "service_request": "2023-1013891",
    "request_type": "Trash/Recycling",
    "request_reason": "Request a Large Item Pick Up",
    "date_created": "2023-07-03T18:39:16.000",
    "date_modified": "2023-07-03T18:39:17.000",
    "request_status": "Pending",
    "responsible_agency": "Department of Sanitation",
    "final_address": "4614 Gallatin St",
    "address_councildis": "C",
    "status": "Assigned to Contractor",
    "contractor": "Richards Disposal",
    "rowid": "1013891",
    "final_x": "3702099.03377",
    "final_y": "522435.869562",
    "longitude": "-90.00335938683202",
    "latitude": "29.929876008712636",
    "geocoded_column": {
      "latitude": "29.929876008712636",
      "longitude": "-90.00335938683202"
    }
  },
  {
    "service_request": "2023-1013889",
    "request_type": "Trash/Recycling",
    "request_reason": "Request a Large Item Pick Up",
    "date_created": "2023-07-03T18:03:35.000",
    "date_modified": "2023-07-03T18:03:36.000",
    "request_status": "Pending",
    "responsible_agency": "Department of Sanitation",
    "final_address": "3717 Carondelet St",
    "address_councildis": "B",
    "status": "Assigned to Contractor",
    "contractor": "Richards Disposal",
    "rowid": "1013889",
    "final_x": "3672884.62331",
    "final_y": "521587.131897",
    "longitude": "-90.0956134255306",
    "latitude": "29.928442314178618",
    "geocoded_column": {
      "latitude": "29.928442314178618",
      "longitude": "-90.0956134255306"
    }
  },
  {
    "service_request": "2023-1013888",
    "request_type": "Trash/Recycling",
    "request_reason": "Illegal Dumping",
    "date_created": "2023-07-03T17:58:48.000",
    "date_modified": "2023-07-03T17:58:48.000",
    "request_status": "Pending",
    "responsible_agency": "Department of Sanitation",
    "final_address": "CANAL ST & N NORMAN C FRANCIS PKWY & S NORMAN C FRANCIS PKWY",
    "address_councildis": "B",
    "status": "Pending",
    "rowid": "1013888",
    "final_x": "3673171.0",
    "final_y": "536825.08",
    "longitude": "-90.09418919581252",
    "latitude": "29.97033313521366",
    "geocoded_column": {
      "latitude": "29.97033313521366",
      "longitude": "-90.09418919581252"
    }
  },
  {
    "service_request": "2023-1013887",
    "request_type": "Trash/Recycling",
    "request_reason": "Order Trash Cart",
    "date_created": "2023-07-03T17:54:54.000",
    "date_modified": "2023-07-03T17:54:54.000",
    "request_status": "Pending",
    "responsible_agency": "Department of Sanitation",
    "final_address": "3420 Indiana St",
    "address_councildis": "C",
    "status": "Assigned to Contractor",
    "contractor": "Richards Disposal",
    "rowid": "1013887",
    "final_x": "3693967.00445",
    "final_y": "520825.849785",
    "longitude": "-90.02908855207897",
    "latitude": "29.925706032240825",
    "geocoded_column": {
      "latitude": "29.925706032240825",
      "longitude": "-90.02908855207897"
    }
  },
  {
    "service_request": "2023-1013886",
    "request_type": "Trash/Recycling",
    "request_reason": "Request a Large Item Pick Up",
    "date_created": "2023-07-03T17:33:08.000",
    "date_modified": "2023-07-03T17:33:09.000",
    "request_status": "Pending",
    "responsible_agency": "Department of Sanitation",
    "final_address": "6218 Louisville St",
    "address_councildis": "A",
    "status": "Assigned to Contractor",
    "contractor": "IV Waste",
    "rowid": "1013886",
    "final_x": "3667809.47393",
    "final_y": "548837.314003",
    "longitude": "-90.11071676028934",
    "latitude": "30.00352102929359",
    "geocoded_column": {
      "latitude": "30.00352102929359",
      "longitude": "-90.11071676028934"
    }
  },
  {
    "service_request": "2023-1013885",
    "request_type": "Trash/Recycling",
    "request_reason": "Missed Trash Pick-Up",
    "date_created": "2023-07-03T17:30:51.000",
    "date_modified": "2023-07-03T17:30:52.000",
    "request_status": "Pending",
    "responsible_agency": "Department of Sanitation",
    "final_address": "4020 Cleveland Ave, New Orleans, Louisiana, 70119",
    "address_councildis": "A",
    "status": "Assigned to Contractor",
    "contractor": "Richards Disposal",
    "rowid": "1013885",
    "final_x": "3671043.80673",
    "final_y": "537785.465608",
    "longitude": "-90.10087449856162",
    "latitude": "29.973036954084233",
    "geocoded_column": {
      "latitude": "29.973036954084233",
      "longitude": "-90.10087449856162"
    }
  },
  {
    "service_request": "2023-1013884",
    "request_type": "Trash/Recycling",
    "request_reason": "Return Recycling Cart",
    "date_created": "2023-07-03T17:30:41.000",
    "date_modified": "2023-07-03T17:30:41.000",
    "request_status": "Pending",
    "responsible_agency": "Department of Sanitation",
    "final_address": "7141 Beauvoir Ct",
    "address_councildis": "E",
    "status": "Pending",
    "rowid": "1013884",
    "final_x": "3716448.68568",
    "final_y": "567630.547556",
    "longitude": "-89.9563460039373",
    "latitude": "30.053678222282418",
    "geocoded_column": {
      "latitude": "30.053678222282418",
      "longitude": "-89.9563460039373"
    }
  },
  {
    "service_request": "2023-1013883",
    "request_type": "Trash/Recycling",
    "request_reason": "Request a Large Item Pick Up",
    "date_created": "2023-07-03T17:30:37.000",
    "date_modified": "2023-07-03T17:30:37.000",
    "request_status": "Pending",
    "responsible_agency": "Department of Sanitation",
    "final_address": "2221 St Philip St",
    "address_councildis": "D",
    "status": "Assigned to Contractor",
    "contractor": "Richards Disposal",
    "rowid": "1013883",
    "final_x": "3678922.46069",
    "final_y": "536728.465223",
    "longitude": "-90.07602879985699",
    "latitude": "29.96989520122891",
    "geocoded_column": {
      "latitude": "29.96989520122891",
      "longitude": "-90.07602879985699"
    }
  },
  {
    "service_request": "2023-1013882",
    "request_type": "Trash/Recycling",
    "request_reason": "Request a Large Item Pick Up",
    "date_created": "2023-07-03T17:18:35.000",
    "date_modified": "2023-07-03T17:18:35.000",
    "request_status": "Pending",
    "responsible_agency": "Department of Sanitation",
    "final_address": "1511 Saint Ann St, New Orleans, Louisiana, 70116",
    "status": "Assigned to Contractor",
    "rowid": "1013882",
    "longitude": "0.0",
    "latitude": "0.0",
    "geocoded_column": {
      "latitude": "0.0",
      "longitude": "0.0"
    }
  },
  {
    "service_request": "2023-1013881",
    "request_type": "Trash/Recycling",
    "request_reason": "Replace Trash Cart",
    "date_created": "2023-07-03T17:09:55.000",
    "date_modified": "2023-07-03T17:09:55.000",
    "request_status": "Pending",
    "responsible_agency": "Department of Sanitation",
    "final_address": "1806 Ursulines Ave",
    "address_councildis": "D",
    "status": "Assigned to Contractor",
    "contractor": "Richards Disposal",
    "rowid": "1013881",
    "final_x": "3680270.62843",
    "final_y": "536018.062279",
    "longitude": "-90.07179585914722",
    "latitude": "29.967901092060444",
    "geocoded_column": {
      "latitude": "29.967901092060444",
      "longitude": "-90.07179585914722"
    }
  },
  {
    "service_request": "2023-1013879",
    "request_type": "Trash/Recycling",
    "request_reason": "Missed Trash Pick-Up",
    "date_created": "2023-07-03T16:57:21.000",
    "date_modified": "2023-07-03T16:57:22.000",
    "request_status": "Pending",
    "responsible_agency": "Department of Sanitation",
    "final_address": "536 S Telemachus St",
    "address_councildis": "B",
    "status": "Assigned to Contractor",
    "contractor": "Richards Disposal",
    "rowid": "1013879",
    "final_x": "3671253.35521",
    "final_y": "535826.854471",
    "longitude": "-90.1002792669434",
    "latitude": "29.9676452332348",
    "geocoded_column": {
      "latitude": "29.9676452332348",
      "longitude": "-90.1002792669434"
    }
  },
  {
    "service_request": "2023-1013878",
    "request_type": "Trash/Recycling",
    "request_reason": "Replace Trash Cart",
    "date_created": "2023-07-03T16:54:44.000",
    "date_modified": "2023-07-03T16:54:44.000",
    "request_status": "Pending",
    "responsible_agency": "Department of Sanitation",
    "final_address": "2205 S Gayoso St",
    "address_councildis": "A",
    "status": "Assigned to Contractor",
    "contractor": "Richards Disposal",
    "rowid": "1013878",
    "final_x": "3669506.11342",
    "final_y": "528842.89824",
    "longitude": "-90.10603335008707",
    "latitude": "29.9484932440139",
    "geocoded_column": {
      "latitude": "29.9484932440139",
      "longitude": "-90.10603335008707"
    }
  },
  {
    "service_request": "2023-1013877",
    "request_type": "Trash/Recycling",
    "request_reason": "Repair Trash Cart",
    "date_created": "2023-07-03T16:31:33.000",
    "date_modified": "2023-07-03T16:31:34.000",
    "request_status": "Pending",
    "responsible_agency": "Department of Sanitation",
    "final_address": "715 Fourth St",
    "address_councildis": "B",
    "status": "Assigned to Contractor",
    "contractor": "Richards Disposal",
    "rowid": "1013877",
    "final_x": "3678093.96162",
    "final_y": "519887.687672",
    "longitude": "-90.07922738006148",
    "latitude": "29.92361364197693",
    "geocoded_column": {
      "latitude": "29.92361364197693",
      "longitude": "-90.07922738006148"
    }
  },
  {
    "service_request": "2023-1013876",
    "request_type": "Traffic Signals/Signs/Striping/Streetlights",
    "request_reason": "Traffic Signal Malfunctioning/Damaged",
    "date_created": "2023-07-03T16:26:57.000",
    "date_modified": "2023-07-03T16:28:16.000",
    "request_status": "Pending",
    "responsible_agency": "Department of Public Works",
    "final_address": "NAPOLEON AVE & MAGAZINE ST",
    "address_councildis": "B",
    "status": "Pending",
    "rowid": "1013876",
    "final_x": "3671097.2",
    "final_y": "518798.38",
    "longitude": "-90.10135060208529",
    "latitude": "29.920827104580972",
    "geocoded_column": {
      "latitude": "29.920827104580972",
      "longitude": "-90.10135060208529"
    }
  },
  {
    "service_request": "2023-1013875",
    "request_type": "Trash/Recycling",
    "request_reason": "Request a Large Item Pick Up",
    "date_created": "2023-07-03T16:25:52.000",
    "date_modified": "2023-07-03T16:25:52.000",
    "request_status": "Pending",
    "responsible_agency": "Department of Sanitation",
    "final_address": "11211 N Idlewood Ct, New Orleans, Louisiana, 70128",
    "address_councildis": "E",
    "status": "Assigned to Contractor",
    "contractor": "Waste Pro",
    "rowid": "1013875",
    "final_x": "3716025.86207",
    "final_y": "560277.469149",
    "longitude": "-89.9579613954362",
    "latitude": "30.03347420878148",
    "geocoded_column": {
      "latitude": "30.03347420878148",
      "longitude": "-89.9579613954362"
    }
  },
  {
    "service_request": "2023-1013874",
    "request_type": "Trash/Recycling",
    "request_reason": "Request a Large Item Pick Up",
    "date_created": "2023-07-03T16:15:54.000",
    "date_modified": "2023-07-03T16:15:54.000",
    "request_status": "Pending",
    "responsible_agency": "Department of Sanitation",
    "final_address": "725 Ursulines Ave",
    "address_councildis": "C",
    "status": "Assigned to Contractor",
    "contractor": "Empire Services",
    "rowid": "1013874",
    "final_x": "3683297.887",
    "final_y": "533771.517253",
    "longitude": "-90.06231438732512",
    "latitude": "29.9616318751545",
    "geocoded_column": {
      "latitude": "29.9616318751545",
      "longitude": "-90.06231438732512"
    }
  },
  {
    "service_request": "2023-1013873",
    "request_type": "Trash/Recycling",
    "request_reason": "Repair Trash Cart",
    "date_created": "2023-07-03T16:10:01.000",
    "date_modified": "2023-07-03T16:10:24.000",
    "request_status": "Pending",
    "responsible_agency": "Department of Sanitation",
    "final_address": "978 Taft Pl",
    "address_councildis": "A",
    "status": "Assigned to Contractor",
    "contractor": "Richards Disposal",
    "rowid": "1013873",
    "final_x": "3673948.75502",
    "final_y": "540597.242763",
    "longitude": "-90.09160385814343",
    "latitude": "29.980682147879424",
    "geocoded_column": {
      "latitude": "29.980682147879424",
      "longitude": "-90.09160385814343"
    }
  },
  {
    "service_request": "2023-1013872",
    "request_type": "Trash/Recycling",
    "request_reason": "Replace Recycling Cart",
    "date_created": "2023-07-03T16:09:39.000",
    "date_modified": "2023-07-03T16:09:39.000",
    "request_status": "Pending",
    "responsible_agency": "Department of Sanitation",
    "final_address": "3308 Dauphine St",
    "address_councildis": "C",
    "status": "Pending",
    "rowid": "1013872",
    "final_x": "3689613.84137",
    "final_y": "534604.678854",
    "longitude": "-90.04234007231977",
    "latitude": "29.963728627995103",
    "geocoded_column": {
      "latitude": "29.963728627995103",
      "longitude": "-90.04234007231977"
    }
  },
  {
    "service_request": "2023-1013871",
    "request_type": "Trash/Recycling",
    "request_reason": "Replace Trash Cart",
    "date_created": "2023-07-03T16:07:22.000",
    "date_modified": "2023-07-03T16:07:23.000",
    "request_status": "Pending",
    "responsible_agency": "Department of Sanitation",
    "final_address": "978 Taft Pl, New Orleans, Louisiana, 70119",
    "address_councildis": "A",
    "status": "Assigned to Contractor",
    "contractor": "Richards Disposal",
    "rowid": "1013871",
    "final_x": "3673948.75502",
    "final_y": "540597.242763",
    "longitude": "-90.09160385814343",
    "latitude": "29.980682147879424",
    "geocoded_column": {
      "latitude": "29.980682147879424",
      "longitude": "-90.09160385814343"
    }
  },
  {
    "service_request": "2023-1013870",
    "request_type": "Trash/Recycling",
    "request_reason": "MIssed Recycling Pick-Up",
    "date_created": "2023-07-03T16:07:19.000",
    "date_modified": "2023-07-03T16:07:19.000",
    "request_status": "Pending",
    "responsible_agency": "Department of Sanitation",
    "final_address": "104 Constitution St, New Orleans, Louisiana, 70114",
    "address_councildis": "C",
    "status": "Assigned to Contractor",
    "contractor": "Richards Disposal",
    "rowid": "1013870",
    "final_x": "3693206.05846",
    "final_y": "528247.77728",
    "longitude": "-90.03122437871811",
    "latitude": "29.946137590915686",
    "geocoded_column": {
      "latitude": "29.946137590915686",
      "longitude": "-90.03122437871811"
    }
  },
  {
    "service_request": "2023-1013869",
    "request_type": "Roads/Drainage",
    "request_reason": "Pothole",
    "date_created": "2023-07-03T15:52:40.000",
    "date_modified": "2023-07-03T15:52:41.000",
    "request_status": "Pending",
    "responsible_agency": "Department of Public Works",
    "final_address": "IRBY ST & READ BLVD",
    "address_councildis": "E",
    "status": "Pending",
    "rowid": "1013869",
    "final_x": "3708054.3",
    "final_y": "565287.28",
    "longitude": "-89.98296559981613",
    "latitude": "30.047509881367716",
    "geocoded_column": {
      "latitude": "30.047509881367716",
      "longitude": "-89.98296559981613"
    }
  },
  {
    "service_request": "2023-1013868",
    "request_type": "Parks & Parkways",
    "request_reason": "Request Tree Service (Right of Way/Public Property)",
    "date_created": "2023-07-03T15:50:41.000",
    "date_modified": "2023-07-03T15:50:41.000",
    "request_status": "Pending",
    "responsible_agency": "Department of Parks & Parkway",
    "final_address": "347 Millaudon St",
    "address_councildis": "A",
    "status": "Pending",
    "rowid": "1013868",
    "final_x": "3661754.23718",
    "final_y": "524391.16134",
    "longitude": "-90.13065692555547",
    "latitude": "29.936478411282017",
    "geocoded_column": {
      "latitude": "29.936478411282017",
      "longitude": "-90.13065692555547"
    }
  },
  {
    "service_request": "2023-1013867",
    "request_type": "Trash/Recycling",
    "request_reason": "Replace Trash Cart",
    "date_created": "2023-07-03T15:49:11.000",
    "date_modified": "2023-07-03T15:49:12.000",
    "request_status": "Pending",
    "responsible_agency": "Department of Sanitation",
    "final_address": "3827 Cadillac St",
    "address_councildis": "D",
    "status": "Assigned to Contractor",
    "contractor": "IV Waste",
    "rowid": "1013867",
    "final_x": "3677019.71451",
    "final_y": "546274.260752",
    "longitude": "-90.0817085611614",
    "latitude": "29.996200104814204",
    "geocoded_column": {
      "latitude": "29.996200104814204",
      "longitude": "-90.0817085611614"
    }
  },
  {
    "service_request": "2023-1013866",
    "request_type": "Trash/Recycling",
    "request_reason": "Order Trash Cart",
    "date_created": "2023-07-03T15:48:15.000",
    "date_modified": "2023-07-03T15:48:16.000",
    "request_status": "Pending",
    "responsible_agency": "Department of Sanitation",
    "final_address": "3827 Cadillac St",
    "address_councildis": "D",
    "status": "Assigned to Contractor",
    "contractor": "IV Waste",
    "rowid": "1013866",
    "final_x": "3677019.71451",
    "final_y": "546274.260752",
    "longitude": "-90.0817085611614",
    "latitude": "29.996200104814204",
    "geocoded_column": {
      "latitude": "29.996200104814204",
      "longitude": "-90.0817085611614"
    }
  },
  {
    "service_request": "2023-1013865",
    "request_type": "Trash/Recycling",
    "request_reason": "Repair Trash Cart",
    "date_created": "2023-07-03T15:36:18.000",
    "date_modified": "2023-07-03T15:36:18.000",
    "request_status": "Pending",
    "responsible_agency": "Department of Sanitation",
    "final_address": "1833 Gentilly Blvd",
    "address_councildis": "A",
    "status": "Assigned to Contractor",
    "contractor": "IV Waste",
    "rowid": "1013865",
    "final_x": "3678712.24571",
    "final_y": "542609.089933",
    "longitude": "-90.07648897187302",
    "latitude": "29.98607122765253",
    "geocoded_column": {
      "latitude": "29.98607122765253",
      "longitude": "-90.07648897187302"
    }
  },
  {
    "service_request": "2023-1013864",
    "request_type": "Abandoned Vehicles",
    "request_reason": "Abandoned/Junk Vehicles",
    "date_created": "2023-07-03T15:29:49.000",
    "date_modified": "2023-07-03T15:29:49.000",
    "request_status": "Pending",
    "responsible_agency": "Department of Public Works",
    "final_address": "4311 Van Ave",
    "address_councildis": "D",
    "status": "Pending",
    "rowid": "1013864",
    "final_x": "3680068.10709",
    "final_y": "548278.754578",
    "longitude": "-90.07200920766107",
    "latitude": "30.001619840114518",
    "geocoded_column": {
      "latitude": "30.001619840114518",
      "longitude": "-90.07200920766107"
    }
  },
  {
    "service_request": "2023-1013863",
    "request_type": "Abandoned Vehicles",
    "request_reason": "Abandoned/Junk Vehicles",
    "date_created": "2023-07-03T15:28:08.000",
    "date_modified": "2023-07-03T15:28:08.000",
    "request_status": "Pending",
    "responsible_agency": "Department of Public Works",
    "final_address": "2600 BLK Perdido St",
    "address_councildis": "B",
    "status": "Pending",
    "rowid": "1013863",
    "final_x": "3674006.11652",
    "final_y": "532784.602526",
    "longitude": "-90.09169007381799",
    "latitude": "29.959198322501567",
    "geocoded_column": {
      "latitude": "29.959198322501567",
      "longitude": "-90.09169007381799"
    }
  },
  {
    "service_request": "2023-1013862",
    "request_type": "Property Maintenance",
    "request_reason": "Property Maintenance",
    "date_created": "2023-07-03T15:27:11.000",
    "date_modified": "2023-07-03T15:27:12.000",
    "request_status": "Pending",
    "responsible_agency": "Department of Code Enforcement",
    "final_address": "212 Loyola Ave",
    "address_councildis": "B",
    "status": "Pending",
    "rowid": "1013862",
    "final_x": "3679374.08296",
    "final_y": "531003.245378",
    "longitude": "-90.074801123716",
    "latitude": "29.954139158470564",
    "geocoded_column": {
      "latitude": "29.954139158470564",
      "longitude": "-90.074801123716"
    }
  },
  {
    "service_request": "2023-1013861",
    "request_type": "Trash/Recycling",
    "request_reason": "Replace Trash Cart",
    "date_created": "2023-07-03T15:26:00.000",
    "date_modified": "2023-07-03T15:26:00.000",
    "request_status": "Pending",
    "responsible_agency": "Department of Sanitation",
    "final_address": "5232 coliseum",
    "address_councildis": "B",
    "status": "Assigned to Contractor",
    "contractor": "Richards Disposal",
    "rowid": "1013861",
    "final_x": "3667778.29389",
    "final_y": "519623.747704",
    "longitude": "-90.11179913452519",
    "latitude": "29.923194308155182",
    "geocoded_column": {
      "latitude": "29.923194308155182",
      "longitude": "-90.11179913452519"
    }
  },
  {
    "service_request": "2023-1013860",
    "request_type": "Mosquito, Termite & Rodent Control",
    "request_reason": "Rodent Complaint (Rats)",
    "date_created": "2023-07-03T15:25:37.000",
    "date_modified": "2023-07-03T15:27:27.000",
    "request_status": "Pending",
    "responsible_agency": "Mosquito, Termite & Rodent Control Board",
    "final_address": "3125 N Villere St",
    "address_councildis": "C",
    "status": "Pending",
    "rowid": "1013860",
    "final_x": "3689496.02499",
    "final_y": "537095.01172",
    "longitude": "-90.04262353861344",
    "latitude": "29.97057982024269",
    "geocoded_column": {
      "latitude": "29.97057982024269",
      "longitude": "-90.04262353861344"
    }
  },
  {
    "service_request": "2023-1013859",
    "request_type": "Roads/Drainage",
    "request_reason": "Road Shoulder Repair",
    "date_created": "2023-07-03T15:17:05.000",
    "date_modified": "2023-07-03T15:17:05.000",
    "request_status": "Pending",
    "responsible_agency": "Department of Public Works",
    "final_address": "2812 Canal St",
    "address_councildis": "B",
    "status": "Pending",
    "rowid": "1013859",
    "final_x": "3674762.43054",
    "final_y": "535440.318406",
    "longitude": "-90.08921076060295",
    "latitude": "29.966478091488998",
    "geocoded_column": {
      "latitude": "29.966478091488998",
      "longitude": "-90.08921076060295"
    }
  },
  {
    "service_request": "2023-1013858",
    "request_type": "Trash/Recycling",
    "request_reason": "Replace Trash Cart",
    "date_created": "2023-07-03T15:16:11.000",
    "date_modified": "2023-07-03T15:16:12.000",
    "request_status": "Pending",
    "responsible_agency": "Department of Sanitation",
    "final_address": "4120 Piedmont Dr",
    "address_councildis": "D",
    "status": "Assigned to Contractor",
    "contractor": "IV Waste",
    "rowid": "1013858",
    "final_x": "3684930.70812",
    "final_y": "547784.263698",
    "longitude": "-90.0566651965475",
    "latitude": "30.00011209248585",
    "geocoded_column": {
      "latitude": "30.00011209248585",
      "longitude": "-90.0566651965475"
    }
  },
  {
    "service_request": "2023-1013857",
    "request_type": "Trash/Recycling",
    "request_reason": "Order Recycling Cart",
    "date_created": "2023-07-03T15:14:59.000",
    "date_modified": "2023-07-03T15:15:00.000",
    "request_status": "Pending",
    "responsible_agency": "Department of Sanitation",
    "final_address": "2331 Canal St",
    "address_councildis": "B",
    "status": "Pending",
    "rowid": "1013857",
    "final_x": "3676583.38926",
    "final_y": "534356.676997",
    "longitude": "-90.08349751843086",
    "latitude": "29.963443954112254",
    "geocoded_column": {
      "latitude": "29.963443954112254",
      "longitude": "-90.08349751843086"
    }
  },
  {
    "service_request": "2023-1013856",
    "request_type": "Property Maintenance",
    "request_reason": "Property Maintenance",
    "date_created": "2023-07-03T15:11:56.000",
    "date_modified": "2023-07-03T15:11:57.000",
    "request_status": "Pending",
    "responsible_agency": "Department of Code Enforcement",
    "final_address": "2654 Banks St",
    "address_councildis": "B",
    "status": "Pending",
    "rowid": "1013856",
    "final_x": "3674698.43969",
    "final_y": "534003.431557",
    "longitude": "-90.08946210204708",
    "latitude": "29.96252904707228",
    "geocoded_column": {
      "latitude": "29.96252904707228",
      "longitude": "-90.08946210204708"
    }
  },
  {
    "service_request": "2023-1013855",
    "request_type": "Trash/Recycling",
    "request_reason": "Request a Large Item Pick Up",
    "date_created": "2023-07-03T15:04:09.000",
    "date_modified": "2023-07-03T15:04:10.000",
    "request_status": "Pending",
    "responsible_agency": "Department of Sanitation",
    "final_address": "5915 Marshal Foch St",
    "address_councildis": "A",
    "status": "Assigned to Contractor",
    "contractor": "IV Waste",
    "rowid": "1013855",
    "final_x": "3669862.76417",
    "final_y": "546623.536081",
    "longitude": "-90.10430508352839",
    "latitude": "29.997373508424566",
    "geocoded_column": {
      "latitude": "29.997373508424566",
      "longitude": "-90.10430508352839"
    }
  },
  {
    "service_request": "2023-1013854",
    "request_type": "Trash/Recycling",
    "request_reason": "Repair Trash Cart",
    "date_created": "2023-07-03T15:01:49.000",
    "date_modified": "2023-07-03T15:01:52.000",
    "request_status": "Pending",
    "responsible_agency": "Department of Sanitation",
    "final_address": "3827 Blair St",
    "address_councildis": "C",
    "status": "Assigned to Contractor",
    "contractor": "Richards Disposal",
    "rowid": "1013854",
    "final_x": "3709205.93803",
    "final_y": "516856.048437",
    "longitude": "-89.98113218035317",
    "latitude": "29.91430472542299",
    "geocoded_column": {
      "latitude": "29.91430472542299",
      "longitude": "-89.98113218035317"
    }
  },
  {
    "service_request": "2023-1013853",
    "request_type": "Trash/Recycling",
    "request_reason": "Order Recycling Cart",
    "date_created": "2023-07-03T15:01:31.000",
    "date_modified": "2023-07-03T15:01:32.000",
    "request_status": "Pending",
    "responsible_agency": "Department of Sanitation",
    "final_address": "1409 Hillary St",
    "address_councildis": "A",
    "status": "Pending",
    "rowid": "1013853",
    "final_x": "3663901.51175",
    "final_y": "527696.801407",
    "longitude": "-90.12376770239172",
    "latitude": "29.94550571992468",
    "geocoded_column": {
      "latitude": "29.94550571992468",
      "longitude": "-90.12376770239172"
    }
  },
  {
    "service_request": "2023-1013852",
    "request_type": "Traffic Signals/Signs/Striping/Streetlights",
    "request_reason": "Street Light Outage/Malfunction",
    "date_created": "2023-07-03T14:55:47.000",
    "date_modified": "2023-07-03T14:55:48.000",
    "request_status": "Pending",
    "responsible_agency": "Department of Public Works",
    "final_address": "2735 Robert St",
    "address_councildis": "B",
    "status": "Assigned to Contractor",
    "contractor": "Legacy Professional Services",
    "rowid": "1013852",
    "final_x": "3668951.32858",
    "final_y": "525549.749053",
    "longitude": "-90.10789624485433",
    "latitude": "29.93945447959154",
    "geocoded_column": {
      "latitude": "29.93945447959154",
      "longitude": "-90.10789624485433"
    }
  },
  {
    "service_request": "2023-1013851",
    "request_type": "Trash/Recycling",
    "request_reason": "Request a Large Item Pick Up",
    "date_created": "2023-07-03T14:55:30.000",
    "date_modified": "2023-07-03T14:55:30.000",
    "request_status": "Pending",
    "responsible_agency": "Department of Sanitation",
    "final_address": "2140 Treasure St",
    "address_councildis": "D",
    "status": "Assigned to Contractor",
    "contractor": "IV Waste",
    "rowid": "1013851",
    "final_x": "3684026.83234",
    "final_y": "543969.60027",
    "longitude": "-90.05965453502165",
    "latitude": "29.98965078980018",
    "geocoded_column": {
      "latitude": "29.98965078980018",
      "longitude": "-90.05965453502165"
    }
  },
  {
    "service_request": "2023-1013850",
    "request_type": "Trash/Recycling",
    "request_reason": "Order Recycling Cart",
    "date_created": "2023-07-03T14:53:14.000",
    "date_modified": "2023-07-03T14:53:15.000",
    "request_status": "Pending",
    "responsible_agency": "Department of Sanitation",
    "final_address": "2720 Robert St",
    "address_councildis": "B",
    "status": "Pending",
    "rowid": "1013850",
    "final_x": "3668781.72423",
    "final_y": "525492.711741",
    "longitude": "-90.10843363490369",
    "latitude": "29.939302631811355",
    "geocoded_column": {
      "latitude": "29.939302631811355",
      "longitude": "-90.10843363490369"
    }
  },
  {
    "service_request": "2023-1013849",
    "request_type": "Abandoned Vehicles",
    "request_reason": "Abandoned/Junk Vehicles",
    "date_created": "2023-07-03T14:50:50.000",
    "date_modified": "2023-07-03T14:53:24.000",
    "request_status": "Pending",
    "responsible_agency": "Department of Public Works",
    "final_address": "1546 N Broad St",
    "address_councildis": "D",
    "status": "Pending",
    "rowid": "1013849",
    "final_x": "3678997.21038",
    "final_y": "539865.44321",
    "longitude": "-90.07568399747666",
    "latitude": "29.978518555078683",
    "geocoded_column": {
      "latitude": "29.978518555078683",
      "longitude": "-90.07568399747666"
    }
  },
  {
    "service_request": "2023-1013848",
    "request_type": "Trash/Recycling",
    "request_reason": "Request a Large Item Pick Up",
    "date_created": "2023-07-03T14:50:31.000",
    "date_modified": "2023-07-03T14:50:32.000",
    "request_status": "Pending",
    "responsible_agency": "Department of Sanitation",
    "final_address": "2127 S Lopez St",
    "address_councildis": "A",
    "status": "Assigned to Contractor",
    "contractor": "Richards Disposal",
    "rowid": "1013848",
    "final_x": "3669099.90618",
    "final_y": "529310.002625",
    "longitude": "-90.10730013951202",
    "latitude": "29.949789585731942",
    "geocoded_column": {
      "latitude": "29.949789585731942",
      "longitude": "-90.10730013951202"
    }
  },
  {
    "service_request": "2023-1013847",
    "request_type": "Trash/Recycling",
    "request_reason": "Request a Large Item Pick Up",
    "date_created": "2023-07-03T14:50:12.000",
    "date_modified": "2023-07-03T14:50:13.000",
    "request_status": "Pending",
    "responsible_agency": "Department of Sanitation",
    "final_address": "3019 Laurel St",
    "address_councildis": "B",
    "status": "Assigned to Contractor",
    "contractor": "Richards Disposal",
    "rowid": "1013847",
    "final_x": "3676619.27048",
    "final_y": "519698.967224",
    "longitude": "-90.08388893595965",
    "latitude": "29.923139019897594",
    "geocoded_column": {
      "latitude": "29.923139019897594",
      "longitude": "-90.08388893595965"
    }
  },
  {
    "service_request": "2023-1013846",
    "request_type": "Roads/Drainage",
    "request_reason": "Pothole",
    "date_created": "2023-07-03T14:50:01.000",
    "date_modified": "2023-07-03T14:50:01.000",
    "request_status": "Pending",
    "responsible_agency": "Department of Public Works",
    "final_address": "6226 Annunciation St",
    "address_councildis": "A",
    "status": "Pending",
    "rowid": "1013846",
    "final_x": "3663030.37312",
    "final_y": "518285.77727",
    "longitude": "-90.12683105010008",
    "latitude": "29.919653629164667",
    "geocoded_column": {
      "latitude": "29.919653629164667",
      "longitude": "-90.12683105010008"
    }
  },
  {
    "service_request": "2023-1013845",
    "request_type": "Property Maintenance",
    "request_reason": "Property Maintenance",
    "date_created": "2023-07-03T14:49:48.000",
    "date_modified": "2023-07-03T14:49:48.000",
    "request_status": "Pending",
    "responsible_agency": "Department of Code Enforcement",
    "final_address": "3049 Ponce De Leon St",
    "address_councildis": "A",
    "status": "Pending",
    "rowid": "1013845",
    "final_x": "3676757.40776",
    "final_y": "540554.876683",
    "longitude": "-90.08273435919843",
    "latitude": "29.980481665795217",
    "geocoded_column": {
      "latitude": "29.980481665795217",
      "longitude": "-90.08273435919843"
    }
  },
  {
    "service_request": "2023-1013844",
    "request_type": "Roads/Drainage",
    "request_reason": "Catch Basin - Clogged",
    "date_created": "2023-07-03T14:45:23.000",
    "date_modified": "2023-07-03T14:45:24.000",
    "request_status": "Pending",
    "responsible_agency": "Department of Public Works",
    "final_address": "1205 St Charles Ave",
    "address_councildis": "B",
    "status": "Pending",
    "rowid": "1013844",
    "final_x": "3679654.76706",
    "final_y": "526356.192382",
    "longitude": "-90.07407609579455",
    "latitude": "29.94135283774421",
    "geocoded_column": {
      "latitude": "29.94135283774421",
      "longitude": "-90.07407609579455"
    }
  },
  {
    "service_request": "2023-1013843",
    "request_type": "Abandoned Vehicles",
    "request_reason": "Abandoned/Junk Vehicles",
    "date_created": "2023-07-03T14:41:35.000",
    "date_modified": "2023-07-03T14:41:35.000",
    "request_status": "Pending",
    "responsible_agency": "Department of Public Works",
    "final_address": "932 Clouet St, New Orleans, Louisiana, 70117",
    "address_councildis": "C",
    "status": "Pending",
    "rowid": "1013843",
    "final_x": "3688828.00278",
    "final_y": "535465.096646",
    "longitude": "-90.04479111004211",
    "latitude": "29.966118798408317",
    "geocoded_column": {
      "latitude": "29.966118798408317",
      "longitude": "-90.04479111004211"
    }
  },
  {
    "service_request": "2023-1013842",
    "request_type": "Trash/Recycling",
    "request_reason": "MIssed Recycling Pick-Up",
    "date_created": "2023-07-03T14:40:18.000",
    "date_modified": "2023-07-03T14:40:18.000",
    "request_status": "Pending",
    "responsible_agency": "Department of Sanitation",
    "final_address": "7501 Scottwood Dr",
    "address_councildis": "E",
    "status": "Assigned to Contractor",
    "contractor": "Waste Pro",
    "rowid": "1013842",
    "final_x": "3717808.76242",
    "final_y": "570145.482535",
    "longitude": "-89.95195136401706",
    "latitude": "30.06054824091959",
    "geocoded_column": {
      "latitude": "30.06054824091959",
      "longitude": "-89.95195136401706"
    }
  },
  {
    "service_request": "2023-1013841",
    "request_type": "Trash/Recycling",
    "request_reason": "Request a Large Item Pick Up",
    "date_created": "2023-07-03T14:39:26.000",
    "date_modified": "2023-07-03T14:39:26.000",
    "request_status": "Pending",
    "responsible_agency": "Department of Sanitation",
    "final_address": "1018 Josephine St",
    "address_councildis": "B",
    "status": "Assigned to Contractor",
    "contractor": "Richards Disposal",
    "rowid": "1013841",
    "final_x": "3679253.04303",
    "final_y": "522126.895994",
    "longitude": "-90.07549099469816",
    "latitude": "29.92973580054483",
    "geocoded_column": {
      "latitude": "29.92973580054483",
      "longitude": "-90.07549099469816"
    }
  },
  {
    "service_request": "2023-1013840",
    "request_type": "Abandoned Vehicles",
    "request_reason": "Abandoned/Junk Vehicles",
    "date_created": "2023-07-03T14:37:41.000",
    "date_modified": "2023-07-03T14:37:41.000",
    "request_status": "Pending",
    "responsible_agency": "Department of Public Works",
    "final_address": "729 Montegut St",
    "address_councildis": "C",
    "status": "Pending",
    "rowid": "1013840",
    "final_x": "3688144.35958",
    "final_y": "534868.13703",
    "longitude": "-90.04697119674607",
    "latitude": "29.96449848869199",
    "geocoded_column": {
      "latitude": "29.96449848869199",
      "longitude": "-90.04697119674607"
    }
  },
  {
    "service_request": "2023-1013839",
    "request_type": "Trash/Recycling",
    "request_reason": "Order Recycling Cart",
    "date_created": "2023-07-03T14:32:03.000",
    "date_modified": "2023-07-03T14:32:03.000",
    "request_status": "Pending",
    "responsible_agency": "Department of Sanitation",
    "final_address": "7507 Scottwood Dr",
    "address_councildis": "E",
    "status": "Pending",
    "rowid": "1013839",
    "final_x": "3717783.20146",
    "final_y": "570185.366375",
    "longitude": "-89.95203064061042",
    "latitude": "30.060658752170845",
    "geocoded_column": {
      "latitude": "30.060658752170845",
      "longitude": "-89.95203064061042"
    }
  },
  {
    "service_request": "2023-1013838",
    "request_type": "Trash/Recycling",
    "request_reason": "Request a Large Item Pick Up",
    "date_created": "2023-07-03T14:29:02.000",
    "date_modified": "2023-07-03T14:29:03.000",
    "request_status": "Pending",
    "responsible_agency": "Department of Sanitation",
    "final_address": "1723 Upperline St",
    "address_councildis": "B",
    "status": "Assigned to Contractor",
    "contractor": "Richards Disposal",
    "rowid": "1013838",
    "final_x": "3669126.54426",
    "final_y": "521289.415545",
    "longitude": "-90.10748696007624",
    "latitude": "29.9277347750565",
    "geocoded_column": {
      "latitude": "29.9277347750565",
      "longitude": "-90.10748696007624"
    }
  },
  {
    "service_request": "2023-1013837",
    "request_type": "Trash/Recycling",
    "request_reason": "Request a Large Item Pick Up",
    "date_created": "2023-07-03T14:20:49.000",
    "date_modified": "2023-07-03T14:20:49.000",
    "request_status": "Pending",
    "responsible_agency": "Department of Sanitation",
    "final_address": "36 Bluebird St",
    "address_councildis": "D",
    "status": "Assigned to Contractor",
    "contractor": "IV Waste",
    "rowid": "1013837",
    "final_x": "3672893.17224",
    "final_y": "554857.471192",
    "longitude": "-90.09445088300511",
    "latitude": "30.01992419616661",
    "geocoded_column": {
      "latitude": "30.01992419616661",
      "longitude": "-90.09445088300511"
    }
  },
  {
    "service_request": "2023-1013836",
    "request_type": "Traffic Signals/Signs/Striping/Streetlights",
    "request_reason": "Street Light Outage/Malfunction",
    "date_created": "2023-07-03T14:16:57.000",
    "date_modified": "2023-07-03T14:16:58.000",
    "request_status": "Pending",
    "responsible_agency": "Department of Public Works",
    "final_address": "7935 Plum St",
    "address_councildis": "A",
    "status": "Assigned to Contractor",
    "contractor": "Legacy Professional Services",
    "rowid": "1013836",
    "final_x": "3662605.57517",
    "final_y": "528316.678784",
    "longitude": "-90.12783882347121",
    "latitude": "29.9472477363595",
    "geocoded_column": {
      "latitude": "29.9472477363595",
      "longitude": "-90.12783882347121"
    }
  },
  {
    "service_request": "2023-1013835",
    "request_type": "Trash/Recycling",
    "request_reason": "Illegal Dumping",
    "date_created": "2023-07-03T14:16:11.000",
    "date_modified": "2023-07-03T14:16:11.000",
    "request_status": "Pending",
    "responsible_agency": "Department of Sanitation",
    "final_address": "1810 Egania St",
    "address_councildis": "E",
    "status": "Pending",
    "rowid": "1013835",
    "final_x": "3697525.53661",
    "final_y": "536773.110152",
    "longitude": "-90.01727721921293",
    "latitude": "29.969443565734526",
    "geocoded_column": {
      "latitude": "29.969443565734526",
      "longitude": "-90.01727721921293"
    }
  },
  {
    "service_request": "2023-1013834",
    "request_type": "Traffic Signals/Signs/Striping/Streetlights",
    "request_reason": "Street Light Outage/Malfunction",
    "date_created": "2023-07-03T14:14:46.000",
    "date_modified": "2023-07-03T14:14:47.000",
    "request_status": "Pending",
    "responsible_agency": "Department of Public Works",
    "final_address": "6850 Milne Blvd",
    "address_councildis": "A",
    "status": "Assigned to Contractor",
    "contractor": "Legacy Professional Services",
    "rowid": "1013834",
    "final_x": "3667457.61639",
    "final_y": "553082.594263",
    "longitude": "-90.11168535022493",
    "latitude": "30.015204385122942",
    "geocoded_column": {
      "latitude": "30.015204385122942",
      "longitude": "-90.11168535022493"
    }
  },
  {
    "service_request": "2023-1013833",
    "request_type": "Trash/Recycling",
    "request_reason": "Order Recycling Cart",
    "date_created": "2023-07-03T14:12:10.000",
    "date_modified": "2023-07-03T16:10:14.000",
    "request_status": "Pending",
    "responsible_agency": "Department of Sanitation",
    "final_address": "12990 N Lake Carmel Dr",
    "address_councildis": "E",
    "status": "Pending",
    "rowid": "1013833",
    "final_x": "3716566.7148",
    "final_y": "568639.318821",
    "longitude": "-89.9559346198289",
    "latitude": "30.056448027004883",
    "geocoded_column": {
      "latitude": "30.056448027004883",
      "longitude": "-89.9559346198289"
    }
  },
  {
    "service_request": "2023-1013832",
    "request_type": "Traffic Signals/Signs/Striping/Streetlights",
    "request_reason": "Street Light Knocked Down/Leaning",
    "date_created": "2023-07-03T14:10:29.000",
    "date_modified": "2023-07-03T14:10:30.000",
    "request_status": "Pending",
    "responsible_agency": "Department of Public Works",
    "final_address": "1503 Valence St",
    "address_councildis": "B",
    "status": "Pending",
    "contractor": "Legacy Professional Services",
    "rowid": "1013832",
    "final_x": "3669815.40481",
    "final_y": "520519.79692",
    "longitude": "-90.10533842228018",
    "latitude": "29.92559828720276",
    "geocoded_column": {
      "latitude": "29.92559828720276",
      "longitude": "-90.10533842228018"
    }
  },
  {
    "service_request": "2023-1013831",
    "request_type": "Property Maintenance",
    "request_reason": "Property Maintenance",
    "date_created": "2023-07-03T14:10:12.000",
    "date_modified": "2023-07-03T14:10:12.000",
    "request_status": "Pending",
    "responsible_agency": "Department of Code Enforcement",
    "final_address": "4725 Crowder Blvd",
    "address_councildis": "E",
    "status": "Pending",
    "rowid": "1013831",
    "final_x": "3706541.38091",
    "final_y": "555632.403865",
    "longitude": "-89.98810546678577",
    "latitude": "30.021011709723457",
    "geocoded_column": {
      "latitude": "30.021011709723457",
      "longitude": "-89.98810546678577"
    }
  },
  {
    "service_request": "2023-1013830",
    "request_type": "Trash/Recycling",
    "request_reason": "Missed Trash Pick-Up",
    "date_created": "2023-07-03T14:09:24.000",
    "date_modified": "2023-07-03T14:09:24.000",
    "request_status": "Pending",
    "responsible_agency": "Department of Sanitation",
    "final_address": "2020 Barracks St",
    "address_councildis": "D",
    "status": "Assigned to Contractor",
    "contractor": "Richards Disposal",
    "rowid": "1013830",
    "final_x": "3680078.49512",
    "final_y": "537091.329928",
    "longitude": "-90.07236532258773",
    "latitude": "29.970858024687544",
    "geocoded_column": {
      "latitude": "29.970858024687544",
      "longitude": "-90.07236532258773"
    }
  },
  {
    "service_request": "2023-1013829",
    "request_type": "Trash/Recycling",
    "request_reason": "Request a Large Item Pick Up",
    "date_created": "2023-07-03T14:08:48.000",
    "date_modified": "2023-07-03T14:08:49.000",
    "request_status": "Pending",
    "responsible_agency": "Department of Sanitation",
    "final_address": "1919 Stephen Girard St",
    "address_councildis": "D",
    "status": "Assigned to Contractor",
    "contractor": "IV Waste",
    "rowid": "1013829",
    "final_x": "3681925.28597",
    "final_y": "548709.777363",
    "longitude": "-90.0661271400447",
    "latitude": "30.00274865515197",
    "geocoded_column": {
      "latitude": "30.00274865515197",
      "longitude": "-90.0661271400447"
    }
  },
  {
    "service_request": "2023-1013828",
    "request_type": "Traffic Signals/Signs/Striping/Streetlights",
    "request_reason": "Street Light Outage/Malfunction",
    "date_created": "2023-07-03T14:06:55.000",
    "date_modified": "2023-07-03T14:06:56.000",
    "request_status": "Pending",
    "responsible_agency": "Department of Public Works",
    "final_address": "3542 Touro St",
    "address_councildis": "D",
    "status": "Assigned to Contractor",
    "contractor": "Legacy Professional Services",
    "rowid": "1013828",
    "final_x": "3683423.42562",
    "final_y": "545783.132944",
    "longitude": "-90.06149694265518",
    "latitude": "29.99465578911657",
    "geocoded_column": {
      "latitude": "29.99465578911657",
      "longitude": "-90.06149694265518"
    }
  },
  {
    "service_request": "2023-1013827",
    "request_type": "Trash/Recycling",
    "request_reason": "Illegal Dumping",
    "date_created": "2023-07-03T14:04:58.000",
    "date_modified": "2023-07-03T14:04:58.000",
    "request_status": "Pending",
    "responsible_agency": "Department of Sanitation",
    "final_address": "4725 Crowder Blvd",
    "address_councildis": "E",
    "status": "Pending",
    "rowid": "1013827",
    "final_x": "3706541.38091",
    "final_y": "555632.403865",
    "longitude": "-89.98810546678577",
    "latitude": "30.021011709723457",
    "geocoded_column": {
      "latitude": "30.021011709723457",
      "longitude": "-89.98810546678577"
    }
  },
  {
    "service_request": "2023-1013826",
    "request_type": "Trash/Recycling",
    "request_reason": "Illegal Dumping",
    "date_created": "2023-07-03T14:04:57.000",
    "date_modified": "2023-07-03T14:04:57.000",
    "request_status": "Pending",
    "responsible_agency": "Department of Sanitation",
    "final_address": "4725 Crowder Blvd",
    "address_councildis": "E",
    "status": "Pending",
    "rowid": "1013826",
    "final_x": "3706541.38091",
    "final_y": "555632.403865",
    "longitude": "-89.98810546678577",
    "latitude": "30.021011709723457",
    "geocoded_column": {
      "latitude": "30.021011709723457",
      "longitude": "-89.98810546678577"
    }
  },
  {
    "service_request": "2023-1013825",
    "request_type": "Trash/Recycling",
    "request_reason": "Repair Recycling Cart",
    "date_created": "2023-07-03T14:02:47.000",
    "date_modified": "2023-07-03T14:02:53.000",
    "request_status": "Pending",
    "responsible_agency": "Department of Sanitation",
    "final_address": "224 N Norman C Francis Prkwy",
    "address_councildis": "B",
    "status": "Pending",
    "rowid": "1013825",
    "final_x": "3673696.45307",
    "final_y": "537123.714248",
    "longitude": "-90.09251954185339",
    "latitude": "29.97113864317803",
    "geocoded_column": {
      "latitude": "29.97113864317803",
      "longitude": "-90.09251954185339"
    }
  },
  {
    "service_request": "2023-1013824",
    "request_type": "Traffic Signals/Signs/Striping/Streetlights",
    "request_reason": "Street Light Outage/Malfunction",
    "date_created": "2023-07-03T13:59:48.000",
    "date_modified": "2023-07-03T13:59:48.000",
    "request_status": "Pending",
    "responsible_agency": "Department of Public Works",
    "final_address": "2020 Amelia St",
    "address_councildis": "B",
    "status": "Assigned to Contractor",
    "contractor": "Legacy Professional Services",
    "rowid": "1013824",
    "final_x": "3672700.8043",
    "final_y": "522728.65113",
    "longitude": "-90.09615479580096",
    "latitude": "29.931586582578888",
    "geocoded_column": {
      "latitude": "29.931586582578888",
      "longitude": "-90.09615479580096"
    }
  },
  {
    "service_request": "2023-1013823",
    "request_type": "Trash/Recycling",
    "request_reason": "Request a Large Item Pick Up",
    "date_created": "2023-07-03T13:58:24.000",
    "date_modified": "2023-07-03T13:58:25.000",
    "request_status": "Pending",
    "responsible_agency": "Department of Sanitation",
    "final_address": "4635 Dryades St",
    "address_councildis": "B",
    "status": "Assigned to Contractor",
    "contractor": "Richards Disposal",
    "rowid": "1013823",
    "final_x": "3669755.44353",
    "final_y": "521886.300794",
    "longitude": "-90.10548147844446",
    "latitude": "29.929357503762468",
    "geocoded_column": {
      "latitude": "29.929357503762468",
      "longitude": "-90.10548147844446"
    }
  },
  {
    "service_request": "2023-1013822",
    "request_type": "Trash/Recycling",
    "request_reason": "Repair Trash Cart",
    "date_created": "2023-07-03T13:50:36.000",
    "date_modified": "2023-07-03T13:50:36.000",
    "request_status": "Pending",
    "responsible_agency": "Department of Sanitation",
    "final_address": "2716 Comet St",
    "address_councildis": "C",
    "status": "Assigned to Contractor",
    "contractor": "Richards Disposal",
    "rowid": "1013822",
    "final_x": "3699864.72349",
    "final_y": "520911.669433",
    "longitude": "-90.01046822815259",
    "latitude": "29.925756103072064",
    "geocoded_column": {
      "latitude": "29.925756103072064",
      "longitude": "-90.01046822815259"
    }
  },
  {
    "service_request": "2023-1013821",
    "request_type": "Trash/Recycling",
    "request_reason": "Request a Large Item Pick Up",
    "date_created": "2023-07-03T13:43:21.000",
    "date_modified": "2023-07-03T13:43:22.000",
    "request_status": "Pending",
    "responsible_agency": "Department of Sanitation",
    "final_address": "7723 Hampson St",
    "address_councildis": "A",
    "status": "Assigned to Contractor",
    "contractor": "Richards Disposal",
    "rowid": "1013821",
    "final_x": "3661761.25645",
    "final_y": "526266.050494",
    "longitude": "-90.1305726339203",
    "latitude": "29.941633559925393",
    "geocoded_column": {
      "latitude": "29.941633559925393",
      "longitude": "-90.1305726339203"
    }
  },
  {
    "service_request": "2023-1013820",
    "request_type": "Trash/Recycling",
    "request_reason": "Replace Trash Cart",
    "date_created": "2023-07-03T13:41:59.000",
    "date_modified": "2023-07-03T13:41:59.000",
    "request_status": "Pending",
    "responsible_agency": "Department of Sanitation",
    "final_address": "1815 Euterpe St",
    "address_councildis": "B",
    "status": "Assigned to Contractor",
    "contractor": "Richards Disposal",
    "rowid": "1013820",
    "final_x": "3677988.61198",
    "final_y": "525614.676349",
    "longitude": "-90.0793620903647",
    "latitude": "29.93936415697382",
    "geocoded_column": {
      "latitude": "29.93936415697382",
      "longitude": "-90.0793620903647"
    }
  },
  {
    "service_request": "2023-1013819",
    "request_type": "Trash/Recycling",
    "request_reason": "MIssed Recycling Pick-Up",
    "date_created": "2023-07-03T13:41:42.000",
    "date_modified": "2023-07-03T13:41:43.000",
    "request_status": "Pending",
    "responsible_agency": "Department of Sanitation",
    "final_address": "4400 BLK Jeanne Marie Pl",
    "address_councildis": "D",
    "status": "Assigned to Contractor",
    "contractor": "IV Waste",
    "rowid": "1013819",
    "final_x": "3678524.11568",
    "final_y": "548748.434771",
    "longitude": "-90.07687056179029",
    "latitude": "30.002957936362364",
    "geocoded_column": {
      "latitude": "30.002957936362364",
      "longitude": "-90.07687056179029"
    }
  },
  {
    "service_request": "2023-1013818",
    "request_type": "Roads/Drainage",
    "request_reason": "Street Subsidence (Sinking)",
    "date_created": "2023-07-03T13:41:36.000",
    "date_modified": "2023-07-03T13:41:36.000",
    "request_status": "Pending",
    "responsible_agency": "Department of Public Works",
    "final_address": "5500 Vicksburg St",
    "address_councildis": "A",
    "status": "Pending",
    "rowid": "1013818",
    "final_x": "3668628.54337",
    "final_y": "543606.843854",
    "longitude": "-90.10830583897888",
    "latitude": "29.98911498399283",
    "geocoded_column": {
      "latitude": "29.98911498399283",
      "longitude": "-90.10830583897888"
    }
  },
  {
    "service_request": "2023-1013817",
    "request_type": "Trash/Recycling",
    "request_reason": "Order Recycling Cart",
    "date_created": "2023-07-03T13:38:50.000",
    "date_modified": "2023-07-03T13:38:50.000",
    "request_status": "Pending",
    "responsible_agency": "Department of Sanitation",
    "final_address": "4840 Banks St",
    "address_councildis": "A",
    "status": "Pending",
    "rowid": "1013817",
    "final_x": "3667786.44577",
    "final_y": "539258.93633",
    "longitude": "-90.11111227763321",
    "latitude": "29.977184439119785",
    "geocoded_column": {
      "latitude": "29.977184439119785",
      "longitude": "-90.11111227763321"
    }
  },
  {
    "service_request": "2023-1013816",
    "request_type": "Trash/Recycling",
    "request_reason": "Request a Large Item Pick Up",
    "date_created": "2023-07-03T13:36:20.000",
    "date_modified": "2023-07-03T13:36:21.000",
    "request_status": "Pending",
    "responsible_agency": "Department of Sanitation",
    "final_address": "7325 Edward St",
    "address_councildis": "E",
    "status": "Assigned to Contractor",
    "contractor": "Waste Pro",
    "rowid": "1013816",
    "final_x": "3701383.51972",
    "final_y": "560104.475293",
    "longitude": "-90.00423881848822",
    "latitude": "30.03347367244551",
    "geocoded_column": {
      "latitude": "30.03347367244551",
      "longitude": "-90.00423881848822"
    }
  },
  {
    "service_request": "2023-1013815",
    "request_type": "Abandoned Vehicles",
    "request_reason": "Abandoned/Junk Vehicles",
    "date_created": "2023-07-03T13:26:11.000",
    "date_modified": "2023-07-03T13:26:11.000",
    "request_status": "Pending",
    "responsible_agency": "Department of Public Works",
    "final_address": "4000 BLK Elba St",
    "address_councildis": "B",
    "status": "Pending",
    "rowid": "1013815",
    "final_x": "3670742.81891",
    "final_y": "529782.83097",
    "longitude": "-90.10209665417459",
    "latitude": "29.951041269986817",
    "geocoded_column": {
      "latitude": "29.951041269986817",
      "longitude": "-90.10209665417459"
    }
  },
  {
    "service_request": "2023-1013814",
    "request_type": "Parks & Parkways",
    "request_reason": "Request Grass Cutting Service (City Owned Property)",
    "date_created": "2023-07-03T13:26:10.000",
    "date_modified": "2023-07-03T13:26:10.000",
    "request_status": "Pending",
    "responsible_agency": "Department of Parks & Parkway",
    "final_address": "N GALVEZ ST & CLOUET ST & N GALVEZ  ST",
    "address_councildis": "D",
    "status": "Pending",
    "rowid": "1013814",
    "final_x": "3689945.1",
    "final_y": "539764.08",
    "longitude": "-90.04111025110791",
    "latitude": "29.97790489752864",
    "geocoded_column": {
      "latitude": "29.97790489752864",
      "longitude": "-90.04111025110791"
    }
  },
  {
    "service_request": "2023-1013813",
    "request_type": "Trash/Recycling",
    "request_reason": "Request a Large Item Pick Up",
    "date_created": "2023-07-03T13:22:22.000",
    "date_modified": "2023-07-03T15:02:45.000",
    "request_status": "Pending",
    "responsible_agency": "Department of Sanitation",
    "final_address": "6220 Vermillion Blvd",
    "address_councildis": "D",
    "status": "Assigned to Contractor",
    "contractor": "IV Waste",
    "rowid": "1013813",
    "final_x": "3682955.5661",
    "final_y": "555996.615641",
    "longitude": "-90.06261706028168",
    "latitude": "30.02275344085742",
    "geocoded_column": {
      "latitude": "30.02275344085742",
      "longitude": "-90.06261706028168"
    }
  },
  {
    "service_request": "2023-1013812",
    "request_type": "Trash/Recycling",
    "request_reason": "Replace Trash Cart",
    "date_created": "2023-07-03T13:21:07.000",
    "date_modified": "2023-07-03T13:21:07.000",
    "request_status": "Pending",
    "responsible_agency": "Department of Sanitation",
    "status": "Assigned to Contractor",
    "rowid": "1013812",
    "longitude": "0.0",
    "latitude": "0.0",
    "geocoded_column": {
      "latitude": "0.0",
      "longitude": "0.0"
    }
  },
  {
    "service_request": "2023-1013811",
    "request_type": "Trash/Recycling",
    "request_reason": "Replace Recycling Cart",
    "date_created": "2023-07-03T13:20:25.000",
    "date_modified": "2023-07-03T13:20:25.000",
    "request_status": "Pending",
    "responsible_agency": "Department of Sanitation",
    "final_address": "124 Wilshire Pl",
    "address_councildis": "D",
    "status": "Pending",
    "rowid": "1013811",
    "final_x": "3677428.13045",
    "final_y": "544595.722255",
    "longitude": "-90.08047637979884",
    "latitude": "29.991572440072154",
    "geocoded_column": {
      "latitude": "29.991572440072154",
      "longitude": "-90.08047637979884"
    }
  },
  {
    "service_request": "2023-1013810",
    "request_type": "Trash/Recycling",
    "request_reason": "MIssed Recycling Pick-Up",
    "date_created": "2023-07-03T13:20:10.000",
    "date_modified": "2023-07-03T13:20:10.000",
    "request_status": "Pending",
    "responsible_agency": "Department of Sanitation",
    "final_address": "3501 Plymouth Pl",
    "address_councildis": "C",
    "status": "Assigned to Contractor",
    "contractor": "Richards Disposal",
    "rowid": "1013810",
    "final_x": "3702719.80516",
    "final_y": "518154.325878",
    "longitude": "-90.00155682501382",
    "latitude": "29.91808341674454",
    "geocoded_column": {
      "latitude": "29.91808341674454",
      "longitude": "-90.00155682501382"
    }
  },
  {
    "service_request": "2023-1013809",
    "request_type": "Trash/Recycling",
    "request_reason": "Request a Large Item Pick Up",
    "date_created": "2023-07-03T13:15:47.000",
    "date_modified": "2023-07-03T13:15:51.000",
    "request_status": "Pending",
    "responsible_agency": "Department of Sanitation",
    "final_address": "1430 Urania St",
    "address_councildis": "B",
    "status": "Assigned to Contractor",
    "contractor": "Richards Disposal",
    "rowid": "1013809",
    "final_x": "3679124.03253",
    "final_y": "524044.04134",
    "longitude": "-90.07583183965485",
    "latitude": "29.93501121400894",
    "geocoded_column": {
      "latitude": "29.93501121400894",
      "longitude": "-90.07583183965485"
    }
  },
  {
    "service_request": "2023-1013808",
    "request_type": "Property Maintenance",
    "request_reason": "Property Maintenance",
    "date_created": "2023-07-03T13:15:28.000",
    "date_modified": "2023-07-03T14:25:02.000",
    "request_status": "Pending",
    "responsible_agency": "Department of Code Enforcement",
    "final_address": "5724 W Louis Prima Dr",
    "address_councildis": "E",
    "status": "Pending",
    "rowid": "1013808",
    "final_x": "3715743.39135",
    "final_y": "561773.077983",
    "longitude": "-89.95879732766753",
    "latitude": "30.03759585095367",
    "geocoded_column": {
      "latitude": "30.03759585095367",
      "longitude": "-89.95879732766753"
    }
  },
  {
    "service_request": "2023-1013807",
    "request_type": "Trash/Recycling",
    "request_reason": "Illegal Dumping",
    "date_created": "2023-07-03T13:09:57.000",
    "date_modified": "2023-07-03T13:09:57.000",
    "request_status": "Pending",
    "responsible_agency": "Department of Sanitation",
    "final_address": "1700 BLK Tulane Ave",
    "address_councildis": "B",
    "status": "Pending",
    "rowid": "1013807",
    "final_x": "3677572.6855",
    "final_y": "532060.035077",
    "longitude": "-90.08045272729365",
    "latitude": "29.957099256062893",
    "geocoded_column": {
      "latitude": "29.957099256062893",
      "longitude": "-90.08045272729365"
    }
  },
  {
    "service_request": "2023-1013806",
    "request_type": "Trash/Recycling",
    "request_reason": "Repair Trash Cart",
    "date_created": "2023-07-03T13:08:07.000",
    "date_modified": "2023-07-03T13:08:08.000",
    "request_status": "Pending",
    "responsible_agency": "Department of Sanitation",
    "final_address": "13055 Laval St",
    "address_councildis": "E",
    "status": "Assigned to Contractor",
    "contractor": "Waste Pro",
    "rowid": "1013806",
    "final_x": "3723982.07443",
    "final_y": "562557.652",
    "longitude": "-89.93273117959352",
    "latitude": "30.039478787968655",
    "geocoded_column": {
      "latitude": "30.039478787968655",
      "longitude": "-89.93273117959352"
    }
  },
  {
    "service_request": "2023-1013805",
    "request_type": "Traffic Signals/Signs/Striping/Streetlights",
    "request_reason": "Additional signage",
    "date_created": "2023-07-03T13:04:10.000",
    "date_modified": "2023-07-03T13:04:10.000",
    "request_status": "Pending",
    "responsible_agency": "Department of Public Works",
    "final_address": "SPAIN ST & ST CLAUDE AVE",
    "address_councildis": "C",
    "status": "Pending",
    "rowid": "1013805",
    "final_x": "3686125.3",
    "final_y": "536466.18",
    "longitude": "-90.05329084606909",
    "latitude": "29.968954722967844",
    "geocoded_column": {
      "latitude": "29.968954722967844",
      "longitude": "-90.05329084606909"
    }
  },
  {
    "service_request": "2023-1013804",
    "request_type": "Trash/Recycling",
    "request_reason": "Replace Trash Cart",
    "date_created": "2023-07-03T13:00:55.000",
    "date_modified": "2023-07-03T13:01:13.000",
    "request_status": "Pending",
    "responsible_agency": "Department of Sanitation",
    "final_address": "1552 Athis St",
    "address_councildis": "D",
    "status": "Assigned to Contractor",
    "contractor": "IV Waste",
    "rowid": "1013804",
    "final_x": "3678775.34229",
    "final_y": "553689.064919",
    "longitude": "-90.07590561957352",
    "latitude": "30.016535319237647",
    "geocoded_column": {
      "latitude": "30.016535319237647",
      "longitude": "-90.07590561957352"
    }
  },
  {
    "service_request": "2023-1013803",
    "request_type": "Trash/Recycling",
    "request_reason": "Request a Large Item Pick Up",
    "date_created": "2023-07-03T12:56:46.000",
    "date_modified": "2023-07-03T12:58:03.000",
    "request_status": "Pending",
    "responsible_agency": "Department of Sanitation",
    "final_address": "7554 Stonewood St",
    "address_councildis": "E",
    "status": "Assigned to Contractor",
    "contractor": "Waste Pro",
    "rowid": "1013803",
    "final_x": "3719793.04773",
    "final_y": "572168.033",
    "longitude": "-89.94560175584549",
    "latitude": "30.06604348256588",
    "geocoded_column": {
      "latitude": "30.06604348256588",
      "longitude": "-89.94560175584549"
    }
  },
  {
    "service_request": "2023-1013802",
    "request_type": "Traffic Signals/Signs/Striping/Streetlights",
    "request_reason": "Street Light Outage/Malfunction",
    "date_created": "2023-07-03T12:55:45.000",
    "date_modified": "2023-07-03T12:55:47.000",
    "request_status": "Pending",
    "responsible_agency": "Department of Public Works",
    "final_address": "801 Lowerline St",
    "address_councildis": "A",
    "status": "Assigned to Contractor",
    "contractor": "Legacy Professional Services",
    "rowid": "1013802",
    "final_x": "3662951.34138",
    "final_y": "525665.594429",
    "longitude": "-90.12683523927086",
    "latitude": "29.939948094270147",
    "geocoded_column": {
      "latitude": "29.939948094270147",
      "longitude": "-90.12683523927086"
    }
  },
  {
    "service_request": "2023-1013801",
    "request_type": "Traffic Signals/Signs/Striping/Streetlights",
    "request_reason": "Street Light Outage/Malfunction",
    "date_created": "2023-07-03T12:54:25.000",
    "date_modified": "2023-07-03T12:54:25.000",
    "request_status": "Pending",
    "responsible_agency": "Department of Public Works",
    "final_address": "817 Lowerline St",
    "address_councildis": "A",
    "status": "Assigned to Contractor",
    "contractor": "Legacy Professional Services",
    "rowid": "1013801",
    "final_x": "3663005.75277",
    "final_y": "525748.398973",
    "longitude": "-90.1266607005768",
    "latitude": "29.94017420497294",
    "geocoded_column": {
      "latitude": "29.94017420497294",
      "longitude": "-90.1266607005768"
    }
  },
  {
    "service_request": "2023-1013800",
    "request_type": "Abandoned Vehicles",
    "request_reason": "Abandoned/Junk Vehicles",
    "date_created": "2023-07-03T12:54:20.000",
    "date_modified": "2023-07-03T12:54:21.000",
    "request_status": "Pending",
    "responsible_agency": "Department of Public Works",
    "final_address": "3400 N Derbigny St",
    "address_councildis": "D",
    "status": "Pending",
    "rowid": "1013800",
    "final_x": "3690841.17187",
    "final_y": "537876.892425",
    "longitude": "-90.03834751549537",
    "latitude": "29.972687984238735",
    "geocoded_column": {
      "latitude": "29.972687984238735",
      "longitude": "-90.03834751549537"
    }
  },
  {
    "service_request": "2023-1013799",
    "request_type": "Traffic Signals/Signs/Striping/Streetlights",
    "request_reason": "Street Name Sign Damaged or Missing",
    "date_created": "2023-07-03T12:53:33.000",
    "date_modified": "2023-07-03T12:53:34.000",
    "request_status": "Pending",
    "responsible_agency": "Department of Public Works",
    "final_address": "9781 W Wheaton Cir",
    "address_councildis": "E",
    "status": "Pending",
    "rowid": "1013799",
    "final_x": "3708489.9987",
    "final_y": "562324.539359",
    "longitude": "-89.98169901951746",
    "latitude": "30.039349402364426",
    "geocoded_column": {
      "latitude": "30.039349402364426",
      "longitude": "-89.98169901951746"
    }
  },
  {
    "service_request": "2023-1013798",
    "request_type": "Trash/Recycling",
    "request_reason": "Request a Large Item Pick Up",
    "date_created": "2023-07-03T12:53:03.000",
    "date_modified": "2023-07-03T12:53:04.000",
    "request_status": "Pending",
    "responsible_agency": "Department of Sanitation",
    "final_address": "4512 S Miro St",
    "address_councildis": "B",
    "status": "Assigned to Contractor",
    "contractor": "Richards Disposal",
    "rowid": "1013798",
    "final_x": "3669626.14554",
    "final_y": "527725.079359",
    "longitude": "-90.10569217126428",
    "latitude": "29.94541607089053",
    "geocoded_column": {
      "latitude": "29.94541607089053",
      "longitude": "-90.10569217126428"
    }
  },
  {
    "service_request": "2023-1013797",
    "request_type": "Roads/Drainage",
    "request_reason": "Pothole",
    "date_created": "2023-07-03T12:47:40.000",
    "date_modified": "2023-07-03T13:32:17.000",
    "request_status": "Pending",
    "responsible_agency": "Department of Public Works",
    "final_address": "5716 Louis XIV St, New Orleans, Louisiana, 70124",
    "address_councildis": "A",
    "status": "Pending",
    "rowid": "1013797",
    "final_x": "3667844.70721",
    "final_y": "545586.609424",
    "longitude": "-90.11071502857578",
    "latitude": "29.99458168052648",
    "geocoded_column": {
      "latitude": "29.99458168052648",
      "longitude": "-90.11071502857578"
    }
  },
  {
    "service_request": "2023-1013796",
    "request_type": "Trash/Recycling",
    "request_reason": "Replace Trash Cart",
    "date_created": "2023-07-03T12:39:13.000",
    "date_modified": "2023-07-03T12:39:14.000",
    "request_status": "Pending",
    "responsible_agency": "Department of Sanitation",
    "final_address": "1536 Cambronne St",
    "address_councildis": "A",
    "status": "Assigned to Contractor",
    "contractor": "Richards Disposal",
    "rowid": "1013796",
    "final_x": "3662062.84499",
    "final_y": "530137.206273",
    "longitude": "-90.12949204634512",
    "latitude": "29.952269291566534",
    "geocoded_column": {
      "latitude": "29.952269291566534",
      "longitude": "-90.12949204634512"
    }
  },
  {
    "service_request": "2023-1013795",
    "request_type": "Trash/Recycling",
    "request_reason": "Request a Large Item Pick Up",
    "date_created": "2023-07-03T12:36:27.000",
    "date_modified": "2023-07-03T12:36:28.000",
    "request_status": "Pending",
    "responsible_agency": "Department of Sanitation",
    "final_address": "2717 Amelia St",
    "address_councildis": "B",
    "status": "Assigned to Contractor",
    "contractor": "Richards Disposal",
    "rowid": "1013795",
    "final_x": "3672195.23092",
    "final_y": "525111.996285",
    "longitude": "-90.09766969788724",
    "latitude": "29.93815501041464",
    "geocoded_column": {
      "latitude": "29.93815501041464",
      "longitude": "-90.09766969788724"
    }
  },
  {
    "service_request": "2023-1013794",
    "request_type": "Abandoned Vehicles",
    "request_reason": "Abandoned/Junk Vehicles",
    "date_created": "2023-07-03T12:31:45.000",
    "date_modified": "2023-07-03T12:31:45.000",
    "request_status": "Pending",
    "responsible_agency": "Department of Public Works",
    "final_address": "400 BLK N Rocheblave St",
    "address_councildis": "B",
    "status": "Pending",
    "rowid": "1013794",
    "final_x": "3676988.58988",
    "final_y": "535625.232671",
    "longitude": "-90.08217419636577",
    "latitude": "29.966919893011816",
    "geocoded_column": {
      "latitude": "29.966919893011816",
      "longitude": "-90.08217419636577"
    }
  },
  {
    "service_request": "2023-1013793",
    "request_type": "Trash/Recycling",
    "request_reason": "Repair Trash Cart",
    "date_created": "2023-07-03T12:27:59.000",
    "date_modified": "2023-07-03T12:28:00.000",
    "request_status": "Pending",
    "responsible_agency": "Department of Sanitation",
    "final_address": "1316 Lowerline St",
    "address_councildis": "A",
    "status": "Assigned to Contractor",
    "contractor": "Richards Disposal",
    "rowid": "1013793",
    "final_x": "3663890.3417",
    "final_y": "527257.382207",
    "longitude": "-90.12381761490911",
    "latitude": "29.944297782245147",
    "geocoded_column": {
      "latitude": "29.944297782245147",
      "longitude": "-90.12381761490911"
    }
  },
  {
    "service_request": "2023-1013792",
    "request_type": "Abandoned Vehicles",
    "request_reason": "Abandoned/Junk Vehicles",
    "date_created": "2023-07-03T12:23:48.000",
    "date_modified": "2023-07-03T12:23:48.000",
    "request_status": "Pending",
    "responsible_agency": "Department of Public Works",
    "final_address": "3508 Tulane Ave",
    "address_councildis": "B",
    "status": "Pending",
    "rowid": "1013792",
    "final_x": "3671364.12359",
    "final_y": "535171.627334",
    "longitude": "-90.09995172999427",
    "latitude": "29.96584030011268",
    "geocoded_column": {
      "latitude": "29.96584030011268",
      "longitude": "-90.09995172999427"
    }
  },
  {
    "service_request": "2023-1013791",
    "request_type": "Trash/Recycling",
    "request_reason": "Repair Recycling Cart",
    "date_created": "2023-07-03T12:23:44.000",
    "date_modified": "2023-07-03T12:23:45.000",
    "request_status": "Pending",
    "responsible_agency": "Department of Sanitation",
    "final_address": "4302 Orleans Ave",
    "address_councildis": "A",
    "status": "Pending",
    "rowid": "1013791",
    "final_x": "3671629.49294",
    "final_y": "540795.480971",
    "longitude": "-90.09892237281198",
    "latitude": "29.981296139910757",
    "geocoded_column": {
      "latitude": "29.981296139910757",
      "longitude": "-90.09892237281198"
    }
  },
  {
    "service_request": "2023-1013789",
    "request_type": "Trash/Recycling",
    "request_reason": "Request a Large Item Pick Up",
    "date_created": "2023-07-03T12:10:20.000",
    "date_modified": "2023-07-03T12:10:21.000",
    "request_status": "Pending",
    "responsible_agency": "Department of Sanitation",
    "final_address": "3719 Timber Bluff Ln",
    "address_councildis": "C",
    "status": "Assigned to Contractor",
    "contractor": "Richards Disposal",
    "rowid": "1013789",
    "final_x": "3703926.91108",
    "final_y": "510752.386095",
    "longitude": "-89.99801894924028",
    "latitude": "29.897691974330296",
    "geocoded_column": {
      "latitude": "29.897691974330296",
      "longitude": "-89.99801894924028"
    }
  },
  {
    "service_request": "2023-1013788",
    "request_type": "Traffic Signals/Signs/Striping/Streetlights",
    "request_reason": "Street Light Outage/Malfunction",
    "date_created": "2023-07-03T12:06:23.000",
    "date_modified": "2023-07-03T12:06:24.000",
    "request_status": "Pending",
    "responsible_agency": "Department of Public Works",
    "final_address": "5521 Rickert Dr",
    "address_councildis": "E",
    "status": "Assigned to Contractor",
    "contractor": "Legacy Professional Services",
    "rowid": "1013788",
    "final_x": "3703257.51902",
    "final_y": "556267.70857",
    "longitude": "-89.99845806873347",
    "latitude": "30.022864150196636",
    "geocoded_column": {
      "latitude": "30.022864150196636",
      "longitude": "-89.99845806873347"
    }
  },
  {
    "service_request": "2023-1013787",
    "request_type": "Trash/Recycling",
    "request_reason": "Request a Large Item Pick Up",
    "date_created": "2023-07-03T12:02:56.000",
    "date_modified": "2023-07-03T12:03:02.000",
    "request_status": "Pending",
    "responsible_agency": "Department of Sanitation",
    "final_address": "405 Pelican Ave",
    "address_councildis": "C",
    "status": "Assigned to Contractor",
    "contractor": "Richards Disposal",
    "rowid": "1013787",
    "final_x": "3686577.16066",
    "final_y": "530487.74029",
    "longitude": "-90.05207495960802",
    "latitude": "29.952502191071826",
    "geocoded_column": {
      "latitude": "29.952502191071826",
      "longitude": "-90.05207495960802"
    }
  },
  {
    "service_request": "2023-1013786",
    "request_type": "Traffic Signals/Signs/Striping/Streetlights",
    "request_reason": "Street Light Outage/Malfunction",
    "date_created": "2023-07-03T11:59:43.000",
    "date_modified": "2023-07-03T11:59:44.000",
    "request_status": "Pending",
    "responsible_agency": "Department of Public Works",
    "final_address": "2519 Verbena St",
    "address_councildis": "D",
    "status": "Assigned to Contractor",
    "contractor": "Legacy Professional Services",
    "rowid": "1013786",
    "final_x": "3686415.81794",
    "final_y": "547792.281234",
    "longitude": "-90.05197338413171",
    "latitude": "30.000088556586583",
    "geocoded_column": {
      "latitude": "30.000088556586583",
      "longitude": "-90.05197338413171"
    }
  },
  {
    "service_request": "2023-1013784",
    "request_type": "Trash/Recycling",
    "request_reason": "Order Recycling Cart",
    "date_created": "2023-07-03T11:53:40.000",
    "date_modified": "2023-07-03T11:53:40.000",
    "request_status": "Pending",
    "responsible_agency": "Department of Sanitation",
    "final_address": "1204 Race St",
    "address_councildis": "B",
    "status": "Pending",
    "rowid": "1013784",
    "final_x": "3679673.1748",
    "final_y": "523922.88742",
    "longitude": "-90.07410240552706",
    "latitude": "29.93466149822084",
    "geocoded_column": {
      "latitude": "29.93466149822084",
      "longitude": "-90.07410240552706"
    }
  },
  {
    "service_request": "2023-1013783",
    "request_type": "Trash/Recycling",
    "request_reason": "Repair Trash Cart",
    "date_created": "2023-07-03T11:53:40.000",
    "date_modified": "2023-07-03T11:53:41.000",
    "request_status": "Pending",
    "responsible_agency": "Department of Sanitation",
    "final_address": "4150 Vendome Pl",
    "address_councildis": "B",
    "status": "Assigned to Contractor",
    "contractor": "Richards Disposal",
    "rowid": "1013783",
    "final_x": "3668832.33729",
    "final_y": "530864.778178",
    "longitude": "-90.10809248680026",
    "latitude": "29.95407257908638",
    "geocoded_column": {
      "latitude": "29.95407257908638",
      "longitude": "-90.10809248680026"
    }
  },
  {
    "service_request": "2023-1013782",
    "request_type": "Trash/Recycling",
    "request_reason": "Order Recycling Cart",
    "date_created": "2023-07-03T11:48:56.000",
    "date_modified": "2023-07-03T11:55:12.000",
    "request_status": "Pending",
    "responsible_agency": "Department of Sanitation",
    "final_address": "2531 Jasmine St",
    "address_councildis": "D",
    "status": "Pending",
    "rowid": "1013782",
    "final_x": "3686490.62172",
    "final_y": "548099.232594",
    "longitude": "-90.05172622998624",
    "latitude": "30.000930261584546",
    "geocoded_column": {
      "latitude": "30.000930261584546",
      "longitude": "-90.05172622998624"
    }
  },
  {
    "service_request": "2023-1013781",
    "request_type": "Trash/Recycling",
    "request_reason": "Request a Large Item Pick Up",
    "date_created": "2023-07-03T11:46:28.000",
    "date_modified": "2023-07-03T11:46:28.000",
    "request_status": "Pending",
    "responsible_agency": "Department of Sanitation",
    "final_address": "1824 Burgundy St Unit D",
    "address_councildis": "C",
    "status": "Assigned to Contractor",
    "contractor": "IV Waste",
    "rowid": "1013781",
    "final_x": "3683602.82172",
    "final_y": "535404.293446",
    "longitude": "-90.06129421636535",
    "latitude": "29.96611214369236",
    "geocoded_column": {
      "latitude": "29.96611214369236",
      "longitude": "-90.06129421636535"
    }
  },
  {
    "service_request": "2023-1013780",
    "request_type": "Traffic Signals/Signs/Striping/Streetlights",
    "request_reason": "Street Light Outage/Malfunction",
    "date_created": "2023-07-03T11:44:46.000",
    "date_modified": "2023-07-03T11:44:47.000",
    "request_status": "Pending",
    "responsible_agency": "Department of Public Works",
    "final_address": "130 20Th St",
    "address_councildis": "A",
    "status": "Assigned to Contractor",
    "contractor": "Legacy Professional Services",
    "rowid": "1013780",
    "final_x": "3665884.13421",
    "final_y": "548943.264851",
    "longitude": "-90.11679568738258",
    "latitude": "30.003868704234097",
    "geocoded_column": {
      "latitude": "30.003868704234097",
      "longitude": "-90.11679568738258"
    }
  },
  {
    "service_request": "2023-1013779",
    "request_type": "Roads/Drainage",
    "request_reason": "Debris in Roadway",
    "date_created": "2023-07-03T11:41:46.000",
    "date_modified": "2023-07-03T14:35:58.000",
    "request_status": "Pending",
    "responsible_agency": "Department of Public Works",
    "final_address": "2775 Mendez St",
    "address_councildis": "D",
    "status": "Inspected",
    "rowid": "1013779",
    "final_x": "3687880.42703",
    "final_y": "553819.718359",
    "longitude": "-90.04713288701028",
    "latitude": "30.01661668746503",
    "geocoded_column": {
      "latitude": "30.01661668746503",
      "longitude": "-90.04713288701028"
    }
  },