[
  {
    "service_request": "2021-828539",
    "request_type": "Traffic Signals/Signs/Striping/Streetlights",
    "request_reason": "Street Light Outage/Malfunction",
    "date_created": "2021-10-02T01:36:48.000",
    "date_modified": "2021-10-02T01:36:48.000",
    "request_status": "Pending",
    "responsible_agency": "Department of Public Works",
    "final_address": "2917 St Claude Ave",
    "address_councildis": "C",
    "status": "Pending",
    "contractor": "Royal Engineering",
    "rowid": "828539",
    "final_x": "3688311.01756",
    "final_y": "536280.783111",
    "longitude": "-90.04639480131141",
    "latitude": "29.968377626738363",
    "geocoded_column": {
      "latitude": "29.968377626738363",
      "longitude": "-90.04639480131141"
    }
  },
  {
    "service_request": "2021-828538",
    "request_type": "Traffic Signals/Signs/Striping/Streetlights",
    "request_reason": "Street Light Outage/Malfunction",
    "date_created": "2021-10-02T00:57:35.000",
    "date_modified": "2021-10-02T00:57:36.000",
    "request_status": "Pending",
    "responsible_agency": "Department of Public Works",
    "final_address": "643 Aurora Oaks Dr",
    "address_councildis": "C",
    "status": "Pending",
    "contractor": "Royal Engineering",
    "rowid": "828538",
    "final_x": "3701225.67965",
    "final_y": "520411.720888",
    "longitude": "-90.00619040727543",
    "latitude": "29.924338143567134",
    "geocoded_column": {
      "latitude": "29.924338143567134",
      "longitude": "-90.00619040727543"
    }
  },
  {
    "service_request": "2021-828537",
    "request_type": "Trash/Recycling",
    "request_reason": "Missed Trash Pick-Up",
    "date_created": "2021-10-02T00:50:07.000",
    "date_modified": "2021-10-02T00:50:08.000",
    "request_status": "Pending",
    "responsible_agency": "Department of Sanitation",
    "final_address": "6019 Louisville St",
    "address_councildis": "A",
    "status": "Assigned to Contractor",
    "contractor": "Metro Disposal",
    "rowid": "828537",
    "final_x": "3667841.35745",
    "final_y": "547492.885522",
    "longitude": "-90.11066135540084",
    "latitude": "29.999823381258206",
    "geocoded_column": {
      "latitude": "29.999823381258206",
      "longitude": "-90.11066135540084"
    }
  },
  {
    "service_request": "2021-828536",
    "request_type": "Traffic Signals/Signs/Striping/Streetlights",
    "request_reason": "Street Light Outage/Malfunction",
    "date_created": "2021-10-02T00:45:46.000",
    "date_modified": "2021-10-02T00:45:47.000",
    "request_status": "Pending",
    "responsible_agency": "Department of Public Works",
    "final_address": "1620 General Collins Ave",
    "address_councildis": "C",
    "status": "Pending",
    "contractor": "Royal Engineering",
    "rowid": "828536",
    "final_x": "3698612.88426",
    "final_y": "525186.553021",
    "longitude": "-90.01426453828161",
    "latitude": "29.937550238848196",
    "geocoded_column": {
      "latitude": "29.937550238848196",
      "longitude": "-90.01426453828161"
    }
  },
  {
    "service_request": "2021-828535",
    "request_type": "Trash/Recycling",
    "request_reason": "Missed Trash Pick-Up",
    "date_created": "2021-10-02T00:11:23.000",
    "date_modified": "2021-10-02T00:11:23.000",
    "request_status": "Pending",
    "responsible_agency": "Department of Sanitation",
    "final_address": "2313 Montpelier St",
    "address_councildis": "D",
    "status": "Assigned to Contractor",
    "contractor": "Metro Disposal",
    "rowid": "828535",
    "final_x": "3684867.73045",
    "final_y": "546365.887312",
    "longitude": "-90.05691405936759",
    "latitude": "29.996213995893097",
    "geocoded_column": {
      "latitude": "29.996213995893097",
      "longitude": "-90.05691405936759"
    }
  },
  {
    "service_request": "2021-828534",
    "request_type": "COVID-19",
    "request_reason": "COVID-19 Business Non-Compliance",
    "date_created": "2021-10-01T23:45:04.000",
    "date_modified": "2021-10-01T23:45:05.000",
    "request_status": "Pending",
    "responsible_agency": "Safety and Permits",
    "final_address": "2301 Chartres St",
    "address_councildis": "C",
    "status": "Pending",
    "rowid": "828534",
    "final_x": "3685589.39062",
    "final_y": "534573.053637",
    "longitude": "-90.05504997644546",
    "latitude": "29.963765732527133",
    "geocoded_column": {
      "latitude": "29.963765732527133",
      "longitude": "-90.05504997644546"
    }
  },
  {
    "service_request": "2021-828533",
    "request_type": "Mosquito, Termite & Rodent Control",
    "request_reason": "Mosquito Complaint",
    "date_created": "2021-10-01T23:37:40.000",
    "date_modified": "2021-10-01T23:37:40.000",
    "request_status": "Pending",
    "responsible_agency": "Mosquito, Termite & Rodent Control Board",
    "final_address": "4 Bear Creek Dr",
    "address_councildis": "C",
    "status": "Pending",
    "rowid": "828533",
    "final_x": "3718384.4933",
    "final_y": "514933.943539",
    "longitude": "-89.95223504904124",
    "latitude": "29.908718597070383",
    "geocoded_column": {
      "latitude": "29.908718597070383",
      "longitude": "-89.95223504904124"
    }
  },
  {
    "service_request": "2021-828532",
    "request_type": "Traffic Signals/Signs/Striping/Streetlights",
    "request_reason": "Request for Traffic Calming due to Speeding",
    "date_created": "2021-10-01T23:24:45.000",
    "date_modified": "2021-10-01T23:24:45.000",
    "request_status": "Pending",
    "responsible_agency": "Department of Public Works",
    "final_address": "4127 Fontainebleau Dr",
    "address_councildis": "B",
    "status": "Pending",
    "rowid": "828532",
    "final_x": "3669881.82177",
    "final_y": "529175.25504",
    "longitude": "-90.10483582744327",
    "latitude": "29.949396046023413",
    "geocoded_column": {
      "latitude": "29.949396046023413",
      "longitude": "-90.10483582744327"
    }
  },
  {
    "service_request": "2021-828531",
    "request_type": "Traffic Signals/Signs/Striping/Streetlights",
    "request_reason": "Street Light Outage/Malfunction",
    "date_created": "2021-10-01T23:19:14.000",
    "date_modified": "2021-10-01T23:19:15.000",
    "request_status": "Pending",
    "responsible_agency": "Department of Public Works",
    "final_address": "4127 Fontainebleau Dr",
    "address_councildis": "B",
    "status": "Pending",
    "contractor": "Royal Engineering",
    "rowid": "828531",
    "final_x": "3669881.82177",
    "final_y": "529175.25504",
    "longitude": "-90.10483582744327",
    "latitude": "29.949396046023413",
    "geocoded_column": {
      "latitude": "29.949396046023413",
      "longitude": "-90.10483582744327"
    }
  },
  {
    "service_request": "2021-828530",
    "request_type": "Roads/Drainage",
    "request_reason": "Man hole cover issue",
    "date_created": "2021-10-01T23:05:48.000",
    "date_modified": "2021-10-01T23:05:48.000",
    "request_status": "Pending",
    "responsible_agency": "Department of Public Works",
    "final_address": "3131 Dauphine St",
    "address_councildis": "C",
    "status": "Pending",
    "rowid": "828530",
    "final_x": "3688976.63766",
    "final_y": "534834.04231",
    "longitude": "-90.04434414422894",
    "latitude": "29.96437902256309",
    "geocoded_column": {
      "latitude": "29.96437902256309",
      "longitude": "-90.04434414422894"
    }
  },
  {
    "service_request": "2021-828529",
    "request_type": "Property Maintenance",
    "request_reason": "Property Maintenance",
    "date_created": "2021-10-01T22:24:24.000",
    "date_modified": "2021-10-01T22:24:24.000",
    "request_status": "Pending",
    "responsible_agency": "Department of Code Enforcement",
    "final_address": "2007 Mandeville St",
    "address_councildis": "D",
    "status": "Pending",
    "rowid": "828529",
    "final_x": "3685539.80425",
    "final_y": "539763.823114",
    "longitude": "-90.05502369522901",
    "latitude": "29.97804006060663",
    "geocoded_column": {
      "latitude": "29.97804006060663",
      "longitude": "-90.05502369522901"
    }
  },
  {
    "service_request": "2021-828528",
    "request_type": "Property Maintenance",
    "request_reason": "Property Maintenance",
    "date_created": "2021-10-01T22:19:23.000",
    "date_modified": "2021-10-01T22:19:23.000",
    "request_status": "Pending",
    "responsible_agency": "Department of Code Enforcement",
    "final_address": "1722 N Robertson St",
    "address_councildis": "C",
    "status": "Pending",
    "rowid": "828528",
    "final_x": "3683238.49122",
    "final_y": "537528.261",
    "longitude": "-90.06237036318434",
    "latitude": "29.971963436116305",
    "geocoded_column": {
      "latitude": "29.971963436116305",
      "longitude": "-90.06237036318434"
    }
  },
  {
    "service_request": "2021-828526",
    "request_type": "Trash/Recycling",
    "request_reason": "Missed Trash Pick-Up",
    "date_created": "2021-10-01T21:57:04.000",
    "date_modified": "2021-10-01T21:57:05.000",
    "request_status": "Pending",
    "responsible_agency": "Department of Sanitation",
    "final_address": "2621 Erato St",
    "address_councildis": "B",
    "status": "Assigned to Contractor",
    "contractor": "Richards Disposal",
    "rowid": "828526",
    "final_x": "3676327.95381",
    "final_y": "528111.486847",
    "longitude": "-90.08451909627894",
    "latitude": "29.946279429122196",
    "geocoded_column": {
      "latitude": "29.946279429122196",
      "longitude": "-90.08451909627894"
    }
  },
  {
    "service_request": "2021-828525",
    "request_type": "Property Maintenance",
    "request_reason": "Property Maintenance",
    "date_created": "2021-10-01T21:41:05.000",
    "date_modified": "2021-10-01T21:41:05.000",
    "request_status": "Pending",
    "responsible_agency": "Department of Code Enforcement",
    "final_address": "1817 Evergreen Ave",
    "address_councildis": "C",
    "status": "Pending",
    "rowid": "828525",
    "final_x": "3688122.14819",
    "final_y": "525067.021565",
    "longitude": "-90.04738869462433",
    "latitude": "29.93754946844652",
    "geocoded_column": {
      "latitude": "29.93754946844652",
      "longitude": "-90.04738869462433"
    }
  },
  {
    "service_request": "2021-828524",
    "request_type": "Property Maintenance",
    "request_reason": "Property Maintenance",
    "date_created": "2021-10-01T21:40:11.000",
    "date_modified": "2021-10-01T21:40:11.000",
    "request_status": "Pending",
    "responsible_agency": "Department of Code Enforcement",
    "final_address": "1901 Bodenger Blvd",
    "address_councildis": "C",
    "status": "Pending",
    "rowid": "828524",
    "final_x": "3688384.17155",
    "final_y": "524917.439356",
    "longitude": "-90.04656677351039",
    "latitude": "29.937130079628847",
    "geocoded_column": {
      "latitude": "29.937130079628847",
      "longitude": "-90.04656677351039"
    }
  },
  {
    "service_request": "2021-828523",
    "request_type": "Property Maintenance",
    "request_reason": "Property Maintenance",
    "date_created": "2021-10-01T21:39:32.000",
    "date_modified": "2021-10-01T21:39:32.000",
    "request_status": "Pending",
    "responsible_agency": "Department of Code Enforcement",
    "final_address": "1958 Evergreen Ave",
    "address_councildis": "C",
    "status": "Pending",
    "rowid": "828523",
    "final_x": "3688196.10102",
    "final_y": "524494.964412",
    "longitude": "-90.04717549270661",
    "latitude": "29.935974222159242",
    "geocoded_column": {
      "latitude": "29.935974222159242",
      "longitude": "-90.04717549270661"
    }
  },
  {
    "service_request": "2021-828522",
    "request_type": "Property Maintenance",
    "request_reason": "Property Maintenance",
    "date_created": "2021-10-01T21:38:51.000",
    "date_modified": "2021-10-01T21:38:51.000",
    "request_status": "Pending",
    "responsible_agency": "Department of Code Enforcement",
    "final_address": "1952 Evergreen Ave",
    "address_councildis": "C",
    "status": "Pending",
    "rowid": "828522",
    "final_x": "3688192.59753",
    "final_y": "524562.044732",
    "longitude": "-90.04718417621564",
    "latitude": "29.9361587785345",
    "geocoded_column": {
      "latitude": "29.9361587785345",
      "longitude": "-90.04718417621564"
    }
  },
  {
    "service_request": "2021-828521",
    "request_type": "Property Maintenance",
    "request_reason": "Property Maintenance",
    "date_created": "2021-10-01T21:38:03.000",
    "date_modified": "2021-10-01T21:38:03.000",
    "request_status": "Pending",
    "responsible_agency": "Department of Code Enforcement",
    "final_address": "1930 Evergreen Ave",
    "address_councildis": "C",
    "status": "Pending",
    "rowid": "828521",
    "final_x": "3688191.59606",
    "final_y": "524615.107708",
    "longitude": "-90.04718545753586",
    "latitude": "29.9363047147188",
    "geocoded_column": {
      "latitude": "29.9363047147188",
      "longitude": "-90.04718545753586"
    }
  },
  {
    "service_request": "2021-828519",
    "request_type": "Trash/Recycling",
    "request_reason": "Missed Trash Pick-Up",
    "date_created": "2021-10-01T21:11:27.000",
    "date_modified": "2021-10-01T21:11:28.000",
    "request_status": "Pending",
    "responsible_agency": "Department of Sanitation",
    "final_address": "5513 Coliseum St",
    "address_councildis": "A",
    "status": "Assigned to Contractor",
    "contractor": "Richards Disposal",
    "rowid": "828519",
    "final_x": "3666559.71469",
    "final_y": "519992.599736",
    "longitude": "-90.11563336480323",
    "latitude": "29.924244199248047",
    "geocoded_column": {
      "latitude": "29.924244199248047",
      "longitude": "-90.11563336480323"
    }
  },
  {
    "service_request": "2021-828518",
    "request_type": "Trash/Recycling",
    "request_reason": "Missed Trash Pick-Up",
    "date_created": "2021-10-01T21:05:01.000",
    "date_modified": "2021-10-01T21:05:02.000",
    "request_status": "Pending",
    "responsible_agency": "Department of Sanitation",
    "final_address": "7030 Louis Xiv St",
    "address_councildis": "A",
    "status": "Assigned to Contractor",
    "contractor": "Metro Disposal",
    "rowid": "828518",
    "final_x": "3668612.84212",
    "final_y": "554292.96092",
    "longitude": "-90.10799447282682",
    "latitude": "30.01849854883769",
    "geocoded_column": {
      "latitude": "30.01849854883769",
      "longitude": "-90.10799447282682"
    }
  },
  {
    "service_request": "2021-828517",
    "request_type": "Traffic Signals/Signs/Striping/Streetlights",
    "request_reason": "Street Light Outage/Malfunction",
    "date_created": "2021-10-01T20:57:36.000",
    "date_modified": "2021-10-01T20:57:37.000",
    "request_status": "Pending",
    "responsible_agency": "Department of Public Works",
    "final_address": "PAINTERS ST & N MIRO ST",
    "address_councildis": "D",
    "status": "Pending",
    "contractor": "Royal Engineering",
    "rowid": "828517",
    "final_x": "3687239.6",
    "final_y": "540559.08",
    "longitude": "-90.04962701371211",
    "latitude": "29.980174484829117",
    "geocoded_column": {
      "latitude": "29.980174484829117",
      "longitude": "-90.04962701371211"
    }
  },
  {
    "service_request": "2021-828514",
    "request_type": "Trash/Recycling",
    "request_reason": "Illegal Dumping",
    "date_created": "2021-10-01T20:42:23.000",
    "date_modified": "2021-10-01T20:42:23.000",
    "request_status": "Pending",
    "responsible_agency": "Department of Sanitation",
    "final_address": "1843 Marigny St",
    "address_councildis": "D",
    "status": "Pending",
    "rowid": "828514",
    "final_x": "3685217.64853",
    "final_y": "539254.242634",
    "longitude": "-90.05605911542231",
    "latitude": "29.97664877134958",
    "geocoded_column": {
      "latitude": "29.97664877134958",
      "longitude": "-90.05605911542231"
    }
  },
  {
    "service_request": "2021-828513",
    "request_type": "Property Maintenance",
    "request_reason": "Property Maintenance",
    "date_created": "2021-10-01T20:39:58.000",
    "date_modified": "2021-10-01T20:39:58.000",
    "request_status": "Pending",
    "responsible_agency": "Department of Code Enforcement",
    "final_address": "1843 Marigny St",
    "address_councildis": "D",
    "status": "Pending",
    "rowid": "828513",
    "final_x": "3685217.64853",
    "final_y": "539254.242634",
    "longitude": "-90.05605911542231",
    "latitude": "29.97664877134958",
    "geocoded_column": {
      "latitude": "29.97664877134958",
      "longitude": "-90.05605911542231"
    }
  },
  {
    "service_request": "2021-828512",
    "request_type": "Trash/Recycling",
    "request_reason": "Illegal Dumping",
    "date_created": "2021-10-01T20:36:20.000",
    "date_modified": "2021-10-01T20:36:20.000",
    "request_status": "Pending",
    "responsible_agency": "Department of Sanitation",
    "final_address": "2254 N Prieur St",
    "address_councildis": "D",
    "status": "Pending",
    "rowid": "828512",
    "final_x": "3685346.29621",
    "final_y": "539255.699402",
    "longitude": "-90.05565275570962",
    "latitude": "29.976648833205225",
    "geocoded_column": {
      "latitude": "29.976648833205225",
      "longitude": "-90.05565275570962"
    }
  },
  {
    "service_request": "2021-828511",
    "request_type": "Property Maintenance",
    "request_reason": "Property Maintenance",
    "date_created": "2021-10-01T20:33:50.000",
    "date_modified": "2021-10-01T20:33:50.000",
    "request_status": "Pending",
    "responsible_agency": "Department of Code Enforcement",
    "final_address": "2254 N Prieur St",
    "address_councildis": "D",
    "status": "Pending",
    "rowid": "828511",
    "final_x": "3685346.29621",
    "final_y": "539255.699402",
    "longitude": "-90.05565275570962",
    "latitude": "29.976648833205225",
    "geocoded_column": {
      "latitude": "29.976648833205225",
      "longitude": "-90.05565275570962"
    }
  },
  {
    "service_request": "2021-828510",
    "request_type": "Traffic Signals/Signs/Striping/Streetlights",
    "request_reason": "Traffic Sign Missing/Damaged",
    "date_created": "2021-10-01T20:18:32.000",
    "date_modified": "2021-10-01T20:18:32.000",
    "request_status": "Pending",
    "responsible_agency": "Department of Public Works",
    "final_address": "1300 L. B. Landry Ave",
    "address_councildis": "C",
    "status": "Pending",
    "rowid": "828510",
    "final_x": "3690209.63004",
    "final_y": "526560.89043",
    "longitude": "-90.04074518349148",
    "latitude": "29.941592517132065",
    "geocoded_column": {
      "latitude": "29.941592517132065",
      "longitude": "-90.04074518349148"
    }
  },
  {
    "service_request": "2021-828509",
    "request_type": "Trash/Recycling",
    "request_reason": "Illegal Dumping",
    "date_created": "2021-10-01T20:04:29.000",
    "date_modified": "2021-10-01T20:04:29.000",
    "request_status": "Pending",
    "responsible_agency": "Department of Sanitation",
    "final_address": "5822 Law St",
    "address_councildis": "E",
    "status": "Pending",
    "rowid": "828509",
    "final_x": "3700597.77124",
    "final_y": "539056.27233",
    "longitude": "-90.007491486234",
    "latitude": "29.975624052680715",
    "geocoded_column": {
      "latitude": "29.975624052680715",
      "longitude": "-90.007491486234"
    }
  },
  {
    "service_request": "2021-828508",
    "request_type": "Trash/Recycling",
    "request_reason": "Order Recycling Cart",
    "date_created": "2021-10-01T20:00:44.000",
    "date_modified": "2021-10-01T20:00:44.000",
    "request_status": "Pending",
    "responsible_agency": "Department of Sanitation",
    "final_address": "713 S Solomon St",
    "address_councildis": "A",
    "status": "Pending",
    "rowid": "828508",
    "final_x": "3669065.12346",
    "final_y": "536774.157384",
    "longitude": "-90.10715776355593",
    "latitude": "29.970314566919317",
    "geocoded_column": {
      "latitude": "29.970314566919317",
      "longitude": "-90.10715776355593"
    }
  },
  {
    "service_request": "2021-828507",
    "request_type": "Trash/Recycling",
    "request_reason": "Order Trash Cart",
    "date_created": "2021-10-01T19:59:33.000",
    "date_modified": "2021-10-01T19:59:34.000",
    "request_status": "Pending",
    "responsible_agency": "Department of Sanitation",
    "final_address": "713 S Solomon St",
    "address_councildis": "A",
    "status": "Assigned to Contractor",
    "contractor": "Richards Disposal",
    "rowid": "828507",
    "final_x": "3669065.12346",
    "final_y": "536774.157384",
    "longitude": "-90.10715776355593",
    "latitude": "29.970314566919317",
    "geocoded_column": {
      "latitude": "29.970314566919317",
      "longitude": "-90.10715776355593"
    }
  },
  {
    "service_request": "2021-828506",
    "request_type": "Traffic Signals/Signs/Striping/Streetlights",
    "request_reason": "Street Light Outage/Malfunction",
    "date_created": "2021-10-01T19:55:15.000",
    "date_modified": "2021-10-01T19:55:15.000",
    "request_status": "Pending",
    "responsible_agency": "Department of Public Works",
    "final_address": "2053 Mandolin St",
    "address_councildis": "D",
    "status": "Pending",
    "contractor": "Royal Engineering",
    "rowid": "828506",
    "final_x": "3683022.22607",
    "final_y": "548450.54229",
    "longitude": "-90.06267084309587",
    "latitude": "30.0020024495759",
    "geocoded_column": {
      "latitude": "30.0020024495759",
      "longitude": "-90.06267084309587"
    }
  },
  {
    "service_request": "2021-828505",
    "request_type": "Traffic Signals/Signs/Striping/Streetlights",
    "request_reason": "Street Light Outage/Malfunction",
    "date_created": "2021-10-01T19:43:53.000",
    "date_modified": "2021-10-01T19:43:54.000",
    "request_status": "Pending",
    "responsible_agency": "Department of Public Works",
    "final_address": "900 Poydras St",
    "address_councildis": "B",
    "status": "Pending",
    "contractor": "Royal Engineering",
    "rowid": "828505",
    "final_x": "3679877.72443",
    "final_y": "529493.088449",
    "longitude": "-90.07326326562955",
    "latitude": "29.949971514920346",
    "geocoded_column": {
      "latitude": "29.949971514920346",
      "longitude": "-90.07326326562955"
    }
  },
  {
    "service_request": "2021-828504",
    "request_type": "Traffic Signals/Signs/Striping/Streetlights",
    "request_reason": "Street Light Outage/Malfunction",
    "date_created": "2021-10-01T19:38:26.000",
    "date_modified": "2021-10-01T19:38:26.000",
    "request_status": "Pending",
    "responsible_agency": "Department of Public Works",
    "final_address": "601 Aurora Oaks Dr",
    "address_councildis": "C",
    "status": "Pending",
    "contractor": "Royal Engineering",
    "rowid": "828504",
    "final_x": "3701243.69469",
    "final_y": "520845.460985",
    "longitude": "-90.00611768151508",
    "latitude": "29.925530205588235",
    "geocoded_column": {
      "latitude": "29.925530205588235",
      "longitude": "-90.00611768151508"
    }
  },
  {
    "service_request": "2021-828503",
    "request_type": "Abandoned Vehicles",
    "request_reason": "Abandoned/Junk Vehicles",
    "date_created": "2021-10-01T19:34:26.000",
    "date_modified": "2021-10-01T19:34:26.000",
    "request_status": "Pending",
    "responsible_agency": "Department of Public Works",
    "final_address": "100 32Nd St",
    "address_councildis": "A",
    "status": "Pending",
    "rowid": "828503",
    "final_x": "3666216.12007",
    "final_y": "550637.657428",
    "longitude": "-90.11568999999261",
    "latitude": "30.008517999978153",
    "geocoded_column": {
      "latitude": "30.008517999978153",
      "longitude": "-90.11568999999261"
    }
  },
  {
    "service_request": "2021-828502",
    "request_type": "Trash/Recycling",
    "request_reason": "Missed Trash Pick-Up",
    "date_created": "2021-10-01T19:32:20.000",
    "date_modified": "2021-10-01T19:32:21.000",
    "request_status": "Pending",
    "responsible_agency": "Department of Sanitation",
    "final_address": "7008 Crowder Blvd",
    "address_councildis": "E",
    "status": "Assigned to Contractor",
    "contractor": "Metro Disposal",
    "rowid": "828502",
    "final_x": "3704309.52273",
    "final_y": "559458.005149",
    "longitude": "-89.99501626287896",
    "latitude": "30.03160248645925",
    "geocoded_column": {
      "latitude": "30.03160248645925",
      "longitude": "-89.99501626287896"
    }
  },
  {
    "service_request": "2021-828501",
    "request_type": "COVID-19",
    "request_reason": "COVID-19 Business Non-Compliance",
    "date_created": "2021-10-01T19:25:19.000",
    "date_modified": "2021-10-01T19:25:20.000",
    "request_status": "Pending",
    "responsible_agency": "Safety and Permits",
    "final_address": "3016 S Carrollton Ave",
    "address_councildis": "A",
    "status": "Pending",
    "rowid": "828501",
    "final_x": "3666405.92231",
    "final_y": "533298.800132",
    "longitude": "-90.11567247747831",
    "latitude": "29.9608364608981",
    "geocoded_column": {
      "latitude": "29.9608364608981",
      "longitude": "-90.11567247747831"
    }
  },
  {
    "service_request": "2021-828500",
    "request_type": "Trash/Recycling",
    "request_reason": "Replace Trash Cart",
    "date_created": "2021-10-01T19:20:17.000",
    "date_modified": "2021-10-01T19:20:18.000",
    "request_status": "Pending",
    "responsible_agency": "Department of Sanitation",
    "final_address": "6465 General Diaz St",
    "address_councildis": "A",
    "status": "Assigned to Contractor",
    "contractor": "Metro Disposal",
    "rowid": "828500",
    "final_x": "3669893.28986",
    "final_y": "550449.138644",
    "longitude": "-90.10407900657839",
    "latitude": "30.007891681912678",
    "geocoded_column": {
      "latitude": "30.007891681912678",
      "longitude": "-90.10407900657839"
    }
  },
  {
    "service_request": "2021-828498",
    "request_type": "Parks & Parkways",
    "request_reason": "Request Tree Service (Right of Way/Public Property)",
    "date_created": "2021-10-01T19:17:19.000",
    "date_modified": "2021-10-01T19:17:19.000",
    "request_status": "Pending",
    "responsible_agency": "Department of Parks & Parkway",
    "final_address": "618 Mandeville St",
    "address_councildis": "C",
    "status": "Pending",
    "rowid": "828498",
    "final_x": "3685874.0271",
    "final_y": "534734.066054",
    "longitude": "-90.05414544794766",
    "latitude": "29.96419972672197",
    "geocoded_column": {
      "latitude": "29.96419972672197",
      "longitude": "-90.05414544794766"
    }
  },
  {
    "service_request": "2021-828497",
    "request_type": "Trash/Recycling",
    "request_reason": "Missed Trash Pick-Up",
    "date_created": "2021-10-01T19:16:53.000",
    "date_modified": "2021-10-01T19:16:53.000",
    "request_status": "Pending",
    "responsible_agency": "Department of Sanitation",
    "final_address": "2729 Edna St",
    "address_councildis": "D",
    "status": "Assigned to Contractor",
    "contractor": "Metro Disposal",
    "rowid": "828497",
    "final_x": "3689619.9638",
    "final_y": "545327.968975",
    "longitude": "-90.04193909236174",
    "latitude": "29.993213679326495",
    "geocoded_column": {
      "latitude": "29.993213679326495",
      "longitude": "-90.04193909236174"
    }
  },
  {
    "service_request": "2021-828496",
    "request_type": "Roads/Drainage",
    "request_reason": "Pothole",
    "date_created": "2021-10-01T19:07:56.000",
    "date_modified": "2021-10-01T19:07:56.000",
    "request_status": "Pending",
    "responsible_agency": "Department of Public Works",
    "final_address": "3918 N Roman St",
    "address_councildis": "D",
    "status": "Pending",
    "rowid": "828496",
    "final_x": "3692287.00489",
    "final_y": "537907.023369",
    "longitude": "-90.03378024794765",
    "latitude": "29.972725824384053",
    "geocoded_column": {
      "latitude": "29.972725824384053",
      "longitude": "-90.03378024794765"
    }
  },
  {
    "service_request": "2021-828495",
    "request_type": "Trash/Recycling",
    "request_reason": "Replace Trash Cart",
    "date_created": "2021-10-01T18:51:07.000",
    "date_modified": "2021-10-01T18:51:08.000",
    "request_status": "Pending",
    "responsible_agency": "Department of Sanitation",
    "final_address": "New Orleans,LA",
    "status": "Assigned to Contractor",
    "rowid": "828495",
    "longitude": "0.0",
    "latitude": "0.0",
    "geocoded_column": {
      "latitude": "0.0",
      "longitude": "0.0"
    }
  },
  {
    "service_request": "2021-828494",
    "request_type": "Trash/Recycling",
    "request_reason": "Replace Trash Cart",
    "date_created": "2021-10-01T18:49:09.000",
    "date_modified": "2021-10-01T18:49:10.000",
    "request_status": "Pending",
    "responsible_agency": "Department of Sanitation",
    "final_address": "2137 Comet St",
    "address_councildis": "C",
    "status": "Assigned to Contractor",
    "contractor": "Richards Disposal",
    "rowid": "828494",
    "final_x": "3700163.89367",
    "final_y": "523162.327227",
    "longitude": "-90.00944175787195",
    "latitude": "29.931935134748716",
    "geocoded_column": {
      "latitude": "29.931935134748716",
      "longitude": "-90.00944175787195"
    }
  },
  {
    "service_request": "2021-828493",
    "request_type": "Property Maintenance",
    "request_reason": "Property Maintenance",
    "date_created": "2021-10-01T18:48:37.000",
    "date_modified": "2021-10-01T18:48:37.000",
    "request_status": "Pending",
    "responsible_agency": "Department of Code Enforcement",
    "final_address": "513 N Gayoso St",
    "address_councildis": "A",
    "status": "Pending",
    "rowid": "828493",
    "final_x": "3675333.02536",
    "final_y": "537243.664584",
    "longitude": "-90.08734690041254",
    "latitude": "29.97141963432389",
    "geocoded_column": {
      "latitude": "29.97141963432389",
      "longitude": "-90.08734690041254"
    }
  },
  {
    "service_request": "2021-828492",
    "request_type": "Safety & Permits",
    "request_reason": "Licenses & Permits",
    "date_created": "2021-10-01T18:44:35.000",
    "date_modified": "2021-10-01T18:44:35.000",
    "request_status": "Pending",
    "responsible_agency": "Safety and Permits",
    "final_address": "519 N Gayoso St",
    "address_councildis": "A",
    "status": "Pending",
    "rowid": "828492",
    "final_x": "3675368.1108",
    "final_y": "537296.403272",
    "longitude": "-90.08723428412092",
    "latitude": "29.971563598679754",
    "geocoded_column": {
      "latitude": "29.971563598679754",
      "longitude": "-90.08723428412092"
    }
  },
  {
    "service_request": "2021-828491",
    "request_type": "Traffic Signals/Signs/Striping/Streetlights",
    "request_reason": "Street Light Outage/Malfunction",
    "date_created": "2021-10-01T18:39:45.000",
    "date_modified": "2021-10-01T18:39:46.000",
    "request_status": "Pending",
    "responsible_agency": "Department of Public Works",
    "final_address": "4619 Frenchmen St",
    "address_councildis": "D",
    "status": "Pending",
    "contractor": "Royal Engineering",
    "rowid": "828491",
    "final_x": "3683557.62185",
    "final_y": "549694.712852",
    "longitude": "-90.06093582414952",
    "latitude": "30.005407134376345",
    "geocoded_column": {
      "latitude": "30.005407134376345",
      "longitude": "-90.06093582414952"
    }
  },
  {
    "service_request": "2021-828490",
    "request_type": "Traffic Signals/Signs/Striping/Streetlights",
    "request_reason": "Street Light Outage/Malfunction",
    "date_created": "2021-10-01T18:30:39.000",
    "date_modified": "2021-10-01T18:30:40.000",
    "request_status": "Pending",
    "responsible_agency": "Department of Public Works",
    "final_address": "2358 N Claiborne Ave",
    "address_councildis": "C",
    "status": "Pending",
    "contractor": "Royal Engineering",
    "rowid": "828490",
    "final_x": "3686122.04598",
    "final_y": "538210.548553",
    "longitude": "-90.05323957972844",
    "latitude": "29.97375122738465",
    "geocoded_column": {
      "latitude": "29.97375122738465",
      "longitude": "-90.05323957972844"
    }
  },
  {
    "service_request": "2021-828486",
    "request_type": "Abandoned Vehicles",
    "request_reason": "Abandoned/Junk Vehicles",
    "date_created": "2021-10-01T18:23:23.000",
    "date_modified": "2021-10-01T18:23:23.000",
    "request_status": "Pending",
    "responsible_agency": "Department of Public Works",
    "final_address": "70 Marywood Ct",
    "address_councildis": "E",
    "status": "Pending",
    "rowid": "828486",
    "final_x": "3712342.05221",
    "final_y": "566647.538083",
    "longitude": "-89.96936289336534",
    "latitude": "30.05111040155699",
    "geocoded_column": {
      "latitude": "30.05111040155699",
      "longitude": "-89.96936289336534"
    }
  },
  {
    "service_request": "2021-828484",
    "request_type": "Trash/Recycling",
    "request_reason": "Missed Trash Pick-Up",
    "date_created": "2021-10-01T17:54:52.000",
    "date_modified": "2021-10-01T17:56:24.000",
    "request_status": "Pending",
    "responsible_agency": "Department of Sanitation",
    "final_address": "2832 St Ann St",
    "address_councildis": "A",
    "status": "Assigned to Contractor",
    "contractor": "Richards Disposal",
    "rowid": "828484",
    "final_x": "3676221.36078",
    "final_y": "537707.722952",
    "longitude": "-90.08452543424423",
    "latitude": "29.97266904560213",
    "geocoded_column": {
      "latitude": "29.97266904560213",
      "longitude": "-90.08452543424423"
    }
  },
  {
    "service_request": "2021-828483",
    "request_type": "Abandoned Vehicles",
    "request_reason": "Abandoned/Junk Vehicles",
    "date_created": "2021-10-01T17:54:35.000",
    "date_modified": "2021-10-01T17:54:35.000",
    "request_status": "Pending",
    "responsible_agency": "Department of Public Works",
    "final_address": "2412 Clara St",
    "address_councildis": "B",
    "status": "Pending",
    "rowid": "828483",
    "final_x": "3674536.29851",
    "final_y": "526666.548414",
    "longitude": "-90.09022547856631",
    "latitude": "29.942359894175187",
    "geocoded_column": {
      "latitude": "29.942359894175187",
      "longitude": "-90.09022547856631"
    }
  },
  {
    "service_request": "2021-828482",
    "request_type": "Traffic Signals/Signs/Striping/Streetlights",
    "request_reason": "Street Name Sign Damaged or Missing",
    "date_created": "2021-10-01T17:52:36.000",
    "date_modified": "2021-10-01T17:52:36.000",
    "request_status": "Pending",
    "responsible_agency": "Department of Public Works",
    "final_address": "S NORMAN C FRANCIS PKWY & BANKS ST",
    "address_councildis": "B",
    "status": "Pending",
    "rowid": "828482",
    "final_x": "3672421.4",
    "final_y": "535843.38",
    "longitude": "-90.09658998223453",
    "latitude": "29.967656059375614",
    "geocoded_column": {
      "latitude": "29.967656059375614",
      "longitude": "-90.09658998223453"
    }
  },
  {
    "service_request": "2021-828481",
    "request_type": "Trash/Recycling",
    "request_reason": "Missed Trash Pick-Up",
    "date_created": "2021-10-01T17:49:34.000",
    "date_modified": "2021-10-01T17:49:35.000",
    "request_status": "Pending",
    "responsible_agency": "Department of Sanitation",
    "final_address": "2117 Annunciation St",
    "address_councildis": "B",
    "status": "Assigned to Contractor",
    "contractor": "Richards Disposal",
    "rowid": "828481",
    "final_x": "3679712.52507",
    "final_y": "521390.546425",
    "longitude": "-90.07406603682357",
    "latitude": "29.92769720327693",
    "geocoded_column": {
      "latitude": "29.92769720327693",
      "longitude": "-90.07406603682357"
    }
  },
  {
    "service_request": "2021-828480",
    "request_type": "Trash/Recycling",
    "request_reason": "Missed Trash Pick-Up",
    "date_created": "2021-10-01T17:41:56.000",
    "date_modified": "2021-10-01T17:41:57.000",
    "request_status": "Pending",
    "responsible_agency": "Department of Sanitation",
    "final_address": "4918 S Prieur St",
    "address_councildis": "B",
    "status": "Assigned to Contractor",
    "contractor": "Richards Disposal",
    "rowid": "828480",
    "final_x": "3669090.91943",
    "final_y": "526637.515006",
    "longitude": "-90.10741879456256",
    "latitude": "29.942441378548565",
    "geocoded_column": {
      "latitude": "29.942441378548565",
      "longitude": "-90.10741879456256"
    }
  },
  {
    "service_request": "2021-828479",
    "request_type": "Trash/Recycling",
    "request_reason": "Missed Trash Pick-Up",
    "date_created": "2021-10-01T17:41:35.000",
    "date_modified": "2021-10-01T17:41:35.000",
    "request_status": "Pending",
    "responsible_agency": "Department of Sanitation",
    "final_address": "1210 Webster St",
    "address_councildis": "A",
    "status": "Assigned to Contractor",
    "contractor": "Richards Disposal",
    "rowid": "828479",
    "final_x": "3664594.93383",
    "final_y": "520869.262329",
    "longitude": "-90.12180626028271",
    "latitude": "29.926712013028006",
    "geocoded_column": {
      "latitude": "29.926712013028006",
      "longitude": "-90.12180626028271"
    }
  },
  {
    "service_request": "2021-828478",
    "request_type": "Trash/Recycling",
    "request_reason": "Missed Trash Pick-Up",
    "date_created": "2021-10-01T17:41:09.000",
    "date_modified": "2021-10-01T17:41:10.000",
    "request_status": "Pending",
    "responsible_agency": "Department of Sanitation",
    "final_address": "6016 St Charles Ave",
    "address_councildis": "A",
    "status": "Assigned to Contractor",
    "contractor": "Richards Disposal",
    "rowid": "828478",
    "final_x": "3665536.5257",
    "final_y": "522450.08089",
    "longitude": "-90.11878100278054",
    "latitude": "29.931031355859783",
    "geocoded_column": {
      "latitude": "29.931031355859783",
      "longitude": "-90.11878100278054"
    }
  },
  {
    "service_request": "2021-828477",
    "request_type": "Trash/Recycling",
    "request_reason": "Missed Trash Pick-Up",
    "date_created": "2021-10-01T17:37:04.000",
    "date_modified": "2021-10-01T17:37:04.000",
    "request_status": "Pending",
    "responsible_agency": "Department of Sanitation",
    "final_address": "2309 Seminole Ln",
    "address_councildis": "B",
    "status": "Assigned to Contractor",
    "contractor": "Richards Disposal",
    "rowid": "828477",
    "final_x": "3673876.99803",
    "final_y": "528332.710464",
    "longitude": "-90.0922500643891",
    "latitude": "29.946960943205077",
    "geocoded_column": {
      "latitude": "29.946960943205077",
      "longitude": "-90.0922500643891"
    }
  },
  {
    "service_request": "2021-828476",
    "request_type": "Trash/Recycling",
    "request_reason": "Missed Trash Pick-Up",
    "date_created": "2021-10-01T17:36:42.000",
    "date_modified": "2021-10-01T17:36:43.000",
    "request_status": "Pending",
    "responsible_agency": "Department of Sanitation",
    "final_address": "1235 Hagan St",
    "address_councildis": "A",
    "status": "Assigned to Contractor",
    "contractor": "Richards Disposal",
    "rowid": "828476",
    "final_x": "3675610.75214",
    "final_y": "539929.56961",
    "longitude": "-90.0863774881643",
    "latitude": "29.978796648037193",
    "geocoded_column": {
      "latitude": "29.978796648037193",
      "longitude": "-90.0863774881643"
    }
  },
  {
    "service_request": "2021-828475",
    "request_type": "Trash/Recycling",
    "request_reason": "Missed Trash Pick-Up",
    "date_created": "2021-10-01T17:35:46.000",
    "date_modified": "2021-10-01T17:35:47.000",
    "request_status": "Pending",
    "responsible_agency": "Department of Sanitation",
    "final_address": "2530 Verbena St",
    "address_councildis": "D",
    "status": "Assigned to Contractor",
    "contractor": "Metro Disposal",
    "rowid": "828475",
    "final_x": "3686570.65519",
    "final_y": "547705.945746",
    "longitude": "-90.0514872974922",
    "latitude": "29.999846403266655",
    "geocoded_column": {
      "latitude": "29.999846403266655",
      "longitude": "-90.0514872974922"
    }
  },
  {
    "service_request": "2021-828474",
    "request_type": "Traffic Signals/Signs/Striping/Streetlights",
    "request_reason": "Street Light Outage/Malfunction",
    "date_created": "2021-10-01T17:25:05.000",
    "date_modified": "2021-10-01T17:25:05.000",
    "request_status": "Pending",
    "responsible_agency": "Department of Public Works",
    "final_address": "13550 Lourdes St",
    "address_councildis": "E",
    "status": "Pending",
    "contractor": "Royal Engineering",
    "rowid": "828474",
    "final_x": "3726730.9936",
    "final_y": "561138.721502",
    "longitude": "-89.92409905441554",
    "latitude": "30.035484639227313",
    "geocoded_column": {
      "latitude": "30.035484639227313",
      "longitude": "-89.92409905441554"
    }
  },
  {
    "service_request": "2021-828473",
    "request_type": "Trash/Recycling",
    "request_reason": "Order Trash Cart",
    "date_created": "2021-10-01T17:21:55.000",
    "date_modified": "2021-10-01T17:21:55.000",
    "request_status": "Pending",
    "responsible_agency": "Department of Sanitation",
    "final_address": "2427 Palmer Ave",
    "address_councildis": "A",
    "status": "Assigned to Contractor",
    "contractor": "Richards Disposal",
    "rowid": "828473",
    "final_x": "3666459.01319",
    "final_y": "525736.874941",
    "longitude": "-90.11575856675698",
    "latitude": "29.940042071464298",
    "geocoded_column": {
      "latitude": "29.940042071464298",
      "longitude": "-90.11575856675698"
    }
  },
  {
    "service_request": "2021-828472",
    "request_type": "COVID-19",
    "request_reason": "COVID-19 Business Non-Compliance",
    "date_created": "2021-10-01T17:19:57.000",
    "date_modified": "2021-10-01T17:19:58.000",
    "request_status": "Pending",
    "responsible_agency": "Safety and Permits",
    "final_address": "6001 France Rd",
    "address_councildis": "D",
    "status": "Pending",
    "rowid": "828472",
    "final_x": "3691672.46832",
    "final_y": "556935.786202",
    "longitude": "-90.03504014047996",
    "latitude": "30.025067122309693",
    "geocoded_column": {
      "latitude": "30.025067122309693",
      "longitude": "-90.03504014047996"
    }
  },
  {
    "service_request": "2021-828471",
    "request_type": "Roads/Drainage",
    "request_reason": "Street Subsidence (Sinking)",
    "date_created": "2021-10-01T17:15:10.000",
    "date_modified": "2021-10-01T17:15:10.000",
    "request_status": "Pending",
    "responsible_agency": "Department of Public Works",
    "final_address": "HAYNE BLVD & BURKE RD",
    "address_councildis": "E",
    "status": "Pending",
    "rowid": "828471",
    "final_x": "3704699.0",
    "final_y": "564276.08",
    "longitude": "-89.99360748949708",
    "latitude": "30.04483778171941",
    "geocoded_column": {
      "latitude": "30.04483778171941",
      "longitude": "-89.99360748949708"
    }
  },
  {
    "service_request": "2021-828469",
    "request_type": "Trash/Recycling",
    "request_reason": "Request a Large Item Pick Up",
    "date_created": "2021-10-01T17:07:47.000",
    "date_modified": "2021-10-01T17:07:47.000",
    "request_status": "Pending",
    "responsible_agency": "Department of Sanitation",
    "final_address": "9208 Colapissa St",
    "address_councildis": "A",
    "status": "Assigned to Contractor",
    "contractor": "Richards Disposal",
    "rowid": "828469",
    "final_x": "3663547.19271",
    "final_y": "536026.024455",
    "longitude": "-90.12460899413492",
    "latitude": "29.968418656169927",
    "geocoded_column": {
      "latitude": "29.968418656169927",
      "longitude": "-90.12460899413492"
    }
  },
  {
    "service_request": "2021-828468",
    "request_type": "Trash/Recycling",
    "request_reason": "Missed Trash Pick-Up",
    "date_created": "2021-10-01T17:07:02.000",
    "date_modified": "2021-10-01T17:07:03.000",
    "request_status": "Pending",
    "responsible_agency": "Department of Sanitation",
    "final_address": "2348 St Thomas St",
    "address_councildis": "B",
    "status": "Assigned to Contractor",
    "contractor": "Richards Disposal",
    "rowid": "828468",
    "final_x": "3679335.10031",
    "final_y": "520100.722744",
    "longitude": "-90.07530217964539",
    "latitude": "29.924162008908024",
    "geocoded_column": {
      "latitude": "29.924162008908024",
      "longitude": "-90.07530217964539"
    }
  },
  {
    "service_request": "2021-828467",
    "request_type": "Roads/Drainage",
    "request_reason": "Accessibility Ramps, Curbs and Sidewalk Repair",
    "date_created": "2021-10-01T16:59:00.000",
    "date_modified": "2021-10-01T16:59:00.000",
    "request_status": "Pending",
    "responsible_agency": "Department of Public Works",
    "final_address": "4835 Schindler Dr",
    "address_councildis": "E",
    "status": "Pending",
    "rowid": "828467",
    "final_x": "3714362.27",
    "final_y": "557116.892698",
    "longitude": "-89.96333788537379",
    "latitude": "30.024838682856718",
    "geocoded_column": {
      "latitude": "30.024838682856718",
      "longitude": "-89.96333788537379"
    }
  },
  {
    "service_request": "2021-828466",
    "request_type": "Trash/Recycling",
    "request_reason": "MIssed Recycling Pick-Up",
    "date_created": "2021-10-01T16:57:28.000",
    "date_modified": "2021-10-01T16:57:28.000",
    "request_status": "Pending",
    "responsible_agency": "Department of Sanitation",
    "final_address": "7921 Burthe St",
    "address_councildis": "A",
    "status": "Assigned to Contractor",
    "contractor": "Richards Disposal",
    "rowid": "828466",
    "final_x": "3661720.66963",
    "final_y": "527225.345279",
    "longitude": "-90.13066898645403",
    "latitude": "29.944272486714294",
    "geocoded_column": {
      "latitude": "29.944272486714294",
      "longitude": "-90.13066898645403"
    }
  },
  {
    "service_request": "2021-828465",
    "request_type": "Property Maintenance",
    "request_reason": "Property Maintenance",
    "date_created": "2021-10-01T16:57:05.000",
    "date_modified": "2021-10-01T16:57:05.000",
    "request_status": "Pending",
    "responsible_agency": "Department of Code Enforcement",
    "final_address": "1432 Japonica St",
    "address_councildis": "D",
    "status": "Pending",
    "rowid": "828465",
    "final_x": "3693977.52931",
    "final_y": "536232.585735",
    "longitude": "-90.02850150244653",
    "latitude": "29.96806888859753",
    "geocoded_column": {
      "latitude": "29.96806888859753",
      "longitude": "-90.02850150244653"
    }
  },
  {
    "service_request": "2021-828464",
    "request_type": "Trash/Recycling",
    "request_reason": "Missed Trash Pick-Up",
    "date_created": "2021-10-01T16:47:28.000",
    "date_modified": "2021-10-01T16:47:29.000",
    "request_status": "Pending",
    "responsible_agency": "Department of Sanitation",
    "final_address": "4934 Gawain Dr",
    "address_councildis": "E",
    "status": "Assigned to Contractor",
    "contractor": "Metro Disposal",
    "rowid": "828464",
    "final_x": "3706783.18775",
    "final_y": "556652.809818",
    "longitude": "-89.98730355809361",
    "latitude": "30.023809621745645",
    "geocoded_column": {
      "latitude": "30.023809621745645",
      "longitude": "-89.98730355809361"
    }
  },
  {
    "service_request": "2021-828463",
    "request_type": "Trash/Recycling",
    "request_reason": "Replace Trash Cart",
    "date_created": "2021-10-01T16:46:31.000",
    "date_modified": "2021-10-01T16:46:31.000",
    "request_status": "Pending",
    "responsible_agency": "Department of Sanitation",
    "final_address": "2270 Benefit St, New Orleans, Louisiana, 70122",
    "address_councildis": "D",
    "status": "Assigned to Contractor",
    "contractor": "Metro Disposal",
    "rowid": "828463",
    "final_x": "3685036.3414",
    "final_y": "544418.339663",
    "longitude": "-90.05644998779017",
    "latitude": "29.99085376998787",
    "geocoded_column": {
      "latitude": "29.99085376998787",
      "longitude": "-90.05644998779017"
    }
  },
  {
    "service_request": "2021-828462",
    "request_type": "Trash/Recycling",
    "request_reason": "Replace Trash Cart",
    "date_created": "2021-10-01T16:43:12.000",
    "date_modified": "2021-10-01T16:43:12.000",
    "request_status": "Pending",
    "responsible_agency": "Department of Sanitation",
    "final_address": "4015 Cleveland Ave",
    "address_councildis": "A",
    "status": "Assigned to Contractor",
    "contractor": "Richards Disposal",
    "rowid": "828462",
    "final_x": "3671152.55054",
    "final_y": "537813.683336",
    "longitude": "-90.10053010476683",
    "latitude": "29.973111326752825",
    "geocoded_column": {
      "latitude": "29.973111326752825",
      "longitude": "-90.10053010476683"
    }
  },
  {
    "service_request": "2021-828461",
    "request_type": "Trash/Recycling",
    "request_reason": "Replace Trash Cart",
    "date_created": "2021-10-01T16:42:36.000",
    "date_modified": "2021-10-01T16:42:36.000",
    "request_status": "Pending",
    "responsible_agency": "Department of Sanitation",
    "final_address": "4530 Rosemont Pl",
    "address_councildis": "E",
    "status": "Assigned to Contractor",
    "contractor": "Metro Disposal",
    "rowid": "828461",
    "final_x": "3702778.03537",
    "final_y": "553759.062743",
    "longitude": "-90.00006535032507",
    "latitude": "30.015981686839602",
    "geocoded_column": {
      "latitude": "30.015981686839602",
      "longitude": "-90.00006535032507"
    }
  },
  {
    "service_request": "2021-828459",
    "request_type": "Trash/Recycling",
    "request_reason": "Illegal Dumping",
    "date_created": "2021-10-01T16:35:58.000",
    "date_modified": "2021-10-01T16:35:59.000",
    "request_status": "Pending",
    "responsible_agency": "Department of Sanitation",
    "final_address": "LEON C SIMON DR & LAKESHORE DR",
    "address_councildis": "D",
    "status": "Pending",
    "rowid": "828459",
    "final_x": "3690649.1",
    "final_y": "559077.18",
    "longitude": "-90.03819733120797",
    "latitude": "30.030986991246618",
    "geocoded_column": {
      "latitude": "30.030986991246618",
      "longitude": "-90.03819733120797"
    }
  },
  {
    "service_request": "2021-828458",
    "request_type": "Trash/Recycling",
    "request_reason": "Missed Trash Pick-Up",
    "date_created": "2021-10-01T16:34:32.000",
    "date_modified": "2021-10-01T16:34:33.000",
    "request_status": "Pending",
    "responsible_agency": "Department of Sanitation",
    "final_address": "1810 Moss St",
    "address_councildis": "A",
    "status": "Assigned to Contractor",
    "contractor": "Metro Disposal",
    "rowid": "828458",
    "final_x": "3675364.91233",
    "final_y": "543036.295885",
    "longitude": "-90.08704722026397",
    "latitude": "29.987346427830513",
    "geocoded_column": {
      "latitude": "29.987346427830513",
      "longitude": "-90.08704722026397"
    }
  },
  {
    "service_request": "2021-828457",
    "request_type": "Property Maintenance",
    "request_reason": "Property Maintenance",
    "date_created": "2021-10-01T16:30:00.000",
    "date_modified": "2021-10-01T16:30:00.000",
    "request_status": "Pending",
    "responsible_agency": "Department of Code Enforcement",
    "final_address": "6964 General Diaz St",
    "address_councildis": "A",
    "status": "Pending",
    "rowid": "828457",
    "final_x": "3670012.87662",
    "final_y": "553754.150487",
    "longitude": "-90.10358913418949",
    "latitude": "30.01697577040192",
    "geocoded_column": {
      "latitude": "30.01697577040192",
      "longitude": "-90.10358913418949"
    }
  },
  {
    "service_request": "2021-828454",
    "request_type": "Trash/Recycling",
    "request_reason": "Request a Large Item Pick Up",
    "date_created": "2021-10-01T16:21:16.000",
    "date_modified": "2021-10-01T16:21:17.000",
    "request_status": "Pending",
    "responsible_agency": "Department of Sanitation",
    "final_address": "6403 Painters St",
    "address_councildis": "D",
    "status": "Assigned to Contractor",
    "contractor": "Metro Disposal",
    "rowid": "828454",
    "final_x": "3686010.83964",
    "final_y": "556773.971802",
    "longitude": "-90.0529356732928",
    "latitude": "30.024797363738845",
    "geocoded_column": {
      "latitude": "30.024797363738845",
      "longitude": "-90.0529356732928"
    }
  },
  {
    "service_request": "2021-828453",
    "request_type": "Traffic Signals/Signs/Striping/Streetlights",
    "request_reason": "Traffic Signal Malfunctioning/Damaged",
    "date_created": "2021-10-01T16:17:09.000",
    "date_modified": "2021-10-01T16:17:09.000",
    "request_status": "Pending",
    "responsible_agency": "Department of Public Works",
    "final_address": "FRANKLIN AVE & LEON C SIMON DR",
    "address_councildis": "D",
    "status": "Pending",
    "rowid": "828453",
    "final_x": "3686215.6",
    "final_y": "557350.08",
    "longitude": "-90.05226831351399",
    "latitude": "30.026375154078544",
    "geocoded_column": {
      "latitude": "30.026375154078544",
      "longitude": "-90.05226831351399"
    }
  },
  {
    "service_request": "2021-828452",
    "request_type": "COVID-19",
    "request_reason": "COVID-19 Business Non-Compliance",
    "date_created": "2021-10-01T16:15:47.000",
    "date_modified": "2021-10-01T16:15:48.000",
    "request_status": "Pending",
    "responsible_agency": "Safety and Permits",
    "final_address": "4510 Michoud Blvd",
    "address_councildis": "E",
    "status": "Pending",
    "rowid": "828452",
    "final_x": "3725567.50022",
    "final_y": "559110.59894",
    "longitude": "-89.92785445458799",
    "latitude": "30.029947428195936",
    "geocoded_column": {
      "latitude": "30.029947428195936",
      "longitude": "-89.92785445458799"
    }
  },
  {
    "service_request": "2021-828451",
    "request_type": "Trash/Recycling",
    "request_reason": "Missed Trash Pick-Up",
    "date_created": "2021-10-01T16:15:37.000",
    "date_modified": "2021-10-01T16:15:37.000",
    "request_status": "Pending",
    "responsible_agency": "Department of Sanitation",
    "final_address": "4758 Charlmark Dr",
    "address_councildis": "E",
    "status": "Assigned to Contractor",
    "contractor": "Metro Disposal",
    "rowid": "828451",
    "final_x": "3711336.68178",
    "final_y": "556142.57129",
    "longitude": "-89.97293470141582",
    "latitude": "30.022258801712216",
    "geocoded_column": {
      "latitude": "30.022258801712216",
      "longitude": "-89.97293470141582"
    }
  },
  {
    "service_request": "2021-828449",
    "request_type": "Trash/Recycling",
    "request_reason": "Missed Trash Pick-Up",
    "date_created": "2021-10-01T16:12:50.000",
    "date_modified": "2021-10-01T16:12:51.000",
    "request_status": "Pending",
    "responsible_agency": "Department of Sanitation",
    "final_address": "12 St Claude Ct",
    "address_councildis": "E",
    "status": "Assigned to Contractor",
    "contractor": "Metro Disposal",
    "rowid": "828449",
    "final_x": "3697458.3217",
    "final_y": "533720.603781",
    "longitude": "-90.01760018182156",
    "latitude": "29.9610523839369",
    "geocoded_column": {
      "latitude": "29.9610523839369",
      "longitude": "-90.01760018182156"
    }
  },
  {
    "service_request": "2021-828448",
    "request_type": "Trash/Recycling",
    "request_reason": "Request a Large Item Pick Up",
    "date_created": "2021-10-01T16:12:01.000",
    "date_modified": "2021-10-01T16:12:02.000",
    "request_status": "Pending",
    "responsible_agency": "Department of Sanitation",
    "final_address": "4814 N Robertson St",
    "address_councildis": "E",
    "status": "Assigned to Contractor",
    "contractor": "Metro Disposal",
    "rowid": "828448",
    "final_x": "3695588.10115",
    "final_y": "535909.267911",
    "longitude": "-90.02342695391367",
    "latitude": "29.967129351378713",
    "geocoded_column": {
      "latitude": "29.967129351378713",
      "longitude": "-90.02342695391367"
    }
  },
  {
    "service_request": "2021-828447",
    "request_type": "Trash/Recycling",
    "request_reason": "Missed Trash Pick-Up",
    "date_created": "2021-10-01T16:07:17.000",
    "date_modified": "2021-10-01T16:07:18.000",
    "request_status": "Pending",
    "responsible_agency": "Department of Sanitation",
    "final_address": "3700 N Rampart St",
    "address_councildis": "C",
    "status": "Assigned to Contractor",
    "contractor": "Metro Disposal",
    "rowid": "828447",
    "final_x": "3690875.87049",
    "final_y": "535021.831494",
    "longitude": "-90.03833983631587",
    "latitude": "29.964836493852683",
    "geocoded_column": {
      "latitude": "29.964836493852683",
      "longitude": "-90.03833983631587"
    }
  },
  {
    "service_request": "2021-828446",
    "request_type": "Traffic Signals/Signs/Striping/Streetlights",
    "request_reason": "Street Light Outage/Malfunction",
    "date_created": "2021-10-01T16:06:07.000",
    "date_modified": "2021-10-01T16:06:11.000",
    "request_status": "Pending",
    "responsible_agency": "Department of Public Works",
    "final_address": "3044 Maurepas St",
    "address_councildis": "A",
    "status": "Pending",
    "contractor": "Royal Engineering",
    "rowid": "828446",
    "final_x": "3676799.84021",
    "final_y": "540684.592459",
    "longitude": "-90.08259586710305",
    "latitude": "29.980837065933567",
    "geocoded_column": {
      "latitude": "29.980837065933567",
      "longitude": "-90.08259586710305"
    }
  },
  {
    "service_request": "2021-828445",
    "request_type": "Trash/Recycling",
    "request_reason": "Replace Trash Cart",
    "date_created": "2021-10-01T16:05:58.000",
    "date_modified": "2021-10-01T16:06:09.000",
    "request_status": "Pending",
    "responsible_agency": "Department of Sanitation",
    "final_address": "220 N Pierce St Apt A",
    "address_councildis": "A",
    "status": "Assigned to Contractor",
    "contractor": "Richards Disposal",
    "rowid": "828445",
    "final_x": "3671867.66587",
    "final_y": "538495.950729",
    "longitude": "-90.09824839884442",
    "latitude": "29.974966156298283",
    "geocoded_column": {
      "latitude": "29.974966156298283",
      "longitude": "-90.09824839884442"
    }
  },
  {
    "service_request": "2021-828444",
    "request_type": "Trash/Recycling",
    "request_reason": "Missed Trash Pick-Up",
    "date_created": "2021-10-01T16:05:02.000",
    "date_modified": "2021-10-01T16:05:02.000",
    "request_status": "Pending",
    "responsible_agency": "Department of Sanitation",
    "final_address": "334 30Th St",
    "address_councildis": "A",
    "status": "Assigned to Contractor",
    "contractor": "Metro Disposal",
    "rowid": "828444",
    "final_x": "3665049.6841",
    "final_y": "550483.07394",
    "longitude": "-90.11938033233665",
    "latitude": "30.008126980114117",
    "geocoded_column": {
      "latitude": "30.008126980114117",
      "longitude": "-90.11938033233665"
    }
  },
  {
    "service_request": "2021-828443",
    "request_type": "Trash/Recycling",
    "request_reason": "Missed Trash Pick-Up",
    "date_created": "2021-10-01T16:04:41.000",
    "date_modified": "2021-10-01T16:04:42.000",
    "request_status": "Pending",
    "responsible_agency": "Department of Sanitation",
    "final_address": "1411 Moss St",
    "address_councildis": "A",
    "status": "Assigned to Contractor",
    "contractor": "Richards Disposal",
    "rowid": "828443",
    "final_x": "3674441.92084",
    "final_y": "540807.638475",
    "longitude": "-90.09003901232708",
    "latitude": "29.9812459595052",
    "geocoded_column": {
      "latitude": "29.9812459595052",
      "longitude": "-90.09003901232708"
    }
  },
  {
    "service_request": "2021-828442",
    "request_type": "Trash/Recycling",
    "request_reason": "Missed Trash Pick-Up",
    "date_created": "2021-10-01T16:04:40.000",
    "date_modified": "2021-10-01T16:04:40.000",
    "request_status": "Pending",
    "responsible_agency": "Department of Sanitation",
    "final_address": "5819 S Galvez St",
    "address_councildis": "A",
    "status": "Assigned to Contractor",
    "contractor": "Richards Disposal",
    "rowid": "828442",
    "final_x": "3667708.89178",
    "final_y": "527603.205439",
    "longitude": "-90.11174967989895",
    "latitude": "29.945137299480255",
    "geocoded_column": {
      "latitude": "29.945137299480255",
      "longitude": "-90.11174967989895"
    }
  },
  {
    "service_request": "2021-828440",
    "request_type": "Abandoned Vehicles",
    "request_reason": "Abandoned/Junk Vehicles",
    "date_created": "2021-10-01T16:02:16.000",
    "date_modified": "2021-10-01T16:02:16.000",
    "request_status": "Pending",
    "responsible_agency": "Department of Public Works",
    "final_address": "2120 St Roch Ave",
    "address_councildis": "D",
    "status": "Pending",
    "rowid": "828440",
    "final_x": "3686092.88374",
    "final_y": "540294.904011",
    "longitude": "-90.05325814002516",
    "latitude": "29.97948336858102",
    "geocoded_column": {
      "latitude": "29.97948336858102",
      "longitude": "-90.05325814002516"
    }
  },
  {
    "service_request": "2021-828438",
    "request_type": "Parks & Parkways",
    "request_reason": "Request Tree Service (Right of Way/Public Property)",
    "date_created": "2021-10-01T15:56:06.000",
    "date_modified": "2021-10-01T15:56:06.000",
    "request_status": "Pending",
    "responsible_agency": "Department of Parks & Parkway",
    "final_address": "ESPLANADE AVE & N CLAIBORNE AVE",
    "address_councildis": "D",
    "status": "Pending",
    "rowid": "828438",
    "final_x": "3681231.3",
    "final_y": "536639.18",
    "longitude": "-90.06874038104324",
    "latitude": "29.969579834804723",
    "geocoded_column": {
      "latitude": "29.969579834804723",
      "longitude": "-90.06874038104324"
    }
  },
  {
    "service_request": "2021-828437",
    "request_type": "Abandoned Vehicles",
    "request_reason": "Abandoned/Junk Vehicles",
    "date_created": "2021-10-01T15:54:53.000",
    "date_modified": "2021-10-01T15:54:53.000",
    "request_status": "Pending",
    "responsible_agency": "Department of Public Works",
    "final_address": "2120 St Roch Ave",
    "address_councildis": "D",
    "status": "Pending",
    "rowid": "828437",
    "final_x": "3686092.88374",
    "final_y": "540294.904011",
    "longitude": "-90.05325814002516",
    "latitude": "29.97948336858102",
    "geocoded_column": {
      "latitude": "29.97948336858102",
      "longitude": "-90.05325814002516"
    }
  },
  {
    "service_request": "2021-828436",
    "request_type": "Abandoned Vehicles",
    "request_reason": "Abandoned/Junk Vehicles",
    "date_created": "2021-10-01T15:52:52.000",
    "date_modified": "2021-10-01T15:52:52.000",
    "request_status": "Pending",
    "responsible_agency": "Department of Public Works",
    "final_address": "2120 St Roch Ave",
    "address_councildis": "D",
    "status": "Pending",
    "rowid": "828436",
    "final_x": "3686092.88374",
    "final_y": "540294.904011",
    "longitude": "-90.05325814002516",
    "latitude": "29.97948336858102",
    "geocoded_column": {
      "latitude": "29.97948336858102",
      "longitude": "-90.05325814002516"
    }
  },
  {
    "service_request": "2021-828434",
    "request_type": "Trash/Recycling",
    "request_reason": "Request a Large Item Pick Up",
    "date_created": "2021-10-01T15:47:03.000",
    "date_modified": "2021-10-01T15:47:04.000",
    "request_status": "Pending",
    "responsible_agency": "Department of Sanitation",
    "final_address": "3530 Gentilly Blvd",
    "address_councildis": "D",
    "status": "Assigned to Contractor",
    "contractor": "Metro Disposal",
    "rowid": "828434",
    "final_x": "3685829.58473",
    "final_y": "548704.449491",
    "longitude": "-90.05379314312758",
    "latitude": "30.002614702567044",
    "geocoded_column": {
      "latitude": "30.002614702567044",
      "longitude": "-90.05379314312758"
    }
  },
  {
    "service_request": "2021-828433",
    "request_type": "Safety & Permits",
    "request_reason": "Licenses & Permits",
    "date_created": "2021-10-01T15:45:55.000",
    "date_modified": "2021-10-01T15:45:56.000",
    "request_status": "Pending",
    "responsible_agency": "Safety and Permits",
    "final_address": "816 Decatur St",
    "address_councildis": "C",
    "status": "Pending",
    "rowid": "828433",
    "final_x": "3683560.35324",
    "final_y": "532429.419523",
    "longitude": "-90.06153260367785",
    "latitude": "29.95793355805336",
    "geocoded_column": {
      "latitude": "29.95793355805336",
      "longitude": "-90.06153260367785"
    }
  },
  {
    "service_request": "2021-828432",
    "request_type": "Roads/Drainage",
    "request_reason": "Pothole",
    "date_created": "2021-10-01T15:44:55.000",
    "date_modified": "2021-10-01T15:44:55.000",
    "request_status": "Pending",
    "responsible_agency": "Department of Public Works",
    "final_address": "3100 BLK General Pershing St",
    "address_councildis": "B",
    "status": "Pending",
    "rowid": "828432",
    "final_x": "3670693.55228",
    "final_y": "526450.377333",
    "longitude": "-90.10236525343386",
    "latitude": "29.94187956685733",
    "geocoded_column": {
      "latitude": "29.94187956685733",
      "longitude": "-90.10236525343386"
    }
  },
  {
    "service_request": "2021-828430",
    "request_type": "Trash/Recycling",
    "request_reason": "Missed Trash Pick-Up",
    "date_created": "2021-10-01T15:43:03.000",
    "date_modified": "2021-10-01T15:43:04.000",
    "request_status": "Pending",
    "responsible_agency": "Department of Sanitation",
    "final_address": "1731 Kerlerec St",
    "address_councildis": "D",
    "status": "Assigned to Contractor",
    "contractor": "Metro Disposal",
    "rowid": "828430",
    "final_x": "3681034.55919",
    "final_y": "537295.11028",
    "longitude": "-90.0693388541581",
    "latitude": "29.971389385965654",
    "geocoded_column": {
      "latitude": "29.971389385965654",
      "longitude": "-90.0693388541581"
    }
  },
  {
    "service_request": "2021-828429",
    "request_type": "Traffic Signals/Signs/Striping/Streetlights",
    "request_reason": "Street Light Outage/Malfunction",
    "date_created": "2021-10-01T15:42:51.000",
    "date_modified": "2021-10-01T15:42:52.000",
    "request_status": "Pending",
    "responsible_agency": "Department of Public Works",
    "final_address": "7301 W Renaissance Ct",
    "address_councildis": "E",
    "status": "Pending",
    "contractor": "Royal Engineering",
    "rowid": "828429",
    "final_x": "3716362.76997",
    "final_y": "568064.009509",
    "longitude": "-89.95660109745747",
    "latitude": "30.054872902879747",
    "geocoded_column": {
      "latitude": "30.054872902879747",
      "longitude": "-89.95660109745747"
    }
  },
  {
    "service_request": "2021-828428",
    "request_type": "Traffic Signals/Signs/Striping/Streetlights",
    "request_reason": "Street Light Outage/Malfunction",
    "date_created": "2021-10-01T15:42:35.000",
    "date_modified": "2021-10-01T15:42:36.000",
    "request_status": "Pending",
    "responsible_agency": "Department of Public Works",
    "final_address": "7301 W Renaissance Ct",
    "address_councildis": "E",
    "status": "Pending",
    "contractor": "Royal Engineering",
    "rowid": "828428",
    "final_x": "3716362.76997",
    "final_y": "568064.009509",
    "longitude": "-89.95660109745747",
    "latitude": "30.054872902879747",
    "geocoded_column": {
      "latitude": "30.054872902879747",
      "longitude": "-89.95660109745747"
    }
  },
  {
    "service_request": "2021-828427",
    "request_type": "Trash/Recycling",
    "request_reason": "Missed Trash Pick-Up",
    "date_created": "2021-10-01T15:41:07.000",
    "date_modified": "2021-10-01T15:41:07.000",
    "request_status": "Pending",
    "responsible_agency": "Department of Sanitation",
    "final_address": "1729 Kerlerec St",
    "address_councildis": "D",
    "status": "Assigned to Contractor",
    "contractor": "Metro Disposal",
    "rowid": "828427",
    "final_x": "3681043.91432",
    "final_y": "537284.36916",
    "longitude": "-90.06930968354476",
    "latitude": "29.971359567828113",
    "geocoded_column": {
      "latitude": "29.971359567828113",
      "longitude": "-90.06930968354476"
    }
  },
  {
    "service_request": "2021-828426",
    "request_type": "Trash/Recycling",
    "request_reason": "Missed Trash Pick-Up",
    "date_created": "2021-10-01T15:37:47.000",
    "date_modified": "2021-10-01T15:37:48.000",
    "request_status": "Pending",
    "responsible_agency": "Department of Sanitation",
    "final_address": "1442 N Roman St",
    "address_councildis": "D",
    "status": "Assigned to Contractor",
    "contractor": "Metro Disposal",
    "rowid": "828426",
    "final_x": "3681006.51938",
    "final_y": "537328.75316",
    "longitude": "-90.06942623586762",
    "latitude": "29.97148274275327",
    "geocoded_column": {
      "latitude": "29.97148274275327",
      "longitude": "-90.06942623586762"
    }
  },
  {
    "service_request": "2021-828425",
    "request_type": "Abandoned Vehicles",
    "request_reason": "Abandoned/Junk Vehicles",
    "date_created": "2021-10-01T15:28:58.000",
    "date_modified": "2021-10-01T15:32:04.000",
    "request_status": "Pending",
    "responsible_agency": "Department of Public Works",
    "final_address": "1824 Piety St",
    "address_councildis": "D",
    "status": "Pending",
    "rowid": "828425",
    "final_x": "3690425.9535",
    "final_y": "538668.295177",
    "longitude": "-90.03963062777149",
    "latitude": "29.974876958421554",
    "geocoded_column": {
      "latitude": "29.974876958421554",
      "longitude": "-90.03963062777149"
    }
  },
  {
    "service_request": "2021-828424",
    "request_type": "Trash/Recycling",
    "request_reason": "Missed Trash Pick-Up",
    "date_created": "2021-10-01T15:28:26.000",
    "date_modified": "2021-10-01T15:28:27.000",
    "request_status": "Pending",
    "responsible_agency": "Department of Sanitation",
    "final_address": "120 N Norman C Francis Prkwy",
    "address_councildis": "B",
    "status": "Assigned to Contractor",
    "contractor": "Richards Disposal",
    "rowid": "828424",
    "final_x": "3673479.79496",
    "final_y": "536850.009928",
    "longitude": "-90.09321313375989",
    "latitude": "29.970392498272314",
    "geocoded_column": {
      "latitude": "29.970392498272314",
      "longitude": "-90.09321313375989"
    }
  },
  {
    "service_request": "2021-828423",
    "request_type": "Traffic Signals/Signs/Striping/Streetlights",
    "request_reason": "Street Light Outage/Malfunction",
    "date_created": "2021-10-01T15:27:33.000",
    "date_modified": "2021-10-01T15:27:34.000",
    "request_status": "Pending",
    "responsible_agency": "Department of Public Works",
    "final_address": "400 Bellaire Dr",
    "address_councildis": "A",
    "status": "Pending",
    "contractor": "Royal Engineering",
    "rowid": "828423",
    "final_x": "3663891.01306",
    "final_y": "542296.766477",
    "longitude": "-90.12331406246292",
    "latitude": "29.98565113059693",
    "geocoded_column": {
      "latitude": "29.98565113059693",
      "longitude": "-90.12331406246292"
    }
  },
  {
    "service_request": "2021-828422",
    "request_type": "Trash/Recycling",
    "request_reason": "Missed Trash Pick-Up",
    "date_created": "2021-10-01T15:23:38.000",
    "date_modified": "2021-10-01T15:23:39.000",
    "request_status": "Pending",
    "responsible_agency": "Department of Sanitation",
    "final_address": "700 Block of Jefferson Ave, New Orleans, Louisiana, 70115",
    "status": "Assigned to Contractor",
    "rowid": "828422",
    "longitude": "0.0",
    "latitude": "0.0",
    "geocoded_column": {
      "latitude": "0.0",
      "longitude": "0.0"
    }
  },
  {
    "service_request": "2021-828421",
    "request_type": "Traffic Signals/Signs/Striping/Streetlights",
    "request_reason": "Request for Stop Sign",
    "date_created": "2021-10-01T15:23:27.000",
    "date_modified": "2021-10-01T15:23:27.000",
    "request_status": "Pending",
    "responsible_agency": "Department of Public Works",
    "final_address": "650 OBannon St",
    "address_councildis": "C",
    "status": "Pending",
    "rowid": "828421",
    "final_x": "3692302.44413",
    "final_y": "529233.424449",
    "longitude": "-90.03404210050306",
    "latitude": "29.948875984303534",
    "geocoded_column": {
      "latitude": "29.948875984303534",
      "longitude": "-90.03404210050306"
    }
  },
  {
    "service_request": "2021-828420",
    "request_type": "Trash/Recycling",
    "request_reason": "Request a Large Item Pick Up",
    "date_created": "2021-10-01T15:21:06.000",
    "date_modified": "2021-10-01T15:21:06.000",
    "request_status": "Pending",
    "responsible_agency": "Department of Sanitation",
    "final_address": "4651 De Montluzin St",
    "address_councildis": "D",
    "status": "Assigned to Contractor",
    "contractor": "Metro Disposal",
    "rowid": "828420",
    "final_x": "3687223.21698",
    "final_y": "550188.851284",
    "longitude": "-90.04933793815842",
    "latitude": "30.00665340276636",
    "geocoded_column": {
      "latitude": "30.00665340276636",
      "longitude": "-90.04933793815842"
    }
  },
  {
    "service_request": "2021-828417",
    "request_type": "Abandoned Vehicles",
    "request_reason": "Abandoned/Junk Vehicles",
    "date_created": "2021-10-01T15:20:13.000",
    "date_modified": "2021-10-01T15:20:13.000",
    "request_status": "Pending",
    "responsible_agency": "Department of Public Works",
    "final_address": "3132 General Taylor St",
    "address_councildis": "B",
    "status": "Pending",
    "rowid": "828417",
    "final_x": "3671277.16315",
    "final_y": "526619.305726",
    "longitude": "-90.1005169292271",
    "latitude": "29.942326812458756",
    "geocoded_column": {
      "latitude": "29.942326812458756",
      "longitude": "-90.1005169292271"
    }
  },
  {
    "service_request": "2021-828416",
    "request_type": "Parks & Parkways",
    "request_reason": "Request Tree Service (Right of Way/Public Property)",
    "date_created": "2021-10-01T15:19:31.000",
    "date_modified": "2021-10-01T15:19:31.000",
    "request_status": "Pending",
    "responsible_agency": "Department of Parks & Parkway",
    "final_address": "2501 Hudson Pl",
    "address_councildis": "C",
    "status": "Pending",
    "rowid": "828416",
    "final_x": "3703375.99191",
    "final_y": "522044.538682",
    "longitude": "-89.99934266020598",
    "latitude": "29.928759168766668",
    "geocoded_column": {
      "latitude": "29.928759168766668",
      "longitude": "-89.99934266020598"
    }
  },
  {
    "service_request": "2021-828415",
    "request_type": "Property Maintenance",
    "request_reason": "Property Maintenance",
    "date_created": "2021-10-01T15:19:13.000",
    "date_modified": "2021-10-01T15:19:13.000",
    "request_status": "Pending",
    "responsible_agency": "Department of Code Enforcement",
    "final_address": "1804 Lizardi St",
    "address_councildis": "E",
    "status": "Pending",
    "rowid": "828415",
    "final_x": "3697209.39459",
    "final_y": "536824.728136",
    "longitude": "-90.01827374497249",
    "latitude": "29.969595477057446",
    "geocoded_column": {
      "latitude": "29.969595477057446",
      "longitude": "-90.01827374497249"
    }
  },
  {
    "service_request": "2021-828414",
    "request_type": "Property Maintenance",
    "request_reason": "Property Maintenance",
    "date_created": "2021-10-01T15:16:18.000",
    "date_modified": "2021-10-01T15:16:18.000",
    "request_status": "Pending",
    "responsible_agency": "Department of Code Enforcement",
    "final_address": "1742 Andry St",
    "address_councildis": "E",
    "status": "Pending",
    "rowid": "828414",
    "final_x": "3697828.84477",
    "final_y": "536547.157767",
    "longitude": "-90.01632755459434",
    "latitude": "29.96881269533287",
    "geocoded_column": {
      "latitude": "29.96881269533287",
      "longitude": "-90.01632755459434"
    }
  },
  {
    "service_request": "2021-828413",
    "request_type": "Abandoned Vehicles",
    "request_reason": "Abandoned/Junk Vehicles",
    "date_created": "2021-10-01T15:11:06.000",
    "date_modified": "2021-10-01T15:11:06.000",
    "request_status": "Pending",
    "responsible_agency": "Department of Public Works",
    "final_address": "3132 General Taylor St",
    "address_councildis": "B",
    "status": "Pending",
    "rowid": "828413",
    "final_x": "3671277.16315",
    "final_y": "526619.305726",
    "longitude": "-90.1005169292271",
    "latitude": "29.942326812458756",
    "geocoded_column": {
      "latitude": "29.942326812458756",
      "longitude": "-90.1005169292271"
    }
  },
  {
    "service_request": "2021-828412",
    "request_type": "Health Related Questions",
    "request_reason": "Request Information on the Health Marketplace",
    "date_created": "2021-10-01T15:08:59.000",
    "date_modified": "2021-10-01T15:08:59.000",
    "request_status": "Pending",
    "responsible_agency": "Health Department",
    "status": "Pending",
    "rowid": "828412",
    "longitude": "0.0",
    "latitude": "0.0",
    "geocoded_column": {
      "latitude": "0.0",
      "longitude": "0.0"
    }
  },
  {
    "service_request": "2021-828409",
    "request_type": "Property Maintenance",
    "request_reason": "Property Maintenance",
    "date_created": "2021-10-01T15:07:03.000",
    "date_modified": "2021-10-01T15:07:03.000",
    "request_status": "Pending",
    "responsible_agency": "Department of Code Enforcement",
    "final_address": "2226 Delery St",
    "address_councildis": "E",
    "status": "Pending",
    "rowid": "828409",
    "final_x": "3702099.32957",
    "final_y": "537188.891272",
    "longitude": "-90.00281766524012",
    "latitude": "29.97044157483846",
    "geocoded_column": {
      "latitude": "29.97044157483846",
      "longitude": "-90.00281766524012"
    }
  },
  {
    "service_request": "2021-828408",
    "request_type": "Property Maintenance",
    "request_reason": "Property Maintenance",
    "date_created": "2021-10-01T15:05:30.000",
    "date_modified": "2021-10-01T15:05:30.000",
    "request_status": "Pending",
    "responsible_agency": "Department of Code Enforcement",
    "final_address": "5167 Desire Dr",
    "address_councildis": "D",
    "status": "Pending",
    "rowid": "828408",
    "final_x": "3691471.45827",
    "final_y": "553034.043671",
    "longitude": "-90.03581490709004",
    "latitude": "30.01434505003376",
    "geocoded_column": {
      "latitude": "30.01434505003376",
      "longitude": "-90.03581490709004"
    }
  },
  {
    "service_request": "2021-828407",
    "request_type": "Trash/Recycling",
    "request_reason": "Missed Trash Pick-Up",
    "date_created": "2021-10-01T15:04:51.000",
    "date_modified": "2021-10-01T15:04:52.000",
    "request_status": "Pending",
    "responsible_agency": "Department of Sanitation",
    "final_address": "2482 Royal St",
    "address_councildis": "C",
    "status": "Assigned to Contractor",
    "contractor": "Metro Disposal",
    "rowid": "828407",
    "final_x": "3686582.82998",
    "final_y": "534956.381638",
    "longitude": "-90.05189926220055",
    "latitude": "29.964789240670054",
    "geocoded_column": {
      "latitude": "29.964789240670054",
      "longitude": "-90.05189926220055"
    }
  },
  {
    "service_request": "2021-828406",
    "request_type": "Abandoned Vehicles",
    "request_reason": "Abandoned/Junk Vehicles",
    "date_created": "2021-10-01T14:59:33.000",
    "date_modified": "2021-10-01T15:03:24.000",
    "request_status": "Pending",
    "responsible_agency": "Department of Public Works",
    "final_address": "8TH ST & CONSTANCE ST",
    "address_councildis": "B",
    "status": "Pending",
    "rowid": "828406",
    "final_x": "3676320.5",
    "final_y": "519897.18",
    "longitude": "-90.08482522315451",
    "latitude": "29.92369299566159",
    "geocoded_column": {
      "latitude": "29.92369299566159",
      "longitude": "-90.08482522315451"
    }
  },
  {
    "service_request": "2021-828405",
    "request_type": "Abandoned Vehicles",
    "request_reason": "Abandoned/Junk Vehicles",
    "date_created": "2021-10-01T14:57:46.000",
    "date_modified": "2021-10-01T14:57:47.000",
    "request_status": "Pending",
    "responsible_agency": "Department of Public Works",
    "final_address": "WASHINGTON AVE & PRYTANIA ST",
    "address_councildis": "B",
    "status": "Pending",
    "rowid": "828405",
    "final_x": "3676219.7",
    "final_y": "522095.38",
    "longitude": "-90.0850678203977",
    "latitude": "29.929740353041314",
    "geocoded_column": {
      "latitude": "29.929740353041314",
      "longitude": "-90.0850678203977"
    }
  },
  {
    "service_request": "2021-828404",
    "request_type": "Trash/Recycling",
    "request_reason": "Missed Trash Pick-Up",
    "date_created": "2021-10-01T14:57:18.000",
    "date_modified": "2021-10-01T14:57:19.000",
    "request_status": "Pending",
    "responsible_agency": "Department of Sanitation",
    "final_address": "902 Nashville Ave, New Orleans, Louisiana, 70115",
    "address_councildis": "A",
    "status": "Assigned to Contractor",
    "contractor": "Richards Disposal",
    "rowid": "828404",
    "final_x": "3665555.0592",
    "final_y": "519395.933431",
    "longitude": "-90.11882468824541",
    "latitude": "29.922632873365387",
    "geocoded_column": {
      "latitude": "29.922632873365387",
      "longitude": "-90.11882468824541"
    }
  },
  {
    "service_request": "2021-828403",
    "request_type": "Property Maintenance",
    "request_reason": "Property Maintenance",
    "date_created": "2021-10-01T14:51:32.000",
    "date_modified": "2021-10-01T14:51:32.000",
    "request_status": "Pending",
    "responsible_agency": "Department of Code Enforcement",
    "final_address": "415 S Pierce St",
    "address_councildis": "A",
    "status": "Pending",
    "rowid": "828403",
    "final_x": "3670604.79271",
    "final_y": "536981.098312",
    "longitude": "-90.10228828654182",
    "latitude": "29.970838191295744",
    "geocoded_column": {
      "latitude": "29.970838191295744",
      "longitude": "-90.10228828654182"
    }
  },
  {
    "service_request": "2021-828402",
    "request_type": "Trash/Recycling",
    "request_reason": "Repair Recycling Cart",
    "date_created": "2021-10-01T14:49:18.000",
    "date_modified": "2021-10-01T14:50:17.000",
    "request_status": "Pending",
    "responsible_agency": "Department of Sanitation",
    "final_address": "6924 Canal Blvd",
    "address_councildis": "A",
    "status": "Pending",
    "rowid": "828402",
    "final_x": "3668887.40193",
    "final_y": "553552.488343",
    "longitude": "-90.10715199814581",
    "latitude": "30.016454435372875",
    "geocoded_column": {
      "latitude": "30.016454435372875",
      "longitude": "-90.10715199814581"
    }
  },
  {
    "service_request": "2021-828401",
    "request_type": "Parks & Parkways",
    "request_reason": "Request Tree Service (Right of Way/Public Property)",
    "date_created": "2021-10-01T14:46:46.000",
    "date_modified": "2021-10-01T15:11:33.000",
    "request_status": "Pending",
    "responsible_agency": "Department of Parks & Parkway",
    "final_address": "GALLIER ST & S BUNNY FRIEND ST",
    "address_councildis": "D",
    "status": "Pending",
    "rowid": "828401",
    "final_x": "3691152.1",
    "final_y": "538437.18",
    "longitude": "-90.03734553728876",
    "latitude": "29.974218910650876",
    "geocoded_column": {
      "latitude": "29.974218910650876",
      "longitude": "-90.03734553728876"
    }
  },
  {
    "service_request": "2021-828400",
    "request_type": "Abandoned Vehicles",
    "request_reason": "Abandoned/Junk Vehicles",
    "date_created": "2021-10-01T14:45:25.000",
    "date_modified": "2021-10-01T14:45:25.000",
    "request_status": "Pending",
    "responsible_agency": "Department of Public Works",
    "final_address": "GALLIER ST & S BUNNY FRIEND ST",
    "address_councildis": "D",
    "status": "Pending",
    "rowid": "828400",
    "final_x": "3691152.1",
    "final_y": "538437.18",
    "longitude": "-90.03734553728876",
    "latitude": "29.974218910650876",
    "geocoded_column": {
      "latitude": "29.974218910650876",
      "longitude": "-90.03734553728876"
    }
  },
  {
    "service_request": "2021-828399",
    "request_type": "Traffic Signals/Signs/Striping/Streetlights",
    "request_reason": "Street Name Sign Damaged or Missing",
    "date_created": "2021-10-01T14:44:12.000",
    "date_modified": "2021-10-01T14:44:12.000",
    "request_status": "Pending",
    "responsible_agency": "Department of Public Works",
    "final_address": "900 Convention Center Blvd",
    "address_councildis": "B",
    "status": "Pending",
    "rowid": "828399",
    "final_x": "3682754.61621",
    "final_y": "526612.577726",
    "longitude": "-90.0642803209631",
    "latitude": "29.941963775301154",
    "geocoded_column": {
      "latitude": "29.941963775301154",
      "longitude": "-90.0642803209631"
    }
  },
  {
    "service_request": "2021-828398",
    "request_type": "Trash/Recycling",
    "request_reason": "MIssed Recycling Pick-Up",
    "date_created": "2021-10-01T14:44:08.000",
    "date_modified": "2021-10-01T14:44:09.000",
    "request_status": "Pending",
    "responsible_agency": "Department of Sanitation",
    "final_address": "1515 N Rocheblave St",
    "address_councildis": "D",
    "status": "Assigned to Contractor",
    "contractor": "Metro Disposal",
    "rowid": "828398",
    "final_x": "3679564.91746",
    "final_y": "539067.04801",
    "longitude": "-90.07391868515039",
    "latitude": "29.976306099190207",
    "geocoded_column": {
      "latitude": "29.976306099190207",
      "longitude": "-90.07391868515039"
    }
  },
  {
    "service_request": "2021-828397",
    "request_type": "Property Maintenance",
    "request_reason": "Property Maintenance",
    "date_created": "2021-10-01T14:44:00.000",
    "date_modified": "2021-10-01T14:44:00.000",
    "request_status": "Pending",
    "responsible_agency": "Department of Code Enforcement",
    "final_address": "4866 Toulon St",
    "address_councildis": "E",
    "status": "Pending",
    "rowid": "828397",
    "final_x": "3723692.08812",
    "final_y": "560563.378142",
    "longitude": "-89.93372459290035",
    "latitude": "30.034005096074786",
    "geocoded_column": {
      "latitude": "30.034005096074786",
      "longitude": "-89.93372459290035"
    }
  },
  {
    "service_request": "2021-828396",
    "request_type": "Trash/Recycling",
    "request_reason": "Missed Trash Pick-Up",
    "date_created": "2021-10-01T14:43:04.000",
    "date_modified": "2021-10-01T14:43:05.000",
    "request_status": "Pending",
    "responsible_agency": "Department of Sanitation",
    "final_address": "1515 N Rocheblave St",
    "address_councildis": "D",
    "status": "Assigned to Contractor",
    "contractor": "Metro Disposal",
    "rowid": "828396",
    "final_x": "3679564.91746",
    "final_y": "539067.04801",
    "longitude": "-90.07391868515039",
    "latitude": "29.976306099190207",
    "geocoded_column": {
      "latitude": "29.976306099190207",
      "longitude": "-90.07391868515039"
    }
  },
  {
    "service_request": "2021-828395",
    "request_type": "Property Maintenance",
    "request_reason": "Property Maintenance",
    "date_created": "2021-10-01T14:41:44.000",
    "date_modified": "2021-10-01T14:41:44.000",
    "request_status": "Pending",
    "responsible_agency": "Department of Code Enforcement",
    "final_address": "4858 Toulon St",
    "address_councildis": "E",
    "status": "Pending",
    "rowid": "828395",
    "final_x": "3723698.26015",
    "final_y": "560503.995934",
    "longitude": "-89.93370738095405",
    "latitude": "30.03384161199387",
    "geocoded_column": {
      "latitude": "30.03384161199387",
      "longitude": "-89.93370738095405"
    }
  },
  {
    "service_request": "2021-828394",
    "request_type": "Trash/Recycling",
    "request_reason": "Missed Trash Pick-Up",
    "date_created": "2021-10-01T14:41:24.000",
    "date_modified": "2021-10-01T14:41:26.000",
    "request_status": "Pending",
    "responsible_agency": "Department of Sanitation",
    "final_address": "4731 Marigny St",
    "address_councildis": "D",
    "status": "Assigned to Contractor",
    "contractor": "Metro Disposal",
    "rowid": "828394",
    "final_x": "3684477.83375",
    "final_y": "550349.963156",
    "longitude": "-90.05800563692702",
    "latitude": "30.00718070615788",
    "geocoded_column": {
      "latitude": "30.00718070615788",
      "longitude": "-90.05800563692702"
    }
  },
  {
    "service_request": "2021-828391",
    "request_type": "Parks & Parkways",
    "request_reason": "Request Tree Service (Right of Way/Public Property)",
    "date_created": "2021-10-01T14:34:47.000",
    "date_modified": "2021-10-01T15:01:42.000",
    "case_close_date": "2021-10-01T10:01:42.000",
    "request_status": "Closed",
    "responsible_agency": "Department of Parks & Parkway",
    "final_address": "3625 Silver Maple Ct",
    "address_councildis": "C",
    "status": "Referred to Property Owner",
    "rowid": "828391",
    "final_x": "3702995.5875",
    "final_y": "512627.194097",
    "longitude": "-90.0008892090669",
    "latitude": "29.902876873383974",
    "geocoded_column": {
      "latitude": "29.902876873383974",
      "longitude": "-90.0008892090669"
    }
  },
  {
    "service_request": "2021-828390",
    "request_type": "Trash/Recycling",
    "request_reason": "Missed Trash Pick-Up",
    "date_created": "2021-10-01T14:33:35.000",
    "date_modified": "2021-10-01T14:33:43.000",
    "request_status": "Pending",
    "responsible_agency": "Department of Sanitation",
    "final_address": "7204 Washington Ave",
    "address_councildis": "B",
    "status": "Assigned to Contractor",
    "contractor": "Richards Disposal",
    "rowid": "828390",
    "final_x": "3669145.91111",
    "final_y": "533992.251013",
    "longitude": "-90.10699665424906",
    "latitude": "29.9626628738618",
    "geocoded_column": {
      "latitude": "29.9626628738618",
      "longitude": "-90.10699665424906"
    }
  },
  {
    "service_request": "2021-828389",
    "request_type": "Abandoned Vehicles",
    "request_reason": "Abandoned/Junk Vehicles",
    "date_created": "2021-10-01T14:31:43.000",
    "date_modified": "2021-10-01T14:31:43.000",
    "request_status": "Pending",
    "responsible_agency": "Department of Public Works",
    "final_address": "414 Homer St",
    "address_councildis": "C",
    "status": "Pending",
    "rowid": "828389",
    "final_x": "3686685.26031",
    "final_y": "528358.64864",
    "longitude": "-90.05180881847977",
    "latitude": "29.946644591367154",
    "geocoded_column": {
      "latitude": "29.946644591367154",
      "longitude": "-90.05180881847977"
    }
  },
  {
    "service_request": "2021-828388",
    "request_type": "Traffic Signals/Signs/Striping/Streetlights",
    "request_reason": "Street Light Outage/Malfunction",
    "date_created": "2021-10-01T14:30:37.000",
    "date_modified": "2021-10-01T14:30:37.000",
    "request_status": "Pending",
    "responsible_agency": "Department of Public Works",
    "final_address": "8520 Bill St",
    "address_councildis": "E",
    "status": "Pending",
    "contractor": "Royal Engineering",
    "rowid": "828388",
    "final_x": "3703539.41911",
    "final_y": "563044.233632",
    "longitude": "-89.99731767508419",
    "latitude": "30.041487918765867",
    "geocoded_column": {
      "latitude": "30.041487918765867",
      "longitude": "-89.99731767508419"
    }
  },
  {
    "service_request": "2021-828387",
    "request_type": "Traffic Signals/Signs/Striping/Streetlights",
    "request_reason": "Street Light Outage/Malfunction",
    "date_created": "2021-10-01T14:29:41.000",
    "date_modified": "2021-10-01T14:29:42.000",
    "request_status": "Pending",
    "responsible_agency": "Department of Public Works",
    "final_address": "8520 Bill St",
    "address_councildis": "E",
    "status": "Pending",
    "contractor": "Royal Engineering",
    "rowid": "828387",
    "final_x": "3703539.41911",
    "final_y": "563044.233632",
    "longitude": "-89.99731767508419",
    "latitude": "30.041487918765867",
    "geocoded_column": {
      "latitude": "30.041487918765867",
      "longitude": "-89.99731767508419"
    }
  },
  {
    "service_request": "2021-828385",
    "request_type": "Abandoned Vehicles",
    "request_reason": "Abandoned/Junk Vehicles",
    "date_created": "2021-10-01T14:29:11.000",
    "date_modified": "2021-10-01T14:29:11.000",
    "request_status": "Pending",
    "responsible_agency": "Department of Public Works",
    "final_address": "1424 Spain St",
    "address_councildis": "C",
    "status": "Pending",
    "rowid": "828385",
    "final_x": "3685994.05692",
    "final_y": "537705.354504",
    "longitude": "-90.05366161483137",
    "latitude": "29.972366051400968",
    "geocoded_column": {
      "latitude": "29.972366051400968",
      "longitude": "-90.05366161483137"
    }
  },
  {
    "service_request": "2021-828384",
    "request_type": "Roads/Drainage",
    "request_reason": "Pothole",
    "date_created": "2021-10-01T14:26:12.000",
    "date_modified": "2021-10-01T14:26:12.000",
    "request_status": "Pending",
    "responsible_agency": "Department of Public Works",
    "final_address": "JOHN CHURCHILL CHASE ST & S PETERS ST",
    "address_councildis": "B",
    "status": "Pending",
    "rowid": "828384",
    "final_x": "3682299.9",
    "final_y": "526193.78",
    "longitude": "-90.06573058238982",
    "latitude": "29.940826061433985",
    "geocoded_column": {
      "latitude": "29.940826061433985",
      "longitude": "-90.06573058238982"
    }
  },
  {
    "service_request": "2021-828383",
    "request_type": "Trash/Recycling",
    "request_reason": "Missed Trash Pick-Up",
    "date_created": "2021-10-01T14:21:53.000",
    "date_modified": "2021-10-01T14:23:55.000",
    "request_status": "Pending",
    "responsible_agency": "Department of Sanitation",
    "final_address": "5736 Mandeville St",
    "address_councildis": "D",
    "status": "Assigned to Contractor",
    "contractor": "Metro Disposal",
    "rowid": "828383",
    "final_x": "3684261.15401",
    "final_y": "554231.129496",
    "longitude": "-90.05855377248209",
    "latitude": "30.017859127818387",
    "geocoded_column": {
      "latitude": "30.017859127818387",
      "longitude": "-90.05855377248209"
    }
  },
  {
    "service_request": "2021-828379",
    "request_type": "Abandoned Vehicles",
    "request_reason": "Abandoned/Junk Vehicles",
    "date_created": "2021-10-01T14:15:24.000",
    "date_modified": "2021-10-01T14:15:24.000",
    "request_status": "Pending",
    "responsible_agency": "Department of Public Works",
    "final_address": "8728 Hayne Blvd",
    "address_councildis": "E",
    "status": "Pending",
    "rowid": "828379",
    "final_x": "3704008.20727",
    "final_y": "563704.114209",
    "longitude": "-89.9958118025327",
    "latitude": "30.043287292168955",
    "geocoded_column": {
      "latitude": "30.043287292168955",
      "longitude": "-89.9958118025327"
    }
  },
  {
    "service_request": "2021-828378",
    "request_type": "Trash/Recycling",
    "request_reason": "Return Trash Cart",
    "date_created": "2021-10-01T14:15:17.000",
    "date_modified": "2021-10-01T14:15:17.000",
    "request_status": "Pending",
    "responsible_agency": "Department of Sanitation",
    "final_address": "1814 Dublin St",
    "address_councildis": "A",
    "status": "Assigned to Contractor",
    "contractor": "Richards Disposal",
    "rowid": "828378",
    "final_x": "3663183.42138",
    "final_y": "530292.402753",
    "longitude": "-90.1259486036094",
    "latitude": "29.952663612390744",
    "geocoded_column": {
      "latitude": "29.952663612390744",
      "longitude": "-90.1259486036094"
    }
  },
  {
    "service_request": "2021-828377",
    "request_type": "Property Maintenance",
    "request_reason": "Property Maintenance",
    "date_created": "2021-10-01T14:12:11.000",
    "date_modified": "2021-10-01T14:12:11.000",
    "request_status": "Pending",
    "responsible_agency": "Department of Code Enforcement",
    "final_address": "7630 Pineridge St",
    "address_councildis": "E",
    "status": "Pending",
    "rowid": "828377",
    "final_x": "3718877.61074",
    "final_y": "572036.100072",
    "longitude": "-89.94850058575072",
    "latitude": "30.065711175110426",
    "geocoded_column": {
      "latitude": "30.065711175110426",
      "longitude": "-89.94850058575072"
    }
  },
  {
    "service_request": "2021-828375",
    "request_type": "Trash/Recycling",
    "request_reason": "MIssed Recycling Pick-Up",
    "date_created": "2021-10-01T14:09:59.000",
    "date_modified": "2021-10-01T14:10:00.000",
    "request_status": "Pending",
    "responsible_agency": "Department of Sanitation",
    "final_address": "2737 Amelia St",
    "address_councildis": "B",
    "status": "Assigned to Contractor",
    "contractor": "Richards Disposal",
    "rowid": "828375",
    "final_x": "3672144.70196",
    "final_y": "525274.596541",
    "longitude": "-90.09782368759977",
    "latitude": "29.938603606485994",
    "geocoded_column": {
      "latitude": "29.938603606485994",
      "longitude": "-90.09782368759977"
    }
  },
  {
    "service_request": "2021-828374",
    "request_type": "Property Maintenance",
    "request_reason": "Property Maintenance",
    "date_created": "2021-10-01T14:07:59.000",
    "date_modified": "2021-10-01T14:07:59.000",
    "request_status": "Pending",
    "responsible_agency": "Department of Code Enforcement",
    "final_address": "1339 Forstall St",
    "address_councildis": "E",
    "status": "Pending",
    "rowid": "828374",
    "final_x": "3696642.82787",
    "final_y": "535079.539718",
    "longitude": "-90.0201261665395",
    "latitude": "29.964814698266096",
    "geocoded_column": {
      "latitude": "29.964814698266096",
      "longitude": "-90.0201261665395"
    }
  },
  {
    "service_request": "2021-828373",
    "request_type": "Parks & Parkways",
    "request_reason": "Request Tree Service (Right of Way/Public Property)",
    "date_created": "2021-10-01T14:01:14.000",
    "date_modified": "2021-10-01T14:01:14.000",
    "request_status": "Pending",
    "responsible_agency": "Department of Parks & Parkway",
    "final_address": "1930 S Lopez St",
    "address_councildis": "B",
    "status": "Pending",
    "rowid": "828373",
    "final_x": "3669513.02977",
    "final_y": "529783.753025",
    "longitude": "-90.10597969217493",
    "latitude": "29.95108008328831",
    "geocoded_column": {
      "latitude": "29.95108008328831",
      "longitude": "-90.10597969217493"
    }
  },
  {
    "service_request": "2021-828372",
    "request_type": "Trash/Recycling",
    "request_reason": "Order Recycling Cart",
    "date_created": "2021-10-01T13:57:01.000",
    "date_modified": "2021-10-01T13:57:01.000",
    "request_status": "Pending",
    "responsible_agency": "Department of Sanitation",
    "final_address": "4032 Laurel St",
    "address_councildis": "B",
    "status": "Pending",
    "rowid": "828372",
    "final_x": "3672328.18811",
    "final_y": "518131.478262",
    "longitude": "-90.09748763136216",
    "latitude": "29.918956886886953",
    "geocoded_column": {
      "latitude": "29.918956886886953",
      "longitude": "-90.09748763136216"
    }
  },