[
  {
    "service_request": "2025-1240262",
    "request_type": "Mosquito, Termite & Rodent Control",
    "request_reason": "Rodent Complaint (Mice & Rats)",
    "date_created": "2025-11-14T23:59:06.000",
    "date_modified": "2025-11-14T23:59:08.000",
    "request_status": "Pending",
    "responsible_agency": "Mosquito, Termite & Rodent Control Board",
    "final_address": "616 S Alexander St",
    "address_councildis": "A",
    "status": "Pending",
    "rowid": "1240262",
    "final_x": "3668743.22081",
    "final_y": "537464.497608",
    "longitude": "-90.10815105899853",
    "latitude": "29.9722222393243",
    "geocoded_column": {
      "latitude": "29.9722222393243",
      "longitude": "-90.10815105899853"
    }
  },
  {
    "service_request": "2025-1240261",
    "request_type": "Trash/Recycling",
    "request_reason": "Order Recycling Cart",
    "date_created": "2025-11-14T22:28:58.000",
    "date_modified": "2025-11-14T22:29:01.000",
    "request_status": "Pending",
    "responsible_agency": "Department of Sanitation",
    "final_address": "1520 Esplanade Ave",
    "address_councildis": "D",
    "status": "Pending",
    "rowid": "1240261",
    "final_x": "3681390.58703",
    "final_y": "536391.951239",
    "longitude": "-90.06824595953641",
    "latitude": "29.968895206115313",
    "geocoded_column": {
      "latitude": "29.968895206115313",
      "longitude": "-90.06824595953641"
    }
  },
  {
    "service_request": "2025-1240260",
    "request_type": "General Services",
    "request_reason": "General Service Request",
    "date_created": "2025-11-14T22:10:02.000",
    "date_modified": "2025-11-14T22:10:04.000",
    "request_status": "Pending",
    "responsible_agency": "Orleans Parish Communication District",
    "final_address": "1227 Leonidas St",
    "address_councildis": "A",
    "status": "Pending",
    "rowid": "1240260",
    "final_x": "3660847.15021",
    "final_y": "529727.962049",
    "longitude": "-90.13334420214194",
    "latitude": "29.951179064887057",
    "geocoded_column": {
      "latitude": "29.951179064887057",
      "longitude": "-90.13334420214194"
    }
  },
  {
    "service_request": "2025-1240259",
    "request_type": "Trash/Recycling",
    "request_reason": "Order Trash Cart",
    "date_created": "2025-11-14T22:09:12.000",
    "date_modified": "2025-11-14T22:09:14.000",
    "request_status": "Pending",
    "responsible_agency": "Department of Sanitation",
    "final_address": "1122 Euterpe St",
    "address_councildis": "B",
    "status": "Assigned to Contractor",
    "contractor": "IV Waste",
    "rowid": "1240259",
    "final_x": "3680089.17659",
    "final_y": "524223.559932",
    "longitude": "-90.07277865373844",
    "latitude": "29.935475671146516",
    "geocoded_column": {
      "latitude": "29.935475671146516",
      "longitude": "-90.07277865373844"
    }
  },
  {
    "service_request": "2025-1240258",
    "request_type": "Mosquito, Termite & Rodent Control",
    "request_reason": "Rodent Complaint (Mice & Rats)",
    "date_created": "2025-11-14T22:06:32.000",
    "date_modified": "2025-11-14T22:06:34.000",
    "request_status": "Pending",
    "responsible_agency": "Mosquito, Termite & Rodent Control Board",
    "final_address": "400 Royal St",
    "address_councildis": "C",
    "status": "Pending",
    "rowid": "1240258",
    "final_x": "3682132.51036",
    "final_y": "531622.623235",
    "longitude": "-90.06606949950942",
    "latitude": "29.95575864215333",
    "geocoded_column": {
      "latitude": "29.95575864215333",
      "longitude": "-90.06606949950942"
    }
  },
  {
    "service_request": "2025-1240257",
    "request_type": "Abandoned Vehicles",
    "request_reason": "Abandoned/Junk Vehicles",
    "date_created": "2025-11-14T22:01:57.000",
    "date_modified": "2025-11-14T22:01:59.000",
    "request_status": "Pending",
    "responsible_agency": "Department of Public Works",
    "final_address": "3018 St Anthony Ave",
    "address_councildis": "D",
    "status": "Pending",
    "rowid": "1240257",
    "final_x": "3682816.56981",
    "final_y": "543719.244686",
    "longitude": "-90.06348617633597",
    "latitude": "29.988999335660566",
    "geocoded_column": {
      "latitude": "29.988999335660566",
      "longitude": "-90.06348617633597"
    }
  },
  {
    "service_request": "2025-1240256",
    "request_type": "Trash/Recycling",
    "request_reason": "Order Trash Cart",
    "date_created": "2025-11-14T21:22:48.000",
    "date_modified": "2025-11-14T21:22:51.000",
    "request_status": "Pending",
    "responsible_agency": "Department of Sanitation",
    "final_address": "833 Delachaise St",
    "address_councildis": "B",
    "status": "Assigned to Contractor",
    "contractor": "IV Waste",
    "rowid": "1240256",
    "final_x": "3675009.04533",
    "final_y": "518759.262455",
    "longitude": "-90.0890040180754",
    "latitude": "29.92060331479049",
    "geocoded_column": {
      "latitude": "29.92060331479049",
      "longitude": "-90.0890040180754"
    }
  },
  {
    "service_request": "2025-1240254",
    "request_type": "Trash/Recycling",
    "request_reason": "Request a Large Item Pick Up",
    "date_created": "2025-11-14T20:27:20.000",
    "date_modified": "2025-11-14T20:27:22.000",
    "request_status": "Pending",
    "responsible_agency": "Department of Sanitation",
    "final_address": "3101 De Soto St",
    "address_councildis": "A",
    "status": "Assigned to Contractor",
    "contractor": "IV Waste",
    "rowid": "1240254",
    "final_x": "3676398.66939",
    "final_y": "539890.937994",
    "longitude": "-90.08389027651855",
    "latitude": "29.978666824010915",
    "geocoded_column": {
      "latitude": "29.978666824010915",
      "longitude": "-90.08389027651855"
    }
  },
  {
    "service_request": "2025-1240255",
    "request_type": "Trash/Recycling",
    "request_reason": "Request a Large Item Pick Up",
    "date_created": "2025-11-14T20:27:20.000",
    "date_modified": "2025-11-14T20:27:22.000",
    "request_status": "Pending",
    "responsible_agency": "Department of Sanitation",
    "final_address": "3101 De Soto St",
    "address_councildis": "A",
    "status": "Assigned to Contractor",
    "contractor": "IV Waste",
    "rowid": "1240255",
    "final_x": "3676398.66939",
    "final_y": "539890.937994",
    "longitude": "-90.08389027651855",
    "latitude": "29.978666824010915",
    "geocoded_column": {
      "latitude": "29.978666824010915",
      "longitude": "-90.08389027651855"
    }
  },
  {
    "service_request": "2025-1240253",
    "request_type": "Roads and Streets",
    "request_reason": "Pothole",
    "date_created": "2025-11-14T19:47:17.000",
    "date_modified": "2025-11-14T19:47:20.000",
    "request_status": "Pending",
    "responsible_agency": "Department of Public Works",
    "final_address": "3285 Potomac St",
    "address_councildis": "C",
    "status": "Pending",
    "rowid": "1240253",
    "final_x": "3694882.31549",
    "final_y": "517536.244342",
    "longitude": "-90.02631765520378",
    "latitude": "29.916632049428795",
    "geocoded_column": {
      "latitude": "29.916632049428795",
      "longitude": "-90.02631765520378"
    }
  },
  {
    "service_request": "2025-1240252",
    "request_type": "Graffiti Removal",
    "request_reason": "Graffiti Removal",
    "date_created": "2025-11-14T19:13:09.000",
    "date_modified": "2025-11-14T19:13:13.000",
    "request_status": "Pending",
    "responsible_agency": "Department of Code Enforcement",
    "final_address": "6825 General Diaz St",
    "address_councildis": "A",
    "status": "Pending",
    "rowid": "1240252",
    "final_x": "3670106.43617",
    "final_y": "552806.765974",
    "longitude": "-90.10332565611077",
    "latitude": "30.014368037352064",
    "geocoded_column": {
      "latitude": "30.014368037352064",
      "longitude": "-90.10332565611077"
    }
  },
  {
    "service_request": "2025-1240251",
    "request_type": "Streetlights",
    "request_reason": "Streetlight Outage/Malfunction",
    "date_created": "2025-11-14T18:54:32.000",
    "date_modified": "2025-11-14T18:54:33.000",
    "request_status": "Pending",
    "responsible_agency": "Department of Public Works",
    "final_address": "705 Patterson St",
    "address_councildis": "C",
    "status": "Pending",
    "rowid": "1240251",
    "final_x": "3687673.99535",
    "final_y": "531408.048899",
    "longitude": "-90.04857908142694",
    "latitude": "29.954998954409437",
    "geocoded_column": {
      "latitude": "29.954998954409437",
      "longitude": "-90.04857908142694"
    }
  },
  {
    "service_request": "2025-1240250",
    "request_type": "Property Maintenance",
    "request_reason": "Property Maintenance",
    "date_created": "2025-11-14T18:39:13.000",
    "date_modified": "2025-11-14T18:39:14.000",
    "request_status": "Pending",
    "responsible_agency": "Department of Code Enforcement",
    "final_address": "5359 Cameron Blvd",
    "address_councildis": "D",
    "status": "Pending",
    "rowid": "1240250",
    "final_x": "3682628.11912",
    "final_y": "552907.741399",
    "longitude": "-90.06375985688244",
    "latitude": "30.014270147526954",
    "geocoded_column": {
      "latitude": "30.014270147526954",
      "longitude": "-90.06375985688244"
    }
  },
  {
    "service_request": "2025-1240249",
    "request_type": "Street and Traffic Signs",
    "request_reason": "Stop Sign Missing or Damaged",
    "date_created": "2025-11-14T18:19:02.000",
    "date_modified": "2025-11-14T18:19:05.000",
    "request_status": "Pending",
    "responsible_agency": "Department of Public Works",
    "final_address": "1 Music St",
    "address_councildis": "D",
    "status": "Pending",
    "rowid": "1240249",
    "final_x": "3686617.95337",
    "final_y": "540713.497035",
    "longitude": "-90.05158497539794",
    "latitude": "29.980618212221565",
    "geocoded_column": {
      "latitude": "29.980618212221565",
      "longitude": "-90.05158497539794"
    }
  },
  {
    "service_request": "2025-1240248",
    "request_type": "General Services",
    "request_reason": "General Service Request",
    "date_created": "2025-11-14T18:11:24.000",
    "date_modified": "2025-11-14T18:11:26.000",
    "request_status": "Pending",
    "responsible_agency": "Orleans Parish Communication District",
    "final_address": "3117 Cadiz St",
    "address_councildis": "B",
    "status": "Pending",
    "rowid": "1240248",
    "final_x": "3669585.70151",
    "final_y": "526354.140158",
    "longitude": "-90.10586623491761",
    "latitude": "29.941647624689544",
    "geocoded_column": {
      "latitude": "29.941647624689544",
      "longitude": "-90.10586623491761"
    }
  },
  {
    "service_request": "2025-1240247",
    "request_type": "Mosquito, Termite & Rodent Control",
    "request_reason": "Non-Rodent Complaint (Possums & Snakes)",
    "date_created": "2025-11-14T17:42:01.000",
    "date_modified": "2025-11-14T17:42:04.000",
    "request_status": "Pending",
    "responsible_agency": "Mosquito, Termite & Rodent Control Board",
    "final_address": "1333 Soldiers St",
    "address_councildis": "D",
    "status": "Pending",
    "rowid": "1240247",
    "final_x": "3677004.50229",
    "final_y": "554492.72924",
    "longitude": "-90.0814729787512",
    "latitude": "30.01879842079598",
    "geocoded_column": {
      "latitude": "30.01879842079598",
      "longitude": "-90.0814729787512"
    }
  },
  {
    "service_request": "2025-1240246",
    "request_type": "Trash/Recycling",
    "request_reason": "MIssed Recycling Pick-Up",
    "date_created": "2025-11-14T17:27:45.000",
    "date_modified": "2025-11-14T17:27:46.000",
    "request_status": "Pending",
    "responsible_agency": "Department of Sanitation",
    "final_address": "1901 Ellen Park Pl",
    "address_councildis": "C",
    "status": "Assigned to Contractor",
    "contractor": "Richards Disposal",
    "rowid": "1240246",
    "final_x": "3702880.71447",
    "final_y": "523961.918012",
    "longitude": "-90.00083575010268",
    "latitude": "29.93404713917782",
    "geocoded_column": {
      "latitude": "29.93404713917782",
      "longitude": "-90.00083575010268"
    }
  },
  {
    "service_request": "2025-1240245",
    "request_type": "Safety & Permits",
    "request_reason": "Zoning Enforcement",
    "date_created": "2025-11-14T17:26:17.000",
    "date_modified": "2025-11-14T17:26:20.000",
    "request_status": "Pending",
    "responsible_agency": "Safety and Permits",
    "final_address": "0 BLK Bienville St",
    "address_councildis": "C",
    "status": "Pending",
    "rowid": "1240245",
    "final_x": "3682796.7971",
    "final_y": "530442.12099",
    "longitude": "-90.06401321104035",
    "latitude": "29.95249244398008",
    "geocoded_column": {
      "latitude": "29.95249244398008",
      "longitude": "-90.06401321104035"
    }
  },
  {
    "service_request": "2025-1240244",
    "request_type": "Street and Traffic Signs",
    "request_reason": "Additional Signage Request",
    "date_created": "2025-11-14T17:09:44.000",
    "date_modified": "2025-11-14T17:09:45.000",
    "request_status": "Pending",
    "responsible_agency": "Department of Public Works",
    "final_address": "1501 Mandeville St",
    "address_councildis": "C",
    "status": "Pending",
    "rowid": "1240244",
    "final_x": "3685693.2742",
    "final_y": "537873.872585",
    "longitude": "-90.05460559774029",
    "latitude": "29.972838650290722",
    "geocoded_column": {
      "latitude": "29.972838650290722",
      "longitude": "-90.05460559774029"
    }
  },
  {
    "service_request": "2025-1240243",
    "request_type": "Trash/Recycling",
    "request_reason": "Request a Large Item Pick Up",
    "date_created": "2025-11-14T17:03:11.000",
    "date_modified": "2025-11-14T17:03:15.000",
    "request_status": "Pending",
    "responsible_agency": "Department of Sanitation",
    "final_address": "1707 Second St",
    "address_councildis": "B",
    "status": "Assigned to Contractor",
    "contractor": "IV Waste",
    "rowid": "1240243",
    "final_x": "3676472.56641",
    "final_y": "523445.595643",
    "longitude": "-90.08422309921652",
    "latitude": "29.933445428973386",
    "geocoded_column": {
      "latitude": "29.933445428973386",
      "longitude": "-90.08422309921652"
    }
  },
  {
    "service_request": "2025-1240242",
    "request_type": "Trash/Recycling",
    "request_reason": "Request a Large Item Pick Up",
    "date_created": "2025-11-14T17:01:46.000",
    "date_modified": "2025-11-14T17:01:47.000",
    "request_status": "Pending",
    "responsible_agency": "Department of Sanitation",
    "final_address": "10 Allard Blvd",
    "address_councildis": "A",
    "status": "Assigned to Contractor",
    "contractor": "IV Waste",
    "rowid": "1240242",
    "final_x": "3672993.55553",
    "final_y": "541351.861452",
    "longitude": "-90.09459503470511",
    "latitude": "29.982785518957623",
    "geocoded_column": {
      "latitude": "29.982785518957623",
      "longitude": "-90.09459503470511"
    }
  },
  {
    "service_request": "2025-1240241",
    "request_type": "Trash/Recycling",
    "request_reason": "Request a Large Item Pick Up",
    "date_created": "2025-11-14T16:59:19.000",
    "date_modified": "2025-11-14T16:59:20.000",
    "request_status": "Pending",
    "responsible_agency": "Department of Sanitation",
    "final_address": "7724 Keats St",
    "address_councildis": "E",
    "status": "Assigned to Contractor",
    "contractor": "Waste Pro",
    "rowid": "1240241",
    "final_x": "3696115.17232",
    "final_y": "559391.576861",
    "longitude": "-90.02091308776107",
    "latitude": "30.03168045007433",
    "geocoded_column": {
      "latitude": "30.03168045007433",
      "longitude": "-90.02091308776107"
    }
  },
  {
    "service_request": "2025-1240240",
    "request_type": "Streetlights",
    "request_reason": "Streetlight Outage/Malfunction",
    "date_created": "2025-11-14T16:58:45.000",
    "date_modified": "2025-11-14T16:58:46.000",
    "request_status": "Pending",
    "responsible_agency": "Department of Public Works",
    "final_address": "2055 Hyman Pl",
    "address_councildis": "C",
    "status": "Pending",
    "rowid": "1240240",
    "final_x": "3701062.26583",
    "final_y": "523204.542971",
    "longitude": "-90.00660416782478",
    "latitude": "29.93202264213735",
    "geocoded_column": {
      "latitude": "29.93202264213735",
      "longitude": "-90.00660416782478"
    }
  },
  {
    "service_request": "2025-1240239",
    "request_type": "Trash/Recycling",
    "request_reason": "Replace Trash Cart",
    "date_created": "2025-11-14T16:57:10.000",
    "date_modified": "2025-11-14T16:57:11.000",
    "request_status": "Pending",
    "responsible_agency": "Department of Sanitation",
    "final_address": "5436 Marais St",
    "address_councildis": "E",
    "status": "Assigned to Contractor",
    "contractor": "Waste Pro",
    "rowid": "1240239",
    "final_x": "3697575.36343",
    "final_y": "534198.224453",
    "longitude": "-90.0172132640168",
    "latitude": "29.962361975204367",
    "geocoded_column": {
      "latitude": "29.962361975204367",
      "longitude": "-90.0172132640168"
    }
  },
  {
    "service_request": "2025-1240238",
    "request_type": "Abandoned Vehicles",
    "request_reason": "Abandoned/Junk Vehicles",
    "date_created": "2025-11-14T16:56:10.000",
    "date_modified": "2025-11-14T16:56:12.000",
    "request_status": "Pending",
    "responsible_agency": "Department of Public Works",
    "final_address": "2304 Wisteria St",
    "address_councildis": "D",
    "status": "Pending",
    "rowid": "1240238",
    "final_x": "3685240.35087",
    "final_y": "548196.649234",
    "longitude": "-90.05567249454452",
    "latitude": "30.00123651427674",
    "geocoded_column": {
      "latitude": "30.00123651427674",
      "longitude": "-90.05567249454452"
    }
  },
  {
    "service_request": "2025-1240237",
    "request_type": "Streetlights",
    "request_reason": "Streetlight Outage/Malfunction",
    "date_created": "2025-11-14T16:53:13.000",
    "date_modified": "2025-11-14T16:53:17.000",
    "request_status": "Pending",
    "responsible_agency": "Department of Public Works",
    "final_address": "2060 Hyman Pl",
    "address_councildis": "C",
    "status": "Pending",
    "rowid": "1240237",
    "final_x": "3701169.9194",
    "final_y": "523137.015995",
    "longitude": "-90.00626678778346",
    "latitude": "29.93183353854292",
    "geocoded_column": {
      "latitude": "29.93183353854292",
      "longitude": "-90.00626678778346"
    }
  },
  {
    "service_request": "2025-1240236",
    "request_type": "Trash/Recycling",
    "request_reason": "Request a Large Item Pick Up",
    "date_created": "2025-11-14T16:52:40.000",
    "date_modified": "2025-11-14T16:52:42.000",
    "request_status": "Pending",
    "responsible_agency": "Department of Sanitation",
    "final_address": "1231 Governor Nicholls St",
    "address_councildis": "C",
    "status": "Assigned to Contractor",
    "contractor": "IV Waste",
    "rowid": "1240236",
    "final_x": "3681998.84098",
    "final_y": "535288.925318",
    "longitude": "-90.06636357295567",
    "latitude": "29.96584378492434",
    "geocoded_column": {
      "latitude": "29.96584378492434",
      "longitude": "-90.06636357295567"
    }
  },
  {
    "service_request": "2025-1240235",
    "request_type": "Utility Poles",
    "request_reason": "Utility Pole Leaning",
    "date_created": "2025-11-14T16:50:48.000",
    "date_modified": "2025-11-14T16:50:51.000",
    "request_status": "Pending",
    "responsible_agency": "Utility Company Collective",
    "final_address": "4920 Freret St",
    "address_councildis": "B",
    "status": "Pending",
    "rowid": "1240235",
    "final_x": "3668975.90362",
    "final_y": "523881.63846",
    "longitude": "-90.10787498182968",
    "latitude": "29.93486698970343",
    "geocoded_column": {
      "latitude": "29.93486698970343",
      "longitude": "-90.10787498182968"
    }
  },
  {
    "service_request": "2025-1240234",
    "request_type": "Streetlights",
    "request_reason": "Streetlight Outage/Malfunction",
    "date_created": "2025-11-14T16:47:52.000",
    "date_modified": "2025-11-14T16:47:54.000",
    "request_status": "Pending",
    "responsible_agency": "Department of Public Works",
    "final_address": "2060 Hyman Pl",
    "address_councildis": "C",
    "status": "Pending",
    "rowid": "1240234",
    "final_x": "3701169.9194",
    "final_y": "523137.015995",
    "longitude": "-90.00626678778346",
    "latitude": "29.93183353854292",
    "geocoded_column": {
      "latitude": "29.93183353854292",
      "longitude": "-90.00626678778346"
    }
  },
  {
    "service_request": "2025-1240233",
    "request_type": "Trash/Recycling",
    "request_reason": "Change Size of Trash Cart",
    "date_created": "2025-11-14T16:42:13.000",
    "date_modified": "2025-11-14T16:42:15.000",
    "request_status": "Pending",
    "responsible_agency": "Department of Sanitation",
    "final_address": "936 Kerlerec St",
    "address_councildis": "C",
    "status": "Assigned to Contractor",
    "contractor": "IV Waste",
    "rowid": "1240233",
    "final_x": "3683419.21922",
    "final_y": "535309.31943",
    "longitude": "-90.06187735593969",
    "latitude": "29.965856601070723",
    "geocoded_column": {
      "latitude": "29.965856601070723",
      "longitude": "-90.06187735593969"
    }
  },
  {
    "service_request": "2025-1240232",
    "request_type": "Drainage",
    "request_reason": "Catch Basin Frame and Cover Missing or Damaged",
    "date_created": "2025-11-14T16:34:56.000",
    "date_modified": "2025-11-14T16:34:58.000",
    "request_status": "Pending",
    "responsible_agency": "Sewerage & Water Board",
    "final_address": "1911 Montegut St",
    "address_councildis": "D",
    "status": "Pending",
    "rowid": "1240232",
    "final_x": "3689250.10716",
    "final_y": "539233.722378",
    "longitude": "-90.0433241324405",
    "latitude": "29.976468134779488",
    "geocoded_column": {
      "latitude": "29.976468134779488",
      "longitude": "-90.0433241324405"
    }
  },
  {
    "service_request": "2025-1240231",
    "request_type": "Trash/Recycling",
    "request_reason": "Request a Large Item Pick Up",
    "date_created": "2025-11-14T16:29:53.000",
    "date_modified": "2025-11-14T16:29:54.000",
    "request_status": "Pending",
    "responsible_agency": "Department of Sanitation",
    "final_address": "1236 Alvar St",
    "address_councildis": "D",
    "status": "Assigned to Contractor",
    "contractor": "IV Waste",
    "rowid": "1240231",
    "final_x": "3691615.8047",
    "final_y": "536049.223623",
    "longitude": "-90.03596644594789",
    "latitude": "29.967638445991263",
    "geocoded_column": {
      "latitude": "29.967638445991263",
      "longitude": "-90.03596644594789"
    }
  },
  {
    "service_request": "2025-1240230",
    "request_type": "Parks & Parkways",
    "request_reason": "Request Tree Service (Right of Way/Public Property)",
    "date_created": "2025-11-14T16:25:23.000",
    "date_modified": "2025-11-14T16:25:24.000",
    "request_status": "Pending",
    "responsible_agency": "Department of Parks & Parkway",
    "final_address": "1526 Henry Clay Ave",
    "address_councildis": "A",
    "status": "Pending",
    "rowid": "1240230",
    "final_x": "3664776.96359",
    "final_y": "522348.279482",
    "longitude": "-90.12118224858517",
    "latitude": "29.930773550247995",
    "geocoded_column": {
      "latitude": "29.930773550247995",
      "longitude": "-90.12118224858517"
    }
  },
  {
    "service_request": "2025-1240229",
    "request_type": "Abandoned Vehicles",
    "request_reason": "Abandoned/Junk Vehicles",
    "date_created": "2025-11-14T16:18:31.000",
    "date_modified": "2025-11-14T16:18:32.000",
    "request_status": "Pending",
    "responsible_agency": "Department of Public Works",
    "final_address": "800 BLK Milan St",
    "address_councildis": "B",
    "status": "Pending",
    "rowid": "1240229",
    "final_x": "3671821.62614",
    "final_y": "518676.93225",
    "longitude": "-90.09906804391439",
    "latitude": "29.920471725154027",
    "geocoded_column": {
      "latitude": "29.920471725154027",
      "longitude": "-90.09906804391439"
    }
  },
  {
    "service_request": "2025-1240228",
    "request_type": "Streetlights",
    "request_reason": "Streetlight Outage/Malfunction",
    "date_created": "2025-11-14T16:12:25.000",
    "date_modified": "2025-11-14T16:12:28.000",
    "request_status": "Pending",
    "responsible_agency": "Department of Public Works",
    "final_address": "ELMIRE AVE & MAJESTIC PL",
    "address_councildis": "C",
    "status": "Pending",
    "rowid": "1240228",
    "final_x": "3688047.6",
    "final_y": "526255.48",
    "longitude": "-90.04758194617459",
    "latitude": "29.940819627144293",
    "geocoded_column": {
      "latitude": "29.940819627144293",
      "longitude": "-90.04758194617459"
    }
  },
  {
    "service_request": "2025-1240227",
    "request_type": "Trash/Recycling",
    "request_reason": "Order Trash Cart",
    "date_created": "2025-11-14T16:09:53.000",
    "date_modified": "2025-11-14T16:09:54.000",
    "request_status": "Pending",
    "responsible_agency": "Department of Sanitation",
    "final_address": "3300 Mansfield Ave",
    "address_councildis": "C",
    "status": "Assigned to Contractor",
    "contractor": "Richards Disposal",
    "rowid": "1240227",
    "final_x": "3709159.9756",
    "final_y": "518520.006327",
    "longitude": "-89.98121527716141",
    "latitude": "29.91888152068111",
    "geocoded_column": {
      "latitude": "29.91888152068111",
      "longitude": "-89.98121527716141"
    }
  },
  {
    "service_request": "2025-1240226",
    "request_type": "Trash/Recycling",
    "request_reason": "Request a Large Item Pick Up",
    "date_created": "2025-11-14T16:09:01.000",
    "date_modified": "2025-11-14T16:09:02.000",
    "request_status": "Pending",
    "responsible_agency": "Department of Sanitation",
    "final_address": "1016 Mazant St",
    "address_councildis": "C",
    "status": "Assigned to Contractor",
    "contractor": "IV Waste",
    "rowid": "1240226",
    "final_x": "3692004.32086",
    "final_y": "534945.673734",
    "longitude": "-90.03477900241676",
    "latitude": "29.9645919710835",
    "geocoded_column": {
      "latitude": "29.9645919710835",
      "longitude": "-90.03477900241676"
    }
  },
  {
    "service_request": "2025-1240225",
    "request_type": "Trash/Recycling",
    "request_reason": "Order Trash Cart",
    "date_created": "2025-11-14T16:08:46.000",
    "date_modified": "2025-11-14T16:08:57.000",
    "request_status": "Pending",
    "responsible_agency": "Department of Sanitation",
    "final_address": "1534 Behrman Ave",
    "address_councildis": "C",
    "status": "Assigned to Contractor",
    "contractor": "Richards Disposal",
    "rowid": "1240225",
    "final_x": "3691377.23696",
    "final_y": "525574.543037",
    "longitude": "-90.03709405699459",
    "latitude": "29.938844130178925",
    "geocoded_column": {
      "latitude": "29.938844130178925",
      "longitude": "-90.03709405699459"
    }
  },
  {
    "service_request": "2025-1240224",
    "request_type": "Roads and Streets",
    "request_reason": "Curb Damage",
    "date_created": "2025-11-14T16:05:55.000",
    "date_modified": "2025-11-14T16:05:57.000",
    "request_status": "Pending",
    "responsible_agency": "Department of Public Works",
    "final_address": "2309 St Charles Ave",
    "address_councildis": "B",
    "status": "Pending",
    "rowid": "1240224",
    "final_x": "3677031.77378",
    "final_y": "523350.029051",
    "longitude": "-90.0824610061535",
    "latitude": "29.933165878082885",
    "geocoded_column": {
      "latitude": "29.933165878082885",
      "longitude": "-90.0824610061535"
    }
  },
  {
    "service_request": "2025-1240223",
    "request_type": "Abandoned Vehicles",
    "request_reason": "Abandoned/Junk Vehicles",
    "date_created": "2025-11-14T16:03:12.000",
    "date_modified": "2025-11-14T16:04:39.000",
    "request_status": "Pending",
    "responsible_agency": "Department of Public Works",
    "final_address": "9115 Pritchard Pl",
    "address_councildis": "A",
    "status": "Pending",
    "rowid": "1240223",
    "final_x": "3663367.86163",
    "final_y": "535388.445126",
    "longitude": "-90.12519656289815",
    "latitude": "29.96667072312719",
    "geocoded_column": {
      "latitude": "29.96667072312719",
      "longitude": "-90.12519656289815"
    }
  },
  {
    "service_request": "2025-1240222",
    "request_type": "Trash/Recycling",
    "request_reason": "Request a Large Item Pick Up",
    "date_created": "2025-11-14T15:59:53.000",
    "date_modified": "2025-11-14T15:59:55.000",
    "request_status": "Pending",
    "responsible_agency": "Department of Sanitation",
    "final_address": "3425 Joliet St",
    "address_councildis": "A",
    "status": "Assigned to Contractor",
    "contractor": "IV Waste",
    "rowid": "1240222",
    "final_x": "3666307.98004",
    "final_y": "535201.99847",
    "longitude": "-90.11591790807896",
    "latitude": "29.96607249038967",
    "geocoded_column": {
      "latitude": "29.96607249038967",
      "longitude": "-90.11591790807896"
    }
  },
  {
    "service_request": "2025-1240221",
    "request_type": "Trash/Recycling",
    "request_reason": "Request a Large Item Pick Up",
    "date_created": "2025-11-14T15:58:04.000",
    "date_modified": "2025-11-14T15:58:05.000",
    "request_status": "Pending",
    "responsible_agency": "Department of Sanitation",
    "final_address": "4164 St Ann St",
    "address_councildis": "A",
    "status": "Assigned to Contractor",
    "contractor": "IV Waste",
    "rowid": "1240221",
    "final_x": "3672229.53806",
    "final_y": "540720.091915",
    "longitude": "-90.09702972157375",
    "latitude": "29.981071057597585",
    "geocoded_column": {
      "latitude": "29.981071057597585",
      "longitude": "-90.09702972157375"
    }
  },
  {
    "service_request": "2025-1240220",
    "request_type": "Trash/Recycling",
    "request_reason": "Replace Trash Cart",
    "date_created": "2025-11-14T15:57:45.000",
    "date_modified": "2025-11-14T15:57:47.000",
    "request_status": "Pending",
    "responsible_agency": "Department of Sanitation",
    "final_address": "210 Maumus Ave",
    "address_councildis": "C",
    "status": "Assigned to Contractor",
    "contractor": "Richards Disposal",
    "rowid": "1240220",
    "final_x": "3706377.34462",
    "final_y": "516836.146101",
    "longitude": "-89.99006083530129",
    "latitude": "29.91434148212536",
    "geocoded_column": {
      "latitude": "29.91434148212536",
      "longitude": "-89.99006083530129"
    }
  },
  {
    "service_request": "2025-1240219",
    "request_type": "Parks & Parkways",
    "request_reason": "Request Tree Service (Right of Way/Public Property)",
    "date_created": "2025-11-14T15:48:36.000",
    "date_modified": "2025-11-14T15:48:38.000",
    "request_status": "Pending",
    "responsible_agency": "Department of Parks & Parkway",
    "final_address": "11051 Harrow Rd",
    "address_councildis": "E",
    "status": "Pending",
    "rowid": "1240219",
    "final_x": "3711980.31032",
    "final_y": "564152.278881",
    "longitude": "-89.97060002265906",
    "latitude": "30.04426128315203",
    "geocoded_column": {
      "latitude": "30.04426128315203",
      "longitude": "-89.97060002265906"
    }
  },
  {
    "service_request": "2025-1240218",
    "request_type": "Trash/Recycling",
    "request_reason": "Request a Large Item Pick Up",
    "date_created": "2025-11-14T15:46:24.000",
    "date_modified": "2025-11-14T15:46:26.000",
    "request_status": "Pending",
    "responsible_agency": "Department of Sanitation",
    "final_address": "5017 Constance St",
    "address_councildis": "B",
    "status": "Assigned to Contractor",
    "contractor": "IV Waste",
    "rowid": "1240218",
    "final_x": "3668494.94593",
    "final_y": "518260.927606",
    "longitude": "-90.10958287452708",
    "latitude": "29.919425956404865",
    "geocoded_column": {
      "latitude": "29.919425956404865",
      "longitude": "-90.10958287452708"
    }
  },
  {
    "service_request": "2025-1240217",
    "request_type": "Trash/Recycling",
    "request_reason": "Order Recycling Cart",
    "date_created": "2025-11-14T15:44:55.000",
    "date_modified": "2025-11-14T15:44:57.000",
    "request_status": "Pending",
    "responsible_agency": "Department of Sanitation",
    "final_address": "1107 Cambronne St",
    "address_councildis": "A",
    "status": "Pending",
    "rowid": "1240217",
    "final_x": "3661015.8441",
    "final_y": "528865.143104",
    "longitude": "-90.13284009077154",
    "latitude": "29.94880173033053",
    "geocoded_column": {
      "latitude": "29.94880173033053",
      "longitude": "-90.13284009077154"
    }
  },
  {
    "service_request": "2025-1240216",
    "request_type": "Safety & Permits",
    "request_reason": "Licenses & Permits",
    "date_created": "2025-11-14T15:36:28.000",
    "date_modified": "2025-11-14T15:36:30.000",
    "request_status": "Pending",
    "responsible_agency": "Safety and Permits",
    "final_address": "21135 Chef Menteur Hwy",
    "address_councildis": "E",
    "status": "Pending",
    "rowid": "1240216",
    "final_x": "3765454.31888",
    "final_y": "574701.902955",
    "longitude": "-89.80115705151728",
    "latitude": "30.071410828363792",
    "geocoded_column": {
      "latitude": "30.071410828363792",
      "longitude": "-89.80115705151728"
    }
  },
  {
    "service_request": "2025-1240215",
    "request_type": "Trash/Recycling",
    "request_reason": "Request a Large Item Pick Up",
    "date_created": "2025-11-14T15:33:00.000",
    "date_modified": "2025-11-14T15:33:04.000",
    "request_status": "Pending",
    "responsible_agency": "Department of Sanitation",
    "final_address": "4531 Congress Dr",
    "address_councildis": "D",
    "status": "Assigned to Contractor",
    "contractor": "IV Waste",
    "rowid": "1240215",
    "final_x": "3692515.28899",
    "final_y": "551329.897237",
    "longitude": "-90.03257805608712",
    "latitude": "30.009626738155458",
    "geocoded_column": {
      "latitude": "30.009626738155458",
      "longitude": "-90.03257805608712"
    }
  },
  {
    "service_request": "2025-1240214",
    "request_type": "Trash/Recycling",
    "request_reason": "Change Size of Trash Cart",
    "date_created": "2025-11-14T15:31:46.000",
    "date_modified": "2025-11-14T15:31:47.000",
    "request_status": "Pending",
    "responsible_agency": "Department of Sanitation",
    "final_address": "4531 Congress Dr",
    "address_councildis": "D",
    "status": "Assigned to Contractor",
    "contractor": "IV Waste",
    "rowid": "1240214",
    "final_x": "3692515.28899",
    "final_y": "551329.897237",
    "longitude": "-90.03257805608712",
    "latitude": "30.009626738155458",
    "geocoded_column": {
      "latitude": "30.009626738155458",
      "longitude": "-90.03257805608712"
    }
  },
  {
    "service_request": "2025-1240213",
    "request_type": "Trash/Recycling",
    "request_reason": "Request a Large Item Pick Up",
    "date_created": "2025-11-14T15:31:01.000",
    "date_modified": "2025-11-14T15:31:03.000",
    "request_status": "Pending",
    "responsible_agency": "Department of Sanitation",
    "final_address": "10140 Chevy Chase Dr",
    "address_councildis": "E",
    "status": "Assigned to Contractor",
    "contractor": "Waste Pro",
    "rowid": "1240213",
    "final_x": "3709987.90494",
    "final_y": "563073.372768",
    "longitude": "-89.97693722532014",
    "latitude": "30.04135972623024",
    "geocoded_column": {
      "latitude": "30.04135972623024",
      "longitude": "-89.97693722532014"
    }
  },
  {
    "service_request": "2025-1240212",
    "request_type": "Trash/Recycling",
    "request_reason": "Order Recycling Cart",
    "date_created": "2025-11-14T15:30:01.000",
    "date_modified": "2025-11-14T15:30:02.000",
    "request_status": "Pending",
    "responsible_agency": "Department of Sanitation",
    "final_address": "4015 N Rampart St",
    "address_councildis": "C",
    "status": "Pending",
    "rowid": "1240212",
    "final_x": "3691853.24476",
    "final_y": "534864.089222",
    "longitude": "-90.03525900663784",
    "latitude": "29.964372349188192",
    "geocoded_column": {
      "latitude": "29.964372349188192",
      "longitude": "-90.03525900663784"
    }
  },
  {
    "service_request": "2025-1240211",
    "request_type": "Trash/Recycling",
    "request_reason": "Request a Large Item Pick Up",
    "date_created": "2025-11-14T15:23:24.000",
    "date_modified": "2025-11-14T15:23:26.000",
    "request_status": "Pending",
    "responsible_agency": "Department of Sanitation",
    "final_address": "4614 Allen St",
    "address_councildis": "D",
    "status": "Assigned to Contractor",
    "contractor": "IV Waste",
    "rowid": "1240211",
    "final_x": "3681660.93589",
    "final_y": "549518.229267",
    "longitude": "-90.06693402993716",
    "latitude": "30.0049796437878",
    "geocoded_column": {
      "latitude": "30.0049796437878",
      "longitude": "-90.06693402993716"
    }
  },
  {
    "service_request": "2025-1240210",
    "request_type": "Trash/Recycling",
    "request_reason": "Request a Large Item Pick Up",
    "date_created": "2025-11-14T15:14:56.000",
    "date_modified": "2025-11-14T15:14:57.000",
    "request_status": "Pending",
    "responsible_agency": "Department of Sanitation",
    "final_address": "11 Caddo Pl",
    "address_councildis": "E",
    "status": "Assigned to Contractor",
    "contractor": "Waste Pro",
    "rowid": "1240210",
    "final_x": "3726021.58848",
    "final_y": "564469.256161",
    "longitude": "-89.92621161364927",
    "latitude": "30.04466620166058",
    "geocoded_column": {
      "latitude": "30.04466620166058",
      "longitude": "-89.92621161364927"
    }
  },
  {
    "service_request": "2025-1240209",
    "request_type": "Trash/Recycling",
    "request_reason": "Request a Large Item Pick Up",
    "date_created": "2025-11-14T15:14:11.000",
    "date_modified": "2025-11-14T15:14:12.000",
    "request_status": "Pending",
    "responsible_agency": "Department of Sanitation",
    "final_address": "26 Lakewood Pl",
    "address_councildis": "C",
    "status": "Assigned to Contractor",
    "contractor": "Richards Disposal",
    "rowid": "1240209",
    "final_x": "3701220.18666",
    "final_y": "512539.516273",
    "longitude": "-90.00649549713462",
    "latitude": "29.902692437431437",
    "geocoded_column": {
      "latitude": "29.902692437431437",
      "longitude": "-90.00649549713462"
    }
  },
  {
    "service_request": "2025-1240208",
    "request_type": "Safety & Permits",
    "request_reason": "Licenses & Permits",
    "date_created": "2025-11-14T15:05:53.000",
    "date_modified": "2025-11-14T15:07:37.000",
    "request_status": "Pending",
    "responsible_agency": "Safety and Permits",
    "final_address": "2020 Jackson Ave",
    "address_councildis": "B",
    "status": "Pending",
    "rowid": "1240208",
    "final_x": "3676341.37243",
    "final_y": "525291.619645",
    "longitude": "-90.0845737589662",
    "latitude": "29.93852532231721",
    "geocoded_column": {
      "latitude": "29.93852532231721",
      "longitude": "-90.0845737589662"
    }
  },
  {
    "service_request": "2025-1240207",
    "request_type": "Trash/Recycling",
    "request_reason": "Order Trash Cart",
    "date_created": "2025-11-14T15:04:06.000",
    "date_modified": "2025-11-14T15:04:07.000",
    "request_status": "Pending",
    "responsible_agency": "Department of Sanitation",
    "final_address": "1305 St Mary St",
    "address_councildis": "B",
    "status": "Assigned to Contractor",
    "contractor": "IV Waste",
    "rowid": "1240207",
    "final_x": "3679254.51579",
    "final_y": "523429.276347",
    "longitude": "-90.07544121106261",
    "latitude": "29.933316874535674",
    "geocoded_column": {
      "latitude": "29.933316874535674",
      "longitude": "-90.07544121106261"
    }
  },
  {
    "service_request": "2025-1240206",
    "request_type": "Trash/Recycling",
    "request_reason": "Request a Large Item Pick Up",
    "date_created": "2025-11-14T14:59:52.000",
    "date_modified": "2025-11-14T14:59:53.000",
    "request_status": "Pending",
    "responsible_agency": "Department of Sanitation",
    "final_address": "610 David St",
    "address_councildis": "A",
    "status": "Assigned to Contractor",
    "contractor": "IV Waste",
    "rowid": "1240206",
    "final_x": "3672100.67924",
    "final_y": "539964.558667",
    "longitude": "-90.09746245461385",
    "latitude": "29.97899742104848",
    "geocoded_column": {
      "latitude": "29.97899742104848",
      "longitude": "-90.09746245461385"
    }
  },
  {
    "service_request": "2025-1240205",
    "request_type": "Abandoned Vehicles",
    "request_reason": "Abandoned/Junk Vehicles",
    "date_created": "2025-11-14T14:59:40.000",
    "date_modified": "2025-11-14T14:59:41.000",
    "request_status": "Pending",
    "responsible_agency": "Department of Public Works",
    "final_address": "1702 Prytania St",
    "address_councildis": "B",
    "status": "Pending",
    "rowid": "1240205",
    "final_x": "3679334.8388",
    "final_y": "524685.44838",
    "longitude": "-90.07514409141615",
    "latitude": "29.93676850873255",
    "geocoded_column": {
      "latitude": "29.93676850873255",
      "longitude": "-90.07514409141615"
    }
  },
  {
    "service_request": "2025-1240204",
    "request_type": "Trash/Recycling",
    "request_reason": "Return Trash Cart",
    "date_created": "2025-11-14T14:58:54.000",
    "date_modified": "2025-11-14T14:58:56.000",
    "request_status": "Pending",
    "responsible_agency": "Department of Sanitation",
    "final_address": "1538 Adams St",
    "address_councildis": "A",
    "status": "Assigned to Contractor",
    "contractor": "IV Waste",
    "rowid": "1240204",
    "final_x": "3663936.85901",
    "final_y": "528411.317312",
    "longitude": "-90.12363228222057",
    "latitude": "29.947469383061577",
    "geocoded_column": {
      "latitude": "29.947469383061577",
      "longitude": "-90.12363228222057"
    }
  },
  {
    "service_request": "2025-1240203",
    "request_type": "Trash/Recycling",
    "request_reason": "Request a Large Item Pick Up",
    "date_created": "2025-11-14T14:56:27.000",
    "date_modified": "2025-11-14T14:56:29.000",
    "request_status": "Pending",
    "responsible_agency": "Department of Sanitation",
    "final_address": "6248 Bellaire Dr",
    "address_councildis": "A",
    "status": "Assigned to Contractor",
    "contractor": "IV Waste",
    "rowid": "1240203",
    "final_x": "3664306.43668",
    "final_y": "549335.698835",
    "longitude": "-90.12176681726879",
    "latitude": "30.004993725730532",
    "geocoded_column": {
      "latitude": "30.004993725730532",
      "longitude": "-90.12176681726879"
    }
  },
  {
    "service_request": "2025-1240202",
    "request_type": "Trash/Recycling",
    "request_reason": "Repair Trash Cart",
    "date_created": "2025-11-14T14:55:51.000",
    "date_modified": "2025-11-14T14:55:52.000",
    "request_status": "Pending",
    "responsible_agency": "Department of Sanitation",
    "final_address": "3566 Rue Colette",
    "address_councildis": "C",
    "status": "Assigned to Contractor",
    "contractor": "Richards Disposal",
    "rowid": "1240202",
    "final_x": "3704563.21962",
    "final_y": "517257.764149",
    "longitude": "-89.99577124788678",
    "latitude": "29.915559139415244",
    "geocoded_column": {
      "latitude": "29.915559139415244",
      "longitude": "-89.99577124788678"
    }
  },
  {
    "service_request": "2025-1240201",
    "request_type": "Property Maintenance",
    "request_reason": "Property Maintenance",
    "date_created": "2025-11-14T14:55:09.000",
    "date_modified": "2025-11-14T14:56:21.000",
    "request_status": "Pending",
    "responsible_agency": "Department of Code Enforcement",
    "final_address": "1570 N Rocheblave St",
    "address_councildis": "D",
    "status": "Pending",
    "rowid": "1240201",
    "final_x": "3679882.10562",
    "final_y": "539383.332746",
    "longitude": "-90.07290592230316",
    "latitude": "29.977166182898873",
    "geocoded_column": {
      "latitude": "29.977166182898873",
      "longitude": "-90.07290592230316"
    }
  },
  {
    "service_request": "2025-1240200",
    "request_type": "Trash/Recycling",
    "request_reason": "Illegal Dumping",
    "date_created": "2025-11-14T14:51:16.000",
    "date_modified": "2025-11-14T14:51:17.000",
    "request_status": "Pending",
    "responsible_agency": "Department of Sanitation",
    "final_address": "1518 Kerlerec St",
    "address_councildis": "C",
    "status": "Pending",
    "rowid": "1240200",
    "final_x": "3681653.97576",
    "final_y": "536727.351687",
    "longitude": "-90.06740245943207",
    "latitude": "29.96980944315269",
    "geocoded_column": {
      "latitude": "29.96980944315269",
      "longitude": "-90.06740245943207"
    }
  },
  {
    "service_request": "2025-1240199",
    "request_type": "Trash/Recycling",
    "request_reason": "Replace Trash Cart",
    "date_created": "2025-11-14T14:46:15.000",
    "date_modified": "2025-11-14T14:46:16.000",
    "request_status": "Pending",
    "responsible_agency": "Department of Sanitation",
    "final_address": "1518 Kerlerec St",
    "address_councildis": "C",
    "status": "Assigned to Contractor",
    "contractor": "IV Waste",
    "rowid": "1240199",
    "final_x": "3681653.97576",
    "final_y": "536727.351687",
    "longitude": "-90.06740245943207",
    "latitude": "29.96980944315269",
    "geocoded_column": {
      "latitude": "29.96980944315269",
      "longitude": "-90.06740245943207"
    }
  },
  {
    "service_request": "2025-1240198",
    "request_type": "Roads and Streets",
    "request_reason": "Push-up/Pavement Expansion",
    "date_created": "2025-11-14T14:43:36.000",
    "date_modified": "2025-11-14T14:43:37.000",
    "request_status": "Pending",
    "responsible_agency": "Department of Public Works",
    "final_address": "11041 Kinneil Rd",
    "address_councildis": "E",
    "status": "Pending",
    "rowid": "1240198",
    "final_x": "3711680.70629",
    "final_y": "564566.614113",
    "longitude": "-89.97153133397583",
    "latitude": "30.04541033198751",
    "geocoded_column": {
      "latitude": "30.04541033198751",
      "longitude": "-89.97153133397583"
    }
  },
  {
    "service_request": "2025-1240197",
    "request_type": "Trash/Recycling",
    "request_reason": "Request a Large Item Pick Up",
    "date_created": "2025-11-14T14:43:20.000",
    "date_modified": "2025-11-14T14:43:21.000",
    "request_status": "Pending",
    "responsible_agency": "Department of Sanitation",
    "final_address": "1100 Girod St",
    "address_councildis": "B",
    "status": "Assigned to Contractor",
    "contractor": "IV Waste",
    "rowid": "1240197",
    "final_x": "3678998.2909",
    "final_y": "528655.492416",
    "longitude": "-90.07606906505033",
    "latitude": "29.94769496881821",
    "geocoded_column": {
      "latitude": "29.94769496881821",
      "longitude": "-90.07606906505033"
    }
  },
  {
    "service_request": "2025-1240196",
    "request_type": "Trash/Recycling",
    "request_reason": "Replace Trash Cart",
    "date_created": "2025-11-14T14:41:08.000",
    "date_modified": "2025-11-14T14:41:10.000",
    "request_status": "Pending",
    "responsible_agency": "Department of Sanitation",
    "final_address": "2227 Rev. John Raphael, Jr. Way",
    "address_councildis": "B",
    "status": "Assigned to Contractor",
    "contractor": "IV Waste",
    "rowid": "1240196",
    "final_x": "3675606.8923",
    "final_y": "525933.539709",
    "longitude": "-90.08687054516224",
    "latitude": "29.940312381178966",
    "geocoded_column": {
      "latitude": "29.940312381178966",
      "longitude": "-90.08687054516224"
    }
  },
  {
    "service_request": "2025-1240195",
    "request_type": "Trash/Recycling",
    "request_reason": "Request a Large Item Pick Up",
    "date_created": "2025-11-14T14:37:46.000",
    "date_modified": "2025-11-14T14:37:48.000",
    "request_status": "Pending",
    "responsible_agency": "Department of Sanitation",
    "final_address": "13135 Cherbourg St",
    "address_councildis": "E",
    "status": "Assigned to Contractor",
    "contractor": "Waste Pro",
    "rowid": "1240195",
    "final_x": "3724712.84761",
    "final_y": "561284.82275",
    "longitude": "-89.93047099899937",
    "latitude": "30.03595445023929",
    "geocoded_column": {
      "latitude": "30.03595445023929",
      "longitude": "-89.93047099899937"
    }
  },
  {
    "service_request": "2025-1240194",
    "request_type": "Trash/Recycling",
    "request_reason": "Request a Large Item Pick Up",
    "date_created": "2025-11-14T14:36:05.000",
    "date_modified": "2025-11-14T14:36:06.000",
    "request_status": "Pending",
    "responsible_agency": "Department of Sanitation",
    "final_address": "4882 Redwood St",
    "address_councildis": "E",
    "status": "Assigned to Contractor",
    "contractor": "Waste Pro",
    "rowid": "1240194",
    "final_x": "3712326.33778",
    "final_y": "557029.15625",
    "longitude": "-89.96977432817411",
    "latitude": "30.024664216759444",
    "geocoded_column": {
      "latitude": "30.024664216759444",
      "longitude": "-89.96977432817411"
    }
  },
  {
    "service_request": "2025-1240193",
    "request_type": "Abandoned Vehicles",
    "request_reason": "Abandoned/Junk Vehicles",
    "date_created": "2025-11-14T14:34:51.000",
    "date_modified": "2025-11-14T14:34:52.000",
    "request_status": "Pending",
    "responsible_agency": "Department of Public Works",
    "final_address": "5734 Chamberlain Dr",
    "address_councildis": "D",
    "status": "Pending",
    "rowid": "1240193",
    "final_x": "3679266.03848",
    "final_y": "553802.155607",
    "longitude": "-90.074351303435",
    "latitude": "30.01683146221751",
    "geocoded_column": {
      "latitude": "30.01683146221751",
      "longitude": "-90.074351303435"
    }
  },
  {
    "service_request": "2025-1240192",
    "request_type": "Abandoned Vehicles",
    "request_reason": "Abandoned/Junk Vehicles",
    "date_created": "2025-11-14T14:34:16.000",
    "date_modified": "2025-11-14T14:37:14.000",
    "request_status": "Pending",
    "responsible_agency": "Department of Public Works",
    "final_address": "3600 Rue Delphine",
    "address_councildis": "C",
    "status": "Inspected",
    "rowid": "1240192",
    "final_x": "3703090.70135",
    "final_y": "517401.788405",
    "longitude": "-90.00041374763794",
    "latitude": "29.916002338661112",
    "geocoded_column": {
      "latitude": "29.916002338661112",
      "longitude": "-90.00041374763794"
    }
  },
  {
    "service_request": "2025-1240191",
    "request_type": "Street and Traffic Signs",
    "request_reason": "Stop Sign Missing or Damaged",
    "date_created": "2025-11-14T14:32:36.000",
    "date_modified": "2025-11-14T14:32:37.000",
    "request_status": "Pending",
    "responsible_agency": "Department of Public Works",
    "final_address": "N DERBIGNY ST & MUSIC ST",
    "address_councildis": "D",
    "status": "Pending",
    "rowid": "1240191",
    "final_x": "3686676.4",
    "final_y": "538661.58",
    "longitude": "-90.0514728776064",
    "latitude": "29.97497436523601",
    "geocoded_column": {
      "latitude": "29.97497436523601",
      "longitude": "-90.0514728776064"
    }
  },
  {
    "service_request": "2025-1240190",
    "request_type": "Abandoned Vehicles",
    "request_reason": "Abandoned/Junk Vehicles",
    "date_created": "2025-11-14T14:29:45.000",
    "date_modified": "2025-11-14T14:29:46.000",
    "request_status": "Pending",
    "responsible_agency": "Department of Public Works",
    "final_address": "4700 BLK Thalia St",
    "address_councildis": "B",
    "status": "Pending",
    "rowid": "1240190",
    "final_x": "3669413.31665",
    "final_y": "532060.160077",
    "longitude": "-90.1062175613303",
    "latitude": "29.957342391031965",
    "geocoded_column": {
      "latitude": "29.957342391031965",
      "longitude": "-90.1062175613303"
    }
  },
  {
    "service_request": "2025-1240189",
    "request_type": "Trash/Recycling",
    "request_reason": "Order Trash Cart",
    "date_created": "2025-11-14T14:29:15.000",
    "date_modified": "2025-11-14T14:29:17.000",
    "request_status": "Pending",
    "responsible_agency": "Department of Sanitation",
    "final_address": "2349 Tennessee St",
    "address_councildis": "E",
    "status": "Assigned to Contractor",
    "contractor": "Waste Pro",
    "rowid": "1240189",
    "final_x": "3697093.75498",
    "final_y": "539184.01889",
    "longitude": "-90.01855344920767",
    "latitude": "29.97608632801788",
    "geocoded_column": {
      "latitude": "29.97608632801788",
      "longitude": "-90.01855344920767"
    }
  },
  {
    "service_request": "2025-1240188",
    "request_type": "Abandoned Vehicles",
    "request_reason": "Abandoned/Junk Vehicles",
    "date_created": "2025-11-14T14:28:20.000",
    "date_modified": "2025-11-14T14:32:27.000",
    "request_status": "Pending",
    "responsible_agency": "Department of Public Works",
    "final_address": "3600 Rue Delphine",
    "address_councildis": "C",
    "status": "Inspected",
    "rowid": "1240188",
    "final_x": "3703090.70135",
    "final_y": "517401.788405",
    "longitude": "-90.00041374763794",
    "latitude": "29.916002338661112",
    "geocoded_column": {
      "latitude": "29.916002338661112",
      "longitude": "-90.00041374763794"
    }
  },
  {
    "service_request": "2025-1240187",
    "request_type": "Abandoned Vehicles",
    "request_reason": "Abandoned/Junk Vehicles",
    "date_created": "2025-11-14T14:23:15.000",
    "date_modified": "2025-11-14T14:26:00.000",
    "request_status": "Pending",
    "responsible_agency": "Department of Public Works",
    "final_address": "3700 Rue Delphine",
    "address_councildis": "C",
    "status": "Inspected",
    "rowid": "1240187",
    "final_x": "3703075.93226",
    "final_y": "516947.119413",
    "longitude": "-90.00047705768716",
    "latitude": "29.914752627239714",
    "geocoded_column": {
      "latitude": "29.914752627239714",
      "longitude": "-90.00047705768716"
    }
  },
  {
    "service_request": "2025-1240186",
    "request_type": "Trash/Recycling",
    "request_reason": "Repair Recycling Cart",
    "date_created": "2025-11-14T14:22:46.000",
    "date_modified": "2025-11-14T14:22:48.000",
    "request_status": "Pending",
    "responsible_agency": "Department of Sanitation",
    "final_address": "5520 Hurst St",
    "address_councildis": "A",
    "status": "Pending",
    "rowid": "1240186",
    "final_x": "3666829.24845",
    "final_y": "521348.366073",
    "longitude": "-90.11473702327498",
    "latitude": "29.927964249219436",
    "geocoded_column": {
      "latitude": "29.927964249219436",
      "longitude": "-90.11473702327498"
    }
  },
  {
    "service_request": "2025-1240185",
    "request_type": "Abandoned Vehicles",
    "request_reason": "Abandoned/Junk Vehicles",
    "date_created": "2025-11-14T14:21:18.000",
    "date_modified": "2025-11-14T14:22:22.000",
    "request_status": "Pending",
    "responsible_agency": "Department of Public Works",
    "final_address": "7558 Lafourche St",
    "address_councildis": "E",
    "status": "Inspected",
    "rowid": "1240185",
    "final_x": "3710383.48549",
    "final_y": "565170.788514",
    "longitude": "-89.9756085180776",
    "latitude": "30.047113895845946",
    "geocoded_column": {
      "latitude": "30.047113895845946",
      "longitude": "-89.9756085180776"
    }
  },
  {
    "service_request": "2025-1240184",
    "request_type": "Abandoned Vehicles",
    "request_reason": "Abandoned/Junk Vehicles",
    "date_created": "2025-11-14T14:20:54.000",
    "date_modified": "2025-11-14T14:21:26.000",
    "request_status": "Pending",
    "responsible_agency": "Department of Public Works",
    "final_address": "4810 Sherwood Dr",
    "address_councildis": "E",
    "status": "Pending",
    "rowid": "1240184",
    "final_x": "3717897.02508",
    "final_y": "557282.738843",
    "longitude": "-89.95216246126421",
    "latitude": "30.025178014055108",
    "geocoded_column": {
      "latitude": "30.025178014055108",
      "longitude": "-89.95216246126421"
    }
  },
  {
    "service_request": "2025-1240183",
    "request_type": "Trash/Recycling",
    "request_reason": "Request a Large Item Pick Up",
    "date_created": "2025-11-14T14:17:33.000",
    "date_modified": "2025-11-14T14:17:35.000",
    "request_status": "Pending",
    "responsible_agency": "Department of Sanitation",
    "final_address": "2681 Wall Blvd",
    "address_councildis": "C",
    "status": "Assigned to Contractor",
    "contractor": "Richards Disposal",
    "rowid": "1240183",
    "final_x": "3694148.7704",
    "final_y": "523323.639227",
    "longitude": "-90.02842498127605",
    "latitude": "29.932568413764947",
    "geocoded_column": {
      "latitude": "29.932568413764947",
      "longitude": "-90.02842498127605"
    }
  },
  {
    "service_request": "2025-1240182",
    "request_type": "Abandoned Vehicles",
    "request_reason": "Abandoned/Junk Vehicles",
    "date_created": "2025-11-14T14:17:33.000",
    "date_modified": "2025-11-14T14:20:49.000",
    "request_status": "Pending",
    "responsible_agency": "Department of Public Works",
    "final_address": "5100 BLK Lacour Monique St",
    "address_councildis": "C",
    "status": "Inspected",
    "rowid": "1240182",
    "final_x": "3703199.3393",
    "final_y": "517902.906567",
    "longitude": "-90.00005244173734",
    "latitude": "29.917376766139583",
    "geocoded_column": {
      "latitude": "29.917376766139583",
      "longitude": "-90.00005244173734"
    }
  },
  {
    "service_request": "2025-1240181",
    "request_type": "Safety & Permits",
    "request_reason": "Zoning Enforcement",
    "date_created": "2025-11-14T14:17:04.000",
    "date_modified": "2025-11-14T14:17:05.000",
    "request_status": "Pending",
    "responsible_agency": "Safety and Permits",
    "final_address": "4239 Reynes St",
    "address_councildis": "E",
    "status": "Pending",
    "rowid": "1240181",
    "final_x": "3699447.90103",
    "final_y": "552271.308118",
    "longitude": "-90.01064128794435",
    "latitude": "30.011997048237575",
    "geocoded_column": {
      "latitude": "30.011997048237575",
      "longitude": "-90.01064128794435"
    }
  },
  {
    "service_request": "2025-1240180",
    "request_type": "Trash/Recycling",
    "request_reason": "Request a Large Item Pick Up",
    "date_created": "2025-11-14T14:10:16.000",
    "date_modified": "2025-11-14T14:10:17.000",
    "request_status": "Pending",
    "responsible_agency": "Department of Sanitation",
    "final_address": "6101 Perlita St",
    "address_councildis": "D",
    "status": "Assigned to Contractor",
    "contractor": "IV Waste",
    "rowid": "1240180",
    "final_x": "3678369.88834",
    "final_y": "554938.934872",
    "longitude": "-90.07714338735812",
    "latitude": "30.019984236904396",
    "geocoded_column": {
      "latitude": "30.019984236904396",
      "longitude": "-90.07714338735812"
    }
  },
  {
    "service_request": "2025-1240179",
    "request_type": "Trash/Recycling",
    "request_reason": "Repair Trash Cart",
    "date_created": "2025-11-14T14:10:03.000",
    "date_modified": "2025-11-14T14:10:04.000",
    "request_status": "Pending",
    "responsible_agency": "Department of Sanitation",
    "final_address": "1850 Chippewa St",
    "address_councildis": "B",
    "status": "Assigned to Contractor",
    "contractor": "IV Waste",
    "rowid": "1240179",
    "final_x": "3680901.20712",
    "final_y": "521818.840378",
    "longitude": "-90.07029875109714",
    "latitude": "29.92883889711166",
    "geocoded_column": {
      "latitude": "29.92883889711166",
      "longitude": "-90.07029875109714"
    }
  },
  {
    "service_request": "2025-1240178",
    "request_type": "General Services",
    "request_reason": "General Service Request",
    "date_created": "2025-11-14T14:09:09.000",
    "date_modified": "2025-11-14T14:12:26.000",
    "case_close_date": "2025-11-14T08:12:25.000",
    "request_status": "Closed",
    "responsible_agency": "Orleans Parish Communication District",
    "final_address": "1101 N Peters St Spc 3",
    "address_councildis": "C",
    "status": "Question Answered.",
    "rowid": "1240178",
    "final_x": "3684194.45513",
    "final_y": "533087.217284",
    "longitude": "-90.05950720092142",
    "latitude": "29.959722908965443",
    "geocoded_column": {
      "latitude": "29.959722908965443",
      "longitude": "-90.05950720092142"
    }
  },
  {
    "service_request": "2025-1240177",
    "request_type": "Trash/Recycling",
    "request_reason": "Request a Large Item Pick Up",
    "date_created": "2025-11-14T14:07:33.000",
    "date_modified": "2025-11-14T14:07:37.000",
    "request_status": "Pending",
    "responsible_agency": "Department of Sanitation",
    "final_address": "2619 Somerset Dr",
    "address_councildis": "C",
    "status": "Assigned to Contractor",
    "contractor": "Richards Disposal",
    "rowid": "1240177",
    "final_x": "3702818.64478",
    "final_y": "521350.081401",
    "longitude": "-90.00112756556139",
    "latitude": "29.926867482147255",
    "geocoded_column": {
      "latitude": "29.926867482147255",
      "longitude": "-90.00112756556139"
    }
  },
  {
    "service_request": "2025-1240176",
    "request_type": "Trash/Recycling",
    "request_reason": "Return Trash Cart",
    "date_created": "2025-11-14T14:03:22.000",
    "date_modified": "2025-11-14T14:03:24.000",
    "request_status": "Pending",
    "responsible_agency": "Department of Sanitation",
    "final_address": "8821 Colapissa St",
    "address_councildis": "A",
    "status": "Assigned to Contractor",
    "contractor": "IV Waste",
    "rowid": "1240176",
    "final_x": "3664591.90285",
    "final_y": "535227.778438",
    "longitude": "-90.12133639865344",
    "latitude": "29.966193399051082",
    "geocoded_column": {
      "latitude": "29.966193399051082",
      "longitude": "-90.12133639865344"
    }
  },
  {
    "service_request": "2025-1240175",
    "request_type": "Safety & Permits",
    "request_reason": "Licenses & Permits",
    "date_created": "2025-11-14T14:02:08.000",
    "date_modified": "2025-11-14T14:03:26.000",
    "request_status": "Pending",
    "responsible_agency": "Safety and Permits",
    "final_address": "1005 Milan St",
    "address_councildis": "B",
    "status": "Pending",
    "rowid": "1240175",
    "final_x": "3671795.57703",
    "final_y": "519302.344375",
    "longitude": "-90.0991290052051",
    "latitude": "29.922192180842483",
    "geocoded_column": {
      "latitude": "29.922192180842483",
      "longitude": "-90.0991290052051"
    }
  },
  {
    "service_request": "2025-1240174",
    "request_type": "Trash/Recycling",
    "request_reason": "Request a Large Item Pick Up",
    "date_created": "2025-11-14T14:00:31.000",
    "date_modified": "2025-11-14T14:00:33.000",
    "request_status": "Pending",
    "responsible_agency": "Department of Sanitation",
    "final_address": "7070 Queensway Dr",
    "address_councildis": "E",
    "status": "Assigned to Contractor",
    "contractor": "Waste Pro",
    "rowid": "1240174",
    "final_x": "3719056.67621",
    "final_y": "569556.520102",
    "longitude": "-89.94802930670895",
    "latitude": "30.0588874143819",
    "geocoded_column": {
      "latitude": "30.0588874143819",
      "longitude": "-89.94802930670895"
    }
  },
  {
    "service_request": "2025-1240173",
    "request_type": "Trash/Recycling",
    "request_reason": "Replace Recycling Cart",
    "date_created": "2025-11-14T13:58:59.000",
    "date_modified": "2025-11-14T13:59:01.000",
    "request_status": "Pending",
    "responsible_agency": "Department of Sanitation",
    "final_address": "1212 Joseph St",
    "address_councildis": "A",
    "status": "Pending",
    "rowid": "1240173",
    "final_x": "3666402.38599",
    "final_y": "520329.90636",
    "longitude": "-90.11611868770781",
    "latitude": "29.92517628250779",
    "geocoded_column": {
      "latitude": "29.92517628250779",
      "longitude": "-90.11611868770781"
    }
  },
  {
    "service_request": "2025-1240172",
    "request_type": "Trash/Recycling",
    "request_reason": "Return Trash Cart",
    "date_created": "2025-11-14T13:56:13.000",
    "date_modified": "2025-11-14T13:56:15.000",
    "request_status": "Pending",
    "responsible_agency": "Department of Sanitation",
    "final_address": "8924 Oleander St",
    "address_councildis": "A",
    "status": "Assigned to Contractor",
    "contractor": "IV Waste",
    "rowid": "1240172",
    "final_x": "3664515.17562",
    "final_y": "535669.159175",
    "longitude": "-90.12156396191776",
    "latitude": "29.96740928194433",
    "geocoded_column": {
      "latitude": "29.96740928194433",
      "longitude": "-90.12156396191776"
    }
  },
  {
    "service_request": "2025-1240171",
    "request_type": "Streetlights",
    "request_reason": "Streetlight Outage/Malfunction",
    "date_created": "2025-11-14T13:55:00.000",
    "date_modified": "2025-11-14T13:59:24.000",
    "request_status": "Pending",
    "responsible_agency": "Department of Public Works",
    "final_address": "4234 Canal St",
    "address_councildis": "A",
    "status": "Pending",
    "rowid": "1240171",
    "final_x": "3670274.35169",
    "final_y": "538807.001097",
    "longitude": "-90.10326996064902",
    "latitude": "29.975868566494576",
    "geocoded_column": {
      "latitude": "29.975868566494576",
      "longitude": "-90.10326996064902"
    }
  },
  {
    "service_request": "2025-1240170",
    "request_type": "Trash/Recycling",
    "request_reason": "Request a Large Item Pick Up",
    "date_created": "2025-11-14T13:51:51.000",
    "date_modified": "2025-11-14T13:51:53.000",
    "request_status": "Pending",
    "responsible_agency": "Department of Sanitation",
    "final_address": "14575 Beekman Rd",
    "address_councildis": "E",
    "status": "Assigned to Contractor",
    "contractor": "Waste Pro",
    "rowid": "1240170",
    "final_x": "3721127.23679",
    "final_y": "573100.187113",
    "longitude": "-89.94134845520738",
    "latitude": "30.068562016212294",
    "geocoded_column": {
      "latitude": "30.068562016212294",
      "longitude": "-89.94134845520738"
    }
  },
  {
    "service_request": "2025-1240169",
    "request_type": "Health Related Request",
    "request_reason": "Noise Ordinance Complaint",
    "date_created": "2025-11-14T13:51:36.000",
    "date_modified": "2025-11-14T13:52:43.000",
    "request_status": "Pending",
    "responsible_agency": "Health Department",
    "final_address": "1617 Duels St",
    "address_councildis": "D",
    "status": "Pending",
    "rowid": "1240169",
    "final_x": "3680129.60239",
    "final_y": "542253.405197",
    "longitude": "-90.07202446630043",
    "latitude": "29.985050395097968",
    "geocoded_column": {
      "latitude": "29.985050395097968",
      "longitude": "-90.07202446630043"
    }
  },
  {
    "service_request": "2025-1240168",
    "request_type": "Trash/Recycling",
    "request_reason": "Request a Large Item Pick Up",
    "date_created": "2025-11-14T13:41:02.000",
    "date_modified": "2025-11-14T13:41:04.000",
    "request_status": "Pending",
    "responsible_agency": "Department of Sanitation",
    "final_address": "4600 Majestic Oaks Dr",
    "address_councildis": "D",
    "status": "Assigned to Contractor",
    "contractor": "Waste Pro",
    "rowid": "1240168",
    "final_x": "3697715.71984",
    "final_y": "553487.022167",
    "longitude": "-90.01606980367265",
    "latitude": "30.015394669955775",
    "geocoded_column": {
      "latitude": "30.015394669955775",
      "longitude": "-90.01606980367265"
    }
  },
  {
    "service_request": "2025-1240167",
    "request_type": "Mosquito, Termite & Rodent Control",
    "request_reason": "Rodent Complaint (Mice & Rats)",
    "date_created": "2025-11-14T13:39:19.000",
    "date_modified": "2025-11-14T13:43:13.000",
    "request_status": "Pending",
    "responsible_agency": "Mosquito, Termite & Rodent Control Board",
    "final_address": "1406 Cabrini Ct",
    "address_councildis": "D",
    "status": "Pending",
    "rowid": "1240167",
    "final_x": "3677795.43278",
    "final_y": "553201.523927",
    "longitude": "-90.07901857849204",
    "latitude": "30.015224288846486",
    "geocoded_column": {
      "latitude": "30.015224288846486",
      "longitude": "-90.07901857849204"
    }
  },
  {
    "service_request": "2025-1240166",
    "request_type": "Property Maintenance",
    "request_reason": "Property Maintenance",
    "date_created": "2025-11-14T13:39:13.000",
    "date_modified": "2025-11-14T13:39:16.000",
    "request_status": "Pending",
    "responsible_agency": "Department of Code Enforcement",
    "final_address": "723 Valence St",
    "address_councildis": "B",
    "status": "Pending",
    "rowid": "1240166",
    "final_x": "3670046.30727",
    "final_y": "518139.795446",
    "longitude": "-90.10469009039598",
    "latitude": "29.919047232233638",
    "geocoded_column": {
      "latitude": "29.919047232233638",
      "longitude": "-90.10469009039598"
    }
  },
  {
    "service_request": "2025-1240165",
    "request_type": "Roads and Streets",
    "request_reason": "Pothole",
    "date_created": "2025-11-14T13:36:56.000",
    "date_modified": "2025-11-14T13:36:58.000",
    "request_status": "Pending",
    "responsible_agency": "Department of Public Works",
    "final_address": "1031 S Carrollton Ave",
    "address_councildis": "A",
    "status": "Pending",
    "rowid": "1240165",
    "final_x": "3661802.12902",
    "final_y": "527925.366399",
    "longitude": "-90.13038859147233",
    "latitude": "29.94619497020936",
    "geocoded_column": {
      "latitude": "29.94619497020936",
      "longitude": "-90.13038859147233"
    }
  },
  {
    "service_request": "2025-1240164",
    "request_type": "Trash/Recycling",
    "request_reason": "Order Recycling Cart",
    "date_created": "2025-11-14T13:34:14.000",
    "date_modified": "2025-11-14T13:34:15.000",
    "request_status": "Pending",
    "responsible_agency": "Department of Sanitation",
    "final_address": "1223 Coliseum St Unit 2",
    "address_councildis": "B",
    "status": "Pending",
    "rowid": "1240164",
    "final_x": "3680073.63227",
    "final_y": "525469.253437",
    "longitude": "-90.07278446369396",
    "latitude": "29.93890138613972",
    "geocoded_column": {
      "latitude": "29.93890138613972",
      "longitude": "-90.07278446369396"
    }
  },
  {
    "service_request": "2025-1240163",
    "request_type": "Drainage",
    "request_reason": "Drainage Manhole Cover Missing or Damaged",
    "date_created": "2025-11-14T13:30:59.000",
    "date_modified": "2025-11-14T13:31:00.000",
    "request_status": "Pending",
    "responsible_agency": "Sewerage & Water Board",
    "final_address": "3140 Jackson Ave",
    "address_councildis": "B",
    "status": "Pending",
    "rowid": "1240163",
    "final_x": "3673923.45524",
    "final_y": "528450.708608",
    "longitude": "-90.09209934575418",
    "latitude": "29.947284015525973",
    "geocoded_column": {
      "latitude": "29.947284015525973",
      "longitude": "-90.09209934575418"
    }
  },
  {
    "service_request": "2025-1240162",
    "request_type": "Abandoned Vehicles",
    "request_reason": "Abandoned/Junk Vehicles",
    "date_created": "2025-11-14T13:29:04.000",
    "date_modified": "2025-11-14T13:29:07.000",
    "request_status": "Pending",
    "responsible_agency": "Department of Public Works",
    "final_address": "2900 BLK Camp St",
    "address_councildis": "B",
    "status": "Pending",
    "rowid": "1240162",
    "final_x": "3676292.17855",
    "final_y": "520770.880818",
    "longitude": "-90.08488457443273",
    "latitude": "29.926096238831292",
    "geocoded_column": {
      "latitude": "29.926096238831292",
      "longitude": "-90.08488457443273"
    }
  },
  {
    "service_request": "2025-1240161",
    "request_type": "Roads and Streets",
    "request_reason": "Debris in Driving Lanes",
    "date_created": "2025-11-14T13:28:09.000",
    "date_modified": "2025-11-14T13:28:11.000",
    "request_status": "Pending",
    "responsible_agency": "Department of Public Works",
    "final_address": "BANKS ST & S NORMAN C FRANCIS PKWY",
    "address_councildis": "B",
    "status": "Pending",
    "rowid": "1240161",
    "final_x": "3672568.1",
    "final_y": "535734.98",
    "longitude": "-90.09613039534027",
    "latitude": "29.9673536412601",
    "geocoded_column": {
      "latitude": "29.9673536412601",
      "longitude": "-90.09613039534027"
    }
  },
  {
    "service_request": "2025-1240160",
    "request_type": "Streetlights",
    "request_reason": "Streetlight Outage/Malfunction",
    "date_created": "2025-11-14T13:23:40.000",
    "date_modified": "2025-11-14T13:23:42.000",
    "request_status": "Pending",
    "responsible_agency": "Department of Public Works",
    "final_address": "1901 Independence St",
    "address_councildis": "D",
    "status": "Pending",
    "rowid": "1240160",
    "final_x": "3691744.69731",
    "final_y": "538545.266633",
    "longitude": "-90.03547011793796",
    "latitude": "29.974497667671773",
    "geocoded_column": {
      "latitude": "29.974497667671773",
      "longitude": "-90.03547011793796"
    }
  },
  {
    "service_request": "2025-1240159",
    "request_type": "Trash/Recycling",
    "request_reason": "Replace Trash Cart",
    "date_created": "2025-11-14T13:20:06.000",
    "date_modified": "2025-11-14T13:20:07.000",
    "request_status": "Pending",
    "responsible_agency": "Department of Sanitation",
    "final_address": "7618 Pearl St",
    "address_councildis": "A",
    "status": "Assigned to Contractor",
    "contractor": "IV Waste",
    "rowid": "1240159",
    "final_x": "3661486.17453",
    "final_y": "525438.663741",
    "longitude": "-90.13146852700952",
    "latitude": "29.939366445449107",
    "geocoded_column": {
      "latitude": "29.939366445449107",
      "longitude": "-90.13146852700952"
    }
  },
  {
    "service_request": "2025-1240158",
    "request_type": "Property Maintenance",
    "request_reason": "Property Maintenance",
    "date_created": "2025-11-14T13:19:33.000",
    "date_modified": "2025-11-14T13:19:34.000",
    "request_status": "Pending",
    "responsible_agency": "Department of Code Enforcement",
    "final_address": "2840 Fortin St",
    "address_councildis": "A",
    "status": "Pending",
    "rowid": "1240158",
    "final_x": "3678077.2788",
    "final_y": "540873.002571",
    "longitude": "-90.07855463352924",
    "latitude": "29.981316725958585",
    "geocoded_column": {
      "latitude": "29.981316725958585",
      "longitude": "-90.07855463352924"
    }
  },
  {
    "service_request": "2025-1240157",
    "request_type": "Parks & Parkways",
    "request_reason": "Request Tree Service (Right of Way/Public Property)",
    "date_created": "2025-11-14T13:18:10.000",
    "date_modified": "2025-11-14T13:19:53.000",
    "case_close_date": "2025-11-14T07:19:53.000",
    "request_status": "Closed",
    "responsible_agency": "Department of Parks & Parkway",
    "final_address": "BANKS ST & S NORMAN C FRANCIS PKWY",
    "address_councildis": "B",
    "status": "Duplicate Request",
    "rowid": "1240157",
    "final_x": "3672568.1",
    "final_y": "535734.98",
    "longitude": "-90.09613039534027",
    "latitude": "29.9673536412601",
    "geocoded_column": {
      "latitude": "29.9673536412601",
      "longitude": "-90.09613039534027"
    }
  },
  {
    "service_request": "2025-1240156",
    "request_type": "Trash/Recycling",
    "request_reason": "Replace Trash Cart",
    "date_created": "2025-11-14T13:15:55.000",
    "date_modified": "2025-11-14T13:15:56.000",
    "request_status": "Pending",
    "responsible_agency": "Department of Sanitation",
    "final_address": "2235 Marengo St",
    "address_councildis": "B",
    "status": "Assigned to Contractor",
    "contractor": "IV Waste",
    "rowid": "1240156",
    "final_x": "3671758.07252",
    "final_y": "523427.852539",
    "longitude": "-90.09910712128864",
    "latitude": "29.93353711568265",
    "geocoded_column": {
      "latitude": "29.93353711568265",
      "longitude": "-90.09910712128864"
    }
  },
  {
    "service_request": "2025-1240155",
    "request_type": "Abandoned Vehicles",
    "request_reason": "Abandoned/Junk Vehicles",
    "date_created": "2025-11-14T13:14:17.000",
    "date_modified": "2025-11-14T13:14:19.000",
    "request_status": "Pending",
    "responsible_agency": "Department of Public Works",
    "final_address": "0 BLK Admiralty Ct",
    "address_councildis": "C",
    "status": "Pending",
    "rowid": "1240155",
    "final_x": "3704031.03777",
    "final_y": "523040.620373",
    "longitude": "-89.99723816614093",
    "latitude": "29.931477060413563",
    "geocoded_column": {
      "latitude": "29.931477060413563",
      "longitude": "-89.99723816614093"
    }
  },
  {
    "service_request": "2025-1240154",
    "request_type": "Roads and Streets",
    "request_reason": "Push-up/Pavement Expansion",
    "date_created": "2025-11-14T13:12:38.000",
    "date_modified": "2025-11-14T13:12:39.000",
    "request_status": "Pending",
    "responsible_agency": "Department of Public Works",
    "final_address": "2835 Broadway St",
    "address_councildis": "B",
    "status": "Pending",
    "rowid": "1240154",
    "final_x": "3667490.32961",
    "final_y": "531511.473539",
    "longitude": "-90.11230825825258",
    "latitude": "29.95589016913479",
    "geocoded_column": {
      "latitude": "29.95589016913479",
      "longitude": "-90.11230825825258"
    }
  },
  {
    "service_request": "2025-1240153",
    "request_type": "Health Related Request",
    "request_reason": "Noise Ordinance Complaint",
    "date_created": "2025-11-14T13:12:37.000",
    "date_modified": "2025-11-14T13:40:15.000",
    "case_close_date": "2025-11-14T07:40:15.000",
    "request_status": "Closed",
    "responsible_agency": "Health Department",
    "final_address": "1617 Duels St",
    "address_councildis": "D",
    "status": "Not Enough Information- Resubmittal Required",
    "rowid": "1240153",
    "final_x": "3680129.60239",
    "final_y": "542253.405197",
    "longitude": "-90.07202446630043",
    "latitude": "29.985050395097968",
    "geocoded_column": {
      "latitude": "29.985050395097968",
      "longitude": "-90.07202446630043"
    }
  },
  {
    "service_request": "2025-1240152",
    "request_type": "Parks & Parkways",
    "request_reason": "Request Tree Service (Right of Way/Public Property)",
    "date_created": "2025-11-14T13:11:56.000",
    "date_modified": "2025-11-14T13:14:45.000",
    "request_status": "Pending",
    "responsible_agency": "Department of Parks & Parkway",
    "final_address": "BANKS ST & S NORMAN C FRANCIS PKWY",
    "address_councildis": "B",
    "status": "Pending",
    "rowid": "1240152",
    "final_x": "3672568.1",
    "final_y": "535734.98",
    "longitude": "-90.09613039534027",
    "latitude": "29.9673536412601",
    "geocoded_column": {
      "latitude": "29.9673536412601",
      "longitude": "-90.09613039534027"
    }
  },
  {
    "service_request": "2025-1240151",
    "request_type": "Property Maintenance",
    "request_reason": "Property Maintenance",
    "date_created": "2025-11-14T13:04:17.000",
    "date_modified": "2025-11-14T13:05:29.000",
    "request_status": "Pending",
    "responsible_agency": "Department of Code Enforcement",
    "final_address": "2217 N Prieur St",
    "address_councildis": "D",
    "status": "Pending",
    "rowid": "1240151",
    "final_x": "3684992.53993",
    "final_y": "539309.417226",
    "longitude": "-90.05676813537589",
    "latitude": "29.97680737992311",
    "geocoded_column": {
      "latitude": "29.97680737992311",
      "longitude": "-90.05676813537589"
    }
  },
  {
    "service_request": "2025-1240150",
    "request_type": "Abandoned Vehicles",
    "request_reason": "Abandoned/Junk Vehicles",
    "date_created": "2025-11-14T13:02:04.000",
    "date_modified": "2025-11-14T13:02:43.000",
    "request_status": "Pending",
    "responsible_agency": "Department of Public Works",
    "final_address": "1816 N Robertson St",
    "address_councildis": "C",
    "status": "Pending",
    "rowid": "1240150",
    "final_x": "3683539.17749",
    "final_y": "537590.979464",
    "longitude": "-90.06141855008526",
    "latitude": "29.972126716027542",
    "geocoded_column": {
      "latitude": "29.972126716027542",
      "longitude": "-90.06141855008526"
    }
  },
  {
    "service_request": "2025-1240149",
    "request_type": "Roads and Streets",
    "request_reason": "Pothole",
    "date_created": "2025-11-14T13:01:38.000",
    "date_modified": "2025-11-14T13:01:40.000",
    "request_status": "Pending",
    "responsible_agency": "Department of Public Works",
    "final_address": "731 N Carrollton Ave",
    "address_councildis": "A",
    "status": "Pending",
    "rowid": "1240149",
    "final_x": "3672568.46497",
    "final_y": "540063.958859",
    "longitude": "-90.09598161467692",
    "latitude": "29.979256856268997",
    "geocoded_column": {
      "latitude": "29.979256856268997",
      "longitude": "-90.09598161467692"
    }
  },
  {
    "service_request": "2025-1240148",
    "request_type": "Roads and Streets",
    "request_reason": "Street Subsidence (Sinking)",
    "date_created": "2025-11-14T13:00:09.000",
    "date_modified": "2025-11-14T13:00:11.000",
    "request_status": "Pending",
    "responsible_agency": "Sewerage & Water Board",
    "final_address": "5610 Catina St",
    "address_councildis": "A",
    "status": "Pending",
    "rowid": "1240148",
    "final_x": "3666572.55469",
    "final_y": "544848.558159",
    "longitude": "-90.11475841126945",
    "latitude": "29.99258955423571",
    "geocoded_column": {
      "latitude": "29.99258955423571",
      "longitude": "-90.11475841126945"
    }
  },
  {
    "service_request": "2025-1240147",
    "request_type": "Trash/Recycling",
    "request_reason": "Order Trash Cart",
    "date_created": "2025-11-14T12:56:09.000",
    "date_modified": "2025-11-14T12:56:11.000",
    "request_status": "Pending",
    "responsible_agency": "Department of Sanitation",
    "final_address": "4235 Alfred St",
    "address_councildis": "D",
    "status": "Assigned to Contractor",
    "contractor": "IV Waste",
    "rowid": "1240147",
    "final_x": "3677643.60987",
    "final_y": "547783.648914",
    "longitude": "-90.07968555293469",
    "latitude": "30.000331635986896",
    "geocoded_column": {
      "latitude": "30.000331635986896",
      "longitude": "-90.07968555293469"
    }
  },
  {
    "service_request": "2025-1240146",
    "request_type": "Trash/Recycling",
    "request_reason": "Request a Large Item Pick Up",
    "date_created": "2025-11-14T12:54:31.000",
    "date_modified": "2025-11-14T12:54:33.000",
    "request_status": "Pending",
    "responsible_agency": "Department of Sanitation",
    "final_address": "3125 Cambronne St",
    "address_councildis": "A",
    "status": "Assigned to Contractor",
    "contractor": "IV Waste",
    "rowid": "1240146",
    "final_x": "3665905.19501",
    "final_y": "534238.760517",
    "longitude": "-90.11722218235055",
    "latitude": "29.96343566465797",
    "geocoded_column": {
      "latitude": "29.96343566465797",
      "longitude": "-90.11722218235055"
    }
  },
  {
    "service_request": "2025-1240145",
    "request_type": "Trash/Recycling",
    "request_reason": "Request a Large Item Pick Up",
    "date_created": "2025-11-14T12:53:32.000",
    "date_modified": "2025-11-14T12:53:33.000",
    "request_status": "Pending",
    "responsible_agency": "Department of Sanitation",
    "final_address": "3113 Cambronne St",
    "address_councildis": "A",
    "status": "Assigned to Contractor",
    "contractor": "IV Waste",
    "rowid": "1240145",
    "final_x": "3665850.83853",
    "final_y": "534179.462341",
    "longitude": "-90.11739582200936",
    "latitude": "29.963274200368076",
    "geocoded_column": {
      "latitude": "29.963274200368076",
      "longitude": "-90.11739582200936"
    }
  },
  {
    "service_request": "2025-1240144",
    "request_type": "Abandoned Vehicles",
    "request_reason": "Abandoned/Junk Vehicles",
    "date_created": "2025-11-14T12:52:20.000",
    "date_modified": "2025-11-14T12:52:21.000",
    "request_status": "Pending",
    "responsible_agency": "Department of Public Works",
    "final_address": "714 Fern St",
    "address_councildis": "A",
    "status": "Pending",
    "rowid": "1240144",
    "final_x": "3661424.56787",
    "final_y": "526689.231678",
    "longitude": "-90.13162162097382",
    "latitude": "29.94280688716621",
    "geocoded_column": {
      "latitude": "29.94280688716621",
      "longitude": "-90.13162162097382"
    }
  },
  {
    "service_request": "2025-1240143",
    "request_type": "Trash/Recycling",
    "request_reason": "Request a Large Item Pick Up",
    "date_created": "2025-11-14T12:51:31.000",
    "date_modified": "2025-11-14T12:51:33.000",
    "request_status": "Pending",
    "responsible_agency": "Department of Sanitation",
    "final_address": "3101 Cambronne St",
    "address_councildis": "A",
    "status": "Assigned to Contractor",
    "contractor": "IV Waste",
    "rowid": "1240143",
    "final_x": "3665798.00237",
    "final_y": "534120.450437",
    "longitude": "-90.11756465050563",
    "latitude": "29.96311347864441",
    "geocoded_column": {
      "latitude": "29.96311347864441",
      "longitude": "-90.11756465050563"
    }
  },
  {
    "service_request": "2025-1240142",
    "request_type": "Trash/Recycling",
    "request_reason": "Illegal Dumping",
    "date_created": "2025-11-14T12:50:31.000",
    "date_modified": "2025-11-14T12:50:32.000",
    "request_status": "Pending",
    "responsible_agency": "Department of Sanitation",
    "final_address": "ELYSIAN FIELDS AVE & I 610 W ONRAMP & HUMANITY ST",
    "address_councildis": "D",
    "status": "Pending",
    "rowid": "1240142",
    "final_x": "3684284.9",
    "final_y": "544769.68",
    "longitude": "-90.05881126212158",
    "latitude": "29.991842834514927",
    "geocoded_column": {
      "latitude": "29.991842834514927",
      "longitude": "-90.05881126212158"
    }
  },
  {
    "service_request": "2025-1240141",
    "request_type": "Abandoned Vehicles",
    "request_reason": "Abandoned/Junk Vehicles",
    "date_created": "2025-11-14T12:50:19.000",
    "date_modified": "2025-11-14T12:50:21.000",
    "request_status": "Pending",
    "responsible_agency": "Department of Public Works",
    "final_address": "1516 Aviators St",
    "address_councildis": "D",
    "status": "Pending",
    "rowid": "1240141",
    "final_x": "3678444.04648",
    "final_y": "554854.322008",
    "longitude": "-90.0769120026917",
    "latitude": "30.019749346577846",
    "geocoded_column": {
      "latitude": "30.019749346577846",
      "longitude": "-90.0769120026917"
    }
  },
  {
    "service_request": "2025-1240140",
    "request_type": "Trash/Recycling",
    "request_reason": "Repair Trash Cart",
    "date_created": "2025-11-14T12:47:40.000",
    "date_modified": "2025-11-14T12:47:41.000",
    "request_status": "Pending",
    "responsible_agency": "Department of Sanitation",
    "final_address": "4437 General Pershing St",
    "address_councildis": "B",
    "status": "Assigned to Contractor",
    "contractor": "IV Waste",
    "rowid": "1240140",
    "final_x": "3669211.41511",
    "final_y": "529959.394689",
    "longitude": "-90.10692610752886",
    "latitude": "29.951571920296267",
    "geocoded_column": {
      "latitude": "29.951571920296267",
      "longitude": "-90.10692610752886"
    }
  },
  {
    "service_request": "2025-1240139",
    "request_type": "Abandoned Vehicles",
    "request_reason": "Abandoned/Junk Vehicles",
    "date_created": "2025-11-14T12:46:05.000",
    "date_modified": "2025-11-14T12:46:08.000",
    "request_status": "Pending",
    "responsible_agency": "Department of Public Works",
    "final_address": "1608 S Salcedo St",
    "address_councildis": "B",
    "status": "Pending",
    "rowid": "1240139",
    "final_x": "3670345.05857",
    "final_y": "530649.959106",
    "longitude": "-90.10332319456205",
    "latitude": "29.95343733359081",
    "geocoded_column": {
      "latitude": "29.95343733359081",
      "longitude": "-90.10332319456205"
    }
  },
  {
    "service_request": "2025-1240137",
    "request_type": "Drainage",
    "request_reason": "Ditch and Culvert Maintenance",
    "date_created": "2025-11-14T12:43:53.000",
    "date_modified": "2025-11-14T12:43:55.000",
    "request_status": "Pending",
    "responsible_agency": "Department of Public Works",
    "final_address": "4827 Dodt Ave",
    "address_councildis": "E",
    "status": "Pending",
    "rowid": "1240137",
    "final_x": "3705453.4435",
    "final_y": "555932.337561",
    "longitude": "-89.99153191212967",
    "latitude": "30.021871486086585",
    "geocoded_column": {
      "latitude": "30.021871486086585",
      "longitude": "-89.99153191212967"
    }
  },
  {
    "service_request": "2025-1240138",
    "request_type": "Drainage",
    "request_reason": "Ditch and Culvert Maintenance",
    "date_created": "2025-11-14T12:43:53.000",
    "date_modified": "2025-11-14T12:43:55.000",
    "request_status": "Pending",
    "responsible_agency": "Department of Public Works",
    "final_address": "4827 Dodt Ave",
    "address_councildis": "E",
    "status": "Pending",
    "rowid": "1240138",
    "final_x": "3705453.4435",
    "final_y": "555932.337561",
    "longitude": "-89.99153191212967",
    "latitude": "30.021871486086585",
    "geocoded_column": {
      "latitude": "30.021871486086585",
      "longitude": "-89.99153191212967"
    }
  },
  {
    "service_request": "2025-1240136",
    "request_type": "Streetlights",
    "request_reason": "Streetlight Outage/Malfunction",
    "date_created": "2025-11-14T12:43:26.000",
    "date_modified": "2025-11-14T12:43:29.000",
    "request_status": "Pending",
    "responsible_agency": "Department of Public Works",
    "final_address": "6421 St Bernard Ave",
    "address_councildis": "D",
    "status": "Pending",
    "rowid": "1240136",
    "final_x": "3677037.3524",
    "final_y": "556668.555738",
    "longitude": "-90.08129406389371",
    "latitude": "30.024780167792514",
    "geocoded_column": {
      "latitude": "30.024780167792514",
      "longitude": "-90.08129406389371"
    }
  },
  {
    "service_request": "2025-1240135",
    "request_type": "Safety & Permits",
    "request_reason": "Zoning Enforcement",
    "date_created": "2025-11-14T12:42:46.000",
    "date_modified": "2025-11-14T12:42:47.000",
    "request_status": "Pending",
    "responsible_agency": "Safety and Permits",
    "final_address": "4234 Rayne Dr",
    "address_councildis": "D",
    "status": "Pending",
    "rowid": "1240135",
    "final_x": "3679706.18242",
    "final_y": "547870.936338",
    "longitude": "-90.07316673253884",
    "latitude": "30.000509434758907",
    "geocoded_column": {
      "latitude": "30.000509434758907",
      "longitude": "-90.07316673253884"
    }
  },
  {
    "service_request": "2025-1240134",
    "request_type": "Trash/Recycling",
    "request_reason": "Repair Trash Cart",
    "date_created": "2025-11-14T12:42:19.000",
    "date_modified": "2025-11-14T12:42:20.000",
    "request_status": "Pending",
    "responsible_agency": "Department of Sanitation",
    "final_address": "3910 Thalia St",
    "address_councildis": "B",
    "status": "Assigned to Contractor",
    "contractor": "IV Waste",
    "rowid": "1240134",
    "final_x": "3672428.44404",
    "final_y": "530132.977985",
    "longitude": "-90.096762352426",
    "latitude": "29.951954147735098",
    "geocoded_column": {
      "latitude": "29.951954147735098",
      "longitude": "-90.096762352426"
    }
  },
  {
    "service_request": "2025-1240133",
    "request_type": "Trash/Recycling",
    "request_reason": "Replace Recycling Cart",
    "date_created": "2025-11-14T12:39:15.000",
    "date_modified": "2025-11-14T12:39:17.000",
    "request_status": "Pending",
    "responsible_agency": "Department of Sanitation",
    "final_address": "1822 S Rendon St",
    "address_councildis": "B",
    "status": "Pending",
    "rowid": "1240133",
    "final_x": "3669468.3323",
    "final_y": "530394.165506",
    "longitude": "-90.10610018198294",
    "latitude": "29.952759833904608",
    "geocoded_column": {
      "latitude": "29.952759833904608",
      "longitude": "-90.10610018198294"
    }
  },
  {
    "service_request": "2025-1240132",
    "request_type": "Streetlights",
    "request_reason": "Streetlight Outage/Malfunction",
    "date_created": "2025-11-14T12:33:48.000",
    "date_modified": "2025-11-14T12:33:50.000",
    "request_status": "Pending",
    "responsible_agency": "Department of Public Works",
    "final_address": "9000 BLK Lake Forest Blvd",
    "address_councildis": "E",
    "status": "Pending",
    "rowid": "1240132",
    "final_x": "3707539.99499",
    "final_y": "558466.290991",
    "longitude": "-89.98484478116266",
    "latitude": "30.028771519491322",
    "geocoded_column": {
      "latitude": "30.028771519491322",
      "longitude": "-89.98484478116266"
    }
  },
  {
    "service_request": "2025-1240131",
    "request_type": "Abandoned Vehicles",
    "request_reason": "Abandoned/Junk Vehicles",
    "date_created": "2025-11-14T12:32:44.000",
    "date_modified": "2025-11-14T12:32:46.000",
    "request_status": "Pending",
    "responsible_agency": "Department of Public Works",
    "final_address": "1343 Teche St",
    "address_councildis": "C",
    "status": "Pending",
    "rowid": "1240131",
    "final_x": "3686619.14838",
    "final_y": "526447.352254",
    "longitude": "-90.05208503496674",
    "latitude": "29.94139120728017",
    "geocoded_column": {
      "latitude": "29.94139120728017",
      "longitude": "-90.05208503496674"
    }
  },
  {
    "service_request": "2025-1240130",
    "request_type": "Roads and Streets",
    "request_reason": "Push-up/Pavement Expansion",
    "date_created": "2025-11-14T12:31:01.000",
    "date_modified": "2025-11-14T12:31:02.000",
    "request_status": "Pending",
    "responsible_agency": "Department of Public Works",
    "final_address": "7219 Pritchard Pl",
    "address_councildis": "B",
    "status": "Pending",
    "rowid": "1240130",
    "final_x": "3667416.52276",
    "final_y": "531689.984067",
    "longitude": "-90.11253530995901",
    "latitude": "29.956383176977734",
    "geocoded_column": {
      "latitude": "29.956383176977734",
      "longitude": "-90.11253530995901"
    }
  },
  {
    "service_request": "2025-1240129",
    "request_type": "Trash/Recycling",
    "request_reason": "Request a Large Item Pick Up",
    "date_created": "2025-11-14T12:29:06.000",
    "date_modified": "2025-11-14T12:29:08.000",
    "request_status": "Pending",
    "responsible_agency": "Department of Sanitation",
    "final_address": "4343 Genoa St",
    "address_councildis": "E",
    "status": "Assigned to Contractor",
    "contractor": "Waste Pro",
    "rowid": "1240129",
    "final_x": "3760916.38589",
    "final_y": "573658.667946",
    "longitude": "-89.8155461661284",
    "latitude": "30.068708476580923",
    "geocoded_column": {
      "latitude": "30.068708476580923",
      "longitude": "-89.8155461661284"
    }
  },
  {
    "service_request": "2025-1240128",
    "request_type": "Trash/Recycling",
    "request_reason": "Replace Trash Cart",
    "date_created": "2025-11-14T12:21:49.000",
    "date_modified": "2025-11-14T12:21:51.000",
    "request_status": "Pending",
    "responsible_agency": "Department of Sanitation",
    "final_address": "6161 Loyola Ave",
    "address_councildis": "A",
    "status": "Assigned to Contractor",
    "contractor": "IV Waste",
    "rowid": "1240128",
    "final_x": "3665774.19661",
    "final_y": "523606.087419",
    "longitude": "-90.11799199742569",
    "latitude": "29.934203077413734",
    "geocoded_column": {
      "latitude": "29.934203077413734",
      "longitude": "-90.11799199742569"
    }
  },
  {
    "service_request": "2025-1240127",
    "request_type": "Abandoned Vehicles",
    "request_reason": "Abandoned/Junk Vehicles",
    "date_created": "2025-11-14T12:14:10.000",
    "date_modified": "2025-11-14T13:03:14.000",
    "request_status": "Pending",
    "responsible_agency": "Department of Public Works",
    "final_address": "2200 Port St",
    "address_councildis": "D",
    "status": "Inspected",
    "rowid": "1240127",
    "final_x": "3688437.67439",
    "final_y": "540584.925259",
    "longitude": "-90.04584208393045",
    "latitude": "29.980208589231662",
    "geocoded_column": {
      "latitude": "29.980208589231662",
      "longitude": "-90.04584208393045"
    }
  },
  {
    "service_request": "2025-1240126",
    "request_type": "Trash/Recycling",
    "request_reason": "Request a Large Item Pick Up",
    "date_created": "2025-11-14T12:12:55.000",
    "date_modified": "2025-11-14T12:13:22.000",
    "request_status": "Pending",
    "responsible_agency": "Department of Sanitation",
    "final_address": "2625 Leonidas St",
    "address_councildis": "A",
    "status": "Assigned to Contractor",
    "contractor": "IV Waste",
    "rowid": "1240126",
    "final_x": "3664214.81492",
    "final_y": "533434.16282",
    "longitude": "-90.12258709005992",
    "latitude": "29.96127250651932",
    "geocoded_column": {
      "latitude": "29.96127250651932",
      "longitude": "-90.12258709005992"
    }
  },
  {
    "service_request": "2025-1240125",
    "request_type": "Trash/Recycling",
    "request_reason": "Illegal Dumping",
    "date_created": "2025-11-14T12:10:13.000",
    "date_modified": "2025-11-14T12:10:16.000",
    "request_status": "Pending",
    "responsible_agency": "Department of Sanitation",
    "final_address": "8300 BLK Forshey St",
    "address_councildis": "A",
    "status": "Pending",
    "rowid": "1240125",
    "final_x": "3666341.69385",
    "final_y": "534523.017684",
    "longitude": "-90.11583422332899",
    "latitude": "29.964204532577547",
    "geocoded_column": {
      "latitude": "29.964204532577547",
      "longitude": "-90.11583422332899"
    }
  },
  {
    "service_request": "2025-1240124",
    "request_type": "Abandoned Vehicles",
    "request_reason": "Abandoned/Junk Vehicles",
    "date_created": "2025-11-14T12:02:46.000",
    "date_modified": "2025-11-14T12:02:48.000",
    "request_status": "Pending",
    "responsible_agency": "Department of Public Works",
    "final_address": "2120 N Rampart St",
    "address_councildis": "C",
    "status": "Pending",
    "rowid": "1240124",
    "final_x": "3684816.9702",
    "final_y": "535878.931911",
    "longitude": "-90.05744328118217",
    "latitude": "29.967380117466487",
    "geocoded_column": {
      "latitude": "29.967380117466487",
      "longitude": "-90.05744328118217"
    }
  },