[
  {
    "service_request": "2025-1237703",
    "request_type": "Trash/Recycling",
    "request_reason": "Replace Trash Cart",
    "date_created": "2025-11-03T22:47:14.000",
    "date_modified": "2025-11-03T22:47:16.000",
    "request_status": "Pending",
    "responsible_agency": "Department of Sanitation",
    "final_address": "2322 Third St",
    "address_councildis": "B",
    "status": "Assigned to Contractor",
    "contractor": "IV Waste",
    "rowid": "1237703",
    "final_x": "3674931.47329",
    "final_y": "525090.062077",
    "longitude": "-90.08903187172518",
    "latitude": "29.938013279317648",
    "geocoded_column": {
      "latitude": "29.938013279317648",
      "longitude": "-90.08903187172518"
    }
  },
  {
    "service_request": "2025-1237702",
    "request_type": "Streetlights",
    "request_reason": "Streetlight Outage/Malfunction",
    "date_created": "2025-11-03T22:47:08.000",
    "date_modified": "2025-11-03T22:47:11.000",
    "request_status": "Pending",
    "responsible_agency": "Department of Public Works",
    "final_address": "JACKSON AVE & LA SALLE ST",
    "address_councildis": "B",
    "status": "Pending",
    "rowid": "1237702",
    "final_x": "3675817.5",
    "final_y": "526051.08",
    "longitude": "-90.08620158339176",
    "latitude": "29.940629277108425",
    "geocoded_column": {
      "latitude": "29.940629277108425",
      "longitude": "-90.08620158339176"
    }
  },
  {
    "service_request": "2025-1237701",
    "request_type": "Trash/Recycling",
    "request_reason": "Replace Trash Cart",
    "date_created": "2025-11-03T22:39:05.000",
    "date_modified": "2025-11-03T22:39:08.000",
    "request_status": "Pending",
    "responsible_agency": "Department of Sanitation",
    "final_address": "1583 Maura Pl",
    "address_councildis": "C",
    "status": "Assigned to Contractor",
    "contractor": "Richards Disposal",
    "rowid": "1237701",
    "final_x": "3699190.95312",
    "final_y": "525052.961149",
    "longitude": "-90.01244440636503",
    "latitude": "29.937164596998677",
    "geocoded_column": {
      "latitude": "29.937164596998677",
      "longitude": "-90.01244440636503"
    }
  },
  {
    "service_request": "2025-1237700",
    "request_type": "Abandoned Vehicles",
    "request_reason": "Abandoned/Junk Vehicles",
    "date_created": "2025-11-03T22:32:15.000",
    "date_modified": "2025-11-03T22:32:41.000",
    "request_status": "Pending",
    "responsible_agency": "Department of Public Works",
    "final_address": "920 Poeyfarre St Unit 414",
    "address_councildis": "B",
    "status": "Pending",
    "rowid": "1237700",
    "final_x": "3681516.42735",
    "final_y": "526223.121086",
    "longitude": "-90.06820311876257",
    "latitude": "29.940930548520427",
    "geocoded_column": {
      "latitude": "29.940930548520427",
      "longitude": "-90.06820311876257"
    }
  },
  {
    "service_request": "2025-1237699",
    "request_type": "Property Maintenance",
    "request_reason": "Property Maintenance",
    "date_created": "2025-11-03T22:25:48.000",
    "date_modified": "2025-11-03T22:25:50.000",
    "request_status": "Pending",
    "responsible_agency": "Department of Code Enforcement",
    "final_address": "4329 Wellington Ave",
    "address_councildis": "D",
    "status": "Pending",
    "rowid": "1237699",
    "final_x": "3677315.1947",
    "final_y": "548290.906386",
    "longitude": "-90.08070551850322",
    "latitude": "30.001736290288385",
    "geocoded_column": {
      "latitude": "30.001736290288385",
      "longitude": "-90.08070551850322"
    }
  },
  {
    "service_request": "2025-1237698",
    "request_type": "Trash/Recycling",
    "request_reason": "Request a Large Item Pick Up",
    "date_created": "2025-11-03T21:49:15.000",
    "date_modified": "2025-11-03T21:49:17.000",
    "request_status": "Pending",
    "responsible_agency": "Department of Sanitation",
    "final_address": "27 Honeysuckle Ln",
    "address_councildis": "E",
    "status": "Assigned to Contractor",
    "contractor": "Waste Pro",
    "rowid": "1237698",
    "final_x": "3713039.35275",
    "final_y": "568522.473637",
    "longitude": "-89.96708832220801",
    "latitude": "30.056242867478442",
    "geocoded_column": {
      "latitude": "30.056242867478442",
      "longitude": "-89.96708832220801"
    }
  },
  {
    "service_request": "2025-1237697",
    "request_type": "Roads and Streets",
    "request_reason": "Curb Damage",
    "date_created": "2025-11-03T21:36:22.000",
    "date_modified": "2025-11-03T21:36:24.000",
    "request_status": "Pending",
    "responsible_agency": "Department of Public Works",
    "final_address": "1202 St Anthony St",
    "address_councildis": "C",
    "status": "Pending",
    "rowid": "1237697",
    "final_x": "3683483.81065",
    "final_y": "536219.491527",
    "longitude": "-90.06164147869339",
    "latitude": "29.968357289194184",
    "geocoded_column": {
      "latitude": "29.968357289194184",
      "longitude": "-90.06164147869339"
    }
  },
  {
    "service_request": "2025-1237696",
    "request_type": "Trash/Recycling",
    "request_reason": "Request a Large Item Pick Up",
    "date_created": "2025-11-03T21:33:33.000",
    "date_modified": "2025-11-03T21:33:35.000",
    "request_status": "Pending",
    "responsible_agency": "Department of Sanitation",
    "final_address": "6361 General Haig St",
    "address_councildis": "A",
    "status": "Assigned to Contractor",
    "contractor": "IV Waste",
    "rowid": "1237696",
    "final_x": "3670801.28667",
    "final_y": "549610.555155",
    "longitude": "-90.10123885394201",
    "latitude": "30.005559056201598",
    "geocoded_column": {
      "latitude": "30.005559056201598",
      "longitude": "-90.10123885394201"
    }
  },
  {
    "service_request": "2025-1237695",
    "request_type": "Trash/Recycling",
    "request_reason": "Repair Trash Cart",
    "date_created": "2025-11-03T21:26:05.000",
    "date_modified": "2025-11-03T21:26:07.000",
    "request_status": "Pending",
    "responsible_agency": "Department of Sanitation",
    "final_address": "2618 Cupid St",
    "address_councildis": "C",
    "status": "Assigned to Contractor",
    "contractor": "Richards Disposal",
    "rowid": "1237695",
    "final_x": "3700410.05136",
    "final_y": "521423.851385",
    "longitude": "-90.00872811303307",
    "latitude": "29.927147104449098",
    "geocoded_column": {
      "latitude": "29.927147104449098",
      "longitude": "-90.00872811303307"
    }
  },
  {
    "service_request": "2025-1237694",
    "request_type": "Mosquito, Termite & Rodent Control",
    "request_reason": "Termite Complaint",
    "date_created": "2025-11-03T21:19:02.000",
    "date_modified": "2025-11-03T21:19:05.000",
    "request_status": "Pending",
    "responsible_agency": "Mosquito, Termite & Rodent Control Board",
    "final_address": "3231 Laurel St",
    "address_councildis": "B",
    "status": "Pending",
    "rowid": "1237694",
    "final_x": "3675915.05397",
    "final_y": "519268.069495",
    "longitude": "-90.0861266846423",
    "latitude": "29.921975285711703",
    "geocoded_column": {
      "latitude": "29.921975285711703",
      "longitude": "-90.0861266846423"
    }
  },
  {
    "service_request": "2025-1237693",
    "request_type": "Mosquito, Termite & Rodent Control",
    "request_reason": "Non-Rodent Complaint (Possums & Snakes)",
    "date_created": "2025-11-03T20:58:40.000",
    "date_modified": "2025-11-03T20:58:43.000",
    "request_status": "Pending",
    "responsible_agency": "Mosquito, Termite & Rodent Control Board",
    "final_address": "6020 Dover Pl",
    "address_councildis": "C",
    "status": "Pending",
    "rowid": "1237693",
    "final_x": "3706246.85847",
    "final_y": "519148.725495",
    "longitude": "-89.99038714154717",
    "latitude": "29.920704479730233",
    "geocoded_column": {
      "latitude": "29.920704479730233",
      "longitude": "-89.99038714154717"
    }
  },
  {
    "service_request": "2025-1237692",
    "request_type": "Trash/Recycling",
    "request_reason": "Request a Large Item Pick Up",
    "date_created": "2025-11-03T20:19:25.000",
    "date_modified": "2025-11-03T20:19:26.000",
    "request_status": "Pending",
    "responsible_agency": "Department of Sanitation",
    "final_address": "7890 Means Ave",
    "address_councildis": "E",
    "status": "Assigned to Contractor",
    "contractor": "Waste Pro",
    "rowid": "1237692",
    "final_x": "3707593.2003",
    "final_y": "565482.809186",
    "longitude": "-89.98441564231584",
    "latitude": "30.048062441752617",
    "geocoded_column": {
      "latitude": "30.048062441752617",
      "longitude": "-89.98441564231584"
    }
  },
  {
    "service_request": "2025-1237691",
    "request_type": "Trash/Recycling",
    "request_reason": "Request a Large Item Pick Up",
    "date_created": "2025-11-03T20:16:45.000",
    "date_modified": "2025-11-03T20:16:47.000",
    "request_status": "Pending",
    "responsible_agency": "Department of Sanitation",
    "final_address": "8523 Chase St",
    "address_councildis": "E",
    "status": "Assigned to Contractor",
    "contractor": "Waste Pro",
    "rowid": "1237691",
    "final_x": "3703450.74686",
    "final_y": "563389.208928",
    "longitude": "-89.99758520009433",
    "latitude": "30.04243930732793",
    "geocoded_column": {
      "latitude": "30.04243930732793",
      "longitude": "-89.99758520009433"
    }
  },
  {
    "service_request": "2025-1237690",
    "request_type": "Abandoned Vehicles",
    "request_reason": "Abandoned/Junk Vehicles",
    "date_created": "2025-11-03T20:16:21.000",
    "date_modified": "2025-11-03T20:16:23.000",
    "request_status": "Pending",
    "responsible_agency": "Department of Public Works",
    "final_address": "2427 Arts St",
    "address_councildis": "D",
    "status": "Pending",
    "rowid": "1237690",
    "final_x": "3686840.823",
    "final_y": "541542.822924",
    "longitude": "-90.05085174051123",
    "latitude": "29.982891708012705",
    "geocoded_column": {
      "latitude": "29.982891708012705",
      "longitude": "-90.05085174051123"
    }
  },
  {
    "service_request": "2025-1237689",
    "request_type": "Parks & Parkways",
    "request_reason": "Request Tree Service (Right of Way/Public Property)",
    "date_created": "2025-11-03T20:10:47.000",
    "date_modified": "2025-11-03T20:10:50.000",
    "request_status": "Pending",
    "responsible_agency": "Department of Parks & Parkway",
    "final_address": "252 Audubon Blvd",
    "address_councildis": "A",
    "status": "Pending",
    "rowid": "1237689",
    "final_x": "3666659.46881",
    "final_y": "529268.423553",
    "longitude": "-90.11500714602647",
    "latitude": "29.949746831412483",
    "geocoded_column": {
      "latitude": "29.949746831412483",
      "longitude": "-90.11500714602647"
    }
  },
  {
    "service_request": "2025-1237688",
    "request_type": "Trash/Recycling",
    "request_reason": "Request a Large Item Pick Up",
    "date_created": "2025-11-03T20:01:03.000",
    "date_modified": "2025-11-03T20:01:04.000",
    "request_status": "Pending",
    "responsible_agency": "Department of Sanitation",
    "final_address": "4746 Western St",
    "address_councildis": "D",
    "status": "Assigned to Contractor",
    "contractor": "IV Waste",
    "rowid": "1237688",
    "final_x": "3684025.66684",
    "final_y": "550470.55426",
    "longitude": "-90.05942991935143",
    "latitude": "30.007526118232914",
    "geocoded_column": {
      "latitude": "30.007526118232914",
      "longitude": "-90.05942991935143"
    }
  },
  {
    "service_request": "2025-1237687",
    "request_type": "General Services",
    "request_reason": "General Service Request",
    "date_created": "2025-11-03T19:47:15.000",
    "date_modified": "2025-11-03T19:47:17.000",
    "request_status": "Pending",
    "responsible_agency": "Orleans Parish Communication District",
    "final_address": "2517 St Anthony St",
    "address_councildis": "D",
    "status": "Pending",
    "rowid": "1237687",
    "final_x": "3683140.81877",
    "final_y": "541512.564172",
    "longitude": "-90.06253927567725",
    "latitude": "29.98292185757408",
    "geocoded_column": {
      "latitude": "29.98292185757408",
      "longitude": "-90.06253927567725"
    }
  },
  {
    "service_request": "2025-1237686",
    "request_type": "Streetlights",
    "request_reason": "Streetlight Outage/Malfunction",
    "date_created": "2025-11-03T19:34:58.000",
    "date_modified": "2025-11-03T19:35:00.000",
    "request_status": "Pending",
    "responsible_agency": "Department of Public Works",
    "final_address": "4933 S Rocheblave St",
    "address_councildis": "B",
    "status": "Pending",
    "rowid": "1237686",
    "final_x": "3669054.59034",
    "final_y": "528462.2272",
    "longitude": "-90.10747186044654",
    "latitude": "29.947459813034556",
    "geocoded_column": {
      "latitude": "29.947459813034556",
      "longitude": "-90.10747186044654"
    }
  },
  {
    "service_request": "2025-1237685",
    "request_type": "Streetlights",
    "request_reason": "Streetlight Outage/Malfunction",
    "date_created": "2025-11-03T19:34:28.000",
    "date_modified": "2025-11-03T19:34:30.000",
    "request_status": "Pending",
    "responsible_agency": "Department of Public Works",
    "final_address": "4524 Bancroft Dr",
    "address_councildis": "D",
    "status": "Pending",
    "rowid": "1237685",
    "final_x": "3676211.06273",
    "final_y": "548833.307795",
    "longitude": "-90.08417490897072",
    "latitude": "30.00326084524604",
    "geocoded_column": {
      "latitude": "30.00326084524604",
      "longitude": "-90.08417490897072"
    }
  },
  {
    "service_request": "2025-1237684",
    "request_type": "Trash/Recycling",
    "request_reason": "Request a Large Item Pick Up",
    "date_created": "2025-11-03T19:21:13.000",
    "date_modified": "2025-11-03T19:21:16.000",
    "request_status": "Pending",
    "responsible_agency": "Department of Sanitation",
    "final_address": "3701 S Galvez St",
    "address_councildis": "B",
    "status": "Assigned to Contractor",
    "contractor": "IV Waste",
    "rowid": "1237684",
    "final_x": "3671335.37358",
    "final_y": "527753.967103",
    "longitude": "-90.10029459546232",
    "latitude": "29.94544503879592",
    "geocoded_column": {
      "latitude": "29.94544503879592",
      "longitude": "-90.10029459546232"
    }
  },
  {
    "service_request": "2025-1237683",
    "request_type": "Abandoned Vehicles",
    "request_reason": "Abandoned/Junk Vehicles",
    "date_created": "2025-11-03T19:09:44.000",
    "date_modified": "2025-11-03T19:09:46.000",
    "request_status": "Pending",
    "responsible_agency": "Department of Public Works",
    "final_address": "4240 DHemecourt St",
    "address_councildis": "A",
    "status": "Pending",
    "rowid": "1237683",
    "final_x": "3669107.53185",
    "final_y": "537325.94484",
    "longitude": "-90.10700518270832",
    "latitude": "29.971830549698193",
    "geocoded_column": {
      "latitude": "29.971830549698193",
      "longitude": "-90.10700518270832"
    }
  },
  {
    "service_request": "2025-1237682",
    "request_type": "Roads and Streets",
    "request_reason": "Street Subsidence (Sinking)",
    "date_created": "2025-11-03T19:05:06.000",
    "date_modified": "2025-11-03T19:05:08.000",
    "request_status": "Pending",
    "responsible_agency": "Sewerage & Water Board",
    "final_address": "5229 S Derbigny St",
    "address_councildis": "B",
    "status": "Pending",
    "rowid": "1237682",
    "final_x": "3668634.56801",
    "final_y": "526312.620606",
    "longitude": "-90.1088705655882",
    "latitude": "29.94156144118602",
    "geocoded_column": {
      "latitude": "29.94156144118602",
      "longitude": "-90.1088705655882"
    }
  },
  {
    "service_request": "2025-1237681",
    "request_type": "Abandoned Vehicles",
    "request_reason": "Abandoned/Junk Vehicles",
    "date_created": "2025-11-03T19:04:03.000",
    "date_modified": "2025-11-03T19:04:04.000",
    "request_status": "Pending",
    "responsible_agency": "Department of Public Works",
    "final_address": "4901 Lurline St",
    "address_councildis": "E",
    "status": "Pending",
    "rowid": "1237681",
    "final_x": "3711945.88126",
    "final_y": "557051.916186",
    "longitude": "-89.97097563861615",
    "latitude": "30.02473924094829",
    "geocoded_column": {
      "latitude": "30.02473924094829",
      "longitude": "-89.97097563861615"
    }
  },
  {
    "service_request": "2025-1237673",
    "request_type": "Trash/Recycling",
    "request_reason": "Order Recycling Cart",
    "date_created": "2025-11-03T18:35:48.000",
    "date_modified": "2025-11-03T18:35:50.000",
    "request_status": "Pending",
    "responsible_agency": "Department of Sanitation",
    "final_address": "3817 Havana Pl",
    "address_councildis": "D",
    "status": "Pending",
    "rowid": "1237673",
    "final_x": "3680630.78191",
    "final_y": "546186.488464",
    "longitude": "-90.07030451906861",
    "latitude": "29.995849809682447",
    "geocoded_column": {
      "latitude": "29.995849809682447",
      "longitude": "-90.07030451906861"
    }
  },
  {
    "service_request": "2025-1237672",
    "request_type": "Utility Poles",
    "request_reason": "Wires Sagging/Hanging Low",
    "date_created": "2025-11-03T18:03:37.000",
    "date_modified": "2025-11-03T18:03:39.000",
    "request_status": "Pending",
    "responsible_agency": "Utility Company Collective",
    "final_address": "8610 Willow St",
    "address_councildis": "A",
    "status": "Pending",
    "rowid": "1237672",
    "final_x": "3661021.31366",
    "final_y": "530129.422977",
    "longitude": "-90.13278099608445",
    "latitude": "29.952277937214955",
    "geocoded_column": {
      "latitude": "29.952277937214955",
      "longitude": "-90.13278099608445"
    }
  },
  {
    "service_request": "2025-1237671",
    "request_type": "Trash/Recycling",
    "request_reason": "Request a Large Item Pick Up",
    "date_created": "2025-11-03T18:01:14.000",
    "date_modified": "2025-11-03T18:01:17.000",
    "request_status": "Pending",
    "responsible_agency": "Department of Sanitation",
    "final_address": "10920 Guildford Rd",
    "address_councildis": "E",
    "status": "Assigned to Contractor",
    "contractor": "Waste Pro",
    "rowid": "1237671",
    "final_x": "3711517.40606",
    "final_y": "563941.332385",
    "longitude": "-89.97207091423772",
    "latitude": "30.043696394401042",
    "geocoded_column": {
      "latitude": "30.043696394401042",
      "longitude": "-89.97207091423772"
    }
  },
  {
    "service_request": "2025-1237670",
    "request_type": "Trash/Recycling",
    "request_reason": "Request a Large Item Pick Up",
    "date_created": "2025-11-03T17:21:03.000",
    "date_modified": "2025-11-03T17:21:05.000",
    "request_status": "Pending",
    "responsible_agency": "Department of Sanitation",
    "final_address": "8903 Middleboro Rd",
    "address_councildis": "E",
    "status": "Assigned to Contractor",
    "contractor": "Waste Pro",
    "rowid": "1237670",
    "final_x": "3706120.78135",
    "final_y": "560872.781406",
    "longitude": "-89.98924020084614",
    "latitude": "30.035434272453273",
    "geocoded_column": {
      "latitude": "30.035434272453273",
      "longitude": "-89.98924020084614"
    }
  },
  {
    "service_request": "2025-1237669",
    "request_type": "Trash/Recycling",
    "request_reason": "Illegal Dumping",
    "date_created": "2025-11-03T17:16:02.000",
    "date_modified": "2025-11-03T17:16:04.000",
    "request_status": "Pending",
    "responsible_agency": "Department of Sanitation",
    "final_address": "2552 N Rocheblave St",
    "address_councildis": "D",
    "status": "Pending",
    "rowid": "1237669",
    "final_x": "3686286.17046",
    "final_y": "541189.100428",
    "longitude": "-90.05261609808174",
    "latitude": "29.981936154295923",
    "geocoded_column": {
      "latitude": "29.981936154295923",
      "longitude": "-90.05261609808174"
    }
  },
  {
    "service_request": "2025-1237668",
    "request_type": "Abandoned Vehicles",
    "request_reason": "Abandoned/Junk Vehicles",
    "date_created": "2025-11-03T17:12:42.000",
    "date_modified": "2025-11-03T17:12:44.000",
    "request_status": "Pending",
    "responsible_agency": "Department of Public Works",
    "final_address": "4500 Bonita Dr",
    "address_councildis": "E",
    "status": "Pending",
    "rowid": "1237668",
    "final_x": "3704586.37425",
    "final_y": "553691.957079",
    "longitude": "-89.99435432726962",
    "latitude": "30.01573919215307",
    "geocoded_column": {
      "latitude": "30.01573919215307",
      "longitude": "-89.99435432726962"
    }
  },
  {
    "service_request": "2025-1237667",
    "request_type": "Street and Traffic Signs",
    "request_reason": "One Way Sign Missing or Damaged",
    "date_created": "2025-11-03T17:04:54.000",
    "date_modified": "2025-11-03T17:04:56.000",
    "request_status": "Pending",
    "responsible_agency": "Department of Public Works",
    "final_address": "8511 Hickory St",
    "address_councildis": "A",
    "status": "Pending",
    "rowid": "1237667",
    "final_x": "3662272.42669",
    "final_y": "530983.628418",
    "longitude": "-90.1288021858109",
    "latitude": "29.954590623248265",
    "geocoded_column": {
      "latitude": "29.954590623248265",
      "longitude": "-90.1288021858109"
    }
  },
  {
    "service_request": "2025-1237666",
    "request_type": "Trash/Recycling",
    "request_reason": "Request a Large Item Pick Up",
    "date_created": "2025-11-03T16:54:49.000",
    "date_modified": "2025-11-03T16:54:51.000",
    "request_status": "Pending",
    "responsible_agency": "Department of Sanitation",
    "final_address": "2704 Jasmine St",
    "address_councildis": "D",
    "status": "Assigned to Contractor",
    "contractor": "IV Waste",
    "rowid": "1237666",
    "final_x": "3687790.38499",
    "final_y": "548095.659474",
    "longitude": "-90.04762031367113",
    "latitude": "30.00088039935346",
    "geocoded_column": {
      "latitude": "30.00088039935346",
      "longitude": "-90.04762031367113"
    }
  },
  {
    "service_request": "2025-1237665",
    "request_type": "Trash/Recycling",
    "request_reason": "Request a Large Item Pick Up",
    "date_created": "2025-11-03T16:52:00.000",
    "date_modified": "2025-11-03T16:52:02.000",
    "request_status": "Pending",
    "responsible_agency": "Department of Sanitation",
    "final_address": "7909 Sycamore St",
    "address_councildis": "A",
    "status": "Assigned to Contractor",
    "contractor": "IV Waste",
    "rowid": "1237665",
    "final_x": "3664860.09575",
    "final_y": "530539.122242",
    "longitude": "-90.12064615261875",
    "latitude": "29.953293325207124",
    "geocoded_column": {
      "latitude": "29.953293325207124",
      "longitude": "-90.12064615261875"
    }
  },
  {
    "service_request": "2025-1237664",
    "request_type": "Trash/Recycling",
    "request_reason": "Request a Large Item Pick Up",
    "date_created": "2025-11-03T16:51:21.000",
    "date_modified": "2025-11-03T16:51:24.000",
    "request_status": "Pending",
    "responsible_agency": "Department of Sanitation",
    "final_address": "20801 Old Spanish Trl",
    "address_councildis": "E",
    "status": "Assigned to Contractor",
    "contractor": "Waste Pro",
    "rowid": "1237664",
    "final_x": "3763085.7935",
    "final_y": "572306.750697",
    "longitude": "-89.80874523380342",
    "latitude": "30.064912138200846",
    "geocoded_column": {
      "latitude": "30.064912138200846",
      "longitude": "-89.80874523380342"
    }
  },
  {
    "service_request": "2025-1237663",
    "request_type": "Property Maintenance",
    "request_reason": "Property Maintenance",
    "date_created": "2025-11-03T16:35:58.000",
    "date_modified": "2025-11-03T16:35:59.000",
    "request_status": "Pending",
    "responsible_agency": "Department of Code Enforcement",
    "final_address": "7706 Scottwood Dr",
    "address_councildis": "E",
    "status": "Pending",
    "rowid": "1237663",
    "final_x": "3717007.86796",
    "final_y": "571034.925863",
    "longitude": "-89.95444910192064",
    "latitude": "30.063020364256964",
    "geocoded_column": {
      "latitude": "30.063020364256964",
      "longitude": "-89.95444910192064"
    }
  },
  {
    "service_request": "2025-1237662",
    "request_type": "Abandoned Vehicles",
    "request_reason": "Abandoned/Junk Vehicles",
    "date_created": "2025-11-03T16:29:32.000",
    "date_modified": "2025-11-03T16:29:35.000",
    "request_status": "Pending",
    "responsible_agency": "Department of Public Works",
    "final_address": "1990 N Dorgenois St",
    "address_councildis": "D",
    "status": "Pending",
    "rowid": "1237662",
    "final_x": "3682233.80008",
    "final_y": "541233.444044",
    "longitude": "-90.06541385407176",
    "latitude": "29.98218200337566",
    "geocoded_column": {
      "latitude": "29.98218200337566",
      "longitude": "-90.06541385407176"
    }
  },
  {
    "service_request": "2025-1237661",
    "request_type": "Trash/Recycling",
    "request_reason": "Request a Large Item Pick Up",
    "date_created": "2025-11-03T16:23:17.000",
    "date_modified": "2025-11-03T16:23:19.000",
    "request_status": "Pending",
    "responsible_agency": "Department of Sanitation",
    "final_address": "9115 Stroelitz St",
    "address_councildis": "A",
    "status": "Assigned to Contractor",
    "contractor": "IV Waste",
    "rowid": "1237661",
    "final_x": "3665263.43028",
    "final_y": "537480.057736",
    "longitude": "-90.11914035125224",
    "latitude": "29.97236687342132",
    "geocoded_column": {
      "latitude": "29.97236687342132",
      "longitude": "-90.11914035125224"
    }
  },
  {
    "service_request": "2025-1237660",
    "request_type": "Trash/Recycling",
    "request_reason": "Order Recycling Cart",
    "date_created": "2025-11-03T16:22:21.000",
    "date_modified": "2025-11-03T16:22:22.000",
    "request_status": "Pending",
    "responsible_agency": "Department of Sanitation",
    "final_address": "2007 Kerlerec St",
    "address_councildis": "D",
    "status": "Pending",
    "rowid": "1237660",
    "final_x": "3680336.08456",
    "final_y": "537833.098633",
    "longitude": "-90.07152602608832",
    "latitude": "29.972889836108035",
    "geocoded_column": {
      "latitude": "29.972889836108035",
      "longitude": "-90.07152602608832"
    }
  },
  {
    "service_request": "2025-1237659",
    "request_type": "Trash/Recycling",
    "request_reason": "Order Trash Cart",
    "date_created": "2025-11-03T16:21:56.000",
    "date_modified": "2025-11-03T16:21:58.000",
    "request_status": "Pending",
    "responsible_agency": "Department of Sanitation",
    "final_address": "2007 Kerlerec St",
    "address_councildis": "D",
    "status": "Assigned to Contractor",
    "contractor": "IV Waste",
    "rowid": "1237659",
    "final_x": "3680336.08456",
    "final_y": "537833.098633",
    "longitude": "-90.07152602608832",
    "latitude": "29.972889836108035",
    "geocoded_column": {
      "latitude": "29.972889836108035",
      "longitude": "-90.07152602608832"
    }
  },
  {
    "service_request": "2025-1237658",
    "request_type": "Mosquito, Termite & Rodent Control",
    "request_reason": "Rodent Complaint (Mice & Rats)",
    "date_created": "2025-11-03T16:18:20.000",
    "date_modified": "2025-11-03T16:18:23.000",
    "request_status": "Pending",
    "responsible_agency": "Mosquito, Termite & Rodent Control Board",
    "final_address": "8651 Gervais St",
    "address_councildis": "E",
    "status": "Pending",
    "rowid": "1237658",
    "final_x": "3704150.23946",
    "final_y": "562906.638432",
    "longitude": "-89.99539235353079",
    "latitude": "30.041089989366004",
    "geocoded_column": {
      "latitude": "30.041089989366004",
      "longitude": "-89.99539235353079"
    }
  },
  {
    "service_request": "2025-1237657",
    "request_type": "Roads and Streets",
    "request_reason": "Abandoned Service Cut",
    "date_created": "2025-11-03T16:11:13.000",
    "date_modified": "2025-11-03T16:11:15.000",
    "request_status": "Pending",
    "responsible_agency": "Department of Public Works",
    "final_address": "4200 BLK Vendome Pl",
    "address_councildis": "B",
    "status": "Pending",
    "rowid": "1237657",
    "final_x": "3669079.60373",
    "final_y": "531260.571125",
    "longitude": "-90.10729834497353",
    "latitude": "29.955153607217493",
    "geocoded_column": {
      "latitude": "29.955153607217493",
      "longitude": "-90.10729834497353"
    }
  },
  {
    "service_request": "2025-1237656",
    "request_type": "Abandoned Vehicles",
    "request_reason": "Abandoned/Junk Vehicles",
    "date_created": "2025-11-03T16:05:23.000",
    "date_modified": "2025-11-03T16:05:25.000",
    "request_status": "Pending",
    "responsible_agency": "Department of Public Works",
    "final_address": "4218 S Carrollton Ave",
    "address_councildis": "A",
    "status": "Pending",
    "rowid": "1237656",
    "final_x": "3669710.16974",
    "final_y": "536641.893447",
    "longitude": "-90.10512510870625",
    "latitude": "29.96993188954803",
    "geocoded_column": {
      "latitude": "29.96993188954803",
      "longitude": "-90.10512510870625"
    }
  },
  {
    "service_request": "2025-1237655",
    "request_type": "Health Related Request",
    "request_reason": "Noise Ordinance Complaint",
    "date_created": "2025-11-03T16:04:14.000",
    "date_modified": "2025-11-03T16:04:16.000",
    "request_status": "Pending",
    "responsible_agency": "Health Department",
    "final_address": "600 Royal St",
    "address_councildis": "C",
    "status": "Pending",
    "rowid": "1237655",
    "final_x": "3682357.20104",
    "final_y": "532161.195011",
    "longitude": "-90.06534118693126",
    "latitude": "29.957232696478084",
    "geocoded_column": {
      "latitude": "29.957232696478084",
      "longitude": "-90.06534118693126"
    }
  },
  {
    "service_request": "2025-1237654",
    "request_type": "Trash/Recycling",
    "request_reason": "Request a Large Item Pick Up",
    "date_created": "2025-11-03T16:03:13.000",
    "date_modified": "2025-11-03T16:03:16.000",
    "request_status": "Pending",
    "responsible_agency": "Department of Sanitation",
    "final_address": "7741 S Coronet Ct",
    "address_councildis": "E",
    "status": "Assigned to Contractor",
    "contractor": "Waste Pro",
    "rowid": "1237654",
    "final_x": "3702702.73348",
    "final_y": "557290.573467",
    "longitude": "-90.00017344847578",
    "latitude": "30.025694393658334",
    "geocoded_column": {
      "latitude": "30.025694393658334",
      "longitude": "-90.00017344847578"
    }
  },
  {
    "service_request": "2025-1237653",
    "request_type": "Trash/Recycling",
    "request_reason": "Order Trash Cart",
    "date_created": "2025-11-03T15:54:44.000",
    "date_modified": "2025-11-03T15:54:46.000",
    "request_status": "Pending",
    "responsible_agency": "Department of Sanitation",
    "final_address": "8316 Apple St",
    "address_councildis": "A",
    "status": "Assigned to Contractor",
    "contractor": "IV Waste",
    "rowid": "1237653",
    "final_x": "3664674.9936",
    "final_y": "532672.557124",
    "longitude": "-90.12115936357755",
    "latitude": "29.95916496184692",
    "geocoded_column": {
      "latitude": "29.95916496184692",
      "longitude": "-90.12115936357755"
    }
  },
  {
    "service_request": "2025-1237652",
    "request_type": "Property Maintenance",
    "request_reason": "Property Maintenance",
    "date_created": "2025-11-03T15:52:29.000",
    "date_modified": "2025-11-03T15:52:31.000",
    "request_status": "Pending",
    "responsible_agency": "Department of Code Enforcement",
    "final_address": "6765 Deanne St",
    "address_councildis": "D",
    "status": "Pending",
    "rowid": "1237652",
    "final_x": "3695955.63811",
    "final_y": "555764.036953",
    "longitude": "-90.0215484549562",
    "latitude": "30.02171112017633",
    "geocoded_column": {
      "latitude": "30.02171112017633",
      "longitude": "-90.0215484549562"
    }
  },
  {
    "service_request": "2025-1237651",
    "request_type": "Trash/Recycling",
    "request_reason": "MIssed Recycling Pick-Up",
    "date_created": "2025-11-03T15:51:43.000",
    "date_modified": "2025-11-03T16:59:09.000",
    "case_close_date": "2025-11-03T10:59:08.000",
    "request_status": "Closed",
    "responsible_agency": "Department of Sanitation",
    "final_address": "2125 Delachaise St",
    "address_councildis": "B",
    "status": "Invalid Request",
    "contractor": "IV Waste",
    "contractor_action": "Invalid",
    "rowid": "1237651",
    "final_x": "3673069.44443",
    "final_y": "523239.053435",
    "longitude": "-90.09497362586697",
    "latitude": "29.93297907428947",
    "geocoded_column": {
      "latitude": "29.93297907428947",
      "longitude": "-90.09497362586697"
    }
  },
  {
    "service_request": "2025-1237650",
    "request_type": "Trash/Recycling",
    "request_reason": "Request a Large Item Pick Up",
    "date_created": "2025-11-03T15:51:14.000",
    "date_modified": "2025-11-03T15:51:16.000",
    "request_status": "Pending",
    "responsible_agency": "Department of Sanitation",
    "final_address": "7737 Haney Dr",
    "address_councildis": "E",
    "status": "Assigned to Contractor",
    "contractor": "Waste Pro",
    "rowid": "1237650",
    "final_x": "3712349.39032",
    "final_y": "567724.654244",
    "longitude": "-89.96929917359496",
    "latitude": "30.054071792302",
    "geocoded_column": {
      "latitude": "30.054071792302",
      "longitude": "-89.96929917359496"
    }
  },
  {
    "service_request": "2025-1237649",
    "request_type": "Trash/Recycling",
    "request_reason": "Damaged Caused By Contractor",
    "date_created": "2025-11-03T15:44:12.000",
    "date_modified": "2025-11-03T15:44:14.000",
    "request_status": "Pending",
    "responsible_agency": "Department of Sanitation",
    "final_address": "2539 Octavia St",
    "address_councildis": "A",
    "status": "Assigned to Contractor",
    "contractor": "IV Waste",
    "rowid": "1237649",
    "final_x": "3667841.20948",
    "final_y": "524978.823101",
    "longitude": "-90.11142027132516",
    "latitude": "29.937917215158866",
    "geocoded_column": {
      "latitude": "29.937917215158866",
      "longitude": "-90.11142027132516"
    }
  },
  {
    "service_request": "2025-1237648",
    "request_type": "Trash/Recycling",
    "request_reason": "Request a Large Item Pick Up",
    "date_created": "2025-11-03T15:42:43.000",
    "date_modified": "2025-11-03T15:42:45.000",
    "request_status": "Pending",
    "responsible_agency": "Department of Sanitation",
    "final_address": "2149 Robin St",
    "address_councildis": "D",
    "status": "Assigned to Contractor",
    "contractor": "IV Waste",
    "rowid": "1237648",
    "final_x": "3683419.14741",
    "final_y": "551874.336342",
    "longitude": "-90.0612968519991",
    "latitude": "30.011404536986806",
    "geocoded_column": {
      "latitude": "30.011404536986806",
      "longitude": "-90.0612968519991"
    }
  },
  {
    "service_request": "2025-1237647",
    "request_type": "Trash/Recycling",
    "request_reason": "Illegal Dumping",
    "date_created": "2025-11-03T15:42:10.000",
    "date_modified": "2025-11-03T15:42:12.000",
    "request_status": "Pending",
    "responsible_agency": "Department of Sanitation",
    "final_address": "1800 BLK Saint Anthony St",
    "address_councildis": "D",
    "status": "Pending",
    "rowid": "1237647",
    "final_x": "3683293.6196",
    "final_y": "538944.300836",
    "longitude": "-90.06214664618419",
    "latitude": "29.975855371705666",
    "geocoded_column": {
      "latitude": "29.975855371705666",
      "longitude": "-90.06214664618419"
    }
  },
  {
    "service_request": "2025-1237646",
    "request_type": "Trash/Recycling",
    "request_reason": "Request a Large Item Pick Up",
    "date_created": "2025-11-03T15:39:34.000",
    "date_modified": "2025-11-03T15:39:36.000",
    "request_status": "Pending",
    "responsible_agency": "Department of Sanitation",
    "final_address": "2743 Verbena St",
    "address_councildis": "D",
    "status": "Assigned to Contractor",
    "contractor": "IV Waste",
    "rowid": "1237646",
    "final_x": "3688049.57923",
    "final_y": "547918.881746",
    "longitude": "-90.04680777163712",
    "latitude": "30.0003863252885",
    "geocoded_column": {
      "latitude": "30.0003863252885",
      "longitude": "-90.04680777163712"
    }
  },
  {
    "service_request": "2025-1237645",
    "request_type": "Property Maintenance",
    "request_reason": "Property Maintenance",
    "date_created": "2025-11-03T15:31:52.000",
    "date_modified": "2025-11-03T15:55:18.000",
    "case_close_date": "2025-11-03T09:55:17.000",
    "request_status": "Closed",
    "responsible_agency": "Department of Code Enforcement",
    "final_address": "4348 Paris Ave",
    "address_councildis": "D",
    "status": "Referred to Code Enforcement",
    "rowid": "1237645",
    "final_x": "3679300.44751",
    "final_y": "548521.16597",
    "longitude": "-90.07442590728789",
    "latitude": "30.00230959808528",
    "geocoded_column": {
      "latitude": "30.00230959808528",
      "longitude": "-90.07442590728789"
    }
  },
  {
    "service_request": "2025-1237644",
    "request_type": "Streetlights",
    "request_reason": "Streetlight Outage/Malfunction",
    "date_created": "2025-11-03T15:30:17.000",
    "date_modified": "2025-11-03T15:30:19.000",
    "request_status": "Pending",
    "responsible_agency": "Department of Public Works",
    "final_address": "2819 Ramsey Dr",
    "address_councildis": "C",
    "status": "Pending",
    "rowid": "1237644",
    "final_x": "3702988.18142",
    "final_y": "520294.129208",
    "longitude": "-90.00063115688705",
    "latitude": "29.923958558399615",
    "geocoded_column": {
      "latitude": "29.923958558399615",
      "longitude": "-90.00063115688705"
    }
  },
  {
    "service_request": "2025-1237643",
    "request_type": "Trash/Recycling",
    "request_reason": "Request a Large Item Pick Up",
    "date_created": "2025-11-03T15:29:28.000",
    "date_modified": "2025-11-03T15:29:30.000",
    "request_status": "Pending",
    "responsible_agency": "Department of Sanitation",
    "final_address": "7 Glacier Ct",
    "address_councildis": "C",
    "status": "Assigned to Contractor",
    "contractor": "Richards Disposal",
    "rowid": "1237643",
    "final_x": "3700154.94109",
    "final_y": "516306.348084",
    "longitude": "-90.00972003476546",
    "latitude": "29.913083827249537",
    "geocoded_column": {
      "latitude": "29.913083827249537",
      "longitude": "-90.00972003476546"
    }
  },
  {
    "service_request": "2025-1237642",
    "request_type": "Trash/Recycling",
    "request_reason": "Request a Large Item Pick Up",
    "date_created": "2025-11-03T15:27:16.000",
    "date_modified": "2025-11-03T15:27:18.000",
    "request_status": "Pending",
    "responsible_agency": "Department of Sanitation",
    "final_address": "825 Atlantic Ave",
    "address_councildis": "C",
    "status": "Assigned to Contractor",
    "contractor": "Richards Disposal",
    "rowid": "1237642",
    "final_x": "3688694.51292",
    "final_y": "528482.119744",
    "longitude": "-90.04546052170087",
    "latitude": "29.94692215194199",
    "geocoded_column": {
      "latitude": "29.94692215194199",
      "longitude": "-90.04546052170087"
    }
  },
  {
    "service_request": "2025-1237641",
    "request_type": "Trash/Recycling",
    "request_reason": "Request a Large Item Pick Up",
    "date_created": "2025-11-03T15:13:09.000",
    "date_modified": "2025-11-03T15:13:11.000",
    "request_status": "Pending",
    "responsible_agency": "Department of Sanitation",
    "final_address": "400 Belleville St",
    "address_councildis": "C",
    "status": "Assigned to Contractor",
    "contractor": "Richards Disposal",
    "rowid": "1237641",
    "final_x": "3687912.48527",
    "final_y": "530253.992001",
    "longitude": "-90.04786690311144",
    "latitude": "29.951818339754567",
    "geocoded_column": {
      "latitude": "29.951818339754567",
      "longitude": "-90.04786690311144"
    }
  },
  {
    "service_request": "2025-1237640",
    "request_type": "Trash/Recycling",
    "request_reason": "Missed Trash Pick-Up",
    "date_created": "2025-11-03T15:12:49.000",
    "date_modified": "2025-11-03T15:17:50.000",
    "case_close_date": "2025-11-03T09:17:50.000",
    "request_status": "Closed",
    "responsible_agency": "Department of Sanitation",
    "final_address": "6361 Louisville St",
    "address_councildis": "A",
    "status": "Invalid Request",
    "contractor": "IV Waste",
    "contractor_action": "Invalid",
    "rowid": "1237640",
    "final_x": "3668066.15316",
    "final_y": "549814.744788",
    "longitude": "-90.10987289640458",
    "latitude": "30.006201090675304",
    "geocoded_column": {
      "latitude": "30.006201090675304",
      "longitude": "-90.10987289640458"
    }
  },
  {
    "service_request": "2025-1237639",
    "request_type": "Trash/Recycling",
    "request_reason": "Request a Large Item Pick Up",
    "date_created": "2025-11-03T15:06:37.000",
    "date_modified": "2025-11-03T15:06:52.000",
    "request_status": "Pending",
    "responsible_agency": "Department of Sanitation",
    "final_address": "5818 E Louis Prima Dr",
    "address_councildis": "E",
    "status": "Assigned to Contractor",
    "contractor": "Waste Pro",
    "rowid": "1237639",
    "final_x": "3715688.51653",
    "final_y": "562722.940768",
    "longitude": "-89.95893473783745",
    "latitude": "30.040209399888393",
    "geocoded_column": {
      "latitude": "30.040209399888393",
      "longitude": "-89.95893473783745"
    }
  },
  {
    "service_request": "2025-1237638",
    "request_type": "General Services",
    "request_reason": "General Service Request",
    "date_created": "2025-11-03T15:03:17.000",
    "date_modified": "2025-11-03T15:07:20.000",
    "case_close_date": "2025-11-03T09:07:19.000",
    "request_status": "Closed",
    "responsible_agency": "Orleans Parish Communication District",
    "final_address": "UNO ENTRANCE & MILNEBURG RD & LEVEE RD",
    "address_councildis": "D",
    "status": "Question Answered.",
    "rowid": "1237638",
    "final_x": "3681857.6",
    "final_y": "558982.28",
    "longitude": "-90.0659820327984",
    "latitude": "30.030996350978466",
    "geocoded_column": {
      "latitude": "30.030996350978466",
      "longitude": "-90.0659820327984"
    }
  },
  {
    "service_request": "2025-1237637",
    "request_type": "Trash/Recycling",
    "request_reason": "Request a Large Item Pick Up",
    "date_created": "2025-11-03T15:00:54.000",
    "date_modified": "2025-11-03T15:01:32.000",
    "request_status": "Pending",
    "responsible_agency": "Department of Sanitation",
    "final_address": "4556 Marque Dr",
    "address_councildis": "E",
    "status": "Assigned to Contractor",
    "contractor": "Waste Pro",
    "rowid": "1237637",
    "final_x": "3710150.16139",
    "final_y": "554570.644248",
    "longitude": "-89.97674258149654",
    "latitude": "30.01797529664761",
    "geocoded_column": {
      "latitude": "30.01797529664761",
      "longitude": "-89.97674258149654"
    }
  },
  {
    "service_request": "2025-1237636",
    "request_type": "Trash/Recycling",
    "request_reason": "Request a Large Item Pick Up",
    "date_created": "2025-11-03T15:00:04.000",
    "date_modified": "2025-11-03T15:00:07.000",
    "request_status": "Pending",
    "responsible_agency": "Department of Sanitation",
    "final_address": "4925 Frankfort St",
    "address_councildis": "D",
    "status": "Assigned to Contractor",
    "contractor": "IV Waste",
    "rowid": "1237636",
    "final_x": "3690861.05302",
    "final_y": "557603.947163",
    "longitude": "-90.0375802010082",
    "latitude": "30.026929568040792",
    "geocoded_column": {
      "latitude": "30.026929568040792",
      "longitude": "-90.0375802010082"
    }
  },
  {
    "service_request": "2025-1237635",
    "request_type": "Trash/Recycling",
    "request_reason": "Request a Large Item Pick Up",
    "date_created": "2025-11-03T14:57:26.000",
    "date_modified": "2025-11-03T14:57:28.000",
    "request_status": "Pending",
    "responsible_agency": "Department of Sanitation",
    "final_address": "6847 Mayo Rd Apt A",
    "address_councildis": "E",
    "status": "Assigned to Contractor",
    "contractor": "Waste Pro",
    "rowid": "1237635",
    "final_x": "3702054.29028",
    "final_y": "557544.496795",
    "longitude": "-90.00221310431513",
    "latitude": "30.026413313425742",
    "geocoded_column": {
      "latitude": "30.026413313425742",
      "longitude": "-90.00221310431513"
    }
  },
  {
    "service_request": "2025-1237634",
    "request_type": "Abandoned Vehicles",
    "request_reason": "Abandoned/Junk Vehicles",
    "date_created": "2025-11-03T14:56:07.000",
    "date_modified": "2025-11-03T15:03:30.000",
    "request_status": "Pending",
    "responsible_agency": "Department of Public Works",
    "final_address": "WALES ST & FLOUNDER ST",
    "address_councildis": "E",
    "status": "Inspected",
    "rowid": "1237634",
    "final_x": "3699812.2",
    "final_y": "561221.48",
    "longitude": "-90.0091635364239",
    "latitude": "30.03659502366877",
    "geocoded_column": {
      "latitude": "30.03659502366877",
      "longitude": "-90.0091635364239"
    }
  },
  {
    "service_request": "2025-1237633",
    "request_type": "Trash/Recycling",
    "request_reason": "Request a Large Item Pick Up",
    "date_created": "2025-11-03T14:55:51.000",
    "date_modified": "2025-11-03T14:55:53.000",
    "request_status": "Pending",
    "responsible_agency": "Department of Sanitation",
    "final_address": "7723 Mill St",
    "address_councildis": "E",
    "status": "Assigned to Contractor",
    "contractor": "Waste Pro",
    "rowid": "1237633",
    "final_x": "3696503.45431",
    "final_y": "559502.582621",
    "longitude": "-90.01968208136313",
    "latitude": "30.031973439214823",
    "geocoded_column": {
      "latitude": "30.031973439214823",
      "longitude": "-90.01968208136313"
    }
  },
  {
    "service_request": "2025-1237632",
    "request_type": "Trash/Recycling",
    "request_reason": "Request a Large Item Pick Up",
    "date_created": "2025-11-03T14:55:41.000",
    "date_modified": "2025-11-03T14:55:43.000",
    "request_status": "Pending",
    "responsible_agency": "Department of Sanitation",
    "final_address": "3422 Livingston St",
    "address_councildis": "A",
    "status": "Assigned to Contractor",
    "contractor": "IV Waste",
    "rowid": "1237632",
    "final_x": "3663691.69472",
    "final_y": "537668.050376",
    "longitude": "-90.12409792257263",
    "latitude": "29.972929492729595",
    "geocoded_column": {
      "latitude": "29.972929492729595",
      "longitude": "-90.12409792257263"
    }
  },
  {
    "service_request": "2025-1237631",
    "request_type": "Streetlights",
    "request_reason": "Streetlight Knocked Down/Leaning",
    "date_created": "2025-11-03T14:53:08.000",
    "date_modified": "2025-11-03T14:55:22.000",
    "request_status": "Pending",
    "responsible_agency": "Department of Public Works",
    "final_address": "10211 Plainfield Dr",
    "address_councildis": "E",
    "status": "Pending",
    "rowid": "1237631",
    "final_x": "3710321.99224",
    "final_y": "562825.760864",
    "longitude": "-89.97589067034582",
    "latitude": "30.04066801416152",
    "geocoded_column": {
      "latitude": "30.04066801416152",
      "longitude": "-89.97589067034582"
    }
  },
  {
    "service_request": "2025-1237630",
    "request_type": "Trash/Recycling",
    "request_reason": "Request a Large Item Pick Up",
    "date_created": "2025-11-03T14:48:30.000",
    "date_modified": "2025-11-03T14:48:33.000",
    "request_status": "Pending",
    "responsible_agency": "Department of Sanitation",
    "final_address": "8020 Sandpiper Dr",
    "address_councildis": "E",
    "status": "Assigned to Contractor",
    "contractor": "Waste Pro",
    "rowid": "1237630",
    "final_x": "3715081.73989",
    "final_y": "570695.943207",
    "longitude": "-89.96055044937096",
    "latitude": "30.062151893949313",
    "geocoded_column": {
      "latitude": "30.062151893949313",
      "longitude": "-89.96055044937096"
    }
  },
  {
    "service_request": "2025-1237629",
    "request_type": "Trash/Recycling",
    "request_reason": "Order Trash Cart",
    "date_created": "2025-11-03T14:47:39.000",
    "date_modified": "2025-11-03T14:47:41.000",
    "request_status": "Pending",
    "responsible_agency": "Department of Sanitation",
    "final_address": "2360 N Robertson St",
    "address_councildis": "C",
    "status": "Assigned to Contractor",
    "contractor": "IV Waste",
    "rowid": "1237629",
    "final_x": "3686188.05103",
    "final_y": "537847.900041",
    "longitude": "-90.05304391896235",
    "latitude": "29.972752043170342",
    "geocoded_column": {
      "latitude": "29.972752043170342",
      "longitude": "-90.05304391896235"
    }
  },
  {
    "service_request": "2025-1237628",
    "request_type": "Trash/Recycling",
    "request_reason": "Request a Large Item Pick Up",
    "date_created": "2025-11-03T14:46:41.000",
    "date_modified": "2025-11-03T14:46:43.000",
    "request_status": "Pending",
    "responsible_agency": "Department of Sanitation",
    "final_address": "2240 Constance St",
    "address_councildis": "B",
    "status": "Assigned to Contractor",
    "contractor": "IV Waste",
    "rowid": "1237628",
    "final_x": "3678820.38856",
    "final_y": "521536.293305",
    "longitude": "-90.07687725347672",
    "latitude": "29.928124888596415",
    "geocoded_column": {
      "latitude": "29.928124888596415",
      "longitude": "-90.07687725347672"
    }
  },
  {
    "service_request": "2025-1237627",
    "request_type": "Property Maintenance",
    "request_reason": "Property Maintenance",
    "date_created": "2025-11-03T14:45:29.000",
    "date_modified": "2025-11-03T14:45:31.000",
    "request_status": "Pending",
    "responsible_agency": "Department of Code Enforcement",
    "final_address": "2419 Alabo St",
    "address_councildis": "E",
    "status": "Pending",
    "rowid": "1237627",
    "final_x": "3700326.19159",
    "final_y": "538644.548681",
    "longitude": "-90.00836424049594",
    "latitude": "29.974500599817283",
    "geocoded_column": {
      "latitude": "29.974500599817283",
      "longitude": "-90.00836424049594"
    }
  },
  {
    "service_request": "2025-1237626",
    "request_type": "Abandoned Vehicles",
    "request_reason": "Abandoned/Junk Vehicles",
    "date_created": "2025-11-03T14:41:44.000",
    "date_modified": "2025-11-03T14:41:47.000",
    "request_status": "Pending",
    "responsible_agency": "Department of Public Works",
    "final_address": "5100 BLK Timber Crest Dr",
    "address_councildis": "C",
    "status": "Pending",
    "rowid": "1237626",
    "final_x": "3703448.06387",
    "final_y": "511196.580741",
    "longitude": "-89.9995137719982",
    "latitude": "29.89892869503385",
    "geocoded_column": {
      "latitude": "29.89892869503385",
      "longitude": "-89.9995137719982"
    }
  },
  {
    "service_request": "2025-1237625",
    "request_type": "Abandoned Vehicles",
    "request_reason": "Abandoned/Junk Vehicles",
    "date_created": "2025-11-03T14:40:29.000",
    "date_modified": "2025-11-03T14:41:29.000",
    "request_status": "Pending",
    "responsible_agency": "Department of Public Works",
    "final_address": "11130 Whiteside Rd",
    "address_councildis": "E",
    "status": "Pending",
    "rowid": "1237625",
    "final_x": "3711864.66533",
    "final_y": "564974.313762",
    "longitude": "-89.97093461922186",
    "latitude": "30.046525328683305",
    "geocoded_column": {
      "latitude": "30.046525328683305",
      "longitude": "-89.97093461922186"
    }
  },
  {
    "service_request": "2025-1237624",
    "request_type": "Trash/Recycling",
    "request_reason": "Request a Large Item Pick Up",
    "date_created": "2025-11-03T14:35:44.000",
    "date_modified": "2025-11-03T14:35:45.000",
    "request_status": "Pending",
    "responsible_agency": "Department of Sanitation",
    "final_address": "4926 Galahad Dr",
    "address_councildis": "E",
    "status": "Assigned to Contractor",
    "contractor": "Waste Pro",
    "rowid": "1237624",
    "final_x": "3707029.9331",
    "final_y": "556617.256602",
    "longitude": "-89.98652521865993",
    "latitude": "30.023703892026447",
    "geocoded_column": {
      "latitude": "30.023703892026447",
      "longitude": "-89.98652521865993"
    }
  },
  {
    "service_request": "2025-1237623",
    "request_type": "Abandoned Vehicles",
    "request_reason": "Abandoned/Junk Vehicles",
    "date_created": "2025-11-03T14:34:54.000",
    "date_modified": "2025-11-03T14:34:56.000",
    "request_status": "Pending",
    "responsible_agency": "Department of Public Works",
    "final_address": "24 Curtis Dr",
    "address_councildis": "E",
    "status": "Pending",
    "rowid": "1237623",
    "final_x": "3698255.90045",
    "final_y": "560915.634654",
    "longitude": "-90.01409286574878",
    "latitude": "30.03580342776011",
    "geocoded_column": {
      "latitude": "30.03580342776011",
      "longitude": "-90.01409286574878"
    }
  },
  {
    "service_request": "2025-1237622",
    "request_type": "Trash/Recycling",
    "request_reason": "Order Recycling Cart",
    "date_created": "2025-11-03T14:33:44.000",
    "date_modified": "2025-11-03T14:33:46.000",
    "request_status": "Pending",
    "responsible_agency": "Department of Sanitation",
    "final_address": "5005 Dauphine St",
    "address_councildis": "E",
    "status": "Pending",
    "rowid": "1237622",
    "final_x": "3695758.67158",
    "final_y": "533184.182596",
    "longitude": "-90.0229867073637",
    "latitude": "29.959630969448952",
    "geocoded_column": {
      "latitude": "29.959630969448952",
      "longitude": "-90.0229867073637"
    }
  },
  {
    "service_request": "2025-1237621",
    "request_type": "Trash/Recycling",
    "request_reason": "Order Recycling Cart",
    "date_created": "2025-11-03T14:32:54.000",
    "date_modified": "2025-11-03T14:32:56.000",
    "request_status": "Pending",
    "responsible_agency": "Department of Sanitation",
    "final_address": "7402 Panola St",
    "address_councildis": "A",
    "status": "Pending",
    "rowid": "1237621",
    "final_x": "3665406.0617",
    "final_y": "529460.748865",
    "longitude": "-90.11895830677108",
    "latitude": "29.95031224898927",
    "geocoded_column": {
      "latitude": "29.95031224898927",
      "longitude": "-90.11895830677108"
    }
  },
  {
    "service_request": "2025-1237620",
    "request_type": "Roads and Streets",
    "request_reason": "Pothole",
    "date_created": "2025-11-03T14:32:24.000",
    "date_modified": "2025-11-03T14:32:26.000",
    "request_status": "Pending",
    "responsible_agency": "Department of Public Works",
    "final_address": "ELYSIAN FIELDS AV OVER & ELYSIAN FIELDS AVE & ABUNDANCE ST",
    "address_councildis": "D",
    "status": "Pending",
    "rowid": "1237620",
    "final_x": "3684376.2",
    "final_y": "543672.68",
    "longitude": "-90.05856141600397",
    "latitude": "29.98882368167206",
    "geocoded_column": {
      "latitude": "29.98882368167206",
      "longitude": "-90.05856141600397"
    }
  },
  {
    "service_request": "2025-1237619",
    "request_type": "Trash/Recycling",
    "request_reason": "Request a Large Item Pick Up",
    "date_created": "2025-11-03T14:31:46.000",
    "date_modified": "2025-11-03T14:31:48.000",
    "request_status": "Pending",
    "responsible_agency": "Department of Sanitation",
    "final_address": "7501 Vanderkloot Ave",
    "address_councildis": "E",
    "status": "Assigned to Contractor",
    "contractor": "Waste Pro",
    "rowid": "1237619",
    "final_x": "3706203.53879",
    "final_y": "562845.255584",
    "longitude": "-89.98890553889072",
    "latitude": "30.040855127879937",
    "geocoded_column": {
      "latitude": "30.040855127879937",
      "longitude": "-89.98890553889072"
    }
  },
  {
    "service_request": "2025-1237618",
    "request_type": "Trash/Recycling",
    "request_reason": "Repair Recycling Cart",
    "date_created": "2025-11-03T14:25:09.000",
    "date_modified": "2025-11-03T14:25:10.000",
    "request_status": "Pending",
    "responsible_agency": "Department of Sanitation",
    "final_address": "512 Belleville St",
    "address_councildis": "C",
    "status": "Pending",
    "rowid": "1237618",
    "final_x": "3687892.09327",
    "final_y": "529789.952193",
    "longitude": "-90.04794772771302",
    "latitude": "29.95054301838828",
    "geocoded_column": {
      "latitude": "29.95054301838828",
      "longitude": "-90.04794772771302"
    }
  },
  {
    "service_request": "2025-1237617",
    "request_type": "Streetlights",
    "request_reason": "Streetlight Outage/Malfunction",
    "date_created": "2025-11-03T14:24:12.000",
    "date_modified": "2025-11-03T14:24:13.000",
    "request_status": "Pending",
    "responsible_agency": "Department of Public Works",
    "final_address": "WABASH ST & MAINE ST",
    "address_councildis": "C",
    "status": "Pending",
    "rowid": "1237617",
    "final_x": "3694896.0",
    "final_y": "520578.48",
    "longitude": "-90.02616491636039",
    "latitude": "29.92499674094934",
    "geocoded_column": {
      "latitude": "29.92499674094934",
      "longitude": "-90.02616491636039"
    }
  },
  {
    "service_request": "2025-1237616",
    "request_type": "Trash/Recycling",
    "request_reason": "Request a Large Item Pick Up",
    "date_created": "2025-11-03T14:22:37.000",
    "date_modified": "2025-11-03T14:22:38.000",
    "request_status": "Pending",
    "responsible_agency": "Department of Sanitation",
    "final_address": "1917 Gallier St",
    "address_councildis": "D",
    "status": "Assigned to Contractor",
    "contractor": "IV Waste",
    "rowid": "1237616",
    "final_x": "3691294.99004",
    "final_y": "538781.171337",
    "longitude": "-90.03688196699",
    "latitude": "29.97516032015437",
    "geocoded_column": {
      "latitude": "29.97516032015437",
      "longitude": "-90.03688196699"
    }
  },
  {
    "service_request": "2025-1237615",
    "request_type": "Abandoned Vehicles",
    "request_reason": "Abandoned/Junk Vehicles",
    "date_created": "2025-11-03T14:21:07.000",
    "date_modified": "2025-11-03T14:21:10.000",
    "request_status": "Pending",
    "responsible_agency": "Department of Public Works",
    "final_address": "JONQUIL ST & LOTUS ST",
    "address_councildis": "D",
    "status": "Pending",
    "rowid": "1237615",
    "final_x": "3687792.8",
    "final_y": "547277.98",
    "longitude": "-90.04764166830516",
    "latitude": "29.998632002436814",
    "geocoded_column": {
      "latitude": "29.998632002436814",
      "longitude": "-90.04764166830516"
    }
  },
  {
    "service_request": "2025-1237614",
    "request_type": "Trash/Recycling",
    "request_reason": "Order Recycling Cart",
    "date_created": "2025-11-03T14:20:57.000",
    "date_modified": "2025-11-03T14:20:59.000",
    "request_status": "Pending",
    "responsible_agency": "Department of Sanitation",
    "final_address": "2017 Jefferson Ave",
    "address_councildis": "B",
    "status": "Pending",
    "rowid": "1237614",
    "final_x": "3667820.01031",
    "final_y": "523086.813115",
    "longitude": "-90.11155089035445",
    "latitude": "29.932715415247195",
    "geocoded_column": {
      "latitude": "29.932715415247195",
      "longitude": "-90.11155089035445"
    }
  },
  {
    "service_request": "2025-1237613",
    "request_type": "Trash/Recycling",
    "request_reason": "Order Trash Cart",
    "date_created": "2025-11-03T14:19:39.000",
    "date_modified": "2025-11-03T14:19:42.000",
    "request_status": "Pending",
    "responsible_agency": "Department of Sanitation",
    "final_address": "2017 Jefferson Ave",
    "address_councildis": "B",
    "status": "Assigned to Contractor",
    "contractor": "IV Waste",
    "rowid": "1237613",
    "final_x": "3667820.01031",
    "final_y": "523086.813115",
    "longitude": "-90.11155089035445",
    "latitude": "29.932715415247195",
    "geocoded_column": {
      "latitude": "29.932715415247195",
      "longitude": "-90.11155089035445"
    }
  },
  {
    "service_request": "2025-1237612",
    "request_type": "Trash/Recycling",
    "request_reason": "Request a Large Item Pick Up",
    "date_created": "2025-11-03T14:18:25.000",
    "date_modified": "2025-11-03T14:18:27.000",
    "request_status": "Pending",
    "responsible_agency": "Department of Sanitation",
    "final_address": "8000 Haney Dr",
    "address_councildis": "E",
    "status": "Assigned to Contractor",
    "contractor": "Waste Pro",
    "rowid": "1237612",
    "final_x": "3711892.76043",
    "final_y": "568224.406565",
    "longitude": "-89.9707236729467",
    "latitude": "30.055460845921672",
    "geocoded_column": {
      "latitude": "30.055460845921672",
      "longitude": "-89.9707236729467"
    }
  },
  {
    "service_request": "2025-1237611",
    "request_type": "Streetlights",
    "request_reason": "Streetlight Outage/Malfunction",
    "date_created": "2025-11-03T14:16:38.000",
    "date_modified": "2025-11-03T14:16:41.000",
    "request_status": "Pending",
    "responsible_agency": "Department of Public Works",
    "final_address": "WABASH ST & MAINE ST",
    "address_councildis": "C",
    "status": "Pending",
    "rowid": "1237611",
    "final_x": "3694896.0",
    "final_y": "520578.48",
    "longitude": "-90.02616491636039",
    "latitude": "29.92499674094934",
    "geocoded_column": {
      "latitude": "29.92499674094934",
      "longitude": "-90.02616491636039"
    }
  },
  {
    "service_request": "2025-1237610",
    "request_type": "Abandoned Vehicles",
    "request_reason": "Abandoned/Junk Vehicles",
    "date_created": "2025-11-03T14:04:51.000",
    "date_modified": "2025-11-03T14:08:27.000",
    "request_status": "Pending",
    "responsible_agency": "Department of Public Works",
    "final_address": "6222 Curran Rd",
    "address_councildis": "E",
    "status": "Inspected",
    "rowid": "1237610",
    "final_x": "3696164.60541",
    "final_y": "559119.880028",
    "longitude": "-90.02076671245128",
    "latitude": "30.03093183094269",
    "geocoded_column": {
      "latitude": "30.03093183094269",
      "longitude": "-90.02076671245128"
    }
  },
  {
    "service_request": "2025-1237609",
    "request_type": "Streetlights",
    "request_reason": "Streetlight Outage/Malfunction",
    "date_created": "2025-11-03T14:04:50.000",
    "date_modified": "2025-11-03T14:04:52.000",
    "request_status": "Pending",
    "responsible_agency": "Department of Public Works",
    "final_address": "TREASURE ST & ST ROCH AVE",
    "address_councildis": "D",
    "status": "Pending",
    "rowid": "1237609",
    "final_x": "3685835.8",
    "final_y": "544156.78",
    "longitude": "-90.05393392085134",
    "latitude": "29.99011005370432",
    "geocoded_column": {
      "latitude": "29.99011005370432",
      "longitude": "-90.05393392085134"
    }
  },
  {
    "service_request": "2025-1237608",
    "request_type": "Traffic Signals",
    "request_reason": "Traffic Signal Malfunctioning or Damaged",
    "date_created": "2025-11-03T14:02:19.000",
    "date_modified": "2025-11-03T14:02:21.000",
    "request_status": "Pending",
    "responsible_agency": "Department of Public Works",
    "final_address": "TREASURE ST & ST ROCH AVE",
    "address_councildis": "D",
    "status": "Pending",
    "rowid": "1237608",
    "final_x": "3685835.8",
    "final_y": "544156.78",
    "longitude": "-90.05393392085134",
    "latitude": "29.99011005370432",
    "geocoded_column": {
      "latitude": "29.99011005370432",
      "longitude": "-90.05393392085134"
    }
  },
  {
    "service_request": "2025-1237607",
    "request_type": "Trash/Recycling",
    "request_reason": "Request a Large Item Pick Up",
    "date_created": "2025-11-03T14:01:14.000",
    "date_modified": "2025-11-03T14:01:49.000",
    "request_status": "Pending",
    "responsible_agency": "Department of Sanitation",
    "final_address": "1034 Milan St",
    "address_councildis": "B",
    "status": "Assigned to Contractor",
    "contractor": "IV Waste",
    "rowid": "1237607",
    "final_x": "3671699.18126",
    "final_y": "519502.728631",
    "longitude": "-90.09942647602084",
    "latitude": "29.9227460282912",
    "geocoded_column": {
      "latitude": "29.9227460282912",
      "longitude": "-90.09942647602084"
    }
  },
  {
    "service_request": "2025-1237606",
    "request_type": "Trash/Recycling",
    "request_reason": "Request a Large Item Pick Up",
    "date_created": "2025-11-03T14:00:57.000",
    "date_modified": "2025-11-03T14:00:59.000",
    "request_status": "Pending",
    "responsible_agency": "Department of Sanitation",
    "final_address": "4315 General Pershing St",
    "address_councildis": "B",
    "status": "Assigned to Contractor",
    "contractor": "IV Waste",
    "rowid": "1237606",
    "final_x": "3669554.91143",
    "final_y": "529736.318977",
    "longitude": "-90.1058490548924",
    "latitude": "29.950948421596177",
    "geocoded_column": {
      "latitude": "29.950948421596177",
      "longitude": "-90.1058490548924"
    }
  },
  {
    "service_request": "2025-1237605",
    "request_type": "Trash/Recycling",
    "request_reason": "Request a Large Item Pick Up",
    "date_created": "2025-11-03T13:58:42.000",
    "date_modified": "2025-11-03T13:58:44.000",
    "request_status": "Pending",
    "responsible_agency": "Department of Sanitation",
    "final_address": "4853 Francis Dr",
    "address_councildis": "D",
    "status": "Assigned to Contractor",
    "contractor": "Waste Pro",
    "rowid": "1237605",
    "final_x": "3698218.94371",
    "final_y": "555016.563865",
    "longitude": "-90.0144242333853",
    "latitude": "30.019584413843724",
    "geocoded_column": {
      "latitude": "30.019584413843724",
      "longitude": "-90.0144242333853"
    }
  },
  {
    "service_request": "2025-1237604",
    "request_type": "Trash/Recycling",
    "request_reason": "Request a Large Item Pick Up",
    "date_created": "2025-11-03T13:56:13.000",
    "date_modified": "2025-11-03T13:56:16.000",
    "request_status": "Pending",
    "responsible_agency": "Department of Sanitation",
    "final_address": "1401 Socrates St",
    "address_councildis": "C",
    "status": "Assigned to Contractor",
    "contractor": "Richards Disposal",
    "rowid": "1237604",
    "final_x": "3689728.31747",
    "final_y": "526304.673342",
    "longitude": "-90.04227389314055",
    "latitude": "29.9409029280705",
    "geocoded_column": {
      "latitude": "29.9409029280705",
      "longitude": "-90.04227389314055"
    }
  },
  {
    "service_request": "2025-1237603",
    "request_type": "Parks & Parkways",
    "request_reason": "Request Tree Service (Right of Way/Public Property)",
    "date_created": "2025-11-03T13:55:20.000",
    "date_modified": "2025-11-03T13:56:10.000",
    "request_status": "Pending",
    "responsible_agency": "Department of Parks & Parkway",
    "final_address": "11322 King Richard Dr",
    "address_councildis": "E",
    "status": "Pending",
    "rowid": "1237603",
    "final_x": "3717413.83461",
    "final_y": "556470.446746",
    "longitude": "-89.95372015399377",
    "latitude": "30.022960540418786",
    "geocoded_column": {
      "latitude": "30.022960540418786",
      "longitude": "-89.95372015399377"
    }
  },
  {
    "service_request": "2025-1237602",
    "request_type": "Trash/Recycling",
    "request_reason": "Request a Large Item Pick Up",
    "date_created": "2025-11-03T13:50:29.000",
    "date_modified": "2025-11-03T13:50:30.000",
    "request_status": "Pending",
    "responsible_agency": "Department of Sanitation",
    "final_address": "334 Olivier St",
    "address_councildis": "C",
    "status": "Assigned to Contractor",
    "contractor": "Richards Disposal",
    "rowid": "1237602",
    "final_x": "3687314.33442",
    "final_y": "530471.203714",
    "longitude": "-90.04974789083758",
    "latitude": "29.952434035256577",
    "geocoded_column": {
      "latitude": "29.952434035256577",
      "longitude": "-90.04974789083758"
    }
  },
  {
    "service_request": "2025-1237601",
    "request_type": "Healthy Homes",
    "request_reason": "Healthy Homes",
    "date_created": "2025-11-03T13:49:39.000",
    "date_modified": "2025-11-03T14:31:07.000",
    "case_close_date": "2025-11-03T08:31:06.000",
    "request_status": "Closed",
    "responsible_agency": "Department of Code Enforcement",
    "final_address": "730 Julia St Apt 548",
    "address_councildis": "B",
    "status": "Referred to Code Enforcement",
    "rowid": "1237601",
    "final_x": "3680134.86466",
    "final_y": "527882.436735",
    "longitude": "-90.07250731370368",
    "latitude": "29.945534984411147",
    "geocoded_column": {
      "latitude": "29.945534984411147",
      "longitude": "-90.07250731370368"
    }
  },
  {
    "service_request": "2025-1237600",
    "request_type": "Traffic Signals",
    "request_reason": "Traffic Signal Malfunctioning or Damaged",
    "date_created": "2025-11-03T13:49:38.000",
    "date_modified": "2025-11-03T13:49:40.000",
    "request_status": "Pending",
    "responsible_agency": "Department of Public Works",
    "final_address": "127 Elk Pl",
    "address_councildis": "B",
    "status": "Pending",
    "rowid": "1237600",
    "final_x": "3679578.0884",
    "final_y": "531587.434243",
    "longitude": "-90.07413668563346",
    "latitude": "29.955739318102275",
    "geocoded_column": {
      "latitude": "29.955739318102275",
      "longitude": "-90.07413668563346"
    }
  },
  {
    "service_request": "2025-1237599",
    "request_type": "Trash/Recycling",
    "request_reason": "Repair Recycling Cart",
    "date_created": "2025-11-03T13:48:29.000",
    "date_modified": "2025-11-03T13:48:31.000",
    "request_status": "Pending",
    "responsible_agency": "Department of Sanitation",
    "final_address": "4637 Mandeville St",
    "address_councildis": "D",
    "status": "Pending",
    "rowid": "1237599",
    "final_x": "3684817.02274",
    "final_y": "549989.154708",
    "longitude": "-90.05694674469568",
    "latitude": "30.006178228960515",
    "geocoded_column": {
      "latitude": "30.006178228960515",
      "longitude": "-90.05694674469568"
    }
  },
  {
    "service_request": "2025-1237598",
    "request_type": "Streetlights",
    "request_reason": "Streetlight Outage/Malfunction",
    "date_created": "2025-11-03T13:44:38.000",
    "date_modified": "2025-11-03T13:44:40.000",
    "request_status": "Pending",
    "responsible_agency": "Department of Public Works",
    "final_address": "2090 Hyman Pl",
    "address_councildis": "C",
    "status": "Pending",
    "rowid": "1237598",
    "final_x": "3701163.5386",
    "final_y": "522914.370491",
    "longitude": "-90.00629507127832",
    "latitude": "29.931221543860453",
    "geocoded_column": {
      "latitude": "29.931221543860453",
      "longitude": "-90.00629507127832"
    }
  },
  {
    "service_request": "2025-1237597",
    "request_type": "Parks & Parkways",
    "request_reason": "Request Tree Service (Right of Way/Public Property)",
    "date_created": "2025-11-03T13:44:31.000",
    "date_modified": "2025-11-03T13:46:11.000",
    "request_status": "Pending",
    "responsible_agency": "Department of Parks & Parkway",
    "final_address": "2411 Napoleon Ave A",
    "address_councildis": "B",
    "status": "Pending",
    "rowid": "1237597",
    "final_x": "3670650.60948",
    "final_y": "523828.751611",
    "longitude": "-90.10258973647261",
    "latitude": "29.93467221306678",
    "geocoded_column": {
      "latitude": "29.93467221306678",
      "longitude": "-90.10258973647261"
    }
  },
  {
    "service_request": "2025-1237596",
    "request_type": "Trash/Recycling",
    "request_reason": "Repair Trash Cart",
    "date_created": "2025-11-03T13:44:07.000",
    "date_modified": "2025-11-03T13:44:09.000",
    "request_status": "Pending",
    "responsible_agency": "Department of Sanitation",
    "final_address": "917 Austerlitz St",
    "address_councildis": "B",
    "status": "Assigned to Contractor",
    "contractor": "IV Waste",
    "rowid": "1237596",
    "final_x": "3672887.16603",
    "final_y": "519135.117303",
    "longitude": "-90.09568900516976",
    "latitude": "29.92169998485173",
    "geocoded_column": {
      "latitude": "29.92169998485173",
      "longitude": "-90.09568900516976"
    }
  },
  {
    "service_request": "2025-1237595",
    "request_type": "Trash/Recycling",
    "request_reason": "Illegal Dumping",
    "date_created": "2025-11-03T13:41:49.000",
    "date_modified": "2025-11-03T13:41:52.000",
    "request_status": "Pending",
    "responsible_agency": "Department of Sanitation",
    "final_address": "2503 General Taylor St",
    "address_councildis": "B",
    "status": "Pending",
    "rowid": "1237595",
    "final_x": "3671927.74612",
    "final_y": "524219.042236",
    "longitude": "-90.09854455348362",
    "latitude": "29.935707605079337",
    "geocoded_column": {
      "latitude": "29.935707605079337",
      "longitude": "-90.09854455348362"
    }
  },
  {
    "service_request": "2025-1237594",
    "request_type": "Property Maintenance",
    "request_reason": "Property Maintenance",
    "date_created": "2025-11-03T13:39:46.000",
    "date_modified": "2025-11-03T14:39:00.000",
    "case_close_date": "2025-11-03T08:39:00.000",
    "request_status": "Closed",
    "responsible_agency": "Department of Code Enforcement",
    "final_address": "730 Julia St Apt 548",
    "address_councildis": "B",
    "status": "Referred to Code Enforcement",
    "rowid": "1237594",
    "final_x": "3680134.86466",
    "final_y": "527882.436735",
    "longitude": "-90.07250731370368",
    "latitude": "29.945534984411147",
    "geocoded_column": {
      "latitude": "29.945534984411147",
      "longitude": "-90.07250731370368"
    }
  },
  {
    "service_request": "2025-1237593",
    "request_type": "Trash/Recycling",
    "request_reason": "Request a Large Item Pick Up",
    "date_created": "2025-11-03T13:38:43.000",
    "date_modified": "2025-11-03T13:38:45.000",
    "request_status": "Pending",
    "responsible_agency": "Department of Sanitation",
    "final_address": "4620 Lynhuber Dr",
    "address_councildis": "D",
    "status": "Assigned to Contractor",
    "contractor": "Waste Pro",
    "rowid": "1237593",
    "final_x": "3698019.75549",
    "final_y": "553677.283415",
    "longitude": "-90.01510228183413",
    "latitude": "30.015908202466523",
    "geocoded_column": {
      "latitude": "30.015908202466523",
      "longitude": "-90.01510228183413"
    }
  },
  {
    "service_request": "2025-1237592",
    "request_type": "Trash/Recycling",
    "request_reason": "Request a Large Item Pick Up",
    "date_created": "2025-11-03T13:38:11.000",
    "date_modified": "2025-11-03T13:38:13.000",
    "request_status": "Pending",
    "responsible_agency": "Department of Sanitation",
    "final_address": "7119 W Laverne St",
    "address_councildis": "D",
    "status": "Assigned to Contractor",
    "contractor": "Waste Pro",
    "rowid": "1237592",
    "final_x": "3695907.13546",
    "final_y": "556741.439578",
    "longitude": "-90.02166635701568",
    "latitude": "30.02440013347766",
    "geocoded_column": {
      "latitude": "30.02440013347766",
      "longitude": "-90.02166635701568"
    }
  },
  {
    "service_request": "2025-1237591",
    "request_type": "Abandoned Vehicles",
    "request_reason": "Abandoned/Junk Vehicles",
    "date_created": "2025-11-03T13:35:57.000",
    "date_modified": "2025-11-03T13:35:58.000",
    "request_status": "Pending",
    "responsible_agency": "Department of Public Works",
    "final_address": "I 10 E SERVICE RD & FARWOOD RD",
    "address_councildis": "E",
    "status": "Pending",
    "rowid": "1237591",
    "final_x": "3700660.5",
    "final_y": "557563.98",
    "longitude": "-90.0066165796705",
    "latitude": "30.02651133203726",
    "geocoded_column": {
      "latitude": "30.02651133203726",
      "longitude": "-90.0066165796705"
    }
  },
  {
    "service_request": "2025-1237590",
    "request_type": "Traffic Signals",
    "request_reason": "Traffic Signal Malfunctioning or Damaged",
    "date_created": "2025-11-03T13:35:31.000",
    "date_modified": "2025-11-03T13:35:33.000",
    "request_status": "Pending",
    "responsible_agency": "Department of Public Works",
    "final_address": "SERE ST & ST BERNARD AVE",
    "address_councildis": "D",
    "status": "Pending",
    "rowid": "1237590",
    "final_x": "3678376.5",
    "final_y": "545411.18",
    "longitude": "-90.0774524543106",
    "latitude": "29.993786116016025",
    "geocoded_column": {
      "latitude": "29.993786116016025",
      "longitude": "-90.0774524543106"
    }
  },
  {
    "service_request": "2025-1237589",
    "request_type": "Trash/Recycling",
    "request_reason": "Return Trash Cart",
    "date_created": "2025-11-03T13:35:24.000",
    "date_modified": "2025-11-03T13:35:26.000",
    "request_status": "Pending",
    "responsible_agency": "Department of Sanitation",
    "final_address": "306 S Clark St",
    "address_councildis": "B",
    "status": "Assigned to Contractor",
    "contractor": "IV Waste",
    "rowid": "1237589",
    "final_x": "3672364.3931",
    "final_y": "536276.611527",
    "longitude": "-90.09675524680925",
    "latitude": "29.968848992027976",
    "geocoded_column": {
      "latitude": "29.968848992027976",
      "longitude": "-90.09675524680925"
    }
  },
  {
    "service_request": "2025-1237588",
    "request_type": "Trash/Recycling",
    "request_reason": "Request a Large Item Pick Up",
    "date_created": "2025-11-03T13:34:20.000",
    "date_modified": "2025-11-03T13:34:22.000",
    "request_status": "Pending",
    "responsible_agency": "Department of Sanitation",
    "final_address": "2200 Reynes St",
    "address_councildis": "E",
    "status": "Assigned to Contractor",
    "contractor": "Waste Pro",
    "rowid": "1237588",
    "final_x": "3697094.48093",
    "final_y": "538432.965961",
    "longitude": "-90.01857837360748",
    "latitude": "29.974021179972706",
    "geocoded_column": {
      "latitude": "29.974021179972706",
      "longitude": "-90.01857837360748"
    }
  },
  {
    "service_request": "2025-1237587",
    "request_type": "Traffic Signals",
    "request_reason": "Traffic Signal Malfunctioning or Damaged",
    "date_created": "2025-11-03T13:33:15.000",
    "date_modified": "2025-11-03T13:33:16.000",
    "request_status": "Pending",
    "responsible_agency": "Department of Public Works",
    "final_address": "SERE ST & ST BERNARD AVE",
    "address_councildis": "D",
    "status": "Pending",
    "rowid": "1237587",
    "final_x": "3678376.5",
    "final_y": "545411.18",
    "longitude": "-90.0774524543106",
    "latitude": "29.993786116016025",
    "geocoded_column": {
      "latitude": "29.993786116016025",
      "longitude": "-90.0774524543106"
    }
  },
  {
    "service_request": "2025-1237586",
    "request_type": "Trash/Recycling",
    "request_reason": "Request a Large Item Pick Up",
    "date_created": "2025-11-03T13:32:15.000",
    "date_modified": "2025-11-03T13:32:17.000",
    "request_status": "Pending",
    "responsible_agency": "Department of Sanitation",
    "final_address": "7738 Tricia Ct",
    "address_councildis": "E",
    "status": "Assigned to Contractor",
    "contractor": "Waste Pro",
    "rowid": "1237586",
    "final_x": "3717172.03058",
    "final_y": "571582.351784",
    "longitude": "-89.95390935076023",
    "latitude": "30.064520124517124",
    "geocoded_column": {
      "latitude": "30.064520124517124",
      "longitude": "-89.95390935076023"
    }
  },
  {
    "service_request": "2025-1237585",
    "request_type": "Trash/Recycling",
    "request_reason": "Illegal Dumping",
    "date_created": "2025-11-03T13:30:11.000",
    "date_modified": "2025-11-03T13:30:13.000",
    "request_status": "Pending",
    "responsible_agency": "Department of Sanitation",
    "final_address": "401 N Salcedo St",
    "address_councildis": "B",
    "status": "Pending",
    "rowid": "1237585",
    "final_x": "3674788.73781",
    "final_y": "537082.11284",
    "longitude": "-90.08907138134464",
    "latitude": "29.970991684742337",
    "geocoded_column": {
      "latitude": "29.970991684742337",
      "longitude": "-90.08907138134464"
    }
  },
  {
    "service_request": "2025-1237584",
    "request_type": "Abandoned Vehicles",
    "request_reason": "Abandoned/Junk Vehicles",
    "date_created": "2025-11-03T13:27:29.000",
    "date_modified": "2025-11-03T13:27:31.000",
    "request_status": "Pending",
    "responsible_agency": "Department of Public Works",
    "final_address": "401 N Salcedo St",
    "address_councildis": "B",
    "status": "Pending",
    "rowid": "1237584",
    "final_x": "3674788.73781",
    "final_y": "537082.11284",
    "longitude": "-90.08907138134464",
    "latitude": "29.970991684742337",
    "geocoded_column": {
      "latitude": "29.970991684742337",
      "longitude": "-90.08907138134464"
    }
  },
  {
    "service_request": "2025-1237583",
    "request_type": "Parks & Parkways",
    "request_reason": "Request Tree Service (Right of Way/Public Property)",
    "date_created": "2025-11-03T13:27:11.000",
    "date_modified": "2025-11-03T13:29:04.000",
    "request_status": "Pending",
    "responsible_agency": "Department of Parks & Parkway",
    "final_address": "1906 Egania St",
    "address_councildis": "E",
    "status": "Pending",
    "rowid": "1237583",
    "final_x": "3697618.85949",
    "final_y": "537125.039624",
    "longitude": "-90.01696973144803",
    "latitude": "29.970408298054835",
    "geocoded_column": {
      "latitude": "29.970408298054835",
      "longitude": "-90.01696973144803"
    }
  },
  {
    "service_request": "2025-1237582",
    "request_type": "Trash/Recycling",
    "request_reason": "Request a Large Item Pick Up",
    "date_created": "2025-11-03T13:22:59.000",
    "date_modified": "2025-11-03T13:23:01.000",
    "request_status": "Pending",
    "responsible_agency": "Department of Sanitation",
    "final_address": "1223 Riviera Ave",
    "address_councildis": "D",
    "status": "Assigned to Contractor",
    "contractor": "IV Waste",
    "rowid": "1237582",
    "final_x": "3676942.95381",
    "final_y": "550872.805717",
    "longitude": "-90.08179237783992",
    "latitude": "30.008846779732632",
    "geocoded_column": {
      "latitude": "30.008846779732632",
      "longitude": "-90.08179237783992"
    }
  },
  {
    "service_request": "2025-1237581",
    "request_type": "Abandoned Vehicles",
    "request_reason": "Abandoned/Junk Vehicles",
    "date_created": "2025-11-03T13:21:25.000",
    "date_modified": "2025-11-03T13:21:27.000",
    "request_status": "Pending",
    "responsible_agency": "Department of Public Works",
    "final_address": "521 Valence St",
    "address_councildis": "B",
    "status": "Pending",
    "rowid": "1237581",
    "final_x": "3670112.72922",
    "final_y": "517530.148662",
    "longitude": "-90.10450106701734",
    "latitude": "29.917368937680582",
    "geocoded_column": {
      "latitude": "29.917368937680582",
      "longitude": "-90.10450106701734"
    }
  },
  {
    "service_request": "2025-1237580",
    "request_type": "Abandoned Vehicles",
    "request_reason": "Abandoned/Junk Vehicles",
    "date_created": "2025-11-03T13:18:30.000",
    "date_modified": "2025-11-03T13:18:31.000",
    "request_status": "Pending",
    "responsible_agency": "Department of Public Works",
    "final_address": "521 Valence St",
    "address_councildis": "B",
    "status": "Pending",
    "rowid": "1237580",
    "final_x": "3670112.72922",
    "final_y": "517530.148662",
    "longitude": "-90.10450106701734",
    "latitude": "29.917368937680582",
    "geocoded_column": {
      "latitude": "29.917368937680582",
      "longitude": "-90.10450106701734"
    }
  },
  {
    "service_request": "2025-1237579",
    "request_type": "Trash/Recycling",
    "request_reason": "Request a Large Item Pick Up",
    "date_created": "2025-11-03T13:17:39.000",
    "date_modified": "2025-11-03T13:17:41.000",
    "request_status": "Pending",
    "responsible_agency": "Department of Sanitation",
    "final_address": "2327 N Villere St",
    "address_councildis": "C",
    "status": "Assigned to Contractor",
    "contractor": "IV Waste",
    "rowid": "1237579",
    "final_x": "3685904.27938",
    "final_y": "537525.922504",
    "longitude": "-90.05395147452697",
    "latitude": "29.97187543266191",
    "geocoded_column": {
      "latitude": "29.97187543266191",
      "longitude": "-90.05395147452697"
    }
  },
  {
    "service_request": "2025-1237578",
    "request_type": "Trash/Recycling",
    "request_reason": "Request a Large Item Pick Up",
    "date_created": "2025-11-03T13:15:00.000",
    "date_modified": "2025-11-03T13:15:02.000",
    "request_status": "Pending",
    "responsible_agency": "Department of Sanitation",
    "final_address": "6941 Lake Barrington Dr",
    "address_councildis": "E",
    "status": "Assigned to Contractor",
    "contractor": "Waste Pro",
    "rowid": "1237578",
    "final_x": "3712863.02181",
    "final_y": "563854.472737",
    "longitude": "-89.96782150222819",
    "latitude": "30.04341354148671",
    "geocoded_column": {
      "latitude": "30.04341354148671",
      "longitude": "-89.96782150222819"
    }
  },
  {
    "service_request": "2025-1237577",
    "request_type": "Trash/Recycling",
    "request_reason": "Request a Large Item Pick Up",
    "date_created": "2025-11-03T13:13:48.000",
    "date_modified": "2025-11-03T13:13:50.000",
    "request_status": "Pending",
    "responsible_agency": "Department of Sanitation",
    "final_address": "3536 Monroe St",
    "address_councildis": "A",
    "status": "Assigned to Contractor",
    "contractor": "IV Waste",
    "rowid": "1237577",
    "final_x": "3666090.22535",
    "final_y": "536115.763463",
    "longitude": "-90.11657493206121",
    "latitude": "29.968591401370755",
    "geocoded_column": {
      "latitude": "29.968591401370755",
      "longitude": "-90.11657493206121"
    }
  },
  {
    "service_request": "2025-1237576",
    "request_type": "Trash/Recycling",
    "request_reason": "Request a Large Item Pick Up",
    "date_created": "2025-11-03T13:09:43.000",
    "date_modified": "2025-11-03T13:09:45.000",
    "request_status": "Pending",
    "responsible_agency": "Department of Sanitation",
    "final_address": "7935 Michigan St",
    "address_councildis": "E",
    "status": "Assigned to Contractor",
    "contractor": "Waste Pro",
    "rowid": "1237576",
    "final_x": "3711057.82161",
    "final_y": "567662.78122",
    "longitude": "-89.97338379506311",
    "latitude": "30.05394387900348",
    "geocoded_column": {
      "latitude": "30.05394387900348",
      "longitude": "-89.97338379506311"
    }
  },
  {
    "service_request": "2025-1237575",
    "request_type": "Trash/Recycling",
    "request_reason": "Request a Large Item Pick Up",
    "date_created": "2025-11-03T13:09:17.000",
    "date_modified": "2025-11-03T13:09:19.000",
    "request_status": "Pending",
    "responsible_agency": "Department of Sanitation",
    "final_address": "5409 Zeno Pl",
    "address_councildis": "E",
    "status": "Assigned to Contractor",
    "contractor": "Waste Pro",
    "rowid": "1237575",
    "final_x": "3718266.92057",
    "final_y": "561799.330015",
    "longitude": "-89.95082146825258",
    "latitude": "30.037584555659418",
    "geocoded_column": {
      "latitude": "30.037584555659418",
      "longitude": "-89.95082146825258"
    }
  },
  {
    "service_request": "2025-1237574",
    "request_type": "Trash/Recycling",
    "request_reason": "Request a Large Item Pick Up",
    "date_created": "2025-11-03T13:06:42.000",
    "date_modified": "2025-11-03T13:06:44.000",
    "request_status": "Pending",
    "responsible_agency": "Department of Sanitation",
    "final_address": "504 Belleville St",
    "address_councildis": "C",
    "status": "Assigned to Contractor",
    "contractor": "Richards Disposal",
    "rowid": "1237574",
    "final_x": "3687894.83606",
    "final_y": "529853.115585",
    "longitude": "-90.04793683014927",
    "latitude": "29.95071661147286",
    "geocoded_column": {
      "latitude": "29.95071661147286",
      "longitude": "-90.04793683014927"
    }
  },
  {
    "service_request": "2025-1237573",
    "request_type": "Trash/Recycling",
    "request_reason": "Start Trash Service",
    "date_created": "2025-11-03T13:04:14.000",
    "date_modified": "2025-11-03T13:04:17.000",
    "request_status": "Pending",
    "responsible_agency": "Department of Sanitation",
    "final_address": "1447 Webster St",
    "address_councildis": "A",
    "status": "Assigned to Contractor",
    "contractor": "IV Waste",
    "rowid": "1237573",
    "final_x": "3665046.52685",
    "final_y": "521764.514426",
    "longitude": "-90.12035078061919",
    "latitude": "29.929160537054795",
    "geocoded_column": {
      "latitude": "29.929160537054795",
      "longitude": "-90.12035078061919"
    }
  },
  {
    "service_request": "2025-1237572",
    "request_type": "Trash/Recycling",
    "request_reason": "Request a Large Item Pick Up",
    "date_created": "2025-11-03T13:02:18.000",
    "date_modified": "2025-11-03T14:09:10.000",
    "request_status": "Pending",
    "responsible_agency": "Department of Sanitation",
    "final_address": "2327 N Villere St",
    "address_councildis": "C",
    "status": "Assigned to Contractor",
    "contractor": "IV Waste",
    "rowid": "1237572",
    "final_x": "3685904.27938",
    "final_y": "537525.922504",
    "longitude": "-90.05395147452697",
    "latitude": "29.97187543266191",
    "geocoded_column": {
      "latitude": "29.97187543266191",
      "longitude": "-90.05395147452697"
    }
  },
  {
    "service_request": "2025-1237571",
    "request_type": "Trash/Recycling",
    "request_reason": "Request a Large Item Pick Up",
    "date_created": "2025-11-03T13:01:01.000",
    "date_modified": "2025-11-03T13:01:03.000",
    "request_status": "Pending",
    "responsible_agency": "Department of Sanitation",
    "final_address": "1026 Cadiz St",
    "address_councildis": "B",
    "status": "Assigned to Contractor",
    "contractor": "IV Waste",
    "rowid": "1237571",
    "final_x": "3670211.66036",
    "final_y": "519290.557623",
    "longitude": "-90.10412918774753",
    "latitude": "29.92220658724318",
    "geocoded_column": {
      "latitude": "29.92220658724318",
      "longitude": "-90.10412918774753"
    }
  },
  {
    "service_request": "2025-1237570",
    "request_type": "Trash/Recycling",
    "request_reason": "Illegal Dumping",
    "date_created": "2025-11-03T13:00:36.000",
    "date_modified": "2025-11-03T13:00:38.000",
    "request_status": "Pending",
    "responsible_agency": "Department of Sanitation",
    "final_address": "6046 Pines Blvd",
    "address_councildis": "D",
    "status": "Pending",
    "rowid": "1237570",
    "final_x": "3696179.09315",
    "final_y": "556071.181913",
    "longitude": "-90.02083128310183",
    "latitude": "30.022548616501496",
    "geocoded_column": {
      "latitude": "30.022548616501496",
      "longitude": "-90.02083128310183"
    }
  },
  {
    "service_request": "2025-1237569",
    "request_type": "Abandoned Vehicles",
    "request_reason": "Abandoned/Junk Vehicles",
    "date_created": "2025-11-03T12:55:52.000",
    "date_modified": "2025-11-03T12:55:55.000",
    "request_status": "Pending",
    "responsible_agency": "Department of Public Works",
    "final_address": "2604 Toledano St",
    "address_councildis": "B",
    "status": "Pending",
    "rowid": "1237569",
    "final_x": "3673016.61697",
    "final_y": "525115.936381",
    "longitude": "-90.0950763678773",
    "latitude": "29.938141462938866",
    "geocoded_column": {
      "latitude": "29.938141462938866",
      "longitude": "-90.0950763678773"
    }
  },
  {
    "service_request": "2025-1237568",
    "request_type": "Abandoned Vehicles",
    "request_reason": "Abandoned/Junk Vehicles",
    "date_created": "2025-11-03T12:54:46.000",
    "date_modified": "2025-11-03T12:54:48.000",
    "request_status": "Pending",
    "responsible_agency": "Department of Public Works",
    "final_address": "2323 Florida Ave",
    "address_councildis": "D",
    "status": "Pending",
    "rowid": "1237568",
    "final_x": "3685576.7254",
    "final_y": "542690.225549",
    "longitude": "-90.05480395635955",
    "latitude": "29.986085501683682",
    "geocoded_column": {
      "latitude": "29.986085501683682",
      "longitude": "-90.05480395635955"
    }
  },
  {
    "service_request": "2025-1237567",
    "request_type": "Streetlights",
    "request_reason": "Streetlight Outage/Malfunction",
    "date_created": "2025-11-03T12:51:15.000",
    "date_modified": "2025-11-03T12:51:17.000",
    "request_status": "Pending",
    "responsible_agency": "Department of Public Works",
    "final_address": "129 Mary Jane Ln",
    "address_councildis": "E",
    "status": "Pending",
    "rowid": "1237567",
    "final_x": "3718190.47961",
    "final_y": "571625.616936",
    "longitude": "-89.95068832792865",
    "latitude": "30.064605334357978",
    "geocoded_column": {
      "latitude": "30.064605334357978",
      "longitude": "-89.95068832792865"
    }
  },
  {
    "service_request": "2025-1237566",
    "request_type": "Streetlights",
    "request_reason": "Streetlight Outage/Malfunction",
    "date_created": "2025-11-03T12:50:34.000",
    "date_modified": "2025-11-03T12:50:35.000",
    "request_status": "Pending",
    "responsible_agency": "Department of Public Works",
    "final_address": "5400 BLK Elysian Fields Ave",
    "address_councildis": "D",
    "status": "Pending",
    "rowid": "1237566",
    "final_x": "3683605.71248",
    "final_y": "552846.199541",
    "longitude": "-90.06067331374035",
    "latitude": "30.014071110706908",
    "geocoded_column": {
      "latitude": "30.014071110706908",
      "longitude": "-90.06067331374035"
    }
  },
  {
    "service_request": "2025-1237565",
    "request_type": "Trash/Recycling",
    "request_reason": "Request a Large Item Pick Up",
    "date_created": "2025-11-03T12:50:30.000",
    "date_modified": "2025-11-03T12:50:33.000",
    "request_status": "Pending",
    "responsible_agency": "Department of Sanitation",
    "final_address": "6248 Bellaire Dr",
    "address_councildis": "A",
    "status": "Assigned to Contractor",
    "contractor": "IV Waste",
    "rowid": "1237565",
    "final_x": "3664306.43668",
    "final_y": "549335.698835",
    "longitude": "-90.12176681726879",
    "latitude": "30.004993725730532",
    "geocoded_column": {
      "latitude": "30.004993725730532",
      "longitude": "-90.12176681726879"
    }
  },
  {
    "service_request": "2025-1237564",
    "request_type": "Trash/Recycling",
    "request_reason": "Order Recycling Cart",
    "date_created": "2025-11-03T12:48:56.000",
    "date_modified": "2025-11-03T12:48:58.000",
    "request_status": "Pending",
    "responsible_agency": "Department of Sanitation",
    "final_address": "4774 Arthur Dr",
    "address_councildis": "E",
    "status": "Pending",
    "rowid": "1237564",
    "final_x": "3707591.13892",
    "final_y": "555747.730393",
    "longitude": "-89.98478427233404",
    "latitude": "30.021294883944826",
    "geocoded_column": {
      "latitude": "30.021294883944826",
      "longitude": "-89.98478427233404"
    }
  },
  {
    "service_request": "2025-1237563",
    "request_type": "Trash/Recycling",
    "request_reason": "Illegal Dumping",
    "date_created": "2025-11-03T12:48:02.000",
    "date_modified": "2025-11-03T15:22:44.000",
    "request_status": "Pending",
    "responsible_agency": "Department of Sanitation",
    "final_address": "938 Charbonnet St",
    "address_councildis": "E",
    "status": "Pending",
    "rowid": "1237563",
    "final_x": "3698447.70538",
    "final_y": "533148.133636",
    "longitude": "-90.0144967159125",
    "latitude": "29.959447019151604",
    "geocoded_column": {
      "latitude": "29.959447019151604",
      "longitude": "-90.0144967159125"
    }
  },
  {
    "service_request": "2025-1237562",
    "request_type": "Trash/Recycling",
    "request_reason": "Request a Large Item Pick Up",
    "date_created": "2025-11-03T12:44:00.000",
    "date_modified": "2025-11-03T12:44:02.000",
    "request_status": "Pending",
    "responsible_agency": "Department of Sanitation",
    "final_address": "7300 Spring Lake Dr",
    "address_councildis": "E",
    "status": "Assigned to Contractor",
    "contractor": "Waste Pro",
    "rowid": "1237562",
    "final_x": "3700550.08221",
    "final_y": "558887.444828",
    "longitude": "-90.00691707483311",
    "latitude": "30.030153864897148",
    "geocoded_column": {
      "latitude": "30.030153864897148",
      "longitude": "-90.00691707483311"
    }
  },
  {
    "service_request": "2025-1237561",
    "request_type": "Trash/Recycling",
    "request_reason": "Replace Trash Cart",
    "date_created": "2025-11-03T12:41:15.000",
    "date_modified": "2025-11-03T12:41:17.000",
    "request_status": "Pending",
    "responsible_agency": "Department of Sanitation",
    "final_address": "1331 Arabella St",
    "address_councildis": "A",
    "status": "Assigned to Contractor",
    "contractor": "IV Waste",
    "rowid": "1237561",
    "final_x": "3666290.04525",
    "final_y": "520799.716089",
    "longitude": "-90.11645756312318",
    "latitude": "29.926471391933124",
    "geocoded_column": {
      "latitude": "29.926471391933124",
      "longitude": "-90.11645756312318"
    }
  },
  {
    "service_request": "2025-1237560",
    "request_type": "Parks & Parkways",
    "request_reason": "Request Tree Service (Right of Way/Public Property)",
    "date_created": "2025-11-03T12:40:28.000",
    "date_modified": "2025-11-03T12:40:29.000",
    "request_status": "Pending",
    "responsible_agency": "Department of Parks & Parkway",
    "final_address": "2027 Louisa St",
    "address_councildis": "D",
    "status": "Pending",
    "rowid": "1237560",
    "final_x": "3690500.86678",
    "final_y": "539443.02913",
    "longitude": "-90.03936640238808",
    "latitude": "29.977004876108776",
    "geocoded_column": {
      "latitude": "29.977004876108776",
      "longitude": "-90.03936640238808"
    }
  },
  {
    "service_request": "2025-1237559",
    "request_type": "Abandoned Vehicles",
    "request_reason": "Abandoned/Junk Vehicles",
    "date_created": "2025-11-03T12:40:20.000",
    "date_modified": "2025-11-03T12:42:31.000",
    "request_status": "Pending",
    "responsible_agency": "Department of Public Works",
    "final_address": "MEADOW PARK LN & TIMBER CREST DR",
    "address_councildis": "C",
    "status": "Pending",
    "rowid": "1237559",
    "final_x": "3703902.6",
    "final_y": "511113.78",
    "longitude": "-89.99808237970774",
    "latitude": "29.898686464500145",
    "geocoded_column": {
      "latitude": "29.898686464500145",
      "longitude": "-89.99808237970774"
    }
  },