[
  {
    "service_request": "2023-974039",
    "request_type": "Traffic Signals/Signs/Striping/Streetlights",
    "request_reason": "Street Light Outage/Malfunction",
    "date_created": "2023-02-09T01:48:09.000",
    "date_modified": "2023-02-09T01:48:09.000",
    "request_status": "Pending",
    "responsible_agency": "Department of Public Works",
    "final_address": "555 Aurora Oaks Dr",
    "address_councildis": "C",
    "status": "Assigned to Contractor",
    "contractor": "Legacy Professional Services",
    "rowid": "974039",
    "final_x": "3701249.83517",
    "final_y": "521032.441401",
    "longitude": "-90.00609146123756",
    "latitude": "29.926044141655392",
    "geocoded_column": {
      "latitude": "29.926044141655392",
      "longitude": "-90.00609146123756"
    }
  },
  {
    "service_request": "2023-974038",
    "request_type": "Property Maintenance",
    "request_reason": "Property Maintenance",
    "date_created": "2023-02-09T00:22:37.000",
    "date_modified": "2023-02-09T00:22:37.000",
    "request_status": "Pending",
    "responsible_agency": "Department of Code Enforcement",
    "final_address": "1913 Short St",
    "address_councildis": "A",
    "status": "Pending",
    "rowid": "974038",
    "final_x": "3664045.99514",
    "final_y": "529929.894465",
    "longitude": "-90.12323705960563",
    "latitude": "29.95164181185748",
    "geocoded_column": {
      "latitude": "29.95164181185748",
      "longitude": "-90.12323705960563"
    }
  },
  {
    "service_request": "2023-974037",
    "request_type": "Property Maintenance",
    "request_reason": "Property Maintenance",
    "date_created": "2023-02-09T00:13:23.000",
    "date_modified": "2023-02-09T00:13:23.000",
    "request_status": "Pending",
    "responsible_agency": "Department of Code Enforcement",
    "final_address": "1827 Short St",
    "address_councildis": "A",
    "status": "Pending",
    "rowid": "974037",
    "final_x": "3663893.25472",
    "final_y": "529762.444417",
    "longitude": "-90.12372492393628",
    "latitude": "29.95118581281979",
    "geocoded_column": {
      "latitude": "29.95118581281979",
      "longitude": "-90.12372492393628"
    }
  },
  {
    "service_request": "2023-974036",
    "request_type": "Trash/Recycling",
    "request_reason": "Request a Large Item Pick Up",
    "date_created": "2023-02-09T00:08:51.000",
    "date_modified": "2023-02-09T00:08:52.000",
    "request_status": "Pending",
    "responsible_agency": "Department of Sanitation",
    "final_address": "1916 Delachaise St",
    "address_councildis": "B",
    "status": "Assigned to Contractor",
    "contractor": "Richards Disposal",
    "rowid": "974036",
    "final_x": "3673296.06504",
    "final_y": "522529.593338",
    "longitude": "-90.09428241882613",
    "latitude": "29.93102155213479",
    "geocoded_column": {
      "latitude": "29.93102155213479",
      "longitude": "-90.09428241882613"
    }
  },
  {
    "service_request": "2023-974035",
    "request_type": "Roads/Drainage",
    "request_reason": "Road Shoulder Repair",
    "date_created": "2023-02-08T21:23:44.000",
    "date_modified": "2023-02-08T21:23:44.000",
    "request_status": "Pending",
    "responsible_agency": "Department of Public Works",
    "final_address": "2619 Annette St",
    "address_councildis": "D",
    "status": "Pending",
    "rowid": "974035",
    "final_x": "3682716.34658",
    "final_y": "541879.357132",
    "longitude": "-90.06386713790891",
    "latitude": "29.983943346868838",
    "geocoded_column": {
      "latitude": "29.983943346868838",
      "longitude": "-90.06386713790891"
    }
  },
  {
    "service_request": "2023-974034",
    "request_type": "Abandoned Vehicles",
    "request_reason": "Abandoned/Junk Vehicles",
    "date_created": "2023-02-08T21:19:52.000",
    "date_modified": "2023-02-08T21:19:52.000",
    "request_status": "Pending",
    "responsible_agency": "Department of Public Works",
    "final_address": "3650 Fairmont Dr",
    "address_councildis": "D",
    "status": "Pending",
    "rowid": "974034",
    "final_x": "3685366.73756",
    "final_y": "545961.625488",
    "longitude": "-90.05535197743548",
    "latitude": "29.99508712678012",
    "geocoded_column": {
      "latitude": "29.99508712678012",
      "longitude": "-90.05535197743548"
    }
  },
  {
    "service_request": "2023-974033",
    "request_type": "Trash/Recycling",
    "request_reason": "Illegal Dumping",
    "date_created": "2023-02-08T21:16:19.000",
    "date_modified": "2023-02-08T21:16:19.000",
    "request_status": "Pending",
    "responsible_agency": "Department of Sanitation",
    "final_address": "1630 Philip St",
    "address_councildis": "B",
    "status": "Pending",
    "rowid": "974033",
    "final_x": "3676930.54325",
    "final_y": "523589.523323",
    "longitude": "-90.08277233276483",
    "latitude": "29.93382744726861",
    "geocoded_column": {
      "latitude": "29.93382744726861",
      "longitude": "-90.08277233276483"
    }
  },
  {
    "service_request": "2023-974032",
    "request_type": "Trash/Recycling",
    "request_reason": "Order Recycling Cart",
    "date_created": "2023-02-08T21:04:46.000",
    "date_modified": "2023-02-08T21:04:46.000",
    "request_status": "Pending",
    "responsible_agency": "Department of Sanitation",
    "final_address": "716 Peniston St",
    "address_councildis": "B",
    "status": "Pending",
    "rowid": "974032",
    "final_x": "3673485.12014",
    "final_y": "518469.724342",
    "longitude": "-90.09382423794936",
    "latitude": "29.91985259424551",
    "geocoded_column": {
      "latitude": "29.91985259424551",
      "longitude": "-90.09382423794936"
    }
  },
  {
    "service_request": "2023-974031",
    "request_type": "Trash/Recycling",
    "request_reason": "Replace Trash Cart",
    "date_created": "2023-02-08T21:02:18.000",
    "date_modified": "2023-02-08T21:02:19.000",
    "request_status": "Pending",
    "responsible_agency": "Department of Sanitation",
    "final_address": "524 Soniat St",
    "address_councildis": "B",
    "status": "Assigned to Contractor",
    "contractor": "Richards Disposal",
    "rowid": "974031",
    "final_x": "3668258.99367",
    "final_y": "517438.233526",
    "longitude": "-90.11035537657676",
    "latitude": "29.917170733399004",
    "geocoded_column": {
      "latitude": "29.917170733399004",
      "longitude": "-90.11035537657676"
    }
  },
  {
    "service_request": "2023-974030",
    "request_type": "Roads/Drainage",
    "request_reason": "Accessibility Ramps, Curbs and Sidewalk Repair",
    "date_created": "2023-02-08T20:50:58.000",
    "date_modified": "2023-02-08T20:50:59.000",
    "request_status": "Pending",
    "responsible_agency": "Department of Public Works",
    "final_address": "2227 St Claude Ave",
    "address_councildis": "C",
    "status": "Pending",
    "rowid": "974030",
    "final_x": "3685300.63644",
    "final_y": "536430.138119",
    "longitude": "-90.05589645197607",
    "latitude": "29.96888092572748",
    "geocoded_column": {
      "latitude": "29.96888092572748",
      "longitude": "-90.05589645197607"
    }
  },
  {
    "service_request": "2023-974029",
    "request_type": "Trash/Recycling",
    "request_reason": "Repair Trash Cart",
    "date_created": "2023-02-08T20:45:21.000",
    "date_modified": "2023-02-08T20:45:22.000",
    "request_status": "Pending",
    "responsible_agency": "Department of Sanitation",
    "final_address": "1110 Marigny St",
    "address_councildis": "C",
    "status": "Assigned to Contractor",
    "contractor": "IV Waste",
    "rowid": "974029",
    "final_x": "3685377.2006",
    "final_y": "536512.459655",
    "longitude": "-90.05565175905825",
    "latitude": "29.969104934082246",
    "geocoded_column": {
      "latitude": "29.969104934082246",
      "longitude": "-90.05565175905825"
    }
  },
  {
    "service_request": "2023-974028",
    "request_type": "Traffic Signals/Signs/Striping/Streetlights",
    "request_reason": "Street Light Outage/Malfunction",
    "date_created": "2023-02-08T20:24:49.000",
    "date_modified": "2023-02-08T20:24:49.000",
    "request_status": "Pending",
    "responsible_agency": "Department of Public Works",
    "final_address": "600 Carondelet St",
    "address_councildis": "B",
    "status": "Assigned to Contractor",
    "contractor": "Legacy Professional Services",
    "rowid": "974028",
    "final_x": "3680235.16879",
    "final_y": "528927.008512",
    "longitude": "-90.07215432080176",
    "latitude": "29.94840417190896",
    "geocoded_column": {
      "latitude": "29.94840417190896",
      "longitude": "-90.07215432080176"
    }
  },
  {
    "service_request": "2023-974027",
    "request_type": "Abandoned Vehicles",
    "request_reason": "Abandoned/Junk Vehicles",
    "date_created": "2023-02-08T20:18:05.000",
    "date_modified": "2023-02-08T20:18:05.000",
    "request_status": "Pending",
    "responsible_agency": "Department of Public Works",
    "final_address": "7500 Bullard Ave",
    "address_councildis": "E",
    "status": "Pending",
    "rowid": "974027",
    "final_x": "3713397.11979",
    "final_y": "566755.044771",
    "longitude": "-89.96602415621832",
    "latitude": "30.05137142606786",
    "geocoded_column": {
      "latitude": "30.05137142606786",
      "longitude": "-89.96602415621832"
    }
  },
  {
    "service_request": "2023-974026",
    "request_type": "Trash/Recycling",
    "request_reason": "Request a Large Item Pick Up",
    "date_created": "2023-02-08T19:43:38.000",
    "date_modified": "2023-02-08T19:43:38.000",
    "request_status": "Pending",
    "responsible_agency": "Department of Sanitation",
    "final_address": "8803 Olive St",
    "address_councildis": "A",
    "status": "Assigned to Contractor",
    "contractor": "Richards Disposal",
    "rowid": "974026",
    "final_x": "3665401.99636",
    "final_y": "535901.590663",
    "longitude": "-90.11875557496711",
    "latitude": "29.9680225742866",
    "geocoded_column": {
      "latitude": "29.9680225742866",
      "longitude": "-90.11875557496711"
    }
  },
  {
    "service_request": "2023-974025",
    "request_type": "Traffic Signals/Signs/Striping/Streetlights",
    "request_reason": "Traffic Sign Missing/Damaged",
    "date_created": "2023-02-08T19:38:18.000",
    "date_modified": "2023-02-08T19:38:18.000",
    "request_status": "Pending",
    "responsible_agency": "Department of Public Works",
    "final_address": "3534 S Miro St",
    "address_councildis": "B",
    "status": "Pending",
    "rowid": "974025",
    "final_x": "3671089.42062",
    "final_y": "527896.148543",
    "longitude": "-90.10106632229306",
    "latitude": "29.94584326655302",
    "geocoded_column": {
      "latitude": "29.94584326655302",
      "longitude": "-90.10106632229306"
    }
  },
  {
    "service_request": "2023-974024",
    "request_type": "Trash/Recycling",
    "request_reason": "MIssed Recycling Pick-Up",
    "date_created": "2023-02-08T19:05:48.000",
    "date_modified": "2023-02-08T19:05:49.000",
    "request_status": "Pending",
    "responsible_agency": "Department of Sanitation",
    "final_address": "1620 Fourth St",
    "address_councildis": "B",
    "status": "Assigned to Contractor",
    "contractor": "Richards Disposal",
    "rowid": "974024",
    "final_x": "3676043.77665",
    "final_y": "522866.967739",
    "longitude": "-90.08559665644712",
    "latitude": "29.931867236838222",
    "geocoded_column": {
      "latitude": "29.931867236838222",
      "longitude": "-90.08559665644712"
    }
  },
  {
    "service_request": "2023-974023",
    "request_type": "Traffic Signals/Signs/Striping/Streetlights",
    "request_reason": "Street Light Outage/Malfunction",
    "date_created": "2023-02-08T18:51:20.000",
    "date_modified": "2023-02-08T18:51:37.000",
    "request_status": "Pending",
    "responsible_agency": "Department of Public Works",
    "final_address": "2231 Wirth Pl",
    "address_councildis": "A",
    "status": "Assigned to Contractor",
    "contractor": "Legacy Professional Services",
    "rowid": "974023",
    "final_x": "3667151.38125",
    "final_y": "524461.921532",
    "longitude": "-90.11361549587174",
    "latitude": "29.936516110759136",
    "geocoded_column": {
      "latitude": "29.936516110759136",
      "longitude": "-90.11361549587174"
    }
  },
  {
    "service_request": "2023-974022",
    "request_type": "Traffic Signals/Signs/Striping/Streetlights",
    "request_reason": "Street Light Outage/Malfunction",
    "date_created": "2023-02-08T18:46:23.000",
    "date_modified": "2023-02-08T18:46:23.000",
    "request_status": "Pending",
    "responsible_agency": "Department of Public Works",
    "final_address": "1719 Lark St",
    "address_councildis": "D",
    "status": "Assigned to Contractor",
    "contractor": "Legacy Professional Services",
    "rowid": "974022",
    "final_x": "3678620.13224",
    "final_y": "557842.861147",
    "longitude": "-90.07625203354101",
    "latitude": "30.027961428711603",
    "geocoded_column": {
      "latitude": "30.027961428711603",
      "longitude": "-90.07625203354101"
    }
  },
  {
    "service_request": "2023-974021",
    "request_type": "Traffic Signals/Signs/Striping/Streetlights",
    "request_reason": "Request for Stop Sign",
    "date_created": "2023-02-08T18:40:24.000",
    "date_modified": "2023-02-08T18:40:24.000",
    "request_status": "Pending",
    "responsible_agency": "Department of Public Works",
    "final_address": "7837 Plum St",
    "address_councildis": "A",
    "status": "Pending",
    "rowid": "974021",
    "final_x": "3662860.9257",
    "final_y": "528080.388671",
    "longitude": "-90.12704043537094",
    "latitude": "29.946590624994997",
    "geocoded_column": {
      "latitude": "29.946590624994997",
      "longitude": "-90.12704043537094"
    }
  },
  {
    "service_request": "2023-974020",
    "request_type": "Trash/Recycling",
    "request_reason": "MIssed Recycling Pick-Up",
    "date_created": "2023-02-08T18:29:36.000",
    "date_modified": "2023-02-08T18:29:36.000",
    "request_status": "Pending",
    "responsible_agency": "Department of Sanitation",
    "final_address": "3400 Nashville Ave",
    "address_councildis": "A",
    "status": "Assigned to Contractor",
    "contractor": "Richards Disposal",
    "rowid": "974020",
    "final_x": "3667993.44583",
    "final_y": "528194.613376",
    "longitude": "-90.1108313290352",
    "latitude": "29.94675513491268",
    "geocoded_column": {
      "latitude": "29.94675513491268",
      "longitude": "-90.1108313290352"
    }
  },
  {
    "service_request": "2023-974019",
    "request_type": "Trash/Recycling",
    "request_reason": "Replace Trash Cart",
    "date_created": "2023-02-08T17:58:49.000",
    "date_modified": "2023-02-08T17:58:50.000",
    "request_status": "Pending",
    "responsible_agency": "Department of Sanitation",
    "final_address": "619 River Oaks Dr",
    "address_councildis": "C",
    "status": "Assigned to Contractor",
    "contractor": "Richards Disposal",
    "rowid": "974019",
    "final_x": "3701438.68689",
    "final_y": "520325.121208",
    "longitude": "-90.00552118946918",
    "latitude": "29.92409323884641",
    "geocoded_column": {
      "latitude": "29.92409323884641",
      "longitude": "-90.00552118946918"
    }
  },
  {
    "service_request": "2023-974018",
    "request_type": "Trash/Recycling",
    "request_reason": "Repair Trash Cart",
    "date_created": "2023-02-08T17:52:53.000",
    "date_modified": "2023-02-08T17:52:54.000",
    "request_status": "Pending",
    "responsible_agency": "Department of Sanitation",
    "final_address": "3959 Elysian Fields Ave",
    "address_councildis": "D",
    "status": "Assigned to Contractor",
    "contractor": "IV Waste",
    "rowid": "974018",
    "final_x": "3684281.73097",
    "final_y": "547421.813649",
    "longitude": "-90.05872808278625",
    "latitude": "29.999135351043883",
    "geocoded_column": {
      "latitude": "29.999135351043883",
      "longitude": "-90.05872808278625"
    }
  },
  {
    "service_request": "2023-974017",
    "request_type": "Trash/Recycling",
    "request_reason": "Missed Trash Pick-Up",
    "date_created": "2023-02-08T17:51:46.000",
    "date_modified": "2023-02-08T17:51:47.000",
    "request_status": "Pending",
    "responsible_agency": "Department of Sanitation",
    "final_address": "3959 Elysian Fields Ave",
    "address_councildis": "D",
    "status": "Assigned to Contractor",
    "contractor": "IV Waste",
    "rowid": "974017",
    "final_x": "3684281.73097",
    "final_y": "547421.813649",
    "longitude": "-90.05872808278625",
    "latitude": "29.999135351043883",
    "geocoded_column": {
      "latitude": "29.999135351043883",
      "longitude": "-90.05872808278625"
    }
  },
  {
    "service_request": "2023-974016",
    "request_type": "Abandoned Vehicles",
    "request_reason": "Vehicle Blocking Your Driveway",
    "date_created": "2023-02-08T17:49:23.000",
    "date_modified": "2023-02-08T17:49:23.000",
    "request_status": "Pending",
    "responsible_agency": "Department of Public Works",
    "final_address": "2303 State St",
    "address_councildis": "A",
    "status": "Pending",
    "rowid": "974016",
    "final_x": "3666677.26817",
    "final_y": "525054.613053",
    "longitude": "-90.11509240133883",
    "latitude": "29.938159691294814",
    "geocoded_column": {
      "latitude": "29.938159691294814",
      "longitude": "-90.11509240133883"
    }
  },
  {
    "service_request": "2023-974015",
    "request_type": "Abandoned Vehicles",
    "request_reason": "Abandoned/Junk Vehicles",
    "date_created": "2023-02-08T17:48:14.000",
    "date_modified": "2023-02-08T17:48:14.000",
    "request_status": "Pending",
    "responsible_agency": "Department of Public Works",
    "final_address": "2237 St Ann St",
    "address_councildis": "D",
    "status": "Pending",
    "rowid": "974015",
    "final_x": "3678340.52731",
    "final_y": "536188.399879",
    "longitude": "-90.07788528886358",
    "latitude": "29.96842775099973",
    "geocoded_column": {
      "latitude": "29.96842775099973",
      "longitude": "-90.07788528886358"
    }
  },
  {
    "service_request": "2023-974014",
    "request_type": "Trash/Recycling",
    "request_reason": "Missed Trash Pick-Up",
    "date_created": "2023-02-08T17:47:42.000",
    "date_modified": "2023-02-08T17:47:43.000",
    "request_status": "Pending",
    "responsible_agency": "Department of Sanitation",
    "final_address": "612 Moss St",
    "address_councildis": "A",
    "status": "Assigned to Contractor",
    "contractor": "Richards Disposal",
    "rowid": "974014",
    "final_x": "3674346.33147",
    "final_y": "538326.226953",
    "longitude": "-90.09042594106351",
    "latitude": "29.974425777838345",
    "geocoded_column": {
      "latitude": "29.974425777838345",
      "longitude": "-90.09042594106351"
    }
  },
  {
    "service_request": "2023-974013",
    "request_type": "Trash/Recycling",
    "request_reason": "Return Trash Cart",
    "date_created": "2023-02-08T17:38:28.000",
    "date_modified": "2023-02-08T17:38:29.000",
    "request_status": "Pending",
    "responsible_agency": "Department of Sanitation",
    "final_address": "609 First St",
    "address_councildis": "B",
    "status": "Assigned to Contractor",
    "contractor": "Richards Disposal",
    "rowid": "974013",
    "final_x": "3679060.03541",
    "final_y": "520067.05004",
    "longitude": "-90.07617162916036",
    "latitude": "29.92407772099471",
    "geocoded_column": {
      "latitude": "29.92407772099471",
      "longitude": "-90.07617162916036"
    }
  },
  {
    "service_request": "2023-974012",
    "request_type": "Trash/Recycling",
    "request_reason": "MIssed Recycling Pick-Up",
    "date_created": "2023-02-08T17:32:25.000",
    "date_modified": "2023-02-08T17:32:26.000",
    "request_status": "Pending",
    "responsible_agency": "Department of Sanitation",
    "final_address": "4948 Chrysler St",
    "address_councildis": "E",
    "status": "Assigned to Contractor",
    "contractor": "Waste Pro",
    "rowid": "974012",
    "final_x": "3715130.14245",
    "final_y": "557801.687899",
    "longitude": "-89.96088564470875",
    "latitude": "30.026696331180947",
    "geocoded_column": {
      "latitude": "30.026696331180947",
      "longitude": "-89.96088564470875"
    }
  },
  {
    "service_request": "2023-974011",
    "request_type": "Abandoned Vehicles",
    "request_reason": "Vehicle Blocking Your Driveway",
    "date_created": "2023-02-08T17:30:35.000",
    "date_modified": "2023-02-08T17:30:35.000",
    "request_status": "Pending",
    "responsible_agency": "Department of Public Works",
    "final_address": "2212 Governor Nicholls St",
    "address_councildis": "D",
    "status": "Pending",
    "rowid": "974011",
    "final_x": "3679326.51451",
    "final_y": "537183.334728",
    "longitude": "-90.07473698050525",
    "latitude": "29.9711337392553",
    "geocoded_column": {
      "latitude": "29.9711337392553",
      "longitude": "-90.07473698050525"
    }
  },
  {
    "service_request": "2023-974010",
    "request_type": "Trash/Recycling",
    "request_reason": "MIssed Recycling Pick-Up",
    "date_created": "2023-02-08T17:24:03.000",
    "date_modified": "2023-02-08T17:24:04.000",
    "request_status": "Pending",
    "responsible_agency": "Department of Sanitation",
    "final_address": "5950 Doral Ct",
    "address_councildis": "E",
    "status": "Assigned to Contractor",
    "contractor": "Waste Pro",
    "rowid": "974010",
    "final_x": "3719661.82591",
    "final_y": "565263.93181",
    "longitude": "-89.94628075229171",
    "latitude": "30.04706444305028",
    "geocoded_column": {
      "latitude": "30.04706444305028",
      "longitude": "-89.94628075229171"
    }
  },
  {
    "service_request": "2023-974009",
    "request_type": "Trash/Recycling",
    "request_reason": "Missed Trash Pick-Up",
    "date_created": "2023-02-08T17:20:30.000",
    "date_modified": "2023-02-08T17:20:31.000",
    "request_status": "Pending",
    "responsible_agency": "Department of Sanitation",
    "final_address": "1107 Napoleon Ave",
    "address_councildis": "B",
    "status": "Assigned to Contractor",
    "contractor": "Richards Disposal",
    "rowid": "974009",
    "final_x": "3671051.84206",
    "final_y": "519633.057976",
    "longitude": "-90.10146545166515",
    "latitude": "29.9231235443977",
    "geocoded_column": {
      "latitude": "29.9231235443977",
      "longitude": "-90.10146545166515"
    }
  },
  {
    "service_request": "2023-974008",
    "request_type": "Trash/Recycling",
    "request_reason": "MIssed Recycling Pick-Up",
    "date_created": "2023-02-08T17:15:08.000",
    "date_modified": "2023-02-08T17:15:09.000",
    "request_status": "Pending",
    "responsible_agency": "Department of Sanitation",
    "final_address": "418 S Scott St",
    "address_councildis": "B",
    "status": "Assigned to Contractor",
    "contractor": "Richards Disposal",
    "rowid": "974008",
    "final_x": "3670952.65121",
    "final_y": "536682.005383",
    "longitude": "-90.1011998601443",
    "latitude": "29.970005505535237",
    "geocoded_column": {
      "latitude": "29.970005505535237",
      "longitude": "-90.1011998601443"
    }
  },
  {
    "service_request": "2023-974007",
    "request_type": "Abandoned Vehicles",
    "request_reason": "Abandoned/Junk Vehicles",
    "date_created": "2023-02-08T17:11:55.000",
    "date_modified": "2023-02-08T17:11:55.000",
    "request_status": "Pending",
    "responsible_agency": "Department of Public Works",
    "final_address": "1817 Magazine St",
    "address_councildis": "B",
    "status": "Pending",
    "rowid": "974007",
    "final_x": "3679862.27829",
    "final_y": "522955.736827",
    "longitude": "-90.07353897879254",
    "latitude": "29.93199643706055",
    "geocoded_column": {
      "latitude": "29.93199643706055",
      "longitude": "-90.07353897879254"
    }
  },
  {
    "service_request": "2023-974005",
    "request_type": "Trash/Recycling",
    "request_reason": "Illegal Dumping",
    "date_created": "2023-02-08T17:06:43.000",
    "date_modified": "2023-02-08T17:06:43.000",
    "request_status": "Pending",
    "responsible_agency": "Department of Sanitation",
    "final_address": "541 Seguin St",
    "address_councildis": "C",
    "status": "Pending",
    "rowid": "974005",
    "final_x": "3686598.23593",
    "final_y": "529668.633537",
    "longitude": "-90.05203733475794",
    "latitude": "29.95024927947189",
    "geocoded_column": {
      "latitude": "29.95024927947189",
      "longitude": "-90.05203733475794"
    }
  },
  {
    "service_request": "2023-974004",
    "request_type": "Trash/Recycling",
    "request_reason": "Missed Trash Pick-Up",
    "date_created": "2023-02-08T17:02:57.000",
    "date_modified": "2023-02-08T17:02:58.000",
    "request_status": "Pending",
    "responsible_agency": "Department of Sanitation",
    "final_address": "6500 BLK Fleur-de-lis Dr",
    "address_councildis": "A",
    "status": "Assigned to Contractor",
    "contractor": "IV Waste",
    "rowid": "974004",
    "final_x": "3665326.92095",
    "final_y": "551396.981311",
    "longitude": "-90.11847384031951",
    "latitude": "30.010631828557106",
    "geocoded_column": {
      "latitude": "30.010631828557106",
      "longitude": "-90.11847384031951"
    }
  },
  {
    "service_request": "2023-974003",
    "request_type": "Roads/Drainage",
    "request_reason": "Pothole",
    "date_created": "2023-02-08T16:56:00.000",
    "date_modified": "2023-02-08T16:56:00.000",
    "request_status": "Pending",
    "responsible_agency": "Department of Public Works",
    "final_address": "338 Country Club Dr",
    "address_councildis": "A",
    "status": "Pending",
    "rowid": "974003",
    "final_x": "3664480.6994",
    "final_y": "544224.931918",
    "longitude": "-90.12138705775564",
    "latitude": "29.99093579785714",
    "geocoded_column": {
      "latitude": "29.99093579785714",
      "longitude": "-90.12138705775564"
    }
  },
  {
    "service_request": "2023-974002",
    "request_type": "Roads/Drainage",
    "request_reason": "Pothole",
    "date_created": "2023-02-08T16:53:32.000",
    "date_modified": "2023-02-08T16:53:32.000",
    "request_status": "Pending",
    "responsible_agency": "Department of Public Works",
    "final_address": "166 Country Club Dr",
    "address_councildis": "A",
    "status": "Pending",
    "rowid": "974002",
    "final_x": "3665309.4297",
    "final_y": "544248.32795",
    "longitude": "-90.11876850207854",
    "latitude": "29.990976001118774",
    "geocoded_column": {
      "latitude": "29.990976001118774",
      "longitude": "-90.11876850207854"
    }
  },
  {
    "service_request": "2023-974001",
    "request_type": "Trash/Recycling",
    "request_reason": "Missed Trash Pick-Up",
    "date_created": "2023-02-08T16:51:34.000",
    "date_modified": "2023-02-08T16:51:35.000",
    "request_status": "Pending",
    "responsible_agency": "Department of Sanitation",
    "final_address": "812 N White St",
    "address_councildis": "A",
    "status": "Assigned to Contractor",
    "contractor": "Richards Disposal",
    "rowid": "974001",
    "final_x": "3676593.79099",
    "final_y": "537654.846024",
    "longitude": "-90.08335105214529",
    "latitude": "29.972512486071807",
    "geocoded_column": {
      "latitude": "29.972512486071807",
      "longitude": "-90.08335105214529"
    }
  },
  {
    "service_request": "2023-974000",
    "request_type": "Trash/Recycling",
    "request_reason": "Missed Trash Pick-Up",
    "date_created": "2023-02-08T16:51:02.000",
    "date_modified": "2023-02-08T16:51:02.000",
    "request_status": "Pending",
    "responsible_agency": "Department of Sanitation",
    "final_address": "617 S Scott St",
    "address_councildis": "B",
    "status": "Assigned to Contractor",
    "contractor": "Richards Disposal",
    "rowid": "974000",
    "final_x": "3670435.98977",
    "final_y": "536126.360135",
    "longitude": "-90.10285037653694",
    "latitude": "29.968492933611227",
    "geocoded_column": {
      "latitude": "29.968492933611227",
      "longitude": "-90.10285037653694"
    }
  },
  {
    "service_request": "2023-973999",
    "request_type": "Trash/Recycling",
    "request_reason": "Request a Large Item Pick Up",
    "date_created": "2023-02-08T16:50:35.000",
    "date_modified": "2023-02-08T16:50:36.000",
    "request_status": "Pending",
    "responsible_agency": "Department of Sanitation",
    "final_address": "123 Vallette St",
    "address_councildis": "C",
    "status": "Assigned to Contractor",
    "contractor": "Richards Disposal",
    "rowid": "973999",
    "final_x": "3687559.99663",
    "final_y": "531241.864066",
    "longitude": "-90.04894492760465",
    "latitude": "29.954545517372168",
    "geocoded_column": {
      "latitude": "29.954545517372168",
      "longitude": "-90.04894492760465"
    }
  },
  {
    "service_request": "2023-973998",
    "request_type": "Roads/Drainage",
    "request_reason": "Debris in Roadway",
    "date_created": "2023-02-08T16:49:29.000",
    "date_modified": "2023-02-08T16:49:29.000",
    "request_status": "Pending",
    "responsible_agency": "Department of Public Works",
    "final_address": "3024 Laurel St",
    "address_councildis": "B",
    "status": "Pending",
    "rowid": "973998",
    "final_x": "3676610.03733",
    "final_y": "519618.073016",
    "longitude": "-90.08392086582751",
    "latitude": "29.922916863789595",
    "geocoded_column": {
      "latitude": "29.922916863789595",
      "longitude": "-90.08392086582751"
    }
  },
  {
    "service_request": "2023-973997",
    "request_type": "Trash/Recycling",
    "request_reason": "Missed Trash Pick-Up",
    "date_created": "2023-02-08T16:44:45.000",
    "date_modified": "2023-02-08T16:44:46.000",
    "request_status": "Pending",
    "responsible_agency": "Department of Sanitation",
    "final_address": "5230 Chestnut St",
    "address_councildis": "B",
    "status": "Assigned to Contractor",
    "contractor": "Richards Disposal",
    "rowid": "973997",
    "final_x": "3667816.88525",
    "final_y": "519316.857463",
    "longitude": "-90.11168764417242",
    "latitude": "29.922349325598304",
    "geocoded_column": {
      "latitude": "29.922349325598304",
      "longitude": "-90.11168764417242"
    }
  },
  {
    "service_request": "2023-973996",
    "request_type": "Trash/Recycling",
    "request_reason": "Order Recycling Cart",
    "date_created": "2023-02-08T16:44:24.000",
    "date_modified": "2023-02-08T16:46:31.000",
    "request_status": "Pending",
    "responsible_agency": "Department of Sanitation",
    "final_address": "339 Lowerline St, New Orleans, Louisiana, 70118",
    "address_councildis": "A",
    "rowid": "973996",
    "final_x": "3661654.46938",
    "final_y": "523655.741627",
    "longitude": "-90.13099626023661",
    "latitude": "29.93445911799861",
    "geocoded_column": {
      "latitude": "29.93445911799861",
      "longitude": "-90.13099626023661"
    }
  },
  {
    "service_request": "2023-973995",
    "request_type": "Property Maintenance",
    "request_reason": "Property Maintenance",
    "date_created": "2023-02-08T16:43:01.000",
    "date_modified": "2023-02-08T16:43:02.000",
    "request_status": "Pending",
    "responsible_agency": "Department of Code Enforcement",
    "final_address": "4621 Werner Dr",
    "address_councildis": "E",
    "status": "Pending",
    "rowid": "973995",
    "final_x": "3704933.68977",
    "final_y": "554541.56156",
    "longitude": "-89.99322558163202",
    "latitude": "30.01806411372014",
    "geocoded_column": {
      "latitude": "30.01806411372014",
      "longitude": "-89.99322558163202"
    }
  },
  {
    "service_request": "2023-973994",
    "request_type": "Abandoned Vehicles",
    "request_reason": "Abandoned/Junk Vehicles",
    "date_created": "2023-02-08T16:42:29.000",
    "date_modified": "2023-02-08T16:42:29.000",
    "request_status": "Pending",
    "responsible_agency": "Department of Public Works",
    "final_address": "4621 Werner Dr",
    "address_councildis": "E",
    "status": "Pending",
    "rowid": "973994",
    "final_x": "3704933.68977",
    "final_y": "554541.56156",
    "longitude": "-89.99322558163202",
    "latitude": "30.01806411372014",
    "geocoded_column": {
      "latitude": "30.01806411372014",
      "longitude": "-89.99322558163202"
    }
  },
  {
    "service_request": "2023-973993",
    "request_type": "Trash/Recycling",
    "request_reason": "MIssed Recycling Pick-Up",
    "date_created": "2023-02-08T16:34:25.000",
    "date_modified": "2023-02-08T16:34:25.000",
    "request_status": "Pending",
    "responsible_agency": "Department of Sanitation",
    "final_address": "11308 Will Stutley Dr",
    "address_councildis": "E",
    "status": "Assigned to Contractor",
    "contractor": "Waste Pro",
    "rowid": "973993",
    "final_x": "3716958.09196",
    "final_y": "558156.190171",
    "longitude": "-89.95509611273272",
    "latitude": "30.02761074231564",
    "geocoded_column": {
      "latitude": "30.02761074231564",
      "longitude": "-89.95509611273272"
    }
  },
  {
    "service_request": "2023-973992",
    "request_type": "Trash/Recycling",
    "request_reason": "MIssed Recycling Pick-Up",
    "date_created": "2023-02-08T16:29:08.000",
    "date_modified": "2023-02-08T16:29:08.000",
    "request_status": "Pending",
    "responsible_agency": "Department of Sanitation",
    "final_address": "1833 Fourth St",
    "address_councildis": "B",
    "status": "Assigned to Contractor",
    "contractor": "Richards Disposal",
    "rowid": "973992",
    "final_x": "3675655.41992",
    "final_y": "523568.891387",
    "longitude": "-90.08679855191127",
    "latitude": "29.933808920645497",
    "geocoded_column": {
      "latitude": "29.933808920645497",
      "longitude": "-90.08679855191127"
    }
  },
  {
    "service_request": "2023-973991",
    "request_type": "Trash/Recycling",
    "request_reason": "Request a Large Item Pick Up",
    "date_created": "2023-02-08T16:19:57.000",
    "date_modified": "2023-02-08T16:19:58.000",
    "request_status": "Pending",
    "responsible_agency": "Department of Sanitation",
    "final_address": "4844 Camelot Dr",
    "address_councildis": "E",
    "status": "Assigned to Contractor",
    "contractor": "Waste Pro",
    "rowid": "973991",
    "final_x": "3708222.39256",
    "final_y": "556357.420762",
    "longitude": "-89.9827669972835",
    "latitude": "30.02295085206447",
    "geocoded_column": {
      "latitude": "30.02295085206447",
      "longitude": "-89.9827669972835"
    }
  },
  {
    "service_request": "2023-973990",
    "request_type": "Trash/Recycling",
    "request_reason": "Repair Trash Cart",
    "date_created": "2023-02-08T16:19:37.000",
    "date_modified": "2023-02-08T16:19:38.000",
    "request_status": "Pending",
    "responsible_agency": "Department of Sanitation",
    "final_address": "5132 Constance St",
    "address_councildis": "B",
    "status": "Assigned to Contractor",
    "contractor": "Richards Disposal",
    "rowid": "973990",
    "final_x": "3668058.62394",
    "final_y": "518193.641654",
    "longitude": "-90.11096239477877",
    "latitude": "29.919253747209385",
    "geocoded_column": {
      "latitude": "29.919253747209385",
      "longitude": "-90.11096239477877"
    }
  },
  {
    "service_request": "2023-973989",
    "request_type": "Trash/Recycling",
    "request_reason": "Illegal Dumping",
    "date_created": "2023-02-08T16:10:50.000",
    "date_modified": "2023-02-08T16:10:50.000",
    "request_status": "Pending",
    "responsible_agency": "Department of Sanitation",
    "final_address": "125 N Lopez St",
    "address_councildis": "B",
    "status": "Pending",
    "rowid": "973989",
    "final_x": "3674020.30382",
    "final_y": "536483.001863",
    "longitude": "-90.09151870528251",
    "latitude": "29.96936725424116",
    "geocoded_column": {
      "latitude": "29.96936725424116",
      "longitude": "-90.09151870528251"
    }
  },
  {
    "service_request": "2023-973988",
    "request_type": "Trash/Recycling",
    "request_reason": "Repair Trash Cart",
    "date_created": "2023-02-08T16:00:28.000",
    "date_modified": "2023-02-08T16:00:28.000",
    "request_status": "Pending",
    "responsible_agency": "Department of Sanitation",
    "final_address": "4611 Bundy Rd",
    "address_councildis": "E",
    "status": "Assigned to Contractor",
    "contractor": "Waste Pro",
    "rowid": "973988",
    "final_x": "3709552.19717",
    "final_y": "554923.635096",
    "longitude": "-89.97861871579833",
    "latitude": "30.01896533640987",
    "geocoded_column": {
      "latitude": "30.01896533640987",
      "longitude": "-89.97861871579833"
    }
  },
  {
    "service_request": "2023-973987",
    "request_type": "Traffic Signals/Signs/Striping/Streetlights",
    "request_reason": "Street Light Outage/Malfunction",
    "date_created": "2023-02-08T15:57:47.000",
    "date_modified": "2023-02-08T15:57:48.000",
    "request_status": "Pending",
    "responsible_agency": "Department of Public Works",
    "final_address": "2400 BLK Loyola Ave",
    "address_councildis": "B",
    "status": "Assigned to Contractor",
    "contractor": "Legacy Professional Services",
    "rowid": "973987",
    "final_x": "3675643.96528",
    "final_y": "524912.570041",
    "longitude": "-90.08678856628961",
    "latitude": "29.937503940492878",
    "geocoded_column": {
      "latitude": "29.937503940492878",
      "longitude": "-90.08678856628961"
    }
  },
  {
    "service_request": "2023-973986",
    "request_type": "Trash/Recycling",
    "request_reason": "Request a Large Item Pick Up",
    "date_created": "2023-02-08T15:53:07.000",
    "date_modified": "2023-02-08T16:25:11.000",
    "case_close_date": "2023-02-08T10:25:11.000",
    "request_status": "Closed",
    "responsible_agency": "Department of Sanitation",
    "final_address": "1834 Elysian Fields Ave",
    "address_councildis": "D",
    "status": "Assigned to Contractor",
    "contractor": "IV Waste",
    "contractor_action": "Completed",
    "rowid": "973986",
    "final_x": "3684670.35657",
    "final_y": "539165.081354",
    "longitude": "-90.057790764599",
    "latitude": "29.97642037246964",
    "geocoded_column": {
      "latitude": "29.97642037246964",
      "longitude": "-90.057790764599"
    }
  },
  {
    "service_request": "2023-973985",
    "request_type": "Trash/Recycling",
    "request_reason": "Repair Trash Cart",
    "date_created": "2023-02-08T15:50:21.000",
    "date_modified": "2023-02-08T15:50:21.000",
    "request_status": "Pending",
    "responsible_agency": "Department of Sanitation",
    "final_address": "211 Oakmont Dr",
    "address_councildis": "E",
    "status": "Assigned to Contractor",
    "contractor": "Waste Pro",
    "rowid": "973985",
    "final_x": "3720294.37388",
    "final_y": "562998.214176",
    "longitude": "-89.94436838786756",
    "latitude": "30.040813580185254",
    "geocoded_column": {
      "latitude": "30.040813580185254",
      "longitude": "-89.94436838786756"
    }
  },
  {
    "service_request": "2023-973984",
    "request_type": "Trash/Recycling",
    "request_reason": "Order Trash Cart",
    "date_created": "2023-02-08T15:47:16.000",
    "date_modified": "2023-02-08T15:47:17.000",
    "request_status": "Pending",
    "responsible_agency": "Department of Sanitation",
    "final_address": "524 Octavia St",
    "address_councildis": "A",
    "status": "Assigned to Contractor",
    "contractor": "Richards Disposal",
    "rowid": "973984",
    "final_x": "3666217.97549",
    "final_y": "518098.216886",
    "longitude": "-90.11677561022555",
    "latitude": "29.91904522296014",
    "geocoded_column": {
      "latitude": "29.91904522296014",
      "longitude": "-90.11677561022555"
    }
  },
  {
    "service_request": "2023-973982",
    "request_type": "Trash/Recycling",
    "request_reason": "Request a Large Item Pick Up",
    "date_created": "2023-02-08T15:42:40.000",
    "date_modified": "2023-02-08T15:42:41.000",
    "request_status": "Pending",
    "responsible_agency": "Department of Sanitation",
    "final_address": "6110 St Charles Ave",
    "address_councildis": "A",
    "status": "Assigned to Contractor",
    "contractor": "Richards Disposal",
    "rowid": "973982",
    "final_x": "3665239.50599",
    "final_y": "522755.429306",
    "longitude": "-90.11970844840434",
    "latitude": "29.93187962075964",
    "geocoded_column": {
      "latitude": "29.93187962075964",
      "longitude": "-90.11970844840434"
    }
  },
  {
    "service_request": "2023-973981",
    "request_type": "Trash/Recycling",
    "request_reason": "Repair Trash Cart",
    "date_created": "2023-02-08T15:41:56.000",
    "date_modified": "2023-02-08T15:41:57.000",
    "request_status": "Pending",
    "responsible_agency": "Department of Sanitation",
    "final_address": "5768 Wilton Dr",
    "address_councildis": "D",
    "status": "Assigned to Contractor",
    "contractor": "IV Waste",
    "rowid": "973981",
    "final_x": "3681682.79631",
    "final_y": "554525.631064",
    "longitude": "-90.06669009632147",
    "latitude": "30.01874752080159",
    "geocoded_column": {
      "latitude": "30.01874752080159",
      "longitude": "-90.06669009632147"
    }
  },
  {
    "service_request": "2023-973980",
    "request_type": "Trash/Recycling",
    "request_reason": "Order Recycling Cart",
    "date_created": "2023-02-08T15:41:32.000",
    "date_modified": "2023-02-08T15:41:32.000",
    "request_status": "Pending",
    "responsible_agency": "Department of Sanitation",
    "final_address": "6115 Mandeville St",
    "address_councildis": "D",
    "status": "Pending",
    "rowid": "973980",
    "final_x": "3684312.32393",
    "final_y": "555536.033817",
    "longitude": "-90.05834621860586",
    "latitude": "30.021445569390945",
    "geocoded_column": {
      "latitude": "30.021445569390945",
      "longitude": "-90.05834621860586"
    }
  },
  {
    "service_request": "2023-973979",
    "request_type": "Trash/Recycling",
    "request_reason": "Order Trash Cart",
    "date_created": "2023-02-08T15:39:43.000",
    "date_modified": "2023-02-08T15:39:44.000",
    "request_status": "Pending",
    "responsible_agency": "Department of Sanitation",
    "final_address": "5425 Press Dr",
    "address_councildis": "D",
    "status": "Assigned to Contractor",
    "contractor": "IV Waste",
    "rowid": "973979",
    "final_x": "3689415.64707",
    "final_y": "553331.678423",
    "longitude": "-90.04229963317827",
    "latitude": "30.015227285255257",
    "geocoded_column": {
      "latitude": "30.015227285255257",
      "longitude": "-90.04229963317827"
    }
  },
  {
    "service_request": "2023-973978",
    "request_type": "Trash/Recycling",
    "request_reason": "Repair Trash Cart",
    "date_created": "2023-02-08T15:34:38.000",
    "date_modified": "2023-02-08T15:34:39.000",
    "request_status": "Pending",
    "responsible_agency": "Department of Sanitation",
    "final_address": "2426 Calhoun St",
    "address_councildis": "A",
    "status": "Assigned to Contractor",
    "contractor": "Richards Disposal",
    "rowid": "973978",
    "final_x": "3666084.12186",
    "final_y": "525933.049789",
    "longitude": "-90.11693558499357",
    "latitude": "29.940592437679076",
    "geocoded_column": {
      "latitude": "29.940592437679076",
      "longitude": "-90.11693558499357"
    }
  },
  {
    "service_request": "2023-973977",
    "request_type": "Trash/Recycling",
    "request_reason": "Missed Trash Pick-Up",
    "date_created": "2023-02-08T15:32:35.000",
    "date_modified": "2023-02-08T15:32:35.000",
    "request_status": "Pending",
    "responsible_agency": "Department of Sanitation",
    "final_address": "3122 Trafalgar St",
    "address_councildis": "A",
    "status": "Assigned to Contractor",
    "contractor": "IV Waste",
    "rowid": "973977",
    "final_x": "3678571.50824",
    "final_y": "543090.700237",
    "longitude": "-90.07691682621713",
    "latitude": "29.987399731822197",
    "geocoded_column": {
      "latitude": "29.987399731822197",
      "longitude": "-90.07691682621713"
    }
  },
  {
    "service_request": "2023-973976",
    "request_type": "Traffic Signals/Signs/Striping/Streetlights",
    "request_reason": "Street Light Outage/Malfunction",
    "date_created": "2023-02-08T15:30:45.000",
    "date_modified": "2023-02-08T15:30:46.000",
    "request_status": "Pending",
    "responsible_agency": "Department of Public Works",
    "final_address": "4623 Metropolitan Dr",
    "address_councildis": "D",
    "status": "Assigned to Contractor",
    "contractor": "Legacy Professional Services",
    "rowid": "973976",
    "final_x": "3690758.19484",
    "final_y": "550734.076117",
    "longitude": "-90.03815059562498",
    "latitude": "30.008043178263232",
    "geocoded_column": {
      "latitude": "30.008043178263232",
      "longitude": "-90.03815059562498"
    }
  },
  {
    "service_request": "2023-973975",
    "request_type": "Trash/Recycling",
    "request_reason": "Request a Large Item Pick Up",
    "date_created": "2023-02-08T15:28:36.000",
    "date_modified": "2023-02-08T15:28:37.000",
    "request_status": "Pending",
    "responsible_agency": "Department of Sanitation",
    "final_address": "4817 N Miro St",
    "address_councildis": "E",
    "status": "Assigned to Contractor",
    "contractor": "Waste Pro",
    "rowid": "973975",
    "final_x": "3696378.27383",
    "final_y": "538608.396873",
    "longitude": "-90.02083395926425",
    "latitude": "29.97452612881552",
    "geocoded_column": {
      "latitude": "29.97452612881552",
      "longitude": "-90.02083395926425"
    }
  },
  {
    "service_request": "2023-973974",
    "request_type": "Trash/Recycling",
    "request_reason": "Repair Trash Cart",
    "date_created": "2023-02-08T15:17:02.000",
    "date_modified": "2023-02-08T15:17:03.000",
    "request_status": "Pending",
    "responsible_agency": "Department of Sanitation",
    "final_address": "1534 Camp St",
    "address_councildis": "B",
    "status": "Assigned to Contractor",
    "contractor": "Richards Disposal",
    "rowid": "973974",
    "final_x": "3679777.77467",
    "final_y": "523636.190267",
    "longitude": "-90.07378213497277",
    "latitude": "29.933870014387907",
    "geocoded_column": {
      "latitude": "29.933870014387907",
      "longitude": "-90.07378213497277"
    }
  },
  {
    "service_request": "2023-973973",
    "request_type": "Trash/Recycling",
    "request_reason": "Replace Trash Cart",
    "date_created": "2023-02-08T15:10:24.000",
    "date_modified": "2023-02-08T15:10:25.000",
    "request_status": "Pending",
    "responsible_agency": "Department of Sanitation",
    "final_address": "1416 Carondelet St",
    "address_councildis": "B",
    "status": "Assigned to Contractor",
    "contractor": "Richards Disposal",
    "rowid": "973973",
    "final_x": "3678925.36744",
    "final_y": "525888.662397",
    "longitude": "-90.0763951429735",
    "latitude": "29.94008930630046",
    "geocoded_column": {
      "latitude": "29.94008930630046",
      "longitude": "-90.0763951429735"
    }
  },
  {
    "service_request": "2023-973972",
    "request_type": "Roads/Drainage",
    "request_reason": "Alley Way",
    "date_created": "2023-02-08T15:10:09.000",
    "date_modified": "2023-02-08T15:10:09.000",
    "request_status": "Pending",
    "responsible_agency": "Department of Public Works",
    "final_address": "6655 General Haig St",
    "address_councildis": "A",
    "status": "Pending",
    "rowid": "973972",
    "final_x": "3671046.64468",
    "final_y": "551638.035541",
    "longitude": "-90.10039478943298",
    "latitude": "30.011126657256973",
    "geocoded_column": {
      "latitude": "30.011126657256973",
      "longitude": "-90.10039478943298"
    }
  },
  {
    "service_request": "2023-973971",
    "request_type": "Trash/Recycling",
    "request_reason": "Replace Recycling Cart",
    "date_created": "2023-02-08T15:09:55.000",
    "date_modified": "2023-02-08T15:09:55.000",
    "request_status": "Pending",
    "responsible_agency": "Department of Sanitation",
    "final_address": "6665 Argonne Blvd",
    "address_councildis": "A",
    "status": "Pending",
    "rowid": "973971",
    "final_x": "3670634.58625",
    "final_y": "551735.952085",
    "longitude": "-90.10169332541606",
    "latitude": "30.011408078137574",
    "geocoded_column": {
      "latitude": "30.011408078137574",
      "longitude": "-90.10169332541606"
    }
  },
  {
    "service_request": "2023-973970",
    "request_type": "Traffic Signals/Signs/Striping/Streetlights",
    "request_reason": "Street Light Outage/Malfunction",
    "date_created": "2023-02-08T15:04:42.000",
    "date_modified": "2023-02-08T15:04:43.000",
    "request_status": "Pending",
    "responsible_agency": "Department of Public Works",
    "final_address": "1021 Royal St",
    "address_councildis": "C",
    "status": "Assigned to Contractor",
    "contractor": "Legacy Professional Services",
    "rowid": "973970",
    "final_x": "3683303.01135",
    "final_y": "533489.225412",
    "longitude": "-90.06230809370348",
    "latitude": "29.960855513068154",
    "geocoded_column": {
      "latitude": "29.960855513068154",
      "longitude": "-90.06230809370348"
    }
  },
  {
    "service_request": "2023-973969",
    "request_type": "Roads/Drainage",
    "request_reason": "Street Flooding / Drainage",
    "date_created": "2023-02-08T15:03:11.000",
    "date_modified": "2023-02-08T15:03:11.000",
    "request_status": "Pending",
    "responsible_agency": "Department of Public Works",
    "final_address": "3230 Toledano St",
    "address_councildis": "B",
    "status": "Pending",
    "rowid": "973969",
    "final_x": "3672020.32833",
    "final_y": "527575.372479",
    "longitude": "-90.09813804669281",
    "latitude": "29.94493367701741",
    "geocoded_column": {
      "latitude": "29.94493367701741",
      "longitude": "-90.09813804669281"
    }
  },
  {
    "service_request": "2023-973968",
    "request_type": "Trash/Recycling",
    "request_reason": "Order Recycling Cart",
    "date_created": "2023-02-08T15:02:34.000",
    "date_modified": "2023-02-08T15:02:35.000",
    "request_status": "Pending",
    "responsible_agency": "Department of Sanitation",
    "final_address": "1207 Josephine St",
    "address_councildis": "B",
    "status": "Pending",
    "rowid": "973968",
    "final_x": "3678920.16443",
    "final_y": "522681.56953",
    "longitude": "-90.07652262843074",
    "latitude": "29.931271014602547",
    "geocoded_column": {
      "latitude": "29.931271014602547",
      "longitude": "-90.07652262843074"
    }
  },
  {
    "service_request": "2023-973967",
    "request_type": "Trash/Recycling",
    "request_reason": "Replace Trash Cart",
    "date_created": "2023-02-08T15:02:06.000",
    "date_modified": "2023-02-08T15:02:06.000",
    "request_status": "Pending",
    "responsible_agency": "Department of Sanitation",
    "final_address": "2332 Burdette St",
    "address_councildis": "A",
    "status": "Assigned to Contractor",
    "contractor": "Richards Disposal",
    "rowid": "973967",
    "final_x": "3665546.20212",
    "final_y": "530691.749122",
    "longitude": "-90.11847460518739",
    "latitude": "29.95369301541521",
    "geocoded_column": {
      "latitude": "29.95369301541521",
      "longitude": "-90.11847460518739"
    }
  },
  {
    "service_request": "2023-973966",
    "request_type": "Trash/Recycling",
    "request_reason": "Repair Recycling Cart",
    "date_created": "2023-02-08T15:01:21.000",
    "date_modified": "2023-02-08T15:01:21.000",
    "request_status": "Pending",
    "responsible_agency": "Department of Sanitation",
    "final_address": "130 Spencer Ave",
    "address_councildis": "A",
    "status": "Pending",
    "rowid": "973966",
    "final_x": "3666120.96218",
    "final_y": "553555.724887",
    "longitude": "-90.11589268332136",
    "latitude": "30.016544445235382",
    "geocoded_column": {
      "latitude": "30.016544445235382",
      "longitude": "-90.11589268332136"
    }
  },
  {
    "service_request": "2023-973965",
    "request_type": "Trash/Recycling",
    "request_reason": "Order Recycling Cart",
    "date_created": "2023-02-08T15:00:51.000",
    "date_modified": "2023-02-08T15:00:51.000",
    "request_status": "Pending",
    "responsible_agency": "Department of Sanitation",
    "final_address": "3230 Toledano St",
    "address_councildis": "B",
    "status": "Pending",
    "rowid": "973965",
    "final_x": "3672020.32833",
    "final_y": "527575.372479",
    "longitude": "-90.09813804669281",
    "latitude": "29.94493367701741",
    "geocoded_column": {
      "latitude": "29.94493367701741",
      "longitude": "-90.09813804669281"
    }
  },
  {
    "service_request": "2023-973964",
    "request_type": "Trash/Recycling",
    "request_reason": "Order Trash Cart",
    "date_created": "2023-02-08T14:59:54.000",
    "date_modified": "2023-02-08T14:59:55.000",
    "request_status": "Pending",
    "responsible_agency": "Department of Sanitation",
    "final_address": "3230 Toledano St",
    "address_councildis": "B",
    "status": "Assigned to Contractor",
    "contractor": "Richards Disposal",
    "rowid": "973964",
    "final_x": "3672020.32833",
    "final_y": "527575.372479",
    "longitude": "-90.09813804669281",
    "latitude": "29.94493367701741",
    "geocoded_column": {
      "latitude": "29.94493367701741",
      "longitude": "-90.09813804669281"
    }
  },
  {
    "service_request": "2023-973963",
    "request_type": "Trash/Recycling",
    "request_reason": "Missed Trash Pick-Up",
    "date_created": "2023-02-08T14:58:05.000",
    "date_modified": "2023-02-08T14:58:06.000",
    "request_status": "Pending",
    "responsible_agency": "Department of Sanitation",
    "final_address": "1001 Poland Ave B",
    "address_councildis": "C",
    "status": "Assigned to Contractor",
    "contractor": "IV Waste",
    "rowid": "973963",
    "final_x": "3692997.54902",
    "final_y": "534581.262789",
    "longitude": "-90.0316555458794",
    "latitude": "29.96355898174734",
    "geocoded_column": {
      "latitude": "29.96355898174734",
      "longitude": "-90.0316555458794"
    }
  },
  {
    "service_request": "2023-973962",
    "request_type": "Trash/Recycling",
    "request_reason": "Missed Trash Pick-Up",
    "date_created": "2023-02-08T14:57:40.000",
    "date_modified": "2023-02-08T15:00:00.000",
    "request_status": "Pending",
    "responsible_agency": "Department of Sanitation",
    "final_address": "1001 Poland Ave A",
    "address_councildis": "C",
    "status": "Assigned to Contractor",
    "contractor": "IV Waste",
    "rowid": "973962",
    "final_x": "3692995.2696",
    "final_y": "534574.671109",
    "longitude": "-90.03166298048473",
    "latitude": "29.96354092814744",
    "geocoded_column": {
      "latitude": "29.96354092814744",
      "longitude": "-90.03166298048473"
    }
  },
  {
    "service_request": "2023-973961",
    "request_type": "Trash/Recycling",
    "request_reason": "Missed Trash Pick-Up",
    "date_created": "2023-02-08T14:52:29.000",
    "date_modified": "2023-02-08T14:52:30.000",
    "request_status": "Pending",
    "responsible_agency": "Department of Sanitation",
    "final_address": "315 N White St",
    "address_councildis": "B",
    "status": "Assigned to Contractor",
    "contractor": "Richards Disposal",
    "rowid": "973961",
    "final_x": "3675385.16744",
    "final_y": "536283.318855",
    "longitude": "-90.08721521138247",
    "latitude": "29.968777450648243",
    "geocoded_column": {
      "latitude": "29.968777450648243",
      "longitude": "-90.08721521138247"
    }
  },
  {
    "service_request": "2023-973960",
    "request_type": "Roads/Drainage",
    "request_reason": "Damaged Sidewalk",
    "date_created": "2023-02-08T14:44:00.000",
    "date_modified": "2023-02-08T14:44:00.000",
    "request_status": "Pending",
    "responsible_agency": "Department of Public Works",
    "final_address": "1500 BLK Moss St",
    "address_councildis": "A",
    "status": "Pending",
    "rowid": "973960",
    "final_x": "3675011.12796",
    "final_y": "542542.527892",
    "longitude": "-90.08818165013305",
    "latitude": "29.98599931256527",
    "geocoded_column": {
      "latitude": "29.98599931256527",
      "longitude": "-90.08818165013305"
    }
  },
  {
    "service_request": "2023-973959",
    "request_type": "Trash/Recycling",
    "request_reason": "Replace Trash Cart",
    "date_created": "2023-02-08T14:43:41.000",
    "date_modified": "2023-02-08T14:43:42.000",
    "request_status": "Pending",
    "responsible_agency": "Department of Sanitation",
    "final_address": "6319 Rhodes Ave",
    "address_councildis": "C",
    "status": "Assigned to Contractor",
    "contractor": "Richards Disposal",
    "rowid": "973959",
    "final_x": "3707511.24286",
    "final_y": "519335.315959",
    "longitude": "-89.98638917422232",
    "latitude": "29.921176731052455",
    "geocoded_column": {
      "latitude": "29.921176731052455",
      "longitude": "-89.98638917422232"
    }
  },
  {
    "service_request": "2023-973958",
    "request_type": "Traffic Signals/Signs/Striping/Streetlights",
    "request_reason": "Traffic Sign Missing/Damaged",
    "date_created": "2023-02-08T14:42:31.000",
    "date_modified": "2023-02-08T14:42:31.000",
    "request_status": "Pending",
    "responsible_agency": "Department of Public Works",
    "final_address": "3562 Vespasian St",
    "address_councildis": "C",
    "status": "Pending",
    "rowid": "973958",
    "final_x": "3696739.9697",
    "final_y": "522726.853178",
    "longitude": "-90.02026642016178",
    "latitude": "29.930846062285152",
    "geocoded_column": {
      "latitude": "29.930846062285152",
      "longitude": "-90.02026642016178"
    }
  },
  {
    "service_request": "2023-973957",
    "request_type": "Trash/Recycling",
    "request_reason": "Order Trash Cart",
    "date_created": "2023-02-08T14:39:38.000",
    "date_modified": "2023-02-08T14:39:38.000",
    "request_status": "Pending",
    "responsible_agency": "Department of Sanitation",
    "final_address": "4051 Ulloa St",
    "address_councildis": "A",
    "status": "Assigned to Contractor",
    "contractor": "Richards Disposal",
    "rowid": "973957",
    "final_x": "3669728.7483",
    "final_y": "536466.891271",
    "longitude": "-90.10507235993298",
    "latitude": "29.969450144589867",
    "geocoded_column": {
      "latitude": "29.969450144589867",
      "longitude": "-90.10507235993298"
    }
  },
  {
    "service_request": "2023-973956",
    "request_type": "Traffic Signals/Signs/Striping/Streetlights",
    "request_reason": "Street Light Outage/Malfunction",
    "date_created": "2023-02-08T14:39:31.000",
    "date_modified": "2023-02-08T14:39:32.000",
    "request_status": "Pending",
    "responsible_agency": "Department of Public Works",
    "final_address": "9806 E Rockton Cir",
    "address_councildis": "E",
    "status": "Assigned to Contractor",
    "contractor": "Legacy Professional Services",
    "rowid": "973956",
    "final_x": "3708304.64184",
    "final_y": "563021.288672",
    "longitude": "-89.9822588333969",
    "latitude": "30.041271196445194",
    "geocoded_column": {
      "latitude": "30.041271196445194",
      "longitude": "-89.9822588333969"
    }
  },
  {
    "service_request": "2023-973955",
    "request_type": "Traffic Signals/Signs/Striping/Streetlights",
    "request_reason": "Street Light Outage/Malfunction",
    "date_created": "2023-02-08T14:39:24.000",
    "date_modified": "2023-02-08T14:39:25.000",
    "request_status": "Pending",
    "responsible_agency": "Department of Public Works",
    "final_address": "1425 St Roch Ave",
    "address_councildis": "C",
    "status": "Assigned to Contractor",
    "contractor": "Legacy Professional Services",
    "rowid": "973955",
    "final_x": "3686455.21455",
    "final_y": "537762.62324",
    "longitude": "-90.0522031799247",
    "latitude": "29.9725093510695",
    "geocoded_column": {
      "latitude": "29.9725093510695",
      "longitude": "-90.0522031799247"
    }
  },
  {
    "service_request": "2023-973954",
    "request_type": "Trash/Recycling",
    "request_reason": "Illegal Dumping",
    "date_created": "2023-02-08T14:37:15.000",
    "date_modified": "2023-02-08T14:37:15.000",
    "request_status": "Pending",
    "responsible_agency": "Department of Sanitation",
    "final_address": "1827 Soniat St",
    "address_councildis": "B",
    "status": "Pending",
    "rowid": "973954",
    "final_x": "3668553.07559",
    "final_y": "522361.082938",
    "longitude": "-90.10926113004166",
    "latitude": "29.930698375977475",
    "geocoded_column": {
      "latitude": "29.930698375977475",
      "longitude": "-90.10926113004166"
    }
  },
  {
    "service_request": "2023-973952",
    "request_type": "Traffic Signals/Signs/Striping/Streetlights",
    "request_reason": "Street Light Outage/Malfunction",
    "date_created": "2023-02-08T14:32:35.000",
    "date_modified": "2023-02-08T14:32:36.000",
    "request_status": "Pending",
    "responsible_agency": "Department of Public Works",
    "final_address": "1543 Murl St",
    "address_councildis": "C",
    "status": "Assigned to Contractor",
    "contractor": "Legacy Professional Services",
    "rowid": "973952",
    "final_x": "3695331.79421",
    "final_y": "525714.908221",
    "longitude": "-90.0246040731008",
    "latitude": "29.939106484161588",
    "geocoded_column": {
      "latitude": "29.939106484161588",
      "longitude": "-90.0246040731008"
    }
  },
  {
    "service_request": "2023-973950",
    "request_type": "Roads/Drainage",
    "request_reason": "Pothole",
    "date_created": "2023-02-08T14:30:51.000",
    "date_modified": "2023-02-08T15:49:57.000",
    "case_close_date": "2023-02-08T09:49:57.000",
    "request_status": "Closed",
    "responsible_agency": "Department of Public Works",
    "final_address": "916 N Johnson St",
    "address_councildis": "D",
    "status": "Referred to External Agency",
    "rowid": "973950",
    "final_x": "3679200.23112",
    "final_y": "536147.670791",
    "longitude": "-90.07517171431004",
    "latitude": "29.968289831797982",
    "geocoded_column": {
      "latitude": "29.968289831797982",
      "longitude": "-90.07517171431004"
    }
  },
  {
    "service_request": "2023-973947",
    "request_type": "Trash/Recycling",
    "request_reason": "Replace Trash Cart",
    "date_created": "2023-02-08T14:29:40.000",
    "date_modified": "2023-02-08T14:29:41.000",
    "request_status": "Pending",
    "responsible_agency": "Department of Sanitation",
    "final_address": "3411 Vincennes Pl",
    "address_councildis": "A",
    "status": "Assigned to Contractor",
    "contractor": "Richards Disposal",
    "rowid": "973947",
    "final_x": "3668044.76545",
    "final_y": "528641.04576",
    "longitude": "-90.11065425307294",
    "latitude": "29.947981173281836",
    "geocoded_column": {
      "latitude": "29.947981173281836",
      "longitude": "-90.11065425307294"
    }
  },
  {
    "service_request": "2023-973946",
    "request_type": "Traffic Signals/Signs/Striping/Streetlights",
    "request_reason": "Street Light Outage/Malfunction",
    "date_created": "2023-02-08T14:27:39.000",
    "date_modified": "2023-02-08T14:27:40.000",
    "request_status": "Pending",
    "responsible_agency": "Department of Public Works",
    "final_address": "9781 W Rockton Cir",
    "address_councildis": "E",
    "status": "Assigned to Contractor",
    "contractor": "Legacy Professional Services",
    "rowid": "973946",
    "final_x": "3708225.08574",
    "final_y": "562794.716768",
    "longitude": "-89.98251869808557",
    "latitude": "30.040650792953492",
    "geocoded_column": {
      "latitude": "30.040650792953492",
      "longitude": "-89.98251869808557"
    }
  },
  {
    "service_request": "2023-973945",
    "request_type": "Traffic Signals/Signs/Striping/Streetlights",
    "request_reason": "Street Light Outage/Malfunction",
    "date_created": "2023-02-08T14:24:17.000",
    "date_modified": "2023-02-08T14:24:18.000",
    "request_status": "Pending",
    "responsible_agency": "Department of Public Works",
    "final_address": "4140 Canal St",
    "address_councildis": "A",
    "status": "Assigned to Contractor",
    "contractor": "Legacy Professional Services",
    "rowid": "973945",
    "final_x": "3670688.34036",
    "final_y": "538417.467337",
    "longitude": "-90.10197568402062",
    "latitude": "29.974785253813693",
    "geocoded_column": {
      "latitude": "29.974785253813693",
      "longitude": "-90.10197568402062"
    }
  },
  {
    "service_request": "2023-973944",
    "request_type": "Abandoned Vehicles",
    "request_reason": "Abandoned/Junk Vehicles",
    "date_created": "2023-02-08T14:17:56.000",
    "date_modified": "2023-02-08T14:17:56.000",
    "request_status": "Pending",
    "responsible_agency": "Department of Public Works",
    "final_address": "3521 Chestnut St",
    "address_councildis": "B",
    "status": "Pending",
    "rowid": "973944",
    "final_x": "3673995.06011",
    "final_y": "520182.014328",
    "longitude": "-90.09215605787979",
    "latitude": "29.924545665021252",
    "geocoded_column": {
      "latitude": "29.924545665021252",
      "longitude": "-90.09215605787979"
    }
  },
  {
    "service_request": "2023-973943",
    "request_type": "Trash/Recycling",
    "request_reason": "Replace Trash Cart",
    "date_created": "2023-02-08T14:15:53.000",
    "date_modified": "2023-02-08T14:15:54.000",
    "request_status": "Pending",
    "responsible_agency": "Department of Sanitation",
    "final_address": "1115 N White St",
    "address_councildis": "A",
    "status": "Assigned to Contractor",
    "contractor": "Richards Disposal",
    "rowid": "973943",
    "final_x": "3677192.98574",
    "final_y": "538917.637322",
    "longitude": "-90.08141511380337",
    "latitude": "29.975966742389016",
    "geocoded_column": {
      "latitude": "29.975966742389016",
      "longitude": "-90.08141511380337"
    }
  },
  {
    "service_request": "2023-973942",
    "request_type": "Trash/Recycling",
    "request_reason": "Repair Trash Cart",
    "date_created": "2023-02-08T14:13:28.000",
    "date_modified": "2023-02-08T14:13:29.000",
    "request_status": "Pending",
    "responsible_agency": "Department of Sanitation",
    "final_address": "1115 N White St",
    "address_councildis": "A",
    "status": "Assigned to Contractor",
    "contractor": "Richards Disposal",
    "rowid": "973942",
    "final_x": "3677192.98574",
    "final_y": "538917.637322",
    "longitude": "-90.08141511380337",
    "latitude": "29.975966742389016",
    "geocoded_column": {
      "latitude": "29.975966742389016",
      "longitude": "-90.08141511380337"
    }
  },
  {
    "service_request": "2023-973941",
    "request_type": "Trash/Recycling",
    "request_reason": "Missed Trash Pick-Up",
    "date_created": "2023-02-08T14:08:25.000",
    "date_modified": "2023-02-08T14:08:25.000",
    "request_status": "Pending",
    "responsible_agency": "Department of Sanitation",
    "final_address": "700 BLK Royal St",
    "address_councildis": "C",
    "status": "Assigned to Contractor",
    "contractor": "Empire Services",
    "rowid": "973941",
    "final_x": "3682637.83712",
    "final_y": "532573.736477",
    "longitude": "-90.06444059899961",
    "latitude": "29.958358502724252",
    "geocoded_column": {
      "latitude": "29.958358502724252",
      "longitude": "-90.06444059899961"
    }
  },
  {
    "service_request": "2023-973940",
    "request_type": "Trash/Recycling",
    "request_reason": "Replace Trash Cart",
    "date_created": "2023-02-08T14:07:05.000",
    "date_modified": "2023-02-08T14:07:05.000",
    "request_status": "Pending",
    "responsible_agency": "Department of Sanitation",
    "final_address": "829 Cherokee St",
    "address_councildis": "A",
    "status": "Assigned to Contractor",
    "contractor": "Richards Disposal",
    "rowid": "973940",
    "final_x": "3662766.94259",
    "final_y": "526046.849854",
    "longitude": "-90.12740474835199",
    "latitude": "29.941001762892157",
    "geocoded_column": {
      "latitude": "29.941001762892157",
      "longitude": "-90.12740474835199"
    }
  },
  {
    "service_request": "2023-973939",
    "request_type": "Trash/Recycling",
    "request_reason": "Request a Large Item Pick Up",
    "date_created": "2023-02-08T14:05:15.000",
    "date_modified": "2023-02-08T14:05:16.000",
    "request_status": "Pending",
    "responsible_agency": "Department of Sanitation",
    "final_address": "11031 Lake Forest Blvd",
    "address_councildis": "E",
    "status": "Assigned to Contractor",
    "contractor": "Waste Pro",
    "rowid": "973939",
    "final_x": "3714486.70379",
    "final_y": "560634.310174",
    "longitude": "-89.96281176164841",
    "latitude": "30.03450608747222",
    "geocoded_column": {
      "latitude": "30.03450608747222",
      "longitude": "-89.96281176164841"
    }
  },
  {
    "service_request": "2023-973938",
    "request_type": "Trash/Recycling",
    "request_reason": "Replace Trash Cart",
    "date_created": "2023-02-08T14:04:06.000",
    "date_modified": "2023-02-08T14:04:07.000",
    "request_status": "Pending",
    "responsible_agency": "Department of Sanitation",
    "final_address": "1734 Clio St",
    "address_councildis": "B",
    "status": "Assigned to Contractor",
    "contractor": "Richards Disposal",
    "rowid": "973938",
    "final_x": "3679061.46658",
    "final_y": "526734.46131",
    "longitude": "-90.0759361542883",
    "latitude": "29.942410866964217",
    "geocoded_column": {
      "latitude": "29.942410866964217",
      "longitude": "-90.0759361542883"
    }
  },
  {
    "service_request": "2023-973937",
    "request_type": "Trash/Recycling",
    "request_reason": "Missed Trash Pick-Up",
    "date_created": "2023-02-08T14:01:41.000",
    "date_modified": "2023-02-08T14:01:44.000",
    "request_status": "Pending",
    "responsible_agency": "Department of Sanitation",
    "final_address": "15 N Oak Ridge Ct",
    "address_councildis": "E",
    "status": "Assigned to Contractor",
    "contractor": "Waste Pro",
    "rowid": "973937",
    "final_x": "3713410.23775",
    "final_y": "567843.366692",
    "longitude": "-89.9659416458428",
    "latitude": "30.05436343667432",
    "geocoded_column": {
      "latitude": "30.05436343667432",
      "longitude": "-89.9659416458428"
    }
  },
  {
    "service_request": "2023-973936",
    "request_type": "Roads/Drainage",
    "request_reason": "Pothole",
    "date_created": "2023-02-08T13:59:01.000",
    "date_modified": "2023-02-08T13:59:01.000",
    "request_status": "Pending",
    "responsible_agency": "Department of Public Works",
    "final_address": "8640 Spruce St, New Orleans, Louisiana, 70118",
    "address_councildis": "A",
    "status": "Pending",
    "rowid": "973936",
    "final_x": "3662272.90976",
    "final_y": "531834.745475",
    "longitude": "-90.12877240818938",
    "latitude": "29.95693090587222",
    "geocoded_column": {
      "latitude": "29.95693090587222",
      "longitude": "-90.12877240818938"
    }
  },
  {
    "service_request": "2023-973935",
    "request_type": "Traffic Signals/Signs/Striping/Streetlights",
    "request_reason": "Traffic Sign Missing/Damaged",
    "date_created": "2023-02-08T13:58:32.000",
    "date_modified": "2023-02-08T13:58:32.000",
    "request_status": "Pending",
    "responsible_agency": "Department of Public Works",
    "final_address": "2600 Calhoun St",
    "address_councildis": "A",
    "status": "Pending",
    "rowid": "973935",
    "final_x": "3666290.38068",
    "final_y": "526415.683006",
    "longitude": "-90.11626820394036",
    "latitude": "29.941913501709667",
    "geocoded_column": {
      "latitude": "29.941913501709667",
      "longitude": "-90.11626820394036"
    }
  },
  {
    "service_request": "2023-973934",
    "request_type": "Abandoned Vehicles",
    "request_reason": "Abandoned/Junk Vehicles",
    "date_created": "2023-02-08T13:57:19.000",
    "date_modified": "2023-02-08T13:57:19.000",
    "request_status": "Pending",
    "responsible_agency": "Department of Public Works",
    "final_address": "508 Florida Blvd",
    "address_councildis": "A",
    "status": "Pending",
    "rowid": "973934",
    "final_x": "3667639.78017",
    "final_y": "545342.262352",
    "longitude": "-90.11137060155623",
    "latitude": "29.993915820676403",
    "geocoded_column": {
      "latitude": "29.993915820676403",
      "longitude": "-90.11137060155623"
    }
  },
  {
    "service_request": "2023-973933",
    "request_type": "Trash/Recycling",
    "request_reason": "Request a Large Item Pick Up",
    "date_created": "2023-02-08T13:56:26.000",
    "date_modified": "2023-02-08T13:56:27.000",
    "request_status": "Pending",
    "responsible_agency": "Department of Sanitation",
    "final_address": "910 Picheloup Pl",
    "address_councildis": "A",
    "status": "Assigned to Contractor",
    "contractor": "Richards Disposal",
    "rowid": "973933",
    "final_x": "3673633.86721",
    "final_y": "540333.539595",
    "longitude": "-90.09260743173797",
    "latitude": "29.97996643357909",
    "geocoded_column": {
      "latitude": "29.97996643357909",
      "longitude": "-90.09260743173797"
    }
  },
  {
    "service_request": "2023-973932",
    "request_type": "Abandoned Vehicles",
    "request_reason": "Abandoned/Junk Vehicles",
    "date_created": "2023-02-08T13:56:23.000",
    "date_modified": "2023-02-08T13:56:23.000",
    "request_status": "Pending",
    "responsible_agency": "Department of Public Works",
    "final_address": "2285 Bayou Rd",
    "address_councildis": "D",
    "status": "Pending",
    "rowid": "973932",
    "final_x": "3679201.59349",
    "final_y": "538461.159433",
    "longitude": "-90.07508718367306",
    "latitude": "29.97465108999283",
    "geocoded_column": {
      "latitude": "29.97465108999283",
      "longitude": "-90.07508718367306"
    }
  },
  {
    "service_request": "2023-973931",
    "request_type": "Roads/Drainage",
    "request_reason": "Catch Basin - Clogged",
    "date_created": "2023-02-08T13:55:27.000",
    "date_modified": "2023-02-08T13:55:27.000",
    "request_status": "Pending",
    "responsible_agency": "Department of Public Works",
    "final_address": "500 St Charles Ave",
    "address_councildis": "B",
    "status": "Pending",
    "rowid": "973931",
    "final_x": "3680716.76725",
    "final_y": "529174.737728",
    "longitude": "-90.07062509542807",
    "latitude": "29.949070759966425",
    "geocoded_column": {
      "latitude": "29.949070759966425",
      "longitude": "-90.07062509542807"
    }
  },
  {
    "service_request": "2023-973930",
    "request_type": "Abandoned Vehicles",
    "request_reason": "Abandoned/Junk Vehicles",
    "date_created": "2023-02-08T13:55:06.000",
    "date_modified": "2023-02-08T13:55:06.000",
    "request_status": "Pending",
    "responsible_agency": "Department of Public Works",
    "final_address": "4002 Franklin Ave",
    "address_councildis": "D",
    "status": "Pending",
    "rowid": "973930",
    "final_x": "3686956.94294",
    "final_y": "547540.614482",
    "longitude": "-90.05027284879758",
    "latitude": "29.99937991412933",
    "geocoded_column": {
      "latitude": "29.99937991412933",
      "longitude": "-90.05027284879758"
    }
  },
  {
    "service_request": "2023-973926",
    "request_type": "Trash/Recycling",
    "request_reason": "Illegal Dumping",
    "date_created": "2023-02-08T13:51:53.000",
    "date_modified": "2023-02-08T13:51:53.000",
    "request_status": "Pending",
    "responsible_agency": "Department of Code Enforcement",
    "final_address": "3032 Second St",
    "address_councildis": "B",
    "status": "Pending",
    "rowid": "973926",
    "final_x": "3673729.60443",
    "final_y": "527476.768831",
    "longitude": "-90.09274470121231",
    "latitude": "29.944611774172042",
    "geocoded_column": {
      "latitude": "29.944611774172042",
      "longitude": "-90.09274470121231"
    }
  },
  {
    "service_request": "2023-973924",
    "request_type": "Property Maintenance",
    "request_reason": "Property Maintenance",
    "date_created": "2023-02-08T13:48:48.000",
    "date_modified": "2023-02-08T13:53:34.000",
    "request_status": "Pending",
    "responsible_agency": "Department of Code Enforcement",
    "final_address": "2420 Second St",
    "address_councildis": "B",
    "status": "Pending",
    "rowid": "973924",
    "final_x": "3674972.4788",
    "final_y": "525577.921981",
    "longitude": "-90.0888856859789",
    "latitude": "29.939353509890477",
    "geocoded_column": {
      "latitude": "29.939353509890477",
      "longitude": "-90.0888856859789"
    }
  },
  {
    "service_request": "2023-973923",
    "request_type": "Trash/Recycling",
    "request_reason": "Repair Trash Cart",
    "date_created": "2023-02-08T13:47:08.000",
    "date_modified": "2023-02-08T13:47:09.000",
    "request_status": "Pending",
    "responsible_agency": "Department of Sanitation",
    "final_address": "5800 Waterford Blvd",
    "address_councildis": "E",
    "status": "Assigned to Contractor",
    "contractor": "Waste Pro",
    "rowid": "973923",
    "final_x": "3713756.83077",
    "final_y": "560908.426718",
    "longitude": "-89.96510789509101",
    "latitude": "30.035283781937412",
    "geocoded_column": {
      "latitude": "30.035283781937412",
      "longitude": "-89.96510789509101"
    }
  },
  {
    "service_request": "2023-973921",
    "request_type": "Trash/Recycling",
    "request_reason": "Repair Trash Cart",
    "date_created": "2023-02-08T13:45:54.000",
    "date_modified": "2023-02-08T13:45:55.000",
    "request_status": "Pending",
    "responsible_agency": "Department of Sanitation",
    "final_address": "327 Cherokee St",
    "address_councildis": "A",
    "status": "Assigned to Contractor",
    "contractor": "Richards Disposal",
    "rowid": "973921",
    "final_x": "3661593.72064",
    "final_y": "524754.799932",
    "longitude": "-90.13115164034275",
    "latitude": "29.937482934172955",
    "geocoded_column": {
      "latitude": "29.937482934172955",
      "longitude": "-90.13115164034275"
    }
  },
  {
    "service_request": "2023-973920",
    "request_type": "Trash/Recycling",
    "request_reason": "Missed Trash Pick-Up",
    "date_created": "2023-02-08T13:45:06.000",
    "date_modified": "2023-02-08T13:45:07.000",
    "request_status": "Pending",
    "responsible_agency": "Department of Sanitation",
    "final_address": "5800 Waterford Blvd",
    "address_councildis": "E",
    "status": "Assigned to Contractor",
    "contractor": "Waste Pro",
    "rowid": "973920",
    "final_x": "3713756.83077",
    "final_y": "560908.426718",
    "longitude": "-89.96510789509101",
    "latitude": "30.035283781937412",
    "geocoded_column": {
      "latitude": "30.035283781937412",
      "longitude": "-89.96510789509101"
    }
  },
  {
    "service_request": "2023-973919",
    "request_type": "Trash/Recycling",
    "request_reason": "Return Trash Cart",
    "date_created": "2023-02-08T13:43:16.000",
    "date_modified": "2023-02-08T15:41:36.000",
    "case_close_date": "2023-02-08T09:41:36.000",
    "request_status": "Closed",
    "responsible_agency": "Department of Sanitation",
    "final_address": "4828 Shalimar Dr",
    "address_councildis": "D",
    "status": "Assigned to Contractor",
    "contractor": "Waste Pro",
    "contractor_action": "Completed",
    "rowid": "973919",
    "final_x": "3697078.70813",
    "final_y": "554681.533464",
    "longitude": "-90.01803913184729",
    "latitude": "30.018699245506404",
    "geocoded_column": {
      "latitude": "30.018699245506404",
      "longitude": "-90.01803913184729"
    }
  },
  {
    "service_request": "2023-973918",
    "request_type": "Trash/Recycling",
    "request_reason": "Missed Trash Pick-Up",
    "date_created": "2023-02-08T13:36:37.000",
    "date_modified": "2023-02-08T13:36:37.000",
    "request_status": "Pending",
    "responsible_agency": "Department of Sanitation",
    "final_address": "PRITCHARD PL & AUDUBON ST",
    "address_councildis": "B",
    "status": "Assigned to Contractor",
    "contractor": "Richards Disposal",
    "rowid": "973918",
    "final_x": "3667714.3",
    "final_y": "531377.78",
    "longitude": "-90.11160553636421",
    "latitude": "29.95551599130505",
    "geocoded_column": {
      "latitude": "29.95551599130505",
      "longitude": "-90.11160553636421"
    }
  },
  {
    "service_request": "2023-973917",
    "request_type": "Trash/Recycling",
    "request_reason": "Repair Trash Cart",
    "date_created": "2023-02-08T13:34:03.000",
    "date_modified": "2023-02-08T13:34:04.000",
    "request_status": "Pending",
    "responsible_agency": "Department of Sanitation",
    "final_address": "1225 Milan St",
    "address_councildis": "B",
    "status": "Assigned to Contractor",
    "contractor": "Richards Disposal",
    "rowid": "973917",
    "final_x": "3671717.71073",
    "final_y": "520109.166904",
    "longitude": "-90.09934737022807",
    "latitude": "29.924412991295743",
    "geocoded_column": {
      "latitude": "29.924412991295743",
      "longitude": "-90.09934737022807"
    }
  },
  {
    "service_request": "2023-973916",
    "request_type": "Trash/Recycling",
    "request_reason": "Replace Trash Cart",
    "date_created": "2023-02-08T13:32:33.000",
    "date_modified": "2023-02-08T13:32:34.000",
    "request_status": "Pending",
    "responsible_agency": "Department of Sanitation",
    "final_address": "214 N Clark St",
    "address_councildis": "B",
    "status": "Assigned to Contractor",
    "contractor": "Richards Disposal",
    "rowid": "973916",
    "final_x": "3673238.55092",
    "final_y": "537426.631112",
    "longitude": "-90.09395531375658",
    "latitude": "29.97198518840194",
    "geocoded_column": {
      "latitude": "29.97198518840194",
      "longitude": "-90.09395531375658"
    }
  },
  {
    "service_request": "2023-973915",
    "request_type": "Trash/Recycling",
    "request_reason": "Request a Large Item Pick Up",
    "date_created": "2023-02-08T13:31:41.000",
    "date_modified": "2023-02-08T13:31:42.000",
    "request_status": "Pending",
    "responsible_agency": "Department of Sanitation",
    "final_address": "4445 Francis Dr",
    "address_councildis": "D",
    "status": "Assigned to Contractor",
    "contractor": "Waste Pro",
    "rowid": "973915",
    "final_x": "3698447.9473",
    "final_y": "552845.17551",
    "longitude": "-90.01377967197922",
    "latitude": "30.013606668075052",
    "geocoded_column": {
      "latitude": "30.013606668075052",
      "longitude": "-90.01377967197922"
    }
  },
  {
    "service_request": "2023-973914",
    "request_type": "Abandoned Vehicles",
    "request_reason": "Abandoned/Junk Vehicles",
    "date_created": "2023-02-08T13:30:25.000",
    "date_modified": "2023-02-08T13:30:26.000",
    "request_status": "Pending",
    "responsible_agency": "Department of Public Works",
    "final_address": "1700 Frenchmen St",
    "address_councildis": "D",
    "status": "Pending",
    "rowid": "973914",
    "final_x": "3684379.23957",
    "final_y": "538511.813833",
    "longitude": "-90.05873314920596",
    "latitude": "29.974633022584438",
    "geocoded_column": {
      "latitude": "29.974633022584438",
      "longitude": "-90.05873314920596"
    }
  },
  {
    "service_request": "2023-973913",
    "request_type": "Trash/Recycling",
    "request_reason": "MIssed Recycling Pick-Up",
    "date_created": "2023-02-08T13:29:14.000",
    "date_modified": "2023-02-08T13:29:15.000",
    "request_status": "Pending",
    "responsible_agency": "Department of Sanitation",
    "final_address": "4846 Warren Dr",
    "address_councildis": "E",
    "status": "Assigned to Contractor",
    "contractor": "Waste Pro",
    "rowid": "973913",
    "final_x": "3713329.30494",
    "final_y": "556826.516378",
    "longitude": "-89.9666127939708",
    "latitude": "30.02407418122198",
    "geocoded_column": {
      "latitude": "30.02407418122198",
      "longitude": "-89.9666127939708"
    }
  },
  {
    "service_request": "2023-973912",
    "request_type": "Abandoned Vehicles",
    "request_reason": "Abandoned/Junk Vehicles",
    "date_created": "2023-02-08T13:27:46.000",
    "date_modified": "2023-02-08T14:47:48.000",
    "request_status": "Pending",
    "responsible_agency": "Department of Public Works",
    "final_address": "ST CHARLES AVE & VALENCE ST",
    "address_councildis": "B",
    "status": "Pending",
    "rowid": "973912",
    "final_x": "3669738.6",
    "final_y": "520784.68",
    "longitude": "-90.10557191290471",
    "latitude": "29.926328894401728",
    "geocoded_column": {
      "latitude": "29.926328894401728",
      "longitude": "-90.10557191290471"
    }
  },
  {
    "service_request": "2023-973911",
    "request_type": "Property Maintenance",
    "request_reason": "Property Maintenance",
    "date_created": "2023-02-08T13:24:08.000",
    "date_modified": "2023-02-08T13:24:08.000",
    "request_status": "Pending",
    "responsible_agency": "Department of Code Enforcement",
    "final_address": "1343 Spain St",
    "address_councildis": "C",
    "status": "Pending",
    "rowid": "973911",
    "final_x": "3686085.65078",
    "final_y": "537465.977672",
    "longitude": "-90.0533807908755",
    "latitude": "29.971705035761463",
    "geocoded_column": {
      "latitude": "29.971705035761463",
      "longitude": "-90.0533807908755"
    }
  },
  {
    "service_request": "2023-973910",
    "request_type": "Trash/Recycling",
    "request_reason": "Illegal Dumping",
    "date_created": "2023-02-08T13:20:54.000",
    "date_modified": "2023-02-08T13:20:54.000",
    "request_status": "Pending",
    "responsible_agency": "Department of Sanitation",
    "final_address": "1342 Spain St",
    "address_councildis": "C",
    "status": "Pending",
    "rowid": "973910",
    "final_x": "3686020.28201",
    "final_y": "537464.916744",
    "longitude": "-90.05358727243568",
    "latitude": "29.971704126207488",
    "geocoded_column": {
      "latitude": "29.971704126207488",
      "longitude": "-90.05358727243568"
    }
  },
  {
    "service_request": "2023-973908",
    "request_type": "Trash/Recycling",
    "request_reason": "MIssed Recycling Pick-Up",
    "date_created": "2023-02-08T13:14:54.000",
    "date_modified": "2023-02-08T15:47:27.000",
    "case_close_date": "2023-02-08T09:47:27.000",
    "request_status": "Closed",
    "responsible_agency": "Department of Sanitation",
    "final_address": "7360 Heather Ct",
    "address_councildis": "E",
    "status": "Assigned to Contractor",
    "contractor": "Waste Pro",
    "contractor_action": "Completed",
    "rowid": "973908",
    "final_x": "3705425.873",
    "final_y": "562455.273183",
    "longitude": "-89.99137764361129",
    "latitude": "30.039807896243417",
    "geocoded_column": {
      "latitude": "30.039807896243417",
      "longitude": "-89.99137764361129"
    }
  },
  {
    "service_request": "2023-973907",
    "request_type": "Roads/Drainage",
    "request_reason": "Street Flooding / Drainage",
    "date_created": "2023-02-08T13:13:25.000",
    "date_modified": "2023-02-08T15:07:09.000",
    "case_close_date": "2023-02-08T09:07:09.000",
    "request_status": "Closed",
    "responsible_agency": "Department of Public Works",
    "final_address": "5117 Music St",
    "address_councildis": "D",
    "status": "Referred to External Agency",
    "rowid": "973907",
    "final_x": "3685623.62543",
    "final_y": "551693.288853",
    "longitude": "-90.05433840065385",
    "latitude": "30.01083924730758",
    "geocoded_column": {
      "latitude": "30.01083924730758",
      "longitude": "-90.05433840065385"
    }
  },
  {
    "service_request": "2023-973905",
    "request_type": "Trash/Recycling",
    "request_reason": "Repair Trash Cart",
    "date_created": "2023-02-08T13:09:02.000",
    "date_modified": "2023-02-08T13:09:03.000",
    "request_status": "Pending",
    "responsible_agency": "Department of Sanitation",
    "final_address": "2224 Eads St",
    "address_councildis": "D",
    "status": "Assigned to Contractor",
    "contractor": "IV Waste",
    "rowid": "973905",
    "final_x": "3687887.13999",
    "final_y": "540844.310539",
    "longitude": "-90.04757170641568",
    "latitude": "29.98093880448291",
    "geocoded_column": {
      "latitude": "29.98093880448291",
      "longitude": "-90.04757170641568"
    }
  },
  {
    "service_request": "2023-973904",
    "request_type": "Roads/Drainage",
    "request_reason": "Catch Basin - Broken/Damage",
    "date_created": "2023-02-08T13:04:24.000",
    "date_modified": "2023-02-08T13:04:25.000",
    "request_status": "Pending",
    "responsible_agency": "Department of Public Works",
    "final_address": "CADIZ ST & S GALVEZ ST",
    "address_councildis": "B",
    "status": "Pending",
    "rowid": "973904",
    "final_x": "3669440.0",
    "final_y": "527403.58",
    "longitude": "-90.10629076433304",
    "latitude": "29.944537534663908",
    "geocoded_column": {
      "latitude": "29.944537534663908",
      "longitude": "-90.10629076433304"
    }
  },
  {
    "service_request": "2023-973903",
    "request_type": "Roads/Drainage",
    "request_reason": "Alley Way",
    "date_created": "2023-02-08T12:58:13.000",
    "date_modified": "2023-02-08T12:58:13.000",
    "request_status": "Pending",
    "responsible_agency": "Department of Public Works",
    "final_address": "6508 Orleans Ave",
    "address_councildis": "A",
    "status": "Pending",
    "rowid": "973903",
    "final_x": "3671160.26356",
    "final_y": "550597.502996",
    "longitude": "-90.10007120373695",
    "latitude": "30.008262197512423",
    "geocoded_column": {
      "latitude": "30.008262197512423",
      "longitude": "-90.10007120373695"
    }
  },
  {
    "service_request": "2023-973902",
    "request_type": "Roads/Drainage",
    "request_reason": "Pothole",
    "date_created": "2023-02-08T12:56:15.000",
    "date_modified": "2023-02-08T12:56:15.000",
    "request_status": "Pending",
    "responsible_agency": "Department of Public Works",
    "final_address": "2319 Rousseau St",
    "address_councildis": "B",
    "status": "Pending",
    "rowid": "973902",
    "final_x": "3679744.74856",
    "final_y": "519977.8622",
    "longitude": "-90.07401332657119",
    "latitude": "29.923811809239165",
    "geocoded_column": {
      "latitude": "29.923811809239165",
      "longitude": "-90.07401332657119"
    }
  },
  {
    "service_request": "2023-973901",
    "request_type": "Traffic Signals/Signs/Striping/Streetlights",
    "request_reason": "Additional signage",
    "date_created": "2023-02-08T12:55:41.000",
    "date_modified": "2023-02-08T12:55:41.000",
    "request_status": "Pending",
    "responsible_agency": "Department of Public Works",
    "final_address": "218 Allen Toussaint Blvd",
    "address_councildis": "A",
    "status": "Pending",
    "rowid": "973901",
    "final_x": "3667349.24071",
    "final_y": "554776.445528",
    "longitude": "-90.11197072251974",
    "latitude": "30.019865055103903",
    "geocoded_column": {
      "latitude": "30.019865055103903",
      "longitude": "-90.11197072251974"
    }
  },
  {
    "service_request": "2023-973900",
    "request_type": "Property Maintenance",
    "request_reason": "Property Maintenance",
    "date_created": "2023-02-08T12:50:23.000",
    "date_modified": "2023-02-08T12:50:23.000",
    "request_status": "Pending",
    "responsible_agency": "Department of Code Enforcement",
    "final_address": "1117 Pine St",
    "address_councildis": "A",
    "status": "Pending",
    "rowid": "973900",
    "final_x": "3663882.17575",
    "final_y": "526452.805374",
    "longitude": "-90.1238702105788",
    "latitude": "29.942085690443268",
    "geocoded_column": {
      "latitude": "29.942085690443268",
      "longitude": "-90.1238702105788"
    }
  },
  {
    "service_request": "2023-973899",
    "request_type": "Trash/Recycling",
    "request_reason": "Request a Large Item Pick Up",
    "date_created": "2023-02-08T12:49:36.000",
    "date_modified": "2023-02-08T12:49:37.000",
    "request_status": "Pending",
    "responsible_agency": "Department of Sanitation",
    "final_address": "3407 Napoleon Ave",
    "address_councildis": "B",
    "status": "Assigned to Contractor",
    "contractor": "Richards Disposal",
    "rowid": "973899",
    "final_x": "3670297.1371",
    "final_y": "527348.538495",
    "longitude": "-90.10358638905268",
    "latitude": "29.9443609219593",
    "geocoded_column": {
      "latitude": "29.9443609219593",
      "longitude": "-90.10358638905268"
    }
  },
  {
    "service_request": "2023-973898",
    "request_type": "Traffic Signals/Signs/Striping/Streetlights",
    "request_reason": "Street Light Knocked Down/Leaning",
    "date_created": "2023-02-08T12:45:07.000",
    "date_modified": "2023-02-08T16:17:20.000",
    "request_status": "Pending",
    "responsible_agency": "Department of Public Works",
    "final_address": "New Orleans,LA",
    "address_councildis": "B",
    "status": "Pending",
    "contractor": "Legacy Professional Services",
    "rowid": "973898",
    "final_x": "3676464.1",
    "final_y": "522849.58",
    "longitude": "-90.08427033810187",
    "latitude": "29.931806834242586",
    "geocoded_column": {
      "latitude": "29.931806834242586",
      "longitude": "-90.08427033810187"
    }
  },
  {
    "service_request": "2023-973897",
    "request_type": "Trash/Recycling",
    "request_reason": "Return Recycling Cart",
    "date_created": "2023-02-08T12:45:02.000",
    "date_modified": "2023-02-08T12:45:02.000",
    "request_status": "Pending",
    "responsible_agency": "Department of Sanitation",
    "final_address": "4600 Knight Dr",
    "address_councildis": "E",
    "status": "Pending",
    "rowid": "973897",
    "final_x": "3708154.30257",
    "final_y": "554586.026712",
    "longitude": "-89.98304810303773",
    "latitude": "30.018082413796527",
    "geocoded_column": {
      "latitude": "30.018082413796527",
      "longitude": "-89.98304810303773"
    }
  },
  {
    "service_request": "2023-973896",
    "request_type": "Trash/Recycling",
    "request_reason": "Illegal Dumping",
    "date_created": "2023-02-08T12:42:33.000",
    "date_modified": "2023-02-08T12:42:34.000",
    "request_status": "Pending",
    "responsible_agency": "Department of Code Enforcement",
    "final_address": "823 Burgundy St",
    "address_councildis": "C",
    "status": "Pending",
    "rowid": "973896",
    "final_x": "3682012.18588",
    "final_y": "533580.717957",
    "longitude": "-90.06638107662758",
    "latitude": "29.961146394183746",
    "geocoded_column": {
      "latitude": "29.961146394183746",
      "longitude": "-90.06638107662758"
    }
  },
  {
    "service_request": "2023-973895",
    "request_type": "Abandoned Vehicles",
    "request_reason": "Abandoned/Junk Vehicles",
    "date_created": "2023-02-08T12:42:01.000",
    "date_modified": "2023-02-08T12:42:01.000",
    "request_status": "Pending",
    "responsible_agency": "Department of Public Works",
    "final_address": "1401 St Mary St",
    "address_councildis": "B",
    "status": "Pending",
    "rowid": "973895",
    "final_x": "3679062.80731",
    "final_y": "523616.650875",
    "longitude": "-90.07603993226655",
    "latitude": "29.933837878314833",
    "geocoded_column": {
      "latitude": "29.933837878314833",
      "longitude": "-90.07603993226655"
    }
  },
  {
    "service_request": "2023-973892",
    "request_type": "Trash/Recycling",
    "request_reason": "Missed Trash Pick-Up",
    "date_created": "2023-02-08T12:31:00.000",
    "date_modified": "2023-02-08T12:31:01.000",
    "request_status": "Pending",
    "responsible_agency": "Department of Sanitation",
    "final_address": "613 Philip St",
    "address_councildis": "B",
    "status": "Assigned to Contractor",
    "contractor": "Richards Disposal",
    "rowid": "973892",
    "final_x": "3679607.55874",
    "final_y": "520512.309688",
    "longitude": "-90.07442784981517",
    "latitude": "29.92528551072822",
    "geocoded_column": {
      "latitude": "29.92528551072822",
      "longitude": "-90.07442784981517"
    }
  },
  {
    "service_request": "2023-973891",
    "request_type": "Trash/Recycling",
    "request_reason": "Order Trash Cart",
    "date_created": "2023-02-08T12:29:42.000",
    "date_modified": "2023-02-08T12:29:42.000",
    "request_status": "Pending",
    "responsible_agency": "Department of Sanitation",
    "final_address": "1121 Southlawn Blvd",
    "address_councildis": "C",
    "status": "Assigned to Contractor",
    "contractor": "Richards Disposal",
    "rowid": "973891",
    "final_x": "3695171.99626",
    "final_y": "527934.485887",
    "longitude": "-90.025028561882",
    "latitude": "29.94521457304176",
    "geocoded_column": {
      "latitude": "29.94521457304176",
      "longitude": "-90.025028561882"
    }
  },
  {
    "service_request": "2023-973890",
    "request_type": "Roads/Drainage",
    "request_reason": "Catch Basin - Clogged",
    "date_created": "2023-02-08T12:29:27.000",
    "date_modified": "2023-02-08T15:29:47.000",
    "case_close_date": "2023-02-08T09:29:47.000",
    "request_status": "Closed",
    "responsible_agency": "Department of Public Works",
    "final_address": "1375 Harrison Ave",
    "address_councildis": "D",
    "status": "Duplicate Request",
    "rowid": "973890",
    "final_x": "3677899.09282",
    "final_y": "547678.979346",
    "longitude": "-90.07888208684565",
    "latitude": "30.000036143442667",
    "geocoded_column": {
      "latitude": "30.000036143442667",
      "longitude": "-90.07888208684565"
    }
  },
  {
    "service_request": "2023-973889",
    "request_type": "Roads/Drainage",
    "request_reason": "Catch Basin - Clogged",
    "date_created": "2023-02-08T12:28:11.000",
    "date_modified": "2023-02-08T15:26:20.000",
    "request_status": "Pending",
    "responsible_agency": "Department of Public Works",
    "final_address": "1378 Harrison Ave",
    "address_councildis": "D",
    "status": "Inspected",
    "rowid": "973889",
    "final_x": "3677922.61435",
    "final_y": "547514.464402",
    "longitude": "-90.0788134711707",
    "latitude": "29.999583077485827",
    "geocoded_column": {
      "latitude": "29.999583077485827",
      "longitude": "-90.0788134711707"
    }
  },
  {
    "service_request": "2023-973888",
    "request_type": "Trash/Recycling",
    "request_reason": "Illegal Dumping",
    "date_created": "2023-02-08T12:22:03.000",
    "date_modified": "2023-02-08T12:22:03.000",
    "request_status": "Pending",
    "responsible_agency": "Department of Sanitation",
    "final_address": "1355 Columbus St",
    "address_councildis": "C",
    "status": "Pending",
    "rowid": "973888",
    "final_x": "3682389.93276",
    "final_y": "536714.176007",
    "longitude": "-90.06507870168015",
    "latitude": "29.969750836895383",
    "geocoded_column": {
      "latitude": "29.969750836895383",
      "longitude": "-90.06507870168015"
    }
  },