[
  {
    "service_request": "2024-1126633",
    "request_type": "Trash/Recycling",
    "request_reason": "Request a Large Item Pick Up",
    "date_created": "2024-08-30T23:53:18.000",
    "date_modified": "2024-08-30T23:53:18.000",
    "request_status": "Pending",
    "responsible_agency": "Department of Sanitation",
    "final_address": "3306 Banks St",
    "address_councildis": "B",
    "status": "Assigned to Contractor",
    "contractor": "IV Waste",
    "rowid": "1126633",
    "final_x": "3672747.8162",
    "final_y": "535472.218566",
    "longitude": "-90.09557181149168",
    "latitude": "29.966625798861337",
    "geocoded_column": {
      "latitude": "29.966625798861337",
      "longitude": "-90.09557181149168"
    }
  },
  {
    "service_request": "2024-1126632",
    "request_type": "Trash/Recycling",
    "request_reason": "Request a Large Item Pick Up",
    "date_created": "2024-08-30T23:33:08.000",
    "date_modified": "2024-08-30T23:33:09.000",
    "request_status": "Pending",
    "responsible_agency": "Department of Sanitation",
    "final_address": "618 N Carrollton Ave",
    "address_councildis": "A",
    "status": "Assigned to Contractor",
    "contractor": "IV Waste",
    "rowid": "1126632",
    "final_x": "3672535.14657",
    "final_y": "539739.944906",
    "longitude": "-90.09609789734962",
    "latitude": "29.978366917595974",
    "geocoded_column": {
      "latitude": "29.978366917595974",
      "longitude": "-90.09609789734962"
    }
  },
  {
    "service_request": "2024-1126631",
    "request_type": "Trash/Recycling",
    "request_reason": "Replace Trash Cart",
    "date_created": "2024-08-30T23:02:31.000",
    "date_modified": "2024-08-30T23:02:32.000",
    "request_status": "Pending",
    "responsible_agency": "Department of Sanitation",
    "final_address": "1223 Harmony St",
    "address_councildis": "B",
    "status": "Assigned to Contractor",
    "contractor": "IV Waste",
    "rowid": "1126631",
    "final_x": "3675579.97224",
    "final_y": "520538.09868",
    "longitude": "-90.0871407974461",
    "latitude": "29.925477480980614",
    "geocoded_column": {
      "latitude": "29.925477480980614",
      "longitude": "-90.0871407974461"
    }
  },
  {
    "service_request": "2024-1126630",
    "request_type": "Abandoned Vehicles",
    "request_reason": "Abandoned/Junk Vehicles",
    "date_created": "2024-08-30T22:45:07.000",
    "date_modified": "2024-08-30T22:45:07.000",
    "request_status": "Pending",
    "responsible_agency": "Department of Public Works",
    "final_address": "1221 Harmony St",
    "address_councildis": "B",
    "status": "Pending",
    "rowid": "1126630",
    "final_x": "3675594.77537",
    "final_y": "520511.667768",
    "longitude": "-90.08709497594418",
    "latitude": "29.925404361816494",
    "geocoded_column": {
      "latitude": "29.925404361816494",
      "longitude": "-90.08709497594418"
    }
  },
  {
    "service_request": "2024-1126628",
    "request_type": "Roads/Drainage",
    "request_reason": "Pothole",
    "date_created": "2024-08-30T22:09:24.000",
    "date_modified": "2024-08-30T22:09:24.000",
    "request_status": "Pending",
    "responsible_agency": "Department of Public Works",
    "final_address": "100 BLK Interstate 610",
    "address_councildis": "D",
    "status": "Pending",
    "rowid": "1126628",
    "final_x": "3686907.70062",
    "final_y": "544768.291485",
    "longitude": "-90.05052645333868",
    "latitude": "29.99175853906987",
    "geocoded_column": {
      "latitude": "29.99175853906987",
      "longitude": "-90.05052645333868"
    }
  },
  {
    "service_request": "2024-1126627",
    "request_type": "Roads/Drainage",
    "request_reason": "Damaged Sidewalk",
    "date_created": "2024-08-30T21:23:58.000",
    "date_modified": "2024-08-30T21:23:58.000",
    "request_status": "Pending",
    "responsible_agency": "Department of Public Works",
    "final_address": "1511 N Dupre St",
    "address_councildis": "A",
    "status": "Pending",
    "rowid": "1126627",
    "final_x": "3677265.62696",
    "final_y": "540075.637899",
    "longitude": "-90.0811457244018",
    "latitude": "29.97914866288087",
    "geocoded_column": {
      "latitude": "29.97914866288087",
      "longitude": "-90.0811457244018"
    }
  },
  {
    "service_request": "2024-1126626",
    "request_type": "Trash/Recycling",
    "request_reason": "Illegal Dumping",
    "date_created": "2024-08-30T21:08:26.000",
    "date_modified": "2024-08-30T21:08:26.000",
    "request_status": "Pending",
    "responsible_agency": "Department of Sanitation",
    "final_address": "3161 Mansfield Ave",
    "address_councildis": "C",
    "status": "Pending",
    "rowid": "1126626",
    "final_x": "3709047.13707",
    "final_y": "518555.554103",
    "longitude": "-89.98157012289155",
    "latitude": "29.918982925399398",
    "geocoded_column": {
      "latitude": "29.918982925399398",
      "longitude": "-89.98157012289155"
    }
  },
  {
    "service_request": "2024-1126625",
    "request_type": "Trash/Recycling",
    "request_reason": "Request a Large Item Pick Up",
    "date_created": "2024-08-30T21:00:54.000",
    "date_modified": "2024-08-30T21:00:55.000",
    "request_status": "Pending",
    "responsible_agency": "Department of Sanitation",
    "final_address": "1414 Thalia St",
    "address_councildis": "B",
    "status": "Assigned to Contractor",
    "contractor": "IV Waste",
    "rowid": "1126625",
    "final_x": "3679948.76213",
    "final_y": "525393.123261",
    "longitude": "-90.07318133628526",
    "latitude": "29.93869583004208",
    "geocoded_column": {
      "latitude": "29.93869583004208",
      "longitude": "-90.07318133628526"
    }
  },
  {
    "service_request": "2024-1126624",
    "request_type": "Roads/Drainage",
    "request_reason": "Man hole cover issue",
    "date_created": "2024-08-30T20:52:19.000",
    "date_modified": "2024-08-30T20:52:19.000",
    "request_status": "Pending",
    "responsible_agency": "Department of Public Works",
    "final_address": "1523 Sauvage St",
    "address_councildis": "A",
    "status": "Pending",
    "rowid": "1126624",
    "final_x": "3677118.24802",
    "final_y": "540484.927755",
    "longitude": "-90.0815970829964",
    "latitude": "29.980278496493618",
    "geocoded_column": {
      "latitude": "29.980278496493618",
      "longitude": "-90.0815970829964"
    }
  },
  {
    "service_request": "2024-1126623",
    "request_type": "Abandoned Vehicles",
    "request_reason": "Abandoned/Junk Vehicles",
    "date_created": "2024-08-30T20:16:03.000",
    "date_modified": "2024-08-30T20:16:03.000",
    "request_status": "Pending",
    "responsible_agency": "Department of Public Works",
    "final_address": "AIRWAY ST & CESSNA CT",
    "address_councildis": "D",
    "status": "Pending",
    "rowid": "1126623",
    "final_x": "3696611.8",
    "final_y": "552736.98",
    "longitude": "-90.01958483013566",
    "latitude": "30.013367184636248",
    "geocoded_column": {
      "latitude": "30.013367184636248",
      "longitude": "-90.01958483013566"
    }
  },
  {
    "service_request": "2024-1126622",
    "request_type": "Trash/Recycling",
    "request_reason": "Request a Large Item Pick Up",
    "date_created": "2024-08-30T20:09:45.000",
    "date_modified": "2024-08-30T20:09:46.000",
    "request_status": "Pending",
    "responsible_agency": "Department of Sanitation",
    "final_address": "4453 Cessna Ct",
    "address_councildis": "D",
    "status": "Assigned to Contractor",
    "contractor": "Waste Pro",
    "rowid": "1126622",
    "final_x": "3696690.07888",
    "final_y": "552704.460566",
    "longitude": "-90.01933868975715",
    "latitude": "30.013275300388468",
    "geocoded_column": {
      "latitude": "30.013275300388468",
      "longitude": "-90.01933868975715"
    }
  },
  {
    "service_request": "2024-1126621",
    "request_type": "Trash/Recycling",
    "request_reason": "Illegal Dumping",
    "date_created": "2024-08-30T19:58:12.000",
    "date_modified": "2024-08-30T19:58:12.000",
    "request_status": "Pending",
    "responsible_agency": "Department of Sanitation",
    "final_address": "1034 Fats Domino Ave",
    "address_councildis": "E",
    "status": "Pending",
    "rowid": "1126621",
    "final_x": "3697914.88247",
    "final_y": "533609.459397",
    "longitude": "-90.0161624899093",
    "latitude": "29.96073235326379",
    "geocoded_column": {
      "latitude": "29.96073235326379",
      "longitude": "-90.0161624899093"
    }
  },
  {
    "service_request": "2024-1126620",
    "request_type": "Trash/Recycling",
    "request_reason": "MIssed Recycling Pick-Up",
    "date_created": "2024-08-30T19:56:05.000",
    "date_modified": "2024-08-30T19:56:06.000",
    "request_status": "Pending",
    "responsible_agency": "Department of Sanitation",
    "final_address": "619 Lizardi St",
    "address_councildis": "E",
    "status": "Assigned to Contractor",
    "contractor": "Waste Pro",
    "rowid": "1126620",
    "final_x": "3696104.28035",
    "final_y": "532471.608132",
    "longitude": "-90.02192111263686",
    "latitude": "29.957660769107626",
    "geocoded_column": {
      "latitude": "29.957660769107626",
      "longitude": "-90.02192111263686"
    }
  },
  {
    "service_request": "2024-1126619",
    "request_type": "Property Maintenance",
    "request_reason": "Property Maintenance",
    "date_created": "2024-08-30T19:43:31.000",
    "date_modified": "2024-08-30T19:43:31.000",
    "request_status": "Pending",
    "responsible_agency": "Department of Code Enforcement",
    "final_address": "1300 Perdido St",
    "address_councildis": "B",
    "status": "Pending",
    "rowid": "1126619",
    "final_x": "3678683.48347",
    "final_y": "530227.987073",
    "longitude": "-90.07700859883013",
    "latitude": "29.952028297123956",
    "geocoded_column": {
      "latitude": "29.952028297123956",
      "longitude": "-90.07700859883013"
    }
  },
  {
    "service_request": "2024-1126618",
    "request_type": "Roads/Drainage",
    "request_reason": "Pothole",
    "date_created": "2024-08-30T19:34:53.000",
    "date_modified": "2024-08-30T19:34:53.000",
    "request_status": "Pending",
    "responsible_agency": "Department of Public Works",
    "final_address": "625 Olivier St",
    "address_councildis": "C",
    "status": "Pending",
    "rowid": "1126618",
    "final_x": "3687245.97455",
    "final_y": "529272.816577",
    "longitude": "-90.05000611937857",
    "latitude": "29.949140986081456",
    "geocoded_column": {
      "latitude": "29.949140986081456",
      "longitude": "-90.05000611937857"
    }
  },
  {
    "service_request": "2024-1126617",
    "request_type": "Trash/Recycling",
    "request_reason": "Replace Trash Cart",
    "date_created": "2024-08-30T19:29:55.000",
    "date_modified": "2024-08-30T19:29:56.000",
    "request_status": "Pending",
    "responsible_agency": "Department of Sanitation",
    "final_address": "3776 Inwood Ave",
    "address_councildis": "C",
    "status": "Assigned to Contractor",
    "contractor": "Richards Disposal",
    "rowid": "1126617",
    "final_x": "3705071.64555",
    "final_y": "514690.024755",
    "longitude": "-89.99426119195707",
    "latitude": "29.908482409142927",
    "geocoded_column": {
      "latitude": "29.908482409142927",
      "longitude": "-89.99426119195707"
    }
  },
  {
    "service_request": "2024-1126616",
    "request_type": "Property Maintenance",
    "request_reason": "Property Maintenance",
    "date_created": "2024-08-30T19:22:25.000",
    "date_modified": "2024-08-30T19:22:25.000",
    "request_status": "Pending",
    "responsible_agency": "Department of Code Enforcement",
    "final_address": "6748 Cindy Pl",
    "address_councildis": "E",
    "status": "Pending",
    "rowid": "1126616",
    "final_x": "3707081.4266",
    "final_y": "558859.149724",
    "longitude": "-89.98627923221729",
    "latitude": "30.029866557978213",
    "geocoded_column": {
      "latitude": "30.029866557978213",
      "longitude": "-89.98627923221729"
    }
  },
  {
    "service_request": "2024-1126615",
    "request_type": "Abandoned Vehicles",
    "request_reason": "Abandoned/Junk Vehicles",
    "date_created": "2024-08-30T19:08:21.000",
    "date_modified": "2024-08-30T19:08:21.000",
    "request_status": "Pending",
    "responsible_agency": "Department of Public Works",
    "final_address": "2219 First St",
    "address_councildis": "B",
    "status": "Pending",
    "rowid": "1126615",
    "final_x": "3675701.57672",
    "final_y": "525148.684797",
    "longitude": "-90.08659857202285",
    "latitude": "29.938151455240273",
    "geocoded_column": {
      "latitude": "29.938151455240273",
      "longitude": "-90.08659857202285"
    }
  },
  {
    "service_request": "2024-1126614",
    "request_type": "Property Maintenance",
    "request_reason": "Property Maintenance",
    "date_created": "2024-08-30T19:04:46.000",
    "date_modified": "2024-08-30T19:04:46.000",
    "request_status": "Pending",
    "responsible_agency": "Department of Code Enforcement",
    "final_address": "6746 Cindy Pl",
    "address_councildis": "E",
    "status": "Pending",
    "rowid": "1126614",
    "final_x": "3707092.31076",
    "final_y": "558841.018588",
    "longitude": "-89.9862455121973",
    "latitude": "30.029816352630718",
    "geocoded_column": {
      "latitude": "30.029816352630718",
      "longitude": "-89.9862455121973"
    }
  },
  {
    "service_request": "2024-1126613",
    "request_type": "Property Maintenance",
    "request_reason": "Property Maintenance",
    "date_created": "2024-08-30T19:00:58.000",
    "date_modified": "2024-08-30T19:00:58.000",
    "request_status": "Pending",
    "responsible_agency": "Department of Code Enforcement",
    "final_address": "6801 Cindy Pl",
    "address_councildis": "E",
    "status": "Pending",
    "rowid": "1126613",
    "final_x": "3707084.85835",
    "final_y": "559238.987804",
    "longitude": "-89.9862542771697",
    "latitude": "30.03091085276869",
    "geocoded_column": {
      "latitude": "30.03091085276869",
      "longitude": "-89.9862542771697"
    }
  },
  {
    "service_request": "2024-1126612",
    "request_type": "Trash/Recycling",
    "request_reason": "Illegal Dumping",
    "date_created": "2024-08-30T18:59:01.000",
    "date_modified": "2024-08-30T18:59:01.000",
    "request_status": "Pending",
    "responsible_agency": "Department of Sanitation",
    "final_address": "6751 Cindy Pl",
    "address_councildis": "E",
    "status": "Pending",
    "rowid": "1126612",
    "final_x": "3707213.76843",
    "final_y": "558933.492572",
    "longitude": "-89.98585827377242",
    "latitude": "30.030066693082198",
    "geocoded_column": {
      "latitude": "30.030066693082198",
      "longitude": "-89.98585827377242"
    }
  },
  {
    "service_request": "2024-1126611",
    "request_type": "Property Maintenance",
    "request_reason": "Property Maintenance",
    "date_created": "2024-08-30T18:52:59.000",
    "date_modified": "2024-08-30T18:52:59.000",
    "request_status": "Pending",
    "responsible_agency": "Department of Code Enforcement",
    "final_address": "6700 BLK Cindy Pl",
    "address_councildis": "E",
    "status": "Pending",
    "rowid": "1126611",
    "final_x": "3707228.82304",
    "final_y": "558747.23728",
    "longitude": "-89.98581762317008",
    "latitude": "30.029554077271175",
    "geocoded_column": {
      "latitude": "30.029554077271175",
      "longitude": "-89.98581762317008"
    }
  },
  {
    "service_request": "2024-1126610",
    "request_type": "Roads/Drainage",
    "request_reason": "Catch Basin - Clogged",
    "date_created": "2024-08-30T18:52:29.000",
    "date_modified": "2024-08-30T18:52:29.000",
    "request_status": "Pending",
    "responsible_agency": "Department of Public Works",
    "final_address": "3130 St Philip St",
    "address_councildis": "A",
    "status": "Pending",
    "rowid": "1126610",
    "final_x": "3675731.14651",
    "final_y": "539100.696842",
    "longitude": "-90.0860257340666",
    "latitude": "29.976513929106797",
    "geocoded_column": {
      "latitude": "29.976513929106797",
      "longitude": "-90.0860257340666"
    }
  },
  {
    "service_request": "2024-1126609",
    "request_type": "Roads/Drainage",
    "request_reason": "Street Flooding / Drainage",
    "date_created": "2024-08-30T18:51:11.000",
    "date_modified": "2024-08-30T18:51:11.000",
    "request_status": "Pending",
    "responsible_agency": "Department of Public Works",
    "final_address": "3130 St Philip St",
    "address_councildis": "A",
    "status": "Pending",
    "rowid": "1126609",
    "final_x": "3675731.14651",
    "final_y": "539100.696842",
    "longitude": "-90.0860257340666",
    "latitude": "29.976513929106797",
    "geocoded_column": {
      "latitude": "29.976513929106797",
      "longitude": "-90.0860257340666"
    }
  },
  {
    "service_request": "2024-1126608",
    "request_type": "Traffic Signals/Signs/Striping/Streetlights",
    "request_reason": "Traffic Sign Missing/Damaged",
    "date_created": "2024-08-30T18:50:04.000",
    "date_modified": "2024-08-30T18:50:04.000",
    "request_status": "Pending",
    "responsible_agency": "Department of Public Works",
    "final_address": "1936 General Taylor St",
    "address_councildis": "B",
    "status": "Pending",
    "rowid": "1126608",
    "final_x": "3672270.15028",
    "final_y": "522395.43673",
    "longitude": "-90.09752566835706",
    "latitude": "29.930683128875362",
    "geocoded_column": {
      "latitude": "29.930683128875362",
      "longitude": "-90.09752566835706"
    }
  },
  {
    "service_request": "2024-1126607",
    "request_type": "Property Maintenance",
    "request_reason": "Property Maintenance",
    "date_created": "2024-08-30T18:46:04.000",
    "date_modified": "2024-08-30T18:46:04.000",
    "request_status": "Pending",
    "responsible_agency": "Department of Code Enforcement",
    "final_address": "6701 Cindy Pl",
    "address_councildis": "E",
    "status": "Pending",
    "rowid": "1126607",
    "final_x": "3707368.9404",
    "final_y": "558680.943068",
    "longitude": "-89.98537732273275",
    "latitude": "30.02936726263741",
    "geocoded_column": {
      "latitude": "30.02936726263741",
      "longitude": "-89.98537732273275"
    }
  },
  {
    "service_request": "2024-1126606",
    "request_type": "Property Maintenance",
    "request_reason": "Property Maintenance",
    "date_created": "2024-08-30T18:44:16.000",
    "date_modified": "2024-08-30T18:44:16.000",
    "request_status": "Pending",
    "responsible_agency": "Department of Code Enforcement",
    "final_address": "8501 Lake Forest Blvd",
    "address_councildis": "E",
    "status": "Pending",
    "rowid": "1126606",
    "final_x": "3705934.16228",
    "final_y": "558213.466524",
    "longitude": "-89.98992847266243",
    "latitude": "30.028128216452462",
    "geocoded_column": {
      "latitude": "30.028128216452462",
      "longitude": "-89.98992847266243"
    }
  },
  {
    "service_request": "2024-1126605",
    "request_type": "Trash/Recycling",
    "request_reason": "Repair Recycling Cart",
    "date_created": "2024-08-30T18:42:45.000",
    "date_modified": "2024-08-30T18:42:45.000",
    "request_status": "Pending",
    "responsible_agency": "Department of Sanitation",
    "final_address": "925 Washington Ave",
    "address_councildis": "B",
    "status": "Pending",
    "rowid": "1126605",
    "final_x": "3677367.10568",
    "final_y": "520428.266104",
    "longitude": "-90.08150315515392",
    "latitude": "29.925121912022405",
    "geocoded_column": {
      "latitude": "29.925121912022405",
      "longitude": "-90.08150315515392"
    }
  },
  {
    "service_request": "2024-1126604",
    "request_type": "Property Maintenance",
    "request_reason": "Property Maintenance",
    "date_created": "2024-08-30T18:42:16.000",
    "date_modified": "2024-08-30T18:42:16.000",
    "request_status": "Pending",
    "responsible_agency": "Department of Code Enforcement",
    "final_address": "8500 BLK Lake Forest Blvd",
    "address_councildis": "E",
    "status": "Pending",
    "rowid": "1126604",
    "final_x": "3705897.48253",
    "final_y": "558043.747873",
    "longitude": "-89.99005066459519",
    "latitude": "30.02766273876828",
    "geocoded_column": {
      "latitude": "30.02766273876828",
      "longitude": "-89.99005066459519"
    }
  },
  {
    "service_request": "2024-1126603",
    "request_type": "Trash/Recycling",
    "request_reason": "Illegal Dumping",
    "date_created": "2024-08-30T18:18:48.000",
    "date_modified": "2024-08-30T18:18:48.000",
    "request_status": "Pending",
    "responsible_agency": "Department of Sanitation",
    "final_address": "1020 Thalia St",
    "address_councildis": "B",
    "status": "Pending",
    "rowid": "1126603",
    "final_x": "3680718.88322",
    "final_y": "525162.434109",
    "longitude": "-90.07075800670351",
    "latitude": "29.938038200671638",
    "geocoded_column": {
      "latitude": "29.938038200671638",
      "longitude": "-90.07075800670351"
    }
  },
  {
    "service_request": "2024-1126602",
    "request_type": "Utility Poles",
    "request_reason": "Utility Pole Leaning",
    "date_created": "2024-08-30T17:49:26.000",
    "date_modified": "2024-08-30T17:49:31.000",
    "request_status": "Pending",
    "responsible_agency": "Utility Company Collective",
    "final_address": "2334 Magazine St",
    "address_councildis": "B",
    "status": "Pending",
    "rowid": "1126602",
    "final_x": "3678351.71291",
    "final_y": "521647.046457",
    "longitude": "-90.07835292777139",
    "latitude": "29.928443546421835",
    "geocoded_column": {
      "latitude": "29.928443546421835",
      "longitude": "-90.07835292777139"
    }
  },
  {
    "service_request": "2024-1126601",
    "request_type": "Trash/Recycling",
    "request_reason": "Replace Trash Cart",
    "date_created": "2024-08-30T17:32:45.000",
    "date_modified": "2024-08-30T17:32:46.000",
    "request_status": "Pending",
    "responsible_agency": "Department of Sanitation",
    "final_address": "2541 Chelsea Dr",
    "address_councildis": "C",
    "status": "Assigned to Contractor",
    "contractor": "Richards Disposal",
    "rowid": "1126601",
    "final_x": "3704242.98372",
    "final_y": "521763.961018",
    "longitude": "-89.99661609959306",
    "latitude": "29.92795989564591",
    "geocoded_column": {
      "latitude": "29.92795989564591",
      "longitude": "-89.99661609959306"
    }
  },
  {
    "service_request": "2024-1126600",
    "request_type": "Healthy Homes",
    "request_reason": "Healthy Homes",
    "date_created": "2024-08-30T17:19:55.000",
    "date_modified": "2024-08-30T17:19:55.000",
    "request_status": "Pending",
    "responsible_agency": "Department of Code Enforcement",
    "final_address": "1661 Paul Morphy St",
    "address_councildis": "D",
    "status": "Pending",
    "rowid": "1126600",
    "final_x": "3679080.20149",
    "final_y": "540824.866763",
    "longitude": "-90.07538861418993",
    "latitude": "29.981154132376545",
    "geocoded_column": {
      "latitude": "29.981154132376545",
      "longitude": "-90.07538861418993"
    }
  },
  {
    "service_request": "2024-1126599",
    "request_type": "Mosquito, Termite & Rodent Control",
    "request_reason": "Rodent Complaint (Rats)",
    "date_created": "2024-08-30T17:19:12.000",
    "date_modified": "2024-08-30T17:19:12.000",
    "request_status": "Pending",
    "responsible_agency": "Mosquito, Termite & Rodent Control Board",
    "final_address": "1661 Paul Morphy St",
    "address_councildis": "D",
    "status": "Pending",
    "rowid": "1126599",
    "final_x": "3679080.20149",
    "final_y": "540824.866763",
    "longitude": "-90.07538861418993",
    "latitude": "29.981154132376545",
    "geocoded_column": {
      "latitude": "29.981154132376545",
      "longitude": "-90.07538861418993"
    }
  },
  {
    "service_request": "2024-1126598",
    "request_type": "Property Maintenance",
    "request_reason": "Property Maintenance",
    "date_created": "2024-08-30T17:16:14.000",
    "date_modified": "2024-08-30T17:16:14.000",
    "request_status": "Pending",
    "responsible_agency": "Department of Code Enforcement",
    "final_address": "1661 Paul Morphy St",
    "address_councildis": "D",
    "status": "Pending",
    "rowid": "1126598",
    "final_x": "3679080.20149",
    "final_y": "540824.866763",
    "longitude": "-90.07538861418993",
    "latitude": "29.981154132376545",
    "geocoded_column": {
      "latitude": "29.981154132376545",
      "longitude": "-90.07538861418993"
    }
  },
  {
    "service_request": "2024-1126597",
    "request_type": "Property Maintenance",
    "request_reason": "Property Maintenance",
    "date_created": "2024-08-30T17:03:20.000",
    "date_modified": "2024-08-30T17:03:20.000",
    "request_status": "Pending",
    "responsible_agency": "Department of Code Enforcement",
    "final_address": "2024 N Villere St",
    "address_councildis": "C",
    "status": "Pending",
    "rowid": "1126597",
    "final_x": "3684372.9734",
    "final_y": "537328.178568",
    "longitude": "-90.05879452004342",
    "latitude": "29.97137862956497",
    "geocoded_column": {
      "latitude": "29.97137862956497",
      "longitude": "-90.05879452004342"
    }
  },
  {
    "service_request": "2024-1126596",
    "request_type": "Trash/Recycling",
    "request_reason": "Request a Large Item Pick Up",
    "date_created": "2024-08-30T16:53:34.000",
    "date_modified": "2024-08-30T16:53:34.000",
    "request_status": "Pending",
    "responsible_agency": "Department of Sanitation",
    "final_address": "5551 Rickert Dr",
    "address_councildis": "E",
    "status": "Assigned to Contractor",
    "contractor": "Waste Pro",
    "rowid": "1126596",
    "final_x": "3703191.32983",
    "final_y": "556411.421786",
    "longitude": "-89.99866192063784",
    "latitude": "30.02326142616753",
    "geocoded_column": {
      "latitude": "30.02326142616753",
      "longitude": "-89.99866192063784"
    }
  },
  {
    "service_request": "2024-1126595",
    "request_type": "Roads/Drainage",
    "request_reason": "Street Subsidence (Sinking)",
    "date_created": "2024-08-30T16:50:37.000",
    "date_modified": "2024-08-30T16:50:37.000",
    "request_status": "Pending",
    "responsible_agency": "Department of Public Works",
    "final_address": "HARRISON AVE & COLBERT ST",
    "address_councildis": "A",
    "status": "Pending",
    "rowid": "1126595",
    "final_x": "3667591.3",
    "final_y": "549334.88",
    "longitude": "-90.11138924614245",
    "latitude": "30.004895562146356",
    "geocoded_column": {
      "latitude": "30.004895562146356",
      "longitude": "-90.11138924614245"
    }
  },
  {
    "service_request": "2024-1126594",
    "request_type": "Property Maintenance",
    "request_reason": "Property Maintenance",
    "date_created": "2024-08-30T16:41:40.000",
    "date_modified": "2024-08-30T16:41:40.000",
    "request_status": "Pending",
    "responsible_agency": "Department of Code Enforcement",
    "final_address": "3731 Elysian Fields Ave",
    "address_councildis": "D",
    "status": "Pending",
    "rowid": "1126594",
    "final_x": "3684342.83241",
    "final_y": "546511.526737",
    "longitude": "-90.05856705401689",
    "latitude": "29.99663051933429",
    "geocoded_column": {
      "latitude": "29.99663051933429",
      "longitude": "-90.05856705401689"
    }
  },
  {
    "service_request": "2024-1126593",
    "request_type": "Trash/Recycling",
    "request_reason": "Request a Large Item Pick Up",
    "date_created": "2024-08-30T16:41:06.000",
    "date_modified": "2024-08-30T16:44:11.000",
    "request_status": "Pending",
    "responsible_agency": "Department of Sanitation",
    "final_address": "2002 Desire St",
    "address_councildis": "D",
    "status": "Assigned to Contractor",
    "contractor": "IV Waste",
    "rowid": "1126593",
    "final_x": "3690985.56156",
    "final_y": "539138.059274",
    "longitude": "-90.03784647624525",
    "latitude": "29.976151258188818",
    "geocoded_column": {
      "latitude": "29.976151258188818",
      "longitude": "-90.03784647624525"
    }
  },
  {
    "service_request": "2024-1126592",
    "request_type": "Parks & Parkways",
    "request_reason": "Request Grass Cutting Service (City Owned Property)",
    "date_created": "2024-08-30T16:38:01.000",
    "date_modified": "2024-08-30T16:38:01.000",
    "request_status": "Pending",
    "responsible_agency": "Department of Parks & Parkway",
    "final_address": "7800 BLK Star St",
    "address_councildis": "E",
    "status": "Pending",
    "rowid": "1126592",
    "final_x": "3720600.76874",
    "final_y": "574569.116397",
    "longitude": "-89.94295636945121",
    "latitude": "30.072618525031217",
    "geocoded_column": {
      "latitude": "30.072618525031217",
      "longitude": "-89.94295636945121"
    }
  },
  {
    "service_request": "2024-1126591",
    "request_type": "Trash/Recycling",
    "request_reason": "Request a Large Item Pick Up",
    "date_created": "2024-08-30T16:36:56.000",
    "date_modified": "2024-08-30T16:36:57.000",
    "request_status": "Pending",
    "responsible_agency": "Department of Sanitation",
    "final_address": "1939 Mazant St",
    "address_councildis": "D",
    "status": "Assigned to Contractor",
    "contractor": "IV Waste",
    "rowid": "1126591",
    "final_x": "3692970.12176",
    "final_y": "538516.140041",
    "longitude": "-90.03160099331829",
    "latitude": "29.974379357687717",
    "geocoded_column": {
      "latitude": "29.974379357687717",
      "longitude": "-90.03160099331829"
    }
  },
  {
    "service_request": "2024-1126590",
    "request_type": "Abandoned Vehicles",
    "request_reason": "Abandoned/Junk Vehicles",
    "date_created": "2024-08-30T16:36:08.000",
    "date_modified": "2024-08-30T16:36:08.000",
    "request_status": "Pending",
    "responsible_agency": "Department of Public Works",
    "final_address": "5000 BLK Saint Charles Ave",
    "address_councildis": "B",
    "status": "Pending",
    "rowid": "1126590",
    "final_x": "3668563.58377",
    "final_y": "520897.395657",
    "longitude": "-90.10927731774832",
    "latitude": "29.926673393415896",
    "geocoded_column": {
      "latitude": "29.926673393415896",
      "longitude": "-90.10927731774832"
    }
  },
  {
    "service_request": "2024-1126589",
    "request_type": "Trash/Recycling",
    "request_reason": "Request a Large Item Pick Up",
    "date_created": "2024-08-30T16:35:21.000",
    "date_modified": "2024-08-30T16:35:22.000",
    "request_status": "Pending",
    "responsible_agency": "Department of Sanitation",
    "final_address": "8419 Beechwood Ct",
    "address_councildis": "E",
    "status": "Assigned to Contractor",
    "contractor": "Waste Pro",
    "rowid": "1126589",
    "final_x": "3704155.51671",
    "final_y": "560668.513054",
    "longitude": "-89.99545826237454",
    "latitude": "30.03493585494704",
    "geocoded_column": {
      "latitude": "30.03493585494704",
      "longitude": "-89.99545826237454"
    }
  },
  {
    "service_request": "2024-1126588",
    "request_type": "Property Maintenance",
    "request_reason": "Property Maintenance",
    "date_created": "2024-08-30T16:33:43.000",
    "date_modified": "2024-08-30T16:33:43.000",
    "request_status": "Pending",
    "responsible_agency": "Department of Code Enforcement",
    "final_address": "4614 Baccich St",
    "address_councildis": "D",
    "status": "Pending",
    "rowid": "1126588",
    "final_x": "3687730.73385",
    "final_y": "549857.912404",
    "longitude": "-90.04774629521152",
    "latitude": "30.00572779438646",
    "geocoded_column": {
      "latitude": "30.00572779438646",
      "longitude": "-90.04774629521152"
    }
  },
  {
    "service_request": "2024-1126587",
    "request_type": "Property Maintenance",
    "request_reason": "Property Maintenance",
    "date_created": "2024-08-30T16:33:24.000",
    "date_modified": "2024-08-30T16:33:24.000",
    "request_status": "Pending",
    "responsible_agency": "Department of Code Enforcement",
    "final_address": "4606 Baccich St",
    "address_councildis": "D",
    "status": "Pending",
    "rowid": "1126587",
    "final_x": "3687731.30127",
    "final_y": "549823.443924",
    "longitude": "-90.0477457243508",
    "latitude": "30.00563300113",
    "geocoded_column": {
      "latitude": "30.00563300113",
      "longitude": "-90.0477457243508"
    }
  },
  {
    "service_request": "2024-1126586",
    "request_type": "Trash/Recycling",
    "request_reason": "Order Trash Cart",
    "date_created": "2024-08-30T16:33:05.000",
    "date_modified": "2024-08-30T16:33:06.000",
    "request_status": "Pending",
    "responsible_agency": "Department of Sanitation",
    "final_address": "4500 Francis Dr",
    "address_councildis": "D",
    "status": "Assigned to Contractor",
    "contractor": "Waste Pro",
    "rowid": "1126586",
    "final_x": "3698318.33347",
    "final_y": "553004.253271",
    "longitude": "-90.01418339560263",
    "latitude": "30.014048175473715",
    "geocoded_column": {
      "latitude": "30.014048175473715",
      "longitude": "-90.01418339560263"
    }
  },
  {
    "service_request": "2024-1126585",
    "request_type": "Trash/Recycling",
    "request_reason": "Order Trash Cart",
    "date_created": "2024-08-30T16:32:42.000",
    "date_modified": "2024-08-30T16:32:43.000",
    "request_status": "Pending",
    "responsible_agency": "Department of Sanitation",
    "final_address": "4502 Francis Dr",
    "address_councildis": "D",
    "status": "Assigned to Contractor",
    "contractor": "Waste Pro",
    "rowid": "1126585",
    "final_x": "3698316.67767",
    "final_y": "553031.849815",
    "longitude": "-90.01418762327793",
    "latitude": "30.014124107970314",
    "geocoded_column": {
      "latitude": "30.014124107970314",
      "longitude": "-90.01418762327793"
    }
  },
  {
    "service_request": "2024-1126584",
    "request_type": "Property Maintenance",
    "request_reason": "Property Maintenance",
    "date_created": "2024-08-30T16:31:53.000",
    "date_modified": "2024-08-30T16:31:54.000",
    "request_status": "Pending",
    "responsible_agency": "Department of Code Enforcement",
    "final_address": "4602 Baccich St",
    "address_councildis": "D",
    "status": "Pending",
    "rowid": "1126584",
    "final_x": "3687735.04431",
    "final_y": "549773.681876",
    "longitude": "-90.04773566311015",
    "latitude": "30.005496058167797",
    "geocoded_column": {
      "latitude": "30.005496058167797",
      "longitude": "-90.04773566311015"
    }
  },
  {
    "service_request": "2024-1126582",
    "request_type": "Trash/Recycling",
    "request_reason": "Dead Animal Pick Up",
    "date_created": "2024-08-30T16:30:26.000",
    "date_modified": "2024-08-30T16:30:27.000",
    "request_status": "Pending",
    "responsible_agency": "Department of Sanitation",
    "final_address": "6463 Memphis St",
    "address_councildis": "A",
    "status": "Assigned to Contractor",
    "contractor": "IV Waste",
    "rowid": "1126582",
    "final_x": "3669554.05946",
    "final_y": "550463.34754",
    "longitude": "-90.10515025865587",
    "latitude": "30.007940753688384",
    "geocoded_column": {
      "latitude": "30.007940753688384",
      "longitude": "-90.10515025865587"
    }
  },
  {
    "service_request": "2024-1126583",
    "request_type": "Trash/Recycling",
    "request_reason": "Dead Animal Pick Up",
    "date_created": "2024-08-30T16:30:26.000",
    "date_modified": "2024-08-30T16:36:26.000",
    "request_status": "Pending",
    "responsible_agency": "Department of Sanitation",
    "final_address": "6463 Memphis St",
    "address_councildis": "A",
    "status": "Assigned to Contractor",
    "contractor": "IV Waste",
    "rowid": "1126583",
    "final_x": "3669554.05946",
    "final_y": "550463.34754",
    "longitude": "-90.10515025865587",
    "latitude": "30.007940753688384",
    "geocoded_column": {
      "latitude": "30.007940753688384",
      "longitude": "-90.10515025865587"
    }
  },
  {
    "service_request": "2024-1126581",
    "request_type": "Property Maintenance",
    "request_reason": "Property Maintenance",
    "date_created": "2024-08-30T16:29:14.000",
    "date_modified": "2024-08-30T16:29:15.000",
    "request_status": "Pending",
    "responsible_agency": "Department of Code Enforcement",
    "final_address": "1911 Allen St",
    "address_councildis": "D",
    "status": "Pending",
    "rowid": "1126581",
    "final_x": "3682565.08828",
    "final_y": "539183.458698",
    "longitude": "-90.06443918837462",
    "latitude": "29.97653517591206",
    "geocoded_column": {
      "latitude": "29.97653517591206",
      "longitude": "-90.06443918837462"
    }
  },
  {
    "service_request": "2024-1126580",
    "request_type": "Trash/Recycling",
    "request_reason": "Request a Large Item Pick Up",
    "date_created": "2024-08-30T16:28:58.000",
    "date_modified": "2024-08-30T16:29:00.000",
    "request_status": "Pending",
    "responsible_agency": "Department of Sanitation",
    "final_address": "7095 Edgefield Dr",
    "address_councildis": "E",
    "status": "Assigned to Contractor",
    "contractor": "Waste Pro",
    "rowid": "1126580",
    "final_x": "3718586.25023",
    "final_y": "569528.63703",
    "longitude": "-89.94951732889695",
    "latitude": "30.05882637719464",
    "geocoded_column": {
      "latitude": "30.05882637719464",
      "longitude": "-89.94951732889695"
    }
  },
  {
    "service_request": "2024-1126578",
    "request_type": "Parks & Parkways",
    "request_reason": "Request Tree Service (Right of Way/Public Property)",
    "date_created": "2024-08-30T16:25:12.000",
    "date_modified": "2024-08-30T16:25:12.000",
    "request_status": "Pending",
    "responsible_agency": "Department of Parks & Parkway",
    "final_address": "1324 Jena St",
    "address_councildis": "B",
    "status": "Pending",
    "rowid": "1126578",
    "final_x": "3670468.72859",
    "final_y": "520163.41324",
    "longitude": "-90.10328815018329",
    "latitude": "29.92459907721",
    "geocoded_column": {
      "latitude": "29.92459907721",
      "longitude": "-90.10328815018329"
    }
  },
  {
    "service_request": "2024-1126577",
    "request_type": "Abandoned Vehicles",
    "request_reason": "Abandoned/Junk Vehicles",
    "date_created": "2024-08-30T16:19:26.000",
    "date_modified": "2024-08-30T16:19:26.000",
    "request_status": "Pending",
    "responsible_agency": "Department of Public Works",
    "final_address": "4800 Charmes Ct",
    "address_councildis": "E",
    "status": "Inspected",
    "rowid": "1126577",
    "final_x": "3726355.29389",
    "final_y": "561148.550878",
    "longitude": "-89.92528593077785",
    "latitude": "30.035524365527536",
    "geocoded_column": {
      "latitude": "30.035524365527536",
      "longitude": "-89.92528593077785"
    }
  },
  {
    "service_request": "2024-1126576",
    "request_type": "Traffic Signals/Signs/Striping/Streetlights",
    "request_reason": "Street Name Sign Damaged or Missing",
    "date_created": "2024-08-30T16:18:52.000",
    "date_modified": "2024-08-30T16:18:52.000",
    "request_status": "Pending",
    "responsible_agency": "Department of Public Works",
    "final_address": "AMELIA ST & MAGNOLIA ST",
    "address_councildis": "B",
    "status": "Pending",
    "rowid": "1126576",
    "final_x": "3672195.0",
    "final_y": "524970.58",
    "longitude": "-90.09767524153334",
    "latitude": "29.9377661684098",
    "geocoded_column": {
      "latitude": "29.9377661684098",
      "longitude": "-90.09767524153334"
    }
  },
  {
    "service_request": "2024-1126575",
    "request_type": "Roads/Drainage",
    "request_reason": "Pothole",
    "date_created": "2024-08-30T16:18:10.000",
    "date_modified": "2024-08-30T16:18:10.000",
    "request_status": "Pending",
    "responsible_agency": "Department of Public Works",
    "final_address": "311 Spencer Ave",
    "address_councildis": "A",
    "status": "Pending",
    "rowid": "1126575",
    "final_x": "3665334.31245",
    "final_y": "553706.261463",
    "longitude": "-90.11837312739662",
    "latitude": "30.016981326187015",
    "geocoded_column": {
      "latitude": "30.016981326187015",
      "longitude": "-90.11837312739662"
    }
  },
  {
    "service_request": "2024-1126574",
    "request_type": "Traffic Signals/Signs/Striping/Streetlights",
    "request_reason": "Street Name Sign Damaged or Missing",
    "date_created": "2024-08-30T16:17:52.000",
    "date_modified": "2024-08-30T16:17:52.000",
    "request_status": "Pending",
    "responsible_agency": "Department of Public Works",
    "final_address": "DELACHAISE ST & S GALVEZ ST",
    "address_councildis": "B",
    "status": "Pending",
    "rowid": "1126574",
    "final_x": "3671401.2",
    "final_y": "527684.38",
    "longitude": "-90.10008912446038",
    "latitude": "29.94525174909622",
    "geocoded_column": {
      "latitude": "29.94525174909622",
      "longitude": "-90.10008912446038"
    }
  },
  {
    "service_request": "2024-1126573",
    "request_type": "Trash/Recycling",
    "request_reason": "Request a Large Item Pick Up",
    "date_created": "2024-08-30T16:10:31.000",
    "date_modified": "2024-08-30T16:10:32.000",
    "request_status": "Pending",
    "responsible_agency": "Department of Sanitation",
    "final_address": "2720 Hollygrove St",
    "address_councildis": "A",
    "status": "Assigned to Contractor",
    "contractor": "IV Waste",
    "rowid": "1126573",
    "final_x": "3663368.40135",
    "final_y": "534688.18919",
    "longitude": "-90.12521817439608",
    "latitude": "29.964745233484994",
    "geocoded_column": {
      "latitude": "29.964745233484994",
      "longitude": "-90.12521817439608"
    }
  },
  {
    "service_request": "2024-1126572",
    "request_type": "Trash/Recycling",
    "request_reason": "Repair Recycling Cart",
    "date_created": "2024-08-30T16:04:50.000",
    "date_modified": "2024-08-30T16:04:50.000",
    "request_status": "Pending",
    "responsible_agency": "Department of Sanitation",
    "final_address": "2361 Annunciation St",
    "address_councildis": "B",
    "status": "Pending",
    "rowid": "1126572",
    "final_x": "3678811.65787",
    "final_y": "520701.995897",
    "longitude": "-90.0769336923587",
    "latitude": "29.925831106154792",
    "geocoded_column": {
      "latitude": "29.925831106154792",
      "longitude": "-90.0769336923587"
    }
  },
  {
    "service_request": "2024-1126571",
    "request_type": "Trash/Recycling",
    "request_reason": "Order Recycling Cart",
    "date_created": "2024-08-30T16:04:28.000",
    "date_modified": "2024-08-30T16:04:28.000",
    "request_status": "Pending",
    "responsible_agency": "Department of Sanitation",
    "final_address": "New Orleans, Louisiana",
    "status": "Pending",
    "rowid": "1126571",
    "longitude": "0.0",
    "latitude": "0.0",
    "geocoded_column": {
      "latitude": "0.0",
      "longitude": "0.0"
    }
  },
  {
    "service_request": "2024-1126570",
    "request_type": "Trash/Recycling",
    "request_reason": "Request a Large Item Pick Up",
    "date_created": "2024-08-30T16:03:26.000",
    "date_modified": "2024-08-30T16:03:27.000",
    "request_status": "Pending",
    "responsible_agency": "Department of Sanitation",
    "final_address": "5551 Christian Ln",
    "address_councildis": "E",
    "status": "Assigned to Contractor",
    "contractor": "Waste Pro",
    "rowid": "1126570",
    "final_x": "3704526.48132",
    "final_y": "556806.355226",
    "longitude": "-89.99442858002503",
    "latitude": "30.024304511011003",
    "geocoded_column": {
      "latitude": "30.024304511011003",
      "longitude": "-89.99442858002503"
    }
  },
  {
    "service_request": "2024-1126569",
    "request_type": "Trash/Recycling",
    "request_reason": "Request a Large Item Pick Up",
    "date_created": "2024-08-30T15:59:47.000",
    "date_modified": "2024-08-30T15:59:47.000",
    "request_status": "Pending",
    "responsible_agency": "Department of Sanitation",
    "final_address": "2433 Lapeyrouse St",
    "address_councildis": "D",
    "status": "Assigned to Contractor",
    "contractor": "IV Waste",
    "rowid": "1126569",
    "final_x": "3679736.06549",
    "final_y": "539709.338058",
    "longitude": "-90.0733558426054",
    "latitude": "29.97806700097407",
    "geocoded_column": {
      "latitude": "29.97806700097407",
      "longitude": "-90.0733558426054"
    }
  },
  {
    "service_request": "2024-1126568",
    "request_type": "Traffic Signals/Signs/Striping/Streetlights",
    "request_reason": "Additional signage",
    "date_created": "2024-08-30T15:57:40.000",
    "date_modified": "2024-08-30T15:57:41.000",
    "request_status": "Pending",
    "responsible_agency": "Department of Public Works",
    "final_address": "210 OKeefe Ave",
    "address_councildis": "B",
    "status": "Pending",
    "rowid": "1126568",
    "final_x": "3679876.32213",
    "final_y": "530778.312898",
    "longitude": "-90.07322306590953",
    "latitude": "29.95350549234681",
    "geocoded_column": {
      "latitude": "29.95350549234681",
      "longitude": "-90.07322306590953"
    }
  },
  {
    "service_request": "2024-1126567",
    "request_type": "Roads/Drainage",
    "request_reason": "Catch Basin - Clogged",
    "date_created": "2024-08-30T15:51:26.000",
    "date_modified": "2024-08-30T15:51:27.000",
    "request_status": "Pending",
    "responsible_agency": "Department of Public Works",
    "final_address": "241 Royal St",
    "address_councildis": "C",
    "status": "Pending",
    "rowid": "1126567",
    "final_x": "3681623.62287",
    "final_y": "531290.81037",
    "longitude": "-90.06768795897727",
    "latitude": "29.954861734960684",
    "geocoded_column": {
      "latitude": "29.954861734960684",
      "longitude": "-90.06768795897727"
    }
  },
  {
    "service_request": "2024-1126566",
    "request_type": "Abandoned Vehicles",
    "request_reason": "Abandoned/Junk Vehicles",
    "date_created": "2024-08-30T15:50:57.000",
    "date_modified": "2024-08-30T15:50:57.000",
    "request_status": "Pending",
    "responsible_agency": "Department of Public Works",
    "final_address": "5000 BLK Saint Charles Ave",
    "address_councildis": "B",
    "status": "Pending",
    "rowid": "1126566",
    "final_x": "3668567.53553",
    "final_y": "520971.593015",
    "longitude": "-90.10926234095423",
    "latitude": "29.926877296493497",
    "geocoded_column": {
      "latitude": "29.926877296493497",
      "longitude": "-90.10926234095423"
    }
  },
  {
    "service_request": "2024-1126565",
    "request_type": "Roads/Drainage",
    "request_reason": "Pothole",
    "date_created": "2024-08-30T15:50:23.000",
    "date_modified": "2024-08-30T15:50:24.000",
    "request_status": "Pending",
    "responsible_agency": "Department of Public Works",
    "final_address": "4800 BLK Cerise Ave",
    "address_councildis": "E",
    "status": "Pending",
    "rowid": "1126565",
    "final_x": "3708526.9041",
    "final_y": "556474.858295",
    "longitude": "-89.98180044110164",
    "latitude": "30.023263887014085",
    "geocoded_column": {
      "latitude": "30.023263887014085",
      "longitude": "-89.98180044110164"
    }
  },
  {
    "service_request": "2024-1126564",
    "request_type": "Property Maintenance",
    "request_reason": "Property Maintenance",
    "date_created": "2024-08-30T15:48:21.000",
    "date_modified": "2024-08-30T15:48:21.000",
    "request_status": "Pending",
    "responsible_agency": "Department of Code Enforcement",
    "final_address": "4128 Fontainebleau Dr",
    "address_councildis": "B",
    "status": "Pending",
    "rowid": "1126564",
    "final_x": "3669765.84058",
    "final_y": "529100.76064",
    "longitude": "-90.10520455396781",
    "latitude": "29.949194629425016",
    "geocoded_column": {
      "latitude": "29.949194629425016",
      "longitude": "-90.10520455396781"
    }
  },
  {
    "service_request": "2024-1126563",
    "request_type": "Trash/Recycling",
    "request_reason": "Order Recycling Cart",
    "date_created": "2024-08-30T15:46:36.000",
    "date_modified": "2024-08-30T15:46:37.000",
    "request_status": "Pending",
    "responsible_agency": "Department of Sanitation",
    "final_address": "4934 S Galvez St",
    "address_councildis": "B",
    "status": "Pending",
    "rowid": "1126563",
    "final_x": "3668964.3371",
    "final_y": "527336.083583",
    "longitude": "-90.10779485545753",
    "latitude": "29.944365938891234",
    "geocoded_column": {
      "latitude": "29.944365938891234",
      "longitude": "-90.10779485545753"
    }
  },
  {
    "service_request": "2024-1126562",
    "request_type": "Trash/Recycling",
    "request_reason": "Replace Recycling Cart",
    "date_created": "2024-08-30T15:40:29.000",
    "date_modified": "2024-08-30T15:40:29.000",
    "request_status": "Pending",
    "responsible_agency": "Department of Sanitation",
    "final_address": "4928 S Johnson St",
    "address_councildis": "B",
    "status": "Pending",
    "rowid": "1126562",
    "final_x": "3668997.93857",
    "final_y": "526943.505662",
    "longitude": "-90.10770202356689",
    "latitude": "29.94328548871366",
    "geocoded_column": {
      "latitude": "29.94328548871366",
      "longitude": "-90.10770202356689"
    }
  },
  {
    "service_request": "2024-1126561",
    "request_type": "Roads/Drainage",
    "request_reason": "Catch Basin - Broken/Damage",
    "date_created": "2024-08-30T15:37:24.000",
    "date_modified": "2024-08-30T15:37:24.000",
    "request_status": "Pending",
    "responsible_agency": "Department of Public Works",
    "final_address": "1634 N Prieur St",
    "address_councildis": "D",
    "status": "Pending",
    "rowid": "1126561",
    "final_x": "3681552.95567",
    "final_y": "538632.565705",
    "longitude": "-90.067655028895",
    "latitude": "29.975051191435238",
    "geocoded_column": {
      "latitude": "29.975051191435238",
      "longitude": "-90.067655028895"
    }
  },
  {
    "service_request": "2024-1126559",
    "request_type": "Trash/Recycling",
    "request_reason": "Request a Large Item Pick Up",
    "date_created": "2024-08-30T15:29:15.000",
    "date_modified": "2024-08-30T15:29:16.000",
    "request_status": "Pending",
    "responsible_agency": "Department of Sanitation",
    "final_address": "7719 Green St",
    "address_councildis": "A",
    "status": "Assigned to Contractor",
    "contractor": "IV Waste",
    "rowid": "1126559",
    "final_x": "3664151.92135",
    "final_y": "528814.220032",
    "longitude": "-90.12293980648849",
    "latitude": "29.948570990959954",
    "geocoded_column": {
      "latitude": "29.948570990959954",
      "longitude": "-90.12293980648849"
    }
  },
  {
    "service_request": "2024-1126558",
    "request_type": "Roads/Drainage",
    "request_reason": "Street Flooding / Drainage",
    "date_created": "2024-08-30T15:27:51.000",
    "date_modified": "2024-08-30T15:27:51.000",
    "request_status": "Pending",
    "responsible_agency": "Department of Public Works",
    "final_address": "1200 BLK Toledano St",
    "address_councildis": "B",
    "status": "Pending",
    "rowid": "1126558",
    "final_x": "3675176.57382",
    "final_y": "520303.665217",
    "longitude": "-90.088422243085",
    "latitude": "29.924844922010962",
    "geocoded_column": {
      "latitude": "29.924844922010962",
      "longitude": "-90.088422243085"
    }
  },
  {
    "service_request": "2024-1126557",
    "request_type": "Abandoned Vehicles",
    "request_reason": "Abandoned/Junk Vehicles",
    "date_created": "2024-08-30T15:27:04.000",
    "date_modified": "2024-08-30T15:29:22.000",
    "request_status": "Pending",
    "responsible_agency": "Department of Public Works",
    "final_address": "6240 Franklin Ave",
    "address_councildis": "D",
    "status": "Pending",
    "rowid": "1126557",
    "final_x": "3686245.66895",
    "final_y": "556323.393946",
    "longitude": "-90.05220957164948",
    "latitude": "30.023551224693986",
    "geocoded_column": {
      "latitude": "30.023551224693986",
      "longitude": "-90.05220957164948"
    }
  },
  {
    "service_request": "2024-1126556",
    "request_type": "Trash/Recycling",
    "request_reason": "Request a Large Item Pick Up",
    "date_created": "2024-08-30T15:23:10.000",
    "date_modified": "2024-08-30T15:23:12.000",
    "request_status": "Pending",
    "responsible_agency": "Department of Sanitation",
    "final_address": "5530 Laurel St",
    "address_councildis": "A",
    "status": "Assigned to Contractor",
    "contractor": "IV Waste",
    "rowid": "1126556",
    "final_x": "3665965.67188",
    "final_y": "517832.504118",
    "longitude": "-90.11758090535794",
    "latitude": "29.918321959256065",
    "geocoded_column": {
      "latitude": "29.918321959256065",
      "longitude": "-90.11758090535794"
    }
  },
  {
    "service_request": "2024-1126555",
    "request_type": "Trash/Recycling",
    "request_reason": "Request a Large Item Pick Up",
    "date_created": "2024-08-30T15:21:23.000",
    "date_modified": "2024-08-30T15:21:24.000",
    "request_status": "Pending",
    "responsible_agency": "Department of Sanitation",
    "final_address": "4535 S Derbigny St",
    "address_councildis": "B",
    "status": "Assigned to Contractor",
    "contractor": "IV Waste",
    "rowid": "1126555",
    "final_x": "3669600.0043",
    "final_y": "526221.971262",
    "longitude": "-90.1058255482468",
    "latitude": "29.9412837817421",
    "geocoded_column": {
      "latitude": "29.9412837817421",
      "longitude": "-90.1058255482468"
    }
  },
  {
    "service_request": "2024-1126554",
    "request_type": "Trash/Recycling",
    "request_reason": "Request a Large Item Pick Up",
    "date_created": "2024-08-30T15:20:35.000",
    "date_modified": "2024-08-30T15:21:49.000",
    "request_status": "Pending",
    "responsible_agency": "Department of Sanitation",
    "final_address": "7702 Plum St",
    "address_councildis": "A",
    "status": "Assigned to Contractor",
    "contractor": "IV Waste",
    "rowid": "1126554",
    "final_x": "3663214.36826",
    "final_y": "527658.977535",
    "longitude": "-90.12593850557617",
    "latitude": "29.945421643477527",
    "geocoded_column": {
      "latitude": "29.945421643477527",
      "longitude": "-90.12593850557617"
    }
  },
  {
    "service_request": "2024-1126553",
    "request_type": "Roads/Drainage",
    "request_reason": "Catch Basin - Clogged",
    "date_created": "2024-08-30T15:20:01.000",
    "date_modified": "2024-08-30T15:20:03.000",
    "request_status": "Pending",
    "responsible_agency": "Department of Public Works",
    "final_address": "I 10 E & CHEF MENTEUR EXIT",
    "address_councildis": "E",
    "status": "Pending",
    "rowid": "1126553",
    "final_x": "3698336.5",
    "final_y": "550858.18",
    "longitude": "-90.01420405816066",
    "latitude": "30.0081467060236",
    "geocoded_column": {
      "latitude": "30.0081467060236",
      "longitude": "-90.01420405816066"
    }
  },
  {
    "service_request": "2024-1126552",
    "request_type": "Roads/Drainage",
    "request_reason": "Pothole",
    "date_created": "2024-08-30T15:16:34.000",
    "date_modified": "2024-08-30T15:16:35.000",
    "request_status": "Pending",
    "responsible_agency": "Department of Public Works",
    "final_address": "2410 Alabo St",
    "address_councildis": "E",
    "status": "Pending",
    "rowid": "1126552",
    "final_x": "3700163.16208",
    "final_y": "538532.063113",
    "longitude": "-90.00888323000268",
    "latitude": "29.974196487792163",
    "geocoded_column": {
      "latitude": "29.974196487792163",
      "longitude": "-90.00888323000268"
    }
  },
  {
    "service_request": "2024-1126551",
    "request_type": "Abandoned Vehicles",
    "request_reason": "Abandoned/Junk Vehicles",
    "date_created": "2024-08-30T15:16:05.000",
    "date_modified": "2024-08-30T15:16:43.000",
    "request_status": "Pending",
    "responsible_agency": "Department of Public Works",
    "final_address": "9700 BLK Rockton Cir W",
    "address_councildis": "E",
    "status": "Pending",
    "rowid": "1126551",
    "final_x": "3708063.43587",
    "final_y": "562789.569418",
    "longitude": "-89.98302975315976",
    "latitude": "30.04064187865517",
    "geocoded_column": {
      "latitude": "30.04064187865517",
      "longitude": "-89.98302975315976"
    }
  },
  {
    "service_request": "2024-1126550",
    "request_type": "Traffic Signals/Signs/Striping/Streetlights",
    "request_reason": "Traffic Signal Malfunctioning/Damaged",
    "date_created": "2024-08-30T15:13:22.000",
    "date_modified": "2024-08-30T15:13:48.000",
    "request_status": "Pending",
    "responsible_agency": "Department of Public Works",
    "final_address": "DESIRE PKWY & CHEF MENTEUR HWY",
    "address_councildis": "D",
    "status": "Pending",
    "rowid": "1126550",
    "final_x": "3692027.1",
    "final_y": "550101.18",
    "longitude": "-90.03416442567848",
    "latitude": "30.00626344869749",
    "geocoded_column": {
      "latitude": "30.00626344869749",
      "longitude": "-90.03416442567848"
    }
  },
  {
    "service_request": "2024-1126549",
    "request_type": "Trash/Recycling",
    "request_reason": "Request a Large Item Pick Up",
    "date_created": "2024-08-30T15:13:16.000",
    "date_modified": "2024-08-30T15:13:17.000",
    "request_status": "Pending",
    "responsible_agency": "Department of Sanitation",
    "final_address": "14575 Beekman Rd",
    "address_councildis": "E",
    "status": "Assigned to Contractor",
    "contractor": "Waste Pro",
    "rowid": "1126549",
    "final_x": "3721127.23679",
    "final_y": "573100.187113",
    "longitude": "-89.94134845520738",
    "latitude": "30.068562016212294",
    "geocoded_column": {
      "latitude": "30.068562016212294",
      "longitude": "-89.94134845520738"
    }
  },
  {
    "service_request": "2024-1126548",
    "request_type": "Traffic Signals/Signs/Striping/Streetlights",
    "request_reason": "Street Light Outage/Malfunction",
    "date_created": "2024-08-30T15:13:12.000",
    "date_modified": "2024-08-30T15:13:13.000",
    "request_status": "Pending",
    "responsible_agency": "Department of Public Works",
    "final_address": "1427 Polymnia St",
    "address_councildis": "B",
    "status": "Assigned to Contractor",
    "contractor": "Legacy Professional Services",
    "rowid": "1126548",
    "final_x": "3679394.04021",
    "final_y": "524375.397692",
    "longitude": "-90.0749679394668",
    "latitude": "29.935914184115145",
    "geocoded_column": {
      "latitude": "29.935914184115145",
      "longitude": "-90.0749679394668"
    }
  },
  {
    "service_request": "2024-1126547",
    "request_type": "Traffic Signals/Signs/Striping/Streetlights",
    "request_reason": "Traffic Signal Malfunctioning/Damaged",
    "date_created": "2024-08-30T15:12:29.000",
    "date_modified": "2024-08-30T15:12:30.000",
    "request_status": "Pending",
    "responsible_agency": "Department of Public Works",
    "final_address": "CROWDER BLVD & HAYNE BLVD",
    "address_councildis": "E",
    "status": "Pending",
    "rowid": "1126547",
    "final_x": "3702703.2",
    "final_y": "563269.78",
    "longitude": "-89.99995211704505",
    "latitude": "30.042134864972766",
    "geocoded_column": {
      "latitude": "30.042134864972766",
      "longitude": "-89.99995211704505"
    }
  },
  {
    "service_request": "2024-1126546",
    "request_type": "Parks & Parkways",
    "request_reason": "Request Tree Service (Right of Way/Public Property)",
    "date_created": "2024-08-30T15:07:51.000",
    "date_modified": "2024-08-30T15:07:51.000",
    "request_status": "Pending",
    "responsible_agency": "Department of Parks & Parkway",
    "final_address": "6201 Carlisle Ct",
    "address_councildis": "C",
    "status": "Pending",
    "rowid": "1126546",
    "final_x": "3706928.53854",
    "final_y": "516399.584437",
    "longitude": "-89.98833727019122",
    "latitude": "29.913123309537426",
    "geocoded_column": {
      "latitude": "29.913123309537426",
      "longitude": "-89.98833727019122"
    }
  },
  {
    "service_request": "2024-1126545",
    "request_type": "Trash/Recycling",
    "request_reason": "Repair Trash Cart",
    "date_created": "2024-08-30T15:07:23.000",
    "date_modified": "2024-08-30T15:07:24.000",
    "request_status": "Pending",
    "responsible_agency": "Department of Sanitation",
    "final_address": "2031 Independence St",
    "address_councildis": "D",
    "status": "Assigned to Contractor",
    "contractor": "IV Waste",
    "rowid": "1126545",
    "final_x": "3691899.18864",
    "final_y": "539145.52833",
    "longitude": "-90.03496071765055",
    "latitude": "29.976143361376373",
    "geocoded_column": {
      "latitude": "29.976143361376373",
      "longitude": "-90.03496071765055"
    }
  },
  {
    "service_request": "2024-1126544",
    "request_type": "Trash/Recycling",
    "request_reason": "Request a Large Item Pick Up",
    "date_created": "2024-08-30T15:06:58.000",
    "date_modified": "2024-08-30T15:06:59.000",
    "request_status": "Pending",
    "responsible_agency": "Department of Sanitation",
    "final_address": "1824 Sixth St",
    "address_councildis": "B",
    "status": "Assigned to Contractor",
    "contractor": "IV Waste",
    "rowid": "1126544",
    "final_x": "3674947.77614",
    "final_y": "523024.245179",
    "longitude": "-90.08905122496854",
    "latitude": "29.932332469565765",
    "geocoded_column": {
      "latitude": "29.932332469565765",
      "longitude": "-90.08905122496854"
    }
  },
  {
    "service_request": "2024-1126543",
    "request_type": "Trash/Recycling",
    "request_reason": "Repair Trash Cart",
    "date_created": "2024-08-30T15:01:05.000",
    "date_modified": "2024-08-30T15:02:09.000",
    "request_status": "Pending",
    "responsible_agency": "Department of Sanitation",
    "final_address": "2324 Toledano St Apt D",
    "address_councildis": "B",
    "status": "Assigned to Contractor",
    "contractor": "IV Waste",
    "rowid": "1126543",
    "final_x": "3673446.23521",
    "final_y": "524183.254908",
    "longitude": "-90.09375187625442",
    "latitude": "29.935564119542406",
    "geocoded_column": {
      "latitude": "29.935564119542406",
      "longitude": "-90.09375187625442"
    }
  },
  {
    "service_request": "2024-1126542",
    "request_type": "Trash/Recycling",
    "request_reason": "Request a Large Item Pick Up",
    "date_created": "2024-08-30T14:59:46.000",
    "date_modified": "2024-08-30T14:59:47.000",
    "request_status": "Pending",
    "responsible_agency": "Department of Sanitation",
    "final_address": "7822 Henley St",
    "address_councildis": "E",
    "status": "Assigned to Contractor",
    "contractor": "Waste Pro",
    "rowid": "1126542",
    "final_x": "3696605.82096",
    "final_y": "559811.327133",
    "longitude": "-90.01934740997575",
    "latitude": "30.032819140767156",
    "geocoded_column": {
      "latitude": "30.032819140767156",
      "longitude": "-90.01934740997575"
    }
  },
  {
    "service_request": "2024-1126541",
    "request_type": "Trash/Recycling",
    "request_reason": "Start Trash Service",
    "date_created": "2024-08-30T14:51:25.000",
    "date_modified": "2024-08-30T14:51:26.000",
    "request_status": "Pending",
    "responsible_agency": "Department of Sanitation",
    "final_address": "1814 Urquhart St",
    "address_councildis": "C",
    "status": "Assigned to Contractor",
    "contractor": "IV Waste",
    "rowid": "1126541",
    "final_x": "3683594.70524",
    "final_y": "536904.535624",
    "longitude": "-90.06126725164162",
    "latitude": "29.97023753870083",
    "geocoded_column": {
      "latitude": "29.97023753870083",
      "longitude": "-90.06126725164162"
    }
  },
  {
    "service_request": "2024-1126540",
    "request_type": "Abandoned Vehicles",
    "request_reason": "Abandoned/Junk Vehicles",
    "date_created": "2024-08-30T14:51:09.000",
    "date_modified": "2024-08-30T14:51:09.000",
    "request_status": "Pending",
    "responsible_agency": "Department of Public Works",
    "final_address": "3200 BLK Cambronne St",
    "address_councildis": "A",
    "status": "Inspected",
    "rowid": "1126540",
    "final_x": "3666094.62414",
    "final_y": "534511.090214",
    "longitude": "-90.11661485159527",
    "latitude": "29.96417895209785",
    "geocoded_column": {
      "latitude": "29.96417895209785",
      "longitude": "-90.11661485159527"
    }
  },
  {
    "service_request": "2024-1126539",
    "request_type": "Abandoned Vehicles",
    "request_reason": "Abandoned/Junk Vehicles",
    "date_created": "2024-08-30T14:46:06.000",
    "date_modified": "2024-08-30T14:46:07.000",
    "request_status": "Pending",
    "responsible_agency": "Department of Public Works",
    "final_address": "1505 Marengo St",
    "address_councildis": "B",
    "status": "Pending",
    "rowid": "1126539",
    "final_x": "3672035.73556",
    "final_y": "520732.705273",
    "longitude": "-90.09832225812578",
    "latitude": "29.92611810106275",
    "geocoded_column": {
      "latitude": "29.92611810106275",
      "longitude": "-90.09832225812578"
    }
  },
  {
    "service_request": "2024-1126538",
    "request_type": "Trash/Recycling",
    "request_reason": "Request a Large Item Pick Up",
    "date_created": "2024-08-30T14:35:52.000",
    "date_modified": "2024-08-30T14:35:53.000",
    "request_status": "Pending",
    "responsible_agency": "Department of Sanitation",
    "final_address": "2520 Marengo St",
    "address_councildis": "B",
    "status": "Assigned to Contractor",
    "contractor": "IV Waste",
    "rowid": "1126538",
    "final_x": "3671568.14587",
    "final_y": "524355.388348",
    "longitude": "-90.09967518470621",
    "latitude": "29.936093163268982",
    "geocoded_column": {
      "latitude": "29.936093163268982",
      "longitude": "-90.09967518470621"
    }
  },
  {
    "service_request": "2024-1126537",
    "request_type": "Trash/Recycling",
    "request_reason": "Request a Large Item Pick Up",
    "date_created": "2024-08-30T14:31:00.000",
    "date_modified": "2024-08-30T14:31:10.000",
    "request_status": "Pending",
    "responsible_agency": "Department of Sanitation",
    "final_address": "5540 Red Maple Dr",
    "address_councildis": "E",
    "status": "Assigned to Contractor",
    "contractor": "Waste Pro",
    "rowid": "1126537",
    "final_x": "3723365.43276",
    "final_y": "563780.160609",
    "longitude": "-89.93463276386355",
    "latitude": "30.042860893670614",
    "geocoded_column": {
      "latitude": "30.042860893670614",
      "longitude": "-89.93463276386355"
    }
  },
  {
    "service_request": "2024-1126536",
    "request_type": "Roads/Drainage",
    "request_reason": "Catch Basin - Clogged",
    "date_created": "2024-08-30T14:30:26.000",
    "date_modified": "2024-08-30T14:30:26.000",
    "request_status": "Pending",
    "responsible_agency": "Department of Public Works",
    "final_address": "1640 S Carrollton Ave",
    "address_councildis": "A",
    "status": "Pending",
    "rowid": "1126536",
    "final_x": "3663087.17568",
    "final_y": "529654.986113",
    "longitude": "-90.12627370780291",
    "latitude": "29.950913710500185",
    "geocoded_column": {
      "latitude": "29.950913710500185",
      "longitude": "-90.12627370780291"
    }
  },
  {
    "service_request": "2024-1126535",
    "request_type": "Trash/Recycling",
    "request_reason": "Repair Trash Cart",
    "date_created": "2024-08-30T14:27:31.000",
    "date_modified": "2024-08-30T14:27:32.000",
    "request_status": "Pending",
    "responsible_agency": "Department of Sanitation",
    "final_address": "2122 N Broad St",
    "address_councildis": "D",
    "status": "Assigned to Contractor",
    "contractor": "IV Waste",
    "rowid": "1126535",
    "final_x": "3680936.86517",
    "final_y": "542441.314253",
    "longitude": "-90.06946812074908",
    "latitude": "29.98554262073168",
    "geocoded_column": {
      "latitude": "29.98554262073168",
      "longitude": "-90.06946812074908"
    }
  },
  {
    "service_request": "2024-1126534",
    "request_type": "Abandoned Vehicles",
    "request_reason": "Abandoned/Junk Vehicles",
    "date_created": "2024-08-30T14:19:45.000",
    "date_modified": "2024-08-30T14:19:46.000",
    "request_status": "Pending",
    "responsible_agency": "Department of Public Works",
    "final_address": "ONZAGA ST & N DUPRE ST",
    "address_councildis": "D",
    "status": "Pending",
    "rowid": "1126534",
    "final_x": "3678743.6",
    "final_y": "540901.68",
    "longitude": "-90.07644909275413",
    "latitude": "29.981375498714623",
    "geocoded_column": {
      "latitude": "29.981375498714623",
      "longitude": "-90.07644909275413"
    }
  },
  {
    "service_request": "2024-1126533",
    "request_type": "Traffic Signals/Signs/Striping/Streetlights",
    "request_reason": "Street Light Knocked Down/Leaning",
    "date_created": "2024-08-30T14:17:25.000",
    "date_modified": "2024-08-30T14:19:05.000",
    "request_status": "Pending",
    "responsible_agency": "Department of Public Works",
    "final_address": "BULLARD AVE & MORRISON RD",
    "address_councildis": "E",
    "status": "Pending",
    "contractor": "Legacy Professional Services",
    "rowid": "1126533",
    "final_x": "3713539.6",
    "final_y": "566740.48",
    "longitude": "-89.96557437676248",
    "latitude": "30.051326703254574",
    "geocoded_column": {
      "latitude": "30.051326703254574",
      "longitude": "-89.96557437676248"
    }
  },
  {
    "service_request": "2024-1126531",
    "request_type": "Abandoned Vehicles",
    "request_reason": "Abandoned/Junk Vehicles",
    "date_created": "2024-08-30T14:12:55.000",
    "date_modified": "2024-08-30T14:12:55.000",
    "request_status": "Pending",
    "responsible_agency": "Department of Public Works",
    "final_address": "2500 BLK Columbus St",
    "address_councildis": "D",
    "status": "Pending",
    "rowid": "1126531",
    "final_x": "3678894.12905",
    "final_y": "539378.54439",
    "longitude": "-90.07602644036255",
    "latitude": "29.977182862187824",
    "geocoded_column": {
      "latitude": "29.977182862187824",
      "longitude": "-90.07602644036255"
    }
  },
  {
    "service_request": "2024-1126530",
    "request_type": "Roads/Drainage",
    "request_reason": "Catch Basin - Broken/Damage",
    "date_created": "2024-08-30T14:11:52.000",
    "date_modified": "2024-08-30T14:11:53.000",
    "request_status": "Pending",
    "responsible_agency": "Department of Public Works",
    "final_address": "8032 Dorsett Dr",
    "address_councildis": "E",
    "status": "Pending",
    "rowid": "1126530",
    "final_x": "3711987.63032",
    "final_y": "568518.000549",
    "longitude": "-89.9704127727342",
    "latitude": "30.056265007118963",
    "geocoded_column": {
      "latitude": "30.056265007118963",
      "longitude": "-89.9704127727342"
    }
  },
  {
    "service_request": "2024-1126529",
    "request_type": "Trash/Recycling",
    "request_reason": "Replace Trash Cart",
    "date_created": "2024-08-30T14:10:17.000",
    "date_modified": "2024-08-30T14:10:17.000",
    "request_status": "Pending",
    "responsible_agency": "Department of Sanitation",
    "final_address": "2714 Fourth St",
    "address_councildis": "B",
    "status": "Assigned to Contractor",
    "contractor": "IV Waste",
    "rowid": "1126529",
    "final_x": "3673887.27464",
    "final_y": "526090.52755",
    "longitude": "-90.09229429302515",
    "latitude": "29.940795370412943",
    "geocoded_column": {
      "latitude": "29.940795370412943",
      "longitude": "-90.09229429302515"
    }
  },
  {
    "service_request": "2024-1126528",
    "request_type": "Traffic Signals/Signs/Striping/Streetlights",
    "request_reason": "Street Light Outage/Malfunction",
    "date_created": "2024-08-30T14:07:38.000",
    "date_modified": "2024-08-30T14:07:39.000",
    "request_status": "Pending",
    "responsible_agency": "Department of Public Works",
    "final_address": "7326 Brevard Ave",
    "address_councildis": "E",
    "status": "Assigned to Contractor",
    "contractor": "Legacy Professional Services",
    "rowid": "1126528",
    "final_x": "3706696.03543",
    "final_y": "562755.045664",
    "longitude": "-89.98735244284835",
    "latitude": "30.040591188448296",
    "geocoded_column": {
      "latitude": "30.040591188448296",
      "longitude": "-89.98735244284835"
    }
  },
  {
    "service_request": "2024-1126527",
    "request_type": "Trash/Recycling",
    "request_reason": "Missed Trash Pick-Up",
    "date_created": "2024-08-30T14:06:05.000",
    "date_modified": "2024-08-30T14:49:48.000",
    "case_close_date": "2024-08-30T09:49:48.000",
    "request_status": "Closed",
    "responsible_agency": "Department of Sanitation",
    "final_address": "3126 Upperline St",
    "address_councildis": "B",
    "status": "Invalid Request",
    "contractor": "IV Waste",
    "contractor_action": "Invalid",
    "rowid": "1126527",
    "final_x": "3669218.52596",
    "final_y": "526550.571902",
    "longitude": "-90.10701884836972",
    "latitude": "29.942198558604645",
    "geocoded_column": {
      "latitude": "29.942198558604645",
      "longitude": "-90.10701884836972"
    }
  },
  {
    "service_request": "2024-1126526",
    "request_type": "Property Maintenance",
    "request_reason": "Property Maintenance",
    "date_created": "2024-08-30T14:04:51.000",
    "date_modified": "2024-08-30T14:04:52.000",
    "request_status": "Pending",
    "responsible_agency": "Department of Code Enforcement",
    "final_address": "13159 Wales St",
    "address_councildis": "E",
    "status": "Pending",
    "rowid": "1126526",
    "final_x": "3716250.07052",
    "final_y": "571003.433959",
    "longitude": "-89.95684570202447",
    "latitude": "30.062958827038315",
    "geocoded_column": {
      "latitude": "30.062958827038315",
      "longitude": "-89.95684570202447"
    }
  },
  {
    "service_request": "2024-1126525",
    "request_type": "Trash/Recycling",
    "request_reason": "Illegal Dumping",
    "date_created": "2024-08-30T14:00:17.000",
    "date_modified": "2024-08-30T14:00:17.000",
    "request_status": "Pending",
    "responsible_agency": "Department of Sanitation",
    "final_address": "3914 Royal St",
    "address_councildis": "C",
    "status": "Pending",
    "rowid": "1126525",
    "final_x": "3691250.93571",
    "final_y": "533813.704581",
    "longitude": "-90.03719856493707",
    "latitude": "29.96150290728754",
    "geocoded_column": {
      "latitude": "29.96150290728754",
      "longitude": "-90.03719856493707"
    }
  },
  {
    "service_request": "2024-1126524",
    "request_type": "Abandoned Vehicles",
    "request_reason": "Abandoned/Junk Vehicles",
    "date_created": "2024-08-30T13:58:54.000",
    "date_modified": "2024-08-30T13:58:54.000",
    "request_status": "Pending",
    "responsible_agency": "Department of Public Works",
    "final_address": "4535 S Derbigny St",
    "address_councildis": "B",
    "status": "Pending",
    "rowid": "1126524",
    "final_x": "3669600.0043",
    "final_y": "526221.971262",
    "longitude": "-90.1058255482468",
    "latitude": "29.9412837817421",
    "geocoded_column": {
      "latitude": "29.9412837817421",
      "longitude": "-90.1058255482468"
    }
  },
  {
    "service_request": "2024-1126523",
    "request_type": "Roads/Drainage",
    "request_reason": "Street Subsidence (Sinking)",
    "date_created": "2024-08-30T13:58:35.000",
    "date_modified": "2024-08-30T13:59:46.000",
    "request_status": "Pending",
    "responsible_agency": "Department of Public Works",
    "final_address": "828 N Lopez St",
    "address_councildis": "A",
    "status": "Pending",
    "rowid": "1126523",
    "final_x": "3675645.89077",
    "final_y": "538492.218121",
    "longitude": "-90.08631591251772",
    "latitude": "29.97484337235116",
    "geocoded_column": {
      "latitude": "29.97484337235116",
      "longitude": "-90.08631591251772"
    }
  },
  {
    "service_request": "2024-1126522",
    "request_type": "Trash/Recycling",
    "request_reason": "Request a Large Item Pick Up",
    "date_created": "2024-08-30T13:56:55.000",
    "date_modified": "2024-08-30T13:58:23.000",
    "request_status": "Pending",
    "responsible_agency": "Department of Sanitation",
    "final_address": "400 Belleville St",
    "address_councildis": "C",
    "status": "Assigned to Contractor",
    "contractor": "Richards Disposal",
    "rowid": "1126522",
    "final_x": "3687912.48527",
    "final_y": "530253.992001",
    "longitude": "-90.04786690311144",
    "latitude": "29.951818339754567",
    "geocoded_column": {
      "latitude": "29.951818339754567",
      "longitude": "-90.04786690311144"
    }
  },
  {
    "service_request": "2024-1126521",
    "request_type": "Trash/Recycling",
    "request_reason": "Request a Large Item Pick Up",
    "date_created": "2024-08-30T13:56:29.000",
    "date_modified": "2024-08-30T13:56:30.000",
    "request_status": "Pending",
    "responsible_agency": "Department of Sanitation",
    "final_address": "7621 Morel St",
    "address_councildis": "E",
    "status": "Assigned to Contractor",
    "contractor": "Waste Pro",
    "rowid": "1126521",
    "final_x": "3718847.88645",
    "final_y": "571935.13572",
    "longitude": "-89.94859840395786",
    "latitude": "30.065434553195693",
    "geocoded_column": {
      "latitude": "30.065434553195693",
      "longitude": "-89.94859840395786"
    }
  },
  {
    "service_request": "2024-1126520",
    "request_type": "Property Maintenance",
    "request_reason": "Property Maintenance",
    "date_created": "2024-08-30T13:56:23.000",
    "date_modified": "2024-08-30T13:56:24.000",
    "request_status": "Pending",
    "responsible_agency": "Department of Code Enforcement",
    "final_address": "400 BLK Park Blvd",
    "address_councildis": "C",
    "status": "Pending",
    "rowid": "1126520",
    "final_x": "3686898.48345",
    "final_y": "525826.983239",
    "longitude": "-90.0512250376259",
    "latitude": "29.939676810764148",
    "geocoded_column": {
      "latitude": "29.939676810764148",
      "longitude": "-90.0512250376259"
    }
  },
  {
    "service_request": "2024-1126519",
    "request_type": "Trash/Recycling",
    "request_reason": "Repair Trash Cart",
    "date_created": "2024-08-30T13:56:09.000",
    "date_modified": "2024-08-30T13:56:10.000",
    "request_status": "Pending",
    "responsible_agency": "Department of Sanitation",
    "final_address": "5330 Macarthur Blvd",
    "address_councildis": "C",
    "status": "Assigned to Contractor",
    "contractor": "Richards Disposal",
    "rowid": "1126519",
    "final_x": "3703794.20548",
    "final_y": "519789.800376",
    "longitude": "-89.99810539778659",
    "latitude": "29.922546026881133",
    "geocoded_column": {
      "latitude": "29.922546026881133",
      "longitude": "-89.99810539778659"
    }
  },
  {
    "service_request": "2024-1126518",
    "request_type": "Trash/Recycling",
    "request_reason": "Replace Recycling Cart",
    "date_created": "2024-08-30T13:56:05.000",
    "date_modified": "2024-08-30T13:56:05.000",
    "request_status": "Pending",
    "responsible_agency": "Department of Sanitation",
    "final_address": "450 Pine St",
    "address_councildis": "A",
    "status": "Pending",
    "rowid": "1126518",
    "final_x": "3662173.94791",
    "final_y": "524208.919612",
    "longitude": "-90.1293379214861",
    "latitude": "29.935965184339256",
    "geocoded_column": {
      "latitude": "29.935965184339256",
      "longitude": "-90.1293379214861"
    }
  },
  {
    "service_request": "2024-1126517",
    "request_type": "Abandoned Vehicles",
    "request_reason": "Abandoned/Junk Vehicles",
    "date_created": "2024-08-30T13:55:58.000",
    "date_modified": "2024-08-30T13:55:58.000",
    "request_status": "Pending",
    "responsible_agency": "Department of Public Works",
    "final_address": "4535 S Derbigny St",
    "address_councildis": "B",
    "status": "Pending",
    "rowid": "1126517",
    "final_x": "3669600.0043",
    "final_y": "526221.971262",
    "longitude": "-90.1058255482468",
    "latitude": "29.9412837817421",
    "geocoded_column": {
      "latitude": "29.9412837817421",
      "longitude": "-90.1058255482468"
    }
  },
  {
    "service_request": "2024-1126516",
    "request_type": "Property Maintenance",
    "request_reason": "Property Maintenance",
    "date_created": "2024-08-30T13:54:29.000",
    "date_modified": "2024-08-30T13:54:30.000",
    "request_status": "Pending",
    "responsible_agency": "Department of Code Enforcement",
    "final_address": "2639 St Philip St",
    "address_councildis": "D",
    "status": "Pending",
    "rowid": "1126516",
    "final_x": "3677598.24328",
    "final_y": "537743.07732",
    "longitude": "-90.0801757635748",
    "latitude": "29.972724924490812",
    "geocoded_column": {
      "latitude": "29.972724924490812",
      "longitude": "-90.0801757635748"
    }
  },
  {
    "service_request": "2024-1126515",
    "request_type": "Roads/Drainage",
    "request_reason": "Catch Basin - Broken/Damage",
    "date_created": "2024-08-30T13:52:47.000",
    "date_modified": "2024-08-30T13:52:48.000",
    "request_status": "Pending",
    "responsible_agency": "Department of Public Works",
    "final_address": "1839 Cambronne St",
    "address_councildis": "A",
    "status": "Pending",
    "rowid": "1126515",
    "final_x": "3662815.0464",
    "final_y": "530860.560514",
    "longitude": "-90.1270928862326",
    "latitude": "29.954236530693436",
    "geocoded_column": {
      "latitude": "29.954236530693436",
      "longitude": "-90.1270928862326"
    }
  },
  {
    "service_request": "2024-1126514",
    "request_type": "Roads/Drainage",
    "request_reason": "Catch Basin - Clogged",
    "date_created": "2024-08-30T13:52:33.000",
    "date_modified": "2024-08-30T13:52:33.000",
    "request_status": "Pending",
    "responsible_agency": "Department of Public Works",
    "final_address": "4135 S Carrollton Ave",
    "address_councildis": "A",
    "status": "Pending",
    "rowid": "1126514",
    "final_x": "3669278.90951",
    "final_y": "536625.195655",
    "longitude": "-90.10648763888877",
    "latitude": "29.969898679765446",
    "geocoded_column": {
      "latitude": "29.969898679765446",
      "longitude": "-90.10648763888877"
    }
  },
  {
    "service_request": "2024-1126513",
    "request_type": "Traffic Signals/Signs/Striping/Streetlights",
    "request_reason": "Street Light Outage/Malfunction",
    "date_created": "2024-08-30T13:50:04.000",
    "date_modified": "2024-08-30T13:52:01.000",
    "request_status": "Pending",
    "responsible_agency": "Department of Public Works",
    "final_address": "5286 Warrington Dr",
    "address_councildis": "D",
    "status": "Assigned to Contractor",
    "contractor": "Legacy Professional Services",
    "rowid": "1126513",
    "final_x": "3680892.5924",
    "final_y": "551879.259606",
    "longitude": "-90.06927909928092",
    "latitude": "30.0114949544891",
    "geocoded_column": {
      "latitude": "30.0114949544891",
      "longitude": "-90.06927909928092"
    }
  },
  {
    "service_request": "2024-1126512",
    "request_type": "Abandoned Vehicles",
    "request_reason": "Abandoned/Junk Vehicles",
    "date_created": "2024-08-30T13:49:49.000",
    "date_modified": "2024-08-30T13:49:49.000",
    "request_status": "Pending",
    "responsible_agency": "Department of Public Works",
    "final_address": "8333 Cohn St",
    "address_councildis": "A",
    "status": "Pending",
    "rowid": "1126512",
    "final_x": "3662923.11431",
    "final_y": "530887.834242",
    "longitude": "-90.1267507424972",
    "latitude": "29.95430839603811",
    "geocoded_column": {
      "latitude": "29.95430839603811",
      "longitude": "-90.1267507424972"
    }
  },
  {
    "service_request": "2024-1126511",
    "request_type": "Trash/Recycling",
    "request_reason": "Request a Large Item Pick Up",
    "date_created": "2024-08-30T13:48:07.000",
    "date_modified": "2024-08-30T13:48:08.000",
    "request_status": "Pending",
    "responsible_agency": "Department of Sanitation",
    "final_address": "7433 Kenyon Rd",
    "address_councildis": "E",
    "status": "Assigned to Contractor",
    "contractor": "Waste Pro",
    "rowid": "1126511",
    "final_x": "3704493.42161",
    "final_y": "561928.307359",
    "longitude": "-89.99434391662696",
    "latitude": "30.038388941897963",
    "geocoded_column": {
      "latitude": "30.038388941897963",
      "longitude": "-89.99434391662696"
    }
  },
  {
    "service_request": "2024-1126510",
    "request_type": "Trash/Recycling",
    "request_reason": "Request a Large Item Pick Up",
    "date_created": "2024-08-30T13:47:41.000",
    "date_modified": "2024-08-30T13:47:42.000",
    "request_status": "Pending",
    "responsible_agency": "Department of Sanitation",
    "final_address": "7625 Tricia Ct",
    "address_councildis": "E",
    "status": "Assigned to Contractor",
    "contractor": "Waste Pro",
    "rowid": "1126510",
    "final_x": "3717797.39557",
    "final_y": "571079.377895",
    "longitude": "-89.9519517056192",
    "latitude": "30.063116441062547",
    "geocoded_column": {
      "latitude": "30.063116441062547",
      "longitude": "-89.9519517056192"
    }
  },
  {
    "service_request": "2024-1126509",
    "request_type": "Safety & Permits",
    "request_reason": "Licenses & Permits",
    "date_created": "2024-08-30T13:46:23.000",
    "date_modified": "2024-08-30T13:46:23.000",
    "request_status": "Pending",
    "responsible_agency": "Safety and Permits",
    "final_address": "3443 Esplanade Ave",
    "address_councildis": "A",
    "status": "Pending",
    "rowid": "1126509",
    "final_x": "3674984.858",
    "final_y": "541532.608716",
    "longitude": "-90.08829928752895",
    "latitude": "29.98322316835311",
    "geocoded_column": {
      "latitude": "29.98322316835311",
      "longitude": "-90.08829928752895"
    }
  },
  {
    "service_request": "2024-1126508",
    "request_type": "Trash/Recycling",
    "request_reason": "Request a Large Item Pick Up",
    "date_created": "2024-08-30T13:44:23.000",
    "date_modified": "2024-08-30T13:44:24.000",
    "request_status": "Pending",
    "responsible_agency": "Department of Sanitation",
    "final_address": "7513 Founders Ct",
    "address_councildis": "E",
    "status": "Assigned to Contractor",
    "contractor": "Waste Pro",
    "rowid": "1126508",
    "final_x": "3726061.4206",
    "final_y": "570699.196583",
    "longitude": "-89.92584387340301",
    "latitude": "30.06179457617904",
    "geocoded_column": {
      "latitude": "30.06179457617904",
      "longitude": "-89.92584387340301"
    }
  },
  {
    "service_request": "2024-1126507",
    "request_type": "Roads/Drainage",
    "request_reason": "Street Flooding / Drainage",
    "date_created": "2024-08-30T13:44:17.000",
    "date_modified": "2024-08-30T13:44:17.000",
    "request_status": "Pending",
    "responsible_agency": "Department of Public Works",
    "final_address": "5936 Dover Pl",
    "address_councildis": "C",
    "status": "Pending",
    "rowid": "1126507",
    "final_x": "3705786.2147",
    "final_y": "519177.085879",
    "longitude": "-89.9918401216447",
    "latitude": "29.92079729789274",
    "geocoded_column": {
      "latitude": "29.92079729789274",
      "longitude": "-89.9918401216447"
    }
  },
  {
    "service_request": "2024-1126506",
    "request_type": "Abandoned Vehicles",
    "request_reason": "Abandoned/Junk Vehicles",
    "date_created": "2024-08-30T13:43:34.000",
    "date_modified": "2024-08-30T13:43:35.000",
    "request_status": "Pending",
    "responsible_agency": "Department of Public Works",
    "final_address": "1839 Cambronne St",
    "address_councildis": "A",
    "status": "Pending",
    "rowid": "1126506",
    "final_x": "3662815.0464",
    "final_y": "530860.560514",
    "longitude": "-90.1270928862326",
    "latitude": "29.954236530693436",
    "geocoded_column": {
      "latitude": "29.954236530693436",
      "longitude": "-90.1270928862326"
    }
  },
  {
    "service_request": "2024-1126505",
    "request_type": "Roads/Drainage",
    "request_reason": "Man hole cover issue",
    "date_created": "2024-08-30T13:40:36.000",
    "date_modified": "2024-08-30T13:42:33.000",
    "request_status": "Pending",
    "responsible_agency": "Department of Public Works",
    "final_address": "7120 Willow St",
    "address_councildis": "A",
    "status": "Pending",
    "rowid": "1126505",
    "final_x": "3664630.20781",
    "final_y": "526998.64915",
    "longitude": "-90.12149027566139",
    "latitude": "29.94356485421478",
    "geocoded_column": {
      "latitude": "29.94356485421478",
      "longitude": "-90.12149027566139"
    }
  },
  {
    "service_request": "2024-1126504",
    "request_type": "Trash/Recycling",
    "request_reason": "Return Recycling Cart",
    "date_created": "2024-08-30T13:38:46.000",
    "date_modified": "2024-08-30T13:38:46.000",
    "request_status": "Pending",
    "responsible_agency": "Department of Sanitation",
    "final_address": "6650 Avenue A",
    "address_councildis": "A",
    "status": "Pending",
    "rowid": "1126504",
    "final_x": "3665992.13556",
    "final_y": "552395.712278",
    "longitude": "-90.11633864947274",
    "latitude": "30.013358580266235",
    "geocoded_column": {
      "latitude": "30.013358580266235",
      "longitude": "-90.11633864947274"
    }
  },
  {
    "service_request": "2024-1126503",
    "request_type": "Parks & Parkways",
    "request_reason": "Request Tree Service (Right of Way/Public Property)",
    "date_created": "2024-08-30T13:38:18.000",
    "date_modified": "2024-08-30T13:39:13.000",
    "request_status": "Pending",
    "responsible_agency": "Department of Parks & Parkway",
    "final_address": "320 Neil Ave",
    "address_councildis": "C",
    "status": "Pending",
    "rowid": "1126503",
    "final_x": "3707504.0172",
    "final_y": "518805.900983",
    "longitude": "-89.98643162575789",
    "latitude": "29.919721257981266",
    "geocoded_column": {
      "latitude": "29.919721257981266",
      "longitude": "-89.98643162575789"
    }
  },
  {
    "service_request": "2024-1126502",
    "request_type": "Trash/Recycling",
    "request_reason": "Missed Trash Pick-Up",
    "date_created": "2024-08-30T13:37:07.000",
    "date_modified": "2024-08-30T13:37:08.000",
    "request_status": "Pending",
    "responsible_agency": "Department of Sanitation",
    "final_address": "4610 Rhodes Dr",
    "address_councildis": "E",
    "status": "Assigned to Contractor",
    "contractor": "Waste Pro",
    "rowid": "1126502",
    "final_x": "3702551.13015",
    "final_y": "553604.340631",
    "longitude": "-90.00078794967034",
    "latitude": "30.01556351774773",
    "geocoded_column": {
      "latitude": "30.01556351774773",
      "longitude": "-90.00078794967034"
    }
  },
  {
    "service_request": "2024-1126501",
    "request_type": "Trash/Recycling",
    "request_reason": "Order Recycling Cart",
    "date_created": "2024-08-30T13:34:28.000",
    "date_modified": "2024-08-30T13:34:28.000",
    "request_status": "Pending",
    "responsible_agency": "Department of Sanitation",
    "final_address": "3226 Dante St",
    "address_councildis": "A",
    "status": "Pending",
    "rowid": "1126501",
    "final_x": "3666342.33159",
    "final_y": "534316.795973",
    "longitude": "-90.11583912894767",
    "latitude": "29.963637472271326",
    "geocoded_column": {
      "latitude": "29.963637472271326",
      "longitude": "-90.11583912894767"
    }
  },
  {
    "service_request": "2024-1126500",
    "request_type": "Trash/Recycling",
    "request_reason": "Request a Large Item Pick Up",
    "date_created": "2024-08-30T13:33:15.000",
    "date_modified": "2024-08-30T13:33:16.000",
    "request_status": "Pending",
    "responsible_agency": "Department of Sanitation",
    "final_address": "5830 Florida Ave",
    "address_councildis": "E",
    "status": "Assigned to Contractor",
    "contractor": "Waste Pro",
    "rowid": "1126500",
    "final_x": "3700476.52445",
    "final_y": "539515.88737",
    "longitude": "-90.0078576230775",
    "latitude": "29.976891684002737",
    "geocoded_column": {
      "latitude": "29.976891684002737",
      "longitude": "-90.0078576230775"
    }
  },
  {
    "service_request": "2024-1126499",
    "request_type": "Mosquito, Termite & Rodent Control",
    "request_reason": "Mosquito Complaint",
    "date_created": "2024-08-30T13:30:05.000",
    "date_modified": "2024-08-30T13:30:06.000",
    "request_status": "Pending",
    "responsible_agency": "Mosquito, Termite & Rodent Control Board",
    "final_address": "5530 Maple Ridge Dr",
    "address_councildis": "E",
    "status": "Pending",
    "rowid": "1126499",
    "final_x": "3724386.82956",
    "final_y": "563828.552929",
    "longitude": "-89.93140291011727",
    "latitude": "30.042959630930497",
    "geocoded_column": {
      "latitude": "30.042959630930497",
      "longitude": "-89.93140291011727"
    }
  },
  {
    "service_request": "2024-1126498",
    "request_type": "Roads/Drainage",
    "request_reason": "Pothole",
    "date_created": "2024-08-30T13:29:21.000",
    "date_modified": "2024-08-30T13:29:53.000",
    "case_close_date": "2024-08-30T08:29:53.000",
    "request_status": "Closed",
    "responsible_agency": "Department of Public Works",
    "final_address": "6400 Avenue A",
    "address_councildis": "A",
    "status": "Resolved",
    "rowid": "1126498",
    "final_x": "3665911.45204",
    "final_y": "550725.667797",
    "longitude": "-90.11664959470032",
    "latitude": "30.008768896604284",
    "geocoded_column": {
      "latitude": "30.008768896604284",
      "longitude": "-90.11664959470032"
    }
  },
  {
    "service_request": "2024-1126497",
    "request_type": "Trash/Recycling",
    "request_reason": "Request a Large Item Pick Up",
    "date_created": "2024-08-30T13:29:12.000",
    "date_modified": "2024-08-30T13:29:13.000",
    "request_status": "Pending",
    "responsible_agency": "Department of Sanitation",
    "final_address": "4810 Cardenas Dr",
    "address_councildis": "E",
    "status": "Assigned to Contractor",
    "contractor": "Waste Pro",
    "rowid": "1126497",
    "final_x": "3713589.26507",
    "final_y": "556591.486106",
    "longitude": "-89.96580024127309",
    "latitude": "30.023419412474926",
    "geocoded_column": {
      "latitude": "30.023419412474926",
      "longitude": "-89.96580024127309"
    }
  },
  {
    "service_request": "2024-1126496",
    "request_type": "Trash/Recycling",
    "request_reason": "Repair Trash Cart",
    "date_created": "2024-08-30T13:28:43.000",
    "date_modified": "2024-08-30T13:28:44.000",
    "request_status": "Pending",
    "responsible_agency": "Department of Sanitation",
    "final_address": "1904 Touro St",
    "address_councildis": "D",
    "status": "Assigned to Contractor",
    "contractor": "IV Waste",
    "rowid": "1126496",
    "final_x": "3683958.30095",
    "final_y": "539266.979082",
    "longitude": "-90.06003607190378",
    "latitude": "29.976722331693505",
    "geocoded_column": {
      "latitude": "29.976722331693505",
      "longitude": "-90.06003607190378"
    }
  },
  {
    "service_request": "2024-1126495",
    "request_type": "Roads/Drainage",
    "request_reason": "Pothole",
    "date_created": "2024-08-30T13:28:23.000",
    "date_modified": "2024-08-30T13:28:46.000",
    "case_close_date": "2024-08-30T08:28:46.000",
    "request_status": "Closed",
    "responsible_agency": "Department of Public Works",
    "final_address": "201 28Th St",
    "address_councildis": "A",
    "status": "Resolved",
    "rowid": "1126495",
    "final_x": "3665749.52813",
    "final_y": "550253.999188",
    "longitude": "-90.11717698326416",
    "latitude": "30.007476698437006",
    "geocoded_column": {
      "latitude": "30.007476698437006",
      "longitude": "-90.11717698326416"
    }
  },
  {
    "service_request": "2024-1126494",
    "request_type": "Trash/Recycling",
    "request_reason": "Order Recycling Cart",
    "date_created": "2024-08-30T13:27:05.000",
    "date_modified": "2024-08-30T13:27:06.000",
    "request_status": "Pending",
    "responsible_agency": "Department of Sanitation",
    "final_address": "307 Diana St",
    "address_councildis": "C",
    "status": "Pending",
    "rowid": "1126494",
    "final_x": "3686289.42588",
    "final_y": "527472.488383",
    "longitude": "-90.05308986863874",
    "latitude": "29.9442201183532",
    "geocoded_column": {
      "latitude": "29.9442201183532",
      "longitude": "-90.05308986863874"
    }
  },
  {
    "service_request": "2024-1126493",
    "request_type": "Roads/Drainage",
    "request_reason": "Catch Basin - Clogged",
    "date_created": "2024-08-30T13:26:46.000",
    "date_modified": "2024-08-30T13:26:46.000",
    "request_status": "Pending",
    "responsible_agency": "Department of Public Works",
    "final_address": "5575 Jacquelyn Ct",
    "address_councildis": "A",
    "status": "Pending",
    "rowid": "1126493",
    "final_x": "3664531.53306",
    "final_y": "544794.791375",
    "longitude": "-90.1212074438025",
    "latitude": "29.992501239349508",
    "geocoded_column": {
      "latitude": "29.992501239349508",
      "longitude": "-90.1212074438025"
    }
  },
  {
    "service_request": "2024-1126492",
    "request_type": "Trash/Recycling",
    "request_reason": "Repair Trash Cart",
    "date_created": "2024-08-30T13:25:32.000",
    "date_modified": "2024-08-30T13:25:33.000",
    "request_status": "Pending",
    "responsible_agency": "Department of Sanitation",
    "final_address": "307 Diana St",
    "address_councildis": "C",
    "status": "Assigned to Contractor",
    "contractor": "Richards Disposal",
    "rowid": "1126492",
    "final_x": "3686289.42588",
    "final_y": "527472.488383",
    "longitude": "-90.05308986863874",
    "latitude": "29.9442201183532",
    "geocoded_column": {
      "latitude": "29.9442201183532",
      "longitude": "-90.05308986863874"
    }
  },
  {
    "service_request": "2024-1126491",
    "request_type": "Trash/Recycling",
    "request_reason": "Repair Trash Cart",
    "date_created": "2024-08-30T13:21:57.000",
    "date_modified": "2024-08-30T13:22:19.000",
    "request_status": "Pending",
    "responsible_agency": "Department of Sanitation",
    "final_address": "336 Hillary St",
    "address_councildis": "A",
    "status": "Assigned to Contractor",
    "contractor": "IV Waste",
    "rowid": "1126491",
    "final_x": "3661326.12237",
    "final_y": "525064.776253",
    "longitude": "-90.13198621104692",
    "latitude": "29.938342988262605",
    "geocoded_column": {
      "latitude": "29.938342988262605",
      "longitude": "-90.13198621104692"
    }
  },
  {
    "service_request": "2024-1126490",
    "request_type": "Trash/Recycling",
    "request_reason": "Request a Large Item Pick Up",
    "date_created": "2024-08-30T13:20:11.000",
    "date_modified": "2024-08-30T13:20:12.000",
    "request_status": "Pending",
    "responsible_agency": "Department of Sanitation",
    "final_address": "4101 S Claiborne Ave",
    "address_councildis": "B",
    "status": "Assigned to Contractor",
    "contractor": "IV Waste",
    "rowid": "1126490",
    "final_x": "3671379.5771",
    "final_y": "526074.821438",
    "longitude": "-90.10021208479904",
    "latitude": "29.940826627682267",
    "geocoded_column": {
      "latitude": "29.940826627682267",
      "longitude": "-90.10021208479904"
    }
  },