[
  {
    "service_request": "2022-912440",
    "request_type": "Health Related Questions",
    "request_reason": "Noise Ordinance Complaint",
    "date_created": "2022-08-22T22:42:21.000",
    "date_modified": "2022-08-22T22:42:21.000",
    "request_status": "Pending",
    "responsible_agency": "Health Department",
    "final_address": "718 Bourbon St, New Orleans, Louisiana, 70116",
    "address_councildis": "C",
    "status": "Pending",
    "rowid": "912440",
    "final_x": "3682364.17781",
    "final_y": "532746.008004",
    "longitude": "-90.06529872053143",
    "latitude": "29.95884052062511",
    "geocoded_column": {
      "latitude": "29.95884052062511",
      "longitude": "-90.06529872053143"
    }
  },
  {
    "service_request": "2022-912439",
    "request_type": "Health Related Questions",
    "request_reason": "Noise Ordinance Complaint",
    "date_created": "2022-08-22T22:42:05.000",
    "date_modified": "2022-08-22T22:42:05.000",
    "request_status": "Pending",
    "responsible_agency": "Health Department",
    "final_address": "718 Bourbon St, New Orleans, Louisiana, 70116",
    "address_councildis": "C",
    "status": "Pending",
    "rowid": "912439",
    "final_x": "3682364.17781",
    "final_y": "532746.008004",
    "longitude": "-90.06529872053143",
    "latitude": "29.95884052062511",
    "geocoded_column": {
      "latitude": "29.95884052062511",
      "longitude": "-90.06529872053143"
    }
  },
  {
    "service_request": "2022-912438",
    "request_type": "Health Related Questions",
    "request_reason": "Noise Ordinance Complaint",
    "date_created": "2022-08-22T22:41:47.000",
    "date_modified": "2022-08-22T22:41:47.000",
    "request_status": "Pending",
    "responsible_agency": "Health Department",
    "final_address": "718 Bourbon St, New Orleans, Louisiana, 70116",
    "address_councildis": "C",
    "status": "Pending",
    "rowid": "912438",
    "final_x": "3682364.17781",
    "final_y": "532746.008004",
    "longitude": "-90.06529872053143",
    "latitude": "29.95884052062511",
    "geocoded_column": {
      "latitude": "29.95884052062511",
      "longitude": "-90.06529872053143"
    }
  },
  {
    "service_request": "2022-912437",
    "request_type": "Health Related Questions",
    "request_reason": "Noise Ordinance Complaint",
    "date_created": "2022-08-22T22:41:24.000",
    "date_modified": "2022-08-22T22:41:24.000",
    "request_status": "Pending",
    "responsible_agency": "Health Department",
    "final_address": "718 Bourbon St, New Orleans, Louisiana, 70116",
    "address_councildis": "C",
    "status": "Pending",
    "rowid": "912437",
    "final_x": "3682364.17781",
    "final_y": "532746.008004",
    "longitude": "-90.06529872053143",
    "latitude": "29.95884052062511",
    "geocoded_column": {
      "latitude": "29.95884052062511",
      "longitude": "-90.06529872053143"
    }
  },
  {
    "service_request": "2022-912436",
    "request_type": "Health Related Questions",
    "request_reason": "Noise Ordinance Complaint",
    "date_created": "2022-08-22T22:40:57.000",
    "date_modified": "2022-08-22T22:40:57.000",
    "request_status": "Pending",
    "responsible_agency": "Health Department",
    "final_address": "718 Bourbon St, New Orleans, Louisiana, 70116",
    "address_councildis": "C",
    "status": "Pending",
    "rowid": "912436",
    "final_x": "3682364.17781",
    "final_y": "532746.008004",
    "longitude": "-90.06529872053143",
    "latitude": "29.95884052062511",
    "geocoded_column": {
      "latitude": "29.95884052062511",
      "longitude": "-90.06529872053143"
    }
  },
  {
    "service_request": "2022-912435",
    "request_type": "Traffic Signals/Signs/Striping/Streetlights",
    "request_reason": "Street Light Outage/Malfunction",
    "date_created": "2022-08-22T22:40:45.000",
    "date_modified": "2022-08-22T22:40:46.000",
    "request_status": "Pending",
    "responsible_agency": "Department of Public Works",
    "final_address": "8012 Willow St",
    "address_councildis": "A",
    "status": "Pending",
    "contractor": "Legacy Professional Services",
    "rowid": "912435",
    "final_x": "3662665.59437",
    "final_y": "528632.329024",
    "longitude": "-90.12763883229549",
    "latitude": "29.948113936897634",
    "geocoded_column": {
      "latitude": "29.948113936897634",
      "longitude": "-90.12763883229549"
    }
  },
  {
    "service_request": "2022-912434",
    "request_type": "Health Related Questions",
    "request_reason": "Noise Ordinance Complaint",
    "date_created": "2022-08-22T22:40:16.000",
    "date_modified": "2022-08-22T22:40:16.000",
    "request_status": "Pending",
    "responsible_agency": "Health Department",
    "final_address": "718 Bourbon St, New Orleans, Louisiana, 70116",
    "address_councildis": "C",
    "status": "Pending",
    "rowid": "912434",
    "final_x": "3682364.17781",
    "final_y": "532746.008004",
    "longitude": "-90.06529872053143",
    "latitude": "29.95884052062511",
    "geocoded_column": {
      "latitude": "29.95884052062511",
      "longitude": "-90.06529872053143"
    }
  },
  {
    "service_request": "2022-912433",
    "request_type": "Health Related Questions",
    "request_reason": "Noise Ordinance Complaint",
    "date_created": "2022-08-22T22:40:01.000",
    "date_modified": "2022-08-22T22:40:01.000",
    "request_status": "Pending",
    "responsible_agency": "Health Department",
    "final_address": "718 Bourbon St, New Orleans, Louisiana, 70116",
    "address_councildis": "C",
    "status": "Pending",
    "rowid": "912433",
    "final_x": "3682364.17781",
    "final_y": "532746.008004",
    "longitude": "-90.06529872053143",
    "latitude": "29.95884052062511",
    "geocoded_column": {
      "latitude": "29.95884052062511",
      "longitude": "-90.06529872053143"
    }
  },
  {
    "service_request": "2022-912432",
    "request_type": "Health Related Questions",
    "request_reason": "Noise Ordinance Complaint",
    "date_created": "2022-08-22T22:39:55.000",
    "date_modified": "2022-08-22T22:39:55.000",
    "request_status": "Pending",
    "responsible_agency": "Health Department",
    "final_address": "718 Bourbon St, New Orleans, Louisiana, 70116",
    "address_councildis": "C",
    "status": "Pending",
    "rowid": "912432",
    "final_x": "3682364.17781",
    "final_y": "532746.008004",
    "longitude": "-90.06529872053143",
    "latitude": "29.95884052062511",
    "geocoded_column": {
      "latitude": "29.95884052062511",
      "longitude": "-90.06529872053143"
    }
  },
  {
    "service_request": "2022-912431",
    "request_type": "Health Related Questions",
    "request_reason": "Noise Ordinance Complaint",
    "date_created": "2022-08-22T22:39:36.000",
    "date_modified": "2022-08-22T22:39:36.000",
    "request_status": "Pending",
    "responsible_agency": "Health Department",
    "final_address": "718 Bourbon St, New Orleans, Louisiana, 70116",
    "address_councildis": "C",
    "status": "Pending",
    "rowid": "912431",
    "final_x": "3682364.17781",
    "final_y": "532746.008004",
    "longitude": "-90.06529872053143",
    "latitude": "29.95884052062511",
    "geocoded_column": {
      "latitude": "29.95884052062511",
      "longitude": "-90.06529872053143"
    }
  },
  {
    "service_request": "2022-912430",
    "request_type": "Health Related Questions",
    "request_reason": "Noise Ordinance Complaint",
    "date_created": "2022-08-22T22:39:09.000",
    "date_modified": "2022-08-22T22:39:09.000",
    "request_status": "Pending",
    "responsible_agency": "Health Department",
    "final_address": "718 Bourbon St, New Orleans, Louisiana, 70116",
    "address_councildis": "C",
    "status": "Pending",
    "rowid": "912430",
    "final_x": "3682364.17781",
    "final_y": "532746.008004",
    "longitude": "-90.06529872053143",
    "latitude": "29.95884052062511",
    "geocoded_column": {
      "latitude": "29.95884052062511",
      "longitude": "-90.06529872053143"
    }
  },
  {
    "service_request": "2022-912429",
    "request_type": "Health Related Questions",
    "request_reason": "Noise Ordinance Complaint",
    "date_created": "2022-08-22T22:38:46.000",
    "date_modified": "2022-08-22T22:38:46.000",
    "request_status": "Pending",
    "responsible_agency": "Health Department",
    "final_address": "718 Bourbon St, New Orleans, Louisiana, 70116",
    "address_councildis": "C",
    "status": "Pending",
    "rowid": "912429",
    "final_x": "3682364.17781",
    "final_y": "532746.008004",
    "longitude": "-90.06529872053143",
    "latitude": "29.95884052062511",
    "geocoded_column": {
      "latitude": "29.95884052062511",
      "longitude": "-90.06529872053143"
    }
  },
  {
    "service_request": "2022-912428",
    "request_type": "Health Related Questions",
    "request_reason": "Noise Ordinance Complaint",
    "date_created": "2022-08-22T22:38:13.000",
    "date_modified": "2022-08-22T22:38:13.000",
    "request_status": "Pending",
    "responsible_agency": "Health Department",
    "final_address": "718 Bourbon St, New Orleans, Louisiana, 70116",
    "address_councildis": "C",
    "status": "Pending",
    "rowid": "912428",
    "final_x": "3682364.17781",
    "final_y": "532746.008004",
    "longitude": "-90.06529872053143",
    "latitude": "29.95884052062511",
    "geocoded_column": {
      "latitude": "29.95884052062511",
      "longitude": "-90.06529872053143"
    }
  },
  {
    "service_request": "2022-912427",
    "request_type": "Health Related Questions",
    "request_reason": "Noise Ordinance Complaint",
    "date_created": "2022-08-22T22:37:49.000",
    "date_modified": "2022-08-22T22:37:49.000",
    "request_status": "Pending",
    "responsible_agency": "Health Department",
    "final_address": "718 Bourbon St, New Orleans, Louisiana, 70116",
    "address_councildis": "C",
    "status": "Pending",
    "rowid": "912427",
    "final_x": "3682364.17781",
    "final_y": "532746.008004",
    "longitude": "-90.06529872053143",
    "latitude": "29.95884052062511",
    "geocoded_column": {
      "latitude": "29.95884052062511",
      "longitude": "-90.06529872053143"
    }
  },
  {
    "service_request": "2022-912426",
    "request_type": "Health Related Questions",
    "request_reason": "Noise Ordinance Complaint",
    "date_created": "2022-08-22T22:37:26.000",
    "date_modified": "2022-08-22T22:37:26.000",
    "request_status": "Pending",
    "responsible_agency": "Health Department",
    "final_address": "718 Bourbon St, New Orleans, Louisiana, 70116",
    "address_councildis": "C",
    "status": "Pending",
    "rowid": "912426",
    "final_x": "3682364.17781",
    "final_y": "532746.008004",
    "longitude": "-90.06529872053143",
    "latitude": "29.95884052062511",
    "geocoded_column": {
      "latitude": "29.95884052062511",
      "longitude": "-90.06529872053143"
    }
  },
  {
    "service_request": "2022-912425",
    "request_type": "Health Related Questions",
    "request_reason": "Noise Ordinance Complaint",
    "date_created": "2022-08-22T22:37:05.000",
    "date_modified": "2022-08-22T22:37:05.000",
    "request_status": "Pending",
    "responsible_agency": "Health Department",
    "final_address": "718 Bourbon St, New Orleans, Louisiana, 70116",
    "address_councildis": "C",
    "status": "Pending",
    "rowid": "912425",
    "final_x": "3682364.17781",
    "final_y": "532746.008004",
    "longitude": "-90.06529872053143",
    "latitude": "29.95884052062511",
    "geocoded_column": {
      "latitude": "29.95884052062511",
      "longitude": "-90.06529872053143"
    }
  },
  {
    "service_request": "2022-912424",
    "request_type": "Traffic Signals/Signs/Striping/Streetlights",
    "request_reason": "Street Light Outage/Malfunction",
    "date_created": "2022-08-22T22:36:29.000",
    "date_modified": "2022-08-22T22:36:30.000",
    "request_status": "Pending",
    "responsible_agency": "Department of Public Works",
    "final_address": "8012 Willow St",
    "address_councildis": "A",
    "status": "Pending",
    "contractor": "Legacy Professional Services",
    "rowid": "912424",
    "final_x": "3662665.59437",
    "final_y": "528632.329024",
    "longitude": "-90.12763883229549",
    "latitude": "29.948113936897634",
    "geocoded_column": {
      "latitude": "29.948113936897634",
      "longitude": "-90.12763883229549"
    }
  },
  {
    "service_request": "2022-912423",
    "request_type": "Trash/Recycling",
    "request_reason": "Replace Trash Cart",
    "date_created": "2022-08-22T22:36:27.000",
    "date_modified": "2022-08-22T22:36:28.000",
    "request_status": "Pending",
    "responsible_agency": "Department of Sanitation",
    "final_address": "3335 Pittari Pl",
    "address_councildis": "C",
    "status": "Assigned to Contractor",
    "contractor": "Richards Disposal",
    "rowid": "912423",
    "final_x": "3709613.29285",
    "final_y": "518363.958774",
    "longitude": "-89.97979022160489",
    "latitude": "29.918437728070707",
    "geocoded_column": {
      "latitude": "29.918437728070707",
      "longitude": "-89.97979022160489"
    }
  },
  {
    "service_request": "2022-912422",
    "request_type": "Property Maintenance",
    "request_reason": "Property Maintenance",
    "date_created": "2022-08-22T22:22:24.000",
    "date_modified": "2022-08-22T22:22:24.000",
    "request_status": "Pending",
    "responsible_agency": "Department of Code Enforcement",
    "final_address": "517 Huntlee Dr",
    "address_councildis": "C",
    "status": "Pending",
    "rowid": "912422",
    "final_x": "3701786.64919",
    "final_y": "521358.755961",
    "longitude": "-90.00438496100584",
    "latitude": "29.926924285576884",
    "geocoded_column": {
      "latitude": "29.926924285576884",
      "longitude": "-90.00438496100584"
    }
  },
  {
    "service_request": "2022-912421",
    "request_type": "Trash/Recycling",
    "request_reason": "Request a Large Item Pick Up",
    "date_created": "2022-08-22T21:32:19.000",
    "date_modified": "2022-08-22T21:32:20.000",
    "request_status": "Pending",
    "responsible_agency": "Department of Sanitation",
    "final_address": "5501 Pasteur Blvd",
    "address_councildis": "D",
    "status": "Assigned to Contractor",
    "contractor": "Metro Disposal",
    "rowid": "912421",
    "final_x": "3683009.68751",
    "final_y": "553036.140503",
    "longitude": "-90.06254979356417",
    "latitude": "30.014611568059603",
    "geocoded_column": {
      "latitude": "30.014611568059603",
      "longitude": "-90.06254979356417"
    }
  },
  {
    "service_request": "2022-912420",
    "request_type": "Mosquito, Termite & Rodent Control",
    "request_reason": "Mosquito Complaint",
    "date_created": "2022-08-22T21:20:23.000",
    "date_modified": "2022-08-22T21:20:23.000",
    "request_status": "Pending",
    "responsible_agency": "Mosquito, Termite & Rodent Control Board",
    "final_address": "4937 Alsace St",
    "address_councildis": "E",
    "status": "Pending",
    "rowid": "912420",
    "final_x": "3730485.76634",
    "final_y": "563089.08304",
    "longitude": "-89.91215707506072",
    "latitude": "30.040719811367495",
    "geocoded_column": {
      "latitude": "30.040719811367495",
      "longitude": "-89.91215707506072"
    }
  },
  {
    "service_request": "2022-912419",
    "request_type": "Parks & Parkways",
    "request_reason": "Request Tree Service (Right of Way/Public Property)",
    "date_created": "2022-08-22T21:18:10.000",
    "date_modified": "2022-08-22T21:27:05.000",
    "request_status": "Pending",
    "responsible_agency": "Department of Parks & Parkway",
    "final_address": "BEHRMAN HWY & NEVADA ST",
    "address_councildis": "C",
    "status": "Pending",
    "rowid": "912419",
    "final_x": "3694518.1",
    "final_y": "519149.98",
    "longitude": "-90.027409211199",
    "latitude": "29.92108069758656",
    "geocoded_column": {
      "latitude": "29.92108069758656",
      "longitude": "-90.027409211199"
    }
  },
  {
    "service_request": "2022-912418",
    "request_type": "Abandoned Vehicles",
    "request_reason": "Abandoned/Junk Vehicles",
    "date_created": "2022-08-22T21:10:15.000",
    "date_modified": "2022-08-22T21:10:15.000",
    "request_status": "Pending",
    "responsible_agency": "Department of Public Works",
    "final_address": "4937 Alsace St",
    "address_councildis": "E",
    "status": "Pending",
    "rowid": "912418",
    "final_x": "3730485.76634",
    "final_y": "563089.08304",
    "longitude": "-89.91215707506072",
    "latitude": "30.040719811367495",
    "geocoded_column": {
      "latitude": "30.040719811367495",
      "longitude": "-89.91215707506072"
    }
  },
  {
    "service_request": "2022-912417",
    "request_type": "Property Maintenance",
    "request_reason": "Property Maintenance",
    "date_created": "2022-08-22T20:58:24.000",
    "date_modified": "2022-08-22T20:58:24.000",
    "request_status": "Pending",
    "responsible_agency": "Department of Code Enforcement",
    "final_address": "2725 Washington Ave",
    "address_councildis": "B",
    "status": "Pending",
    "rowid": "912417",
    "final_x": "3673647.67291",
    "final_y": "526042.066814",
    "longitude": "-90.09305241493391",
    "latitude": "29.940669252682646",
    "geocoded_column": {
      "latitude": "29.940669252682646",
      "longitude": "-90.09305241493391"
    }
  },
  {
    "service_request": "2022-912416",
    "request_type": "Property Maintenance",
    "request_reason": "Property Maintenance",
    "date_created": "2022-08-22T20:50:21.000",
    "date_modified": "2022-08-22T20:50:21.000",
    "request_status": "Pending",
    "responsible_agency": "Department of Code Enforcement",
    "final_address": "3513 Danneel St",
    "address_councildis": "B",
    "status": "Pending",
    "rowid": "912416",
    "final_x": "3673136.57595",
    "final_y": "522706.53529",
    "longitude": "-90.09477986759434",
    "latitude": "29.93151282653541",
    "geocoded_column": {
      "latitude": "29.93151282653541",
      "longitude": "-90.09477986759434"
    }
  },
  {
    "service_request": "2022-912415",
    "request_type": "Traffic Signals/Signs/Striping/Streetlights",
    "request_reason": "Street Light Outage/Malfunction",
    "date_created": "2022-08-22T20:47:17.000",
    "date_modified": "2022-08-22T20:47:18.000",
    "request_status": "Pending",
    "responsible_agency": "Department of Public Works",
    "final_address": "1800 BLK Cadiz St",
    "address_councildis": "B",
    "status": "Pending",
    "contractor": "Legacy Professional Services",
    "rowid": "912415",
    "final_x": "3670011.46637",
    "final_y": "521694.076806",
    "longitude": "-90.10467976669328",
    "latitude": "29.928821403126225",
    "geocoded_column": {
      "latitude": "29.928821403126225",
      "longitude": "-90.10467976669328"
    }
  },
  {
    "service_request": "2022-912414",
    "request_type": "Property Maintenance",
    "request_reason": "Property Maintenance",
    "date_created": "2022-08-22T20:39:35.000",
    "date_modified": "2022-08-22T20:39:35.000",
    "request_status": "Pending",
    "responsible_agency": "Department of Code Enforcement",
    "final_address": "347 18Th St",
    "address_councildis": "A",
    "status": "Pending",
    "rowid": "912414",
    "final_x": "3664800.62413",
    "final_y": "548798.787987",
    "longitude": "-90.12022352815022",
    "latitude": "30.00350302906252",
    "geocoded_column": {
      "latitude": "30.00350302906252",
      "longitude": "-90.12022352815022"
    }
  },
  {
    "service_request": "2022-912413",
    "request_type": "Health Related Questions",
    "request_reason": "Noise Ordinance Complaint",
    "date_created": "2022-08-22T20:35:51.000",
    "date_modified": "2022-08-22T20:35:51.000",
    "request_status": "Pending",
    "responsible_agency": "Health Department",
    "final_address": "718 Bourbon St, New Orleans, Louisiana, 70116",
    "address_councildis": "C",
    "status": "Pending",
    "rowid": "912413",
    "final_x": "3682364.17781",
    "final_y": "532746.008004",
    "longitude": "-90.06529872053143",
    "latitude": "29.95884052062511",
    "geocoded_column": {
      "latitude": "29.95884052062511",
      "longitude": "-90.06529872053143"
    }
  },
  {
    "service_request": "2022-912412",
    "request_type": "Trash/Recycling",
    "request_reason": "Order Recycling Cart",
    "date_created": "2022-08-22T20:17:26.000",
    "date_modified": "2022-08-22T20:17:26.000",
    "request_status": "Pending",
    "responsible_agency": "Department of Sanitation",
    "final_address": "2910 Banks St",
    "address_councildis": "B",
    "status": "Pending",
    "rowid": "912412",
    "final_x": "3673754.71464",
    "final_y": "534713.82695",
    "longitude": "-90.09241796612805",
    "latitude": "29.964510531423937",
    "geocoded_column": {
      "latitude": "29.964510531423937",
      "longitude": "-90.09241796612805"
    }
  },
  {
    "service_request": "2022-912411",
    "request_type": "Trash/Recycling",
    "request_reason": "Order Trash Cart",
    "date_created": "2022-08-22T20:16:53.000",
    "date_modified": "2022-08-22T20:16:54.000",
    "request_status": "Pending",
    "responsible_agency": "Department of Sanitation",
    "final_address": "2910 Banks St",
    "address_councildis": "B",
    "status": "Assigned to Contractor",
    "contractor": "Richards Disposal",
    "rowid": "912411",
    "final_x": "3673754.71464",
    "final_y": "534713.82695",
    "longitude": "-90.09241796612805",
    "latitude": "29.964510531423937",
    "geocoded_column": {
      "latitude": "29.964510531423937",
      "longitude": "-90.09241796612805"
    }
  },
  {
    "service_request": "2022-912410",
    "request_type": "Trash/Recycling",
    "request_reason": "Request a Large Item Pick Up",
    "date_created": "2022-08-22T20:12:46.000",
    "date_modified": "2022-08-22T20:12:49.000",
    "request_status": "Pending",
    "responsible_agency": "Department of Sanitation",
    "final_address": "4035 Banks St",
    "address_councildis": "A",
    "status": "Assigned to Contractor",
    "contractor": "Richards Disposal",
    "rowid": "912410",
    "final_x": "3670563.79796",
    "final_y": "537317.602952",
    "longitude": "-90.10240633704508",
    "latitude": "29.971764676889716",
    "geocoded_column": {
      "latitude": "29.971764676889716",
      "longitude": "-90.10240633704508"
    }
  },
  {
    "service_request": "2022-912409",
    "request_type": "Trash/Recycling",
    "request_reason": "Order Trash Cart",
    "date_created": "2022-08-22T19:57:42.000",
    "date_modified": "2022-08-22T19:57:42.000",
    "request_status": "Pending",
    "responsible_agency": "Department of Sanitation",
    "final_address": "1015 Broadway St",
    "address_councildis": "A",
    "status": "Assigned to Contractor",
    "contractor": "Richards Disposal",
    "rowid": "912409",
    "final_x": "3663890.02899",
    "final_y": "525974.516413",
    "longitude": "-90.12386135530822",
    "latitude": "29.940770320618906",
    "geocoded_column": {
      "latitude": "29.940770320618906",
      "longitude": "-90.12386135530822"
    }
  },
  {
    "service_request": "2022-912408",
    "request_type": "Parks & Parkways",
    "request_reason": "Request Grass Cutting Service (City Owned Property)",
    "date_created": "2022-08-22T19:49:58.000",
    "date_modified": "2022-08-22T19:49:58.000",
    "request_status": "Pending",
    "responsible_agency": "Department of Parks & Parkway",
    "final_address": "5603 Rosemary Pl",
    "address_councildis": "A",
    "status": "Pending",
    "rowid": "912408",
    "final_x": "3667206.98695",
    "final_y": "544733.913999",
    "longitude": "-90.11275820816917",
    "latitude": "29.992255754743415",
    "geocoded_column": {
      "latitude": "29.992255754743415",
      "longitude": "-90.11275820816917"
    }
  },
  {
    "service_request": "2022-912407",
    "request_type": "Health Related Questions",
    "request_reason": "Noise Ordinance Complaint",
    "date_created": "2022-08-22T19:39:25.000",
    "date_modified": "2022-08-22T19:39:25.000",
    "request_status": "Pending",
    "responsible_agency": "Health Department",
    "final_address": "718 Bourbon St, New Orleans, Louisiana, 70116",
    "address_councildis": "C",
    "status": "Pending",
    "rowid": "912407",
    "final_x": "3682364.17781",
    "final_y": "532746.008004",
    "longitude": "-90.06529872053143",
    "latitude": "29.95884052062511",
    "geocoded_column": {
      "latitude": "29.95884052062511",
      "longitude": "-90.06529872053143"
    }
  },
  {
    "service_request": "2022-912406",
    "request_type": "Trash/Recycling",
    "request_reason": "Illegal Dumping",
    "date_created": "2022-08-22T19:30:03.000",
    "date_modified": "2022-08-22T19:30:03.000",
    "request_status": "Pending",
    "responsible_agency": "Department of Sanitation",
    "final_address": "520 Whitney Ave",
    "address_councildis": "C",
    "status": "Pending",
    "rowid": "912406",
    "final_x": "3690317.83728",
    "final_y": "529618.149313",
    "longitude": "-90.04029462935715",
    "latitude": "29.949995574008152",
    "geocoded_column": {
      "latitude": "29.949995574008152",
      "longitude": "-90.04029462935715"
    }
  },
  {
    "service_request": "2022-912405",
    "request_type": "Roads/Drainage",
    "request_reason": "Street Flooding / Drainage",
    "date_created": "2022-08-22T19:11:44.000",
    "date_modified": "2022-08-22T19:11:45.000",
    "request_status": "Pending",
    "responsible_agency": "Department of Public Works",
    "final_address": "14056 Linden St",
    "address_councildis": "E",
    "status": "Pending",
    "rowid": "912405",
    "final_x": "3718599.51871",
    "final_y": "572583.170089",
    "longitude": "-89.94935877254531",
    "latitude": "30.06722462658551",
    "geocoded_column": {
      "latitude": "30.06722462658551",
      "longitude": "-89.94935877254531"
    }
  },
  {
    "service_request": "2022-912404",
    "request_type": "Trash/Recycling",
    "request_reason": "Request a Large Item Pick Up",
    "date_created": "2022-08-22T19:01:02.000",
    "date_modified": "2022-08-22T19:01:03.000",
    "request_status": "Pending",
    "responsible_agency": "Department of Sanitation",
    "final_address": "4206 Orleans Ave, New Orleans, Louisiana, 70119",
    "address_councildis": "A",
    "status": "Assigned to Contractor",
    "contractor": "Richards Disposal",
    "rowid": "912404",
    "final_x": "3671891.23041",
    "final_y": "540600.977163",
    "longitude": "-90.0981023071748",
    "latitude": "29.980753565028625",
    "geocoded_column": {
      "latitude": "29.980753565028625",
      "longitude": "-90.0981023071748"
    }
  },
  {
    "service_request": "2022-912403",
    "request_type": "Abandoned Vehicles",
    "request_reason": "Abandoned/Junk Vehicles",
    "date_created": "2022-08-22T18:56:03.000",
    "date_modified": "2022-08-22T18:56:03.000",
    "request_status": "Pending",
    "responsible_agency": "Department of Public Works",
    "final_address": "2857 Carondelet St",
    "address_councildis": "B",
    "status": "Pending",
    "rowid": "912403",
    "final_x": "3675294.98101",
    "final_y": "522619.760634",
    "longitude": "-90.08796900843292",
    "latitude": "29.931209896788122",
    "geocoded_column": {
      "latitude": "29.931209896788122",
      "longitude": "-90.08796900843292"
    }
  },
  {
    "service_request": "2022-912402",
    "request_type": "Property Maintenance",
    "request_reason": "Property Maintenance",
    "date_created": "2022-08-22T18:50:22.000",
    "date_modified": "2022-08-22T18:50:22.000",
    "request_status": "Pending",
    "responsible_agency": "Department of Code Enforcement",
    "final_address": "6768 Tara Ln",
    "address_councildis": "E",
    "status": "Pending",
    "rowid": "912402",
    "final_x": "3707307.77297",
    "final_y": "559119.521948",
    "longitude": "-89.98555430741305",
    "latitude": "30.030575160910317",
    "geocoded_column": {
      "latitude": "30.030575160910317",
      "longitude": "-89.98555430741305"
    }
  },
  {
    "service_request": "2022-912401",
    "request_type": "Trash/Recycling",
    "request_reason": "Request a Large Item Pick Up",
    "date_created": "2022-08-22T18:45:45.000",
    "date_modified": "2022-08-22T18:45:46.000",
    "request_status": "Pending",
    "responsible_agency": "Department of Sanitation",
    "final_address": "7933 Birch St",
    "address_councildis": "A",
    "status": "Assigned to Contractor",
    "contractor": "Richards Disposal",
    "rowid": "912401",
    "final_x": "3663309.23763",
    "final_y": "529107.803392",
    "longitude": "-90.12559075568633",
    "latitude": "29.94940270024249",
    "geocoded_column": {
      "latitude": "29.94940270024249",
      "longitude": "-90.12559075568633"
    }
  },
  {
    "service_request": "2022-912400",
    "request_type": "Traffic Signals/Signs/Striping/Streetlights",
    "request_reason": "Street Light Outage/Malfunction",
    "date_created": "2022-08-22T18:30:45.000",
    "date_modified": "2022-08-22T18:30:46.000",
    "request_status": "Pending",
    "responsible_agency": "Department of Public Works",
    "final_address": "1244 Esplanade Ave",
    "address_councildis": "C",
    "status": "Pending",
    "contractor": "Legacy Professional Services",
    "rowid": "912400",
    "final_x": "3682206.4084",
    "final_y": "535755.644103",
    "longitude": "-90.06569177687996",
    "latitude": "29.967120788695215",
    "geocoded_column": {
      "latitude": "29.967120788695215",
      "longitude": "-90.06569177687996"
    }
  },
  {
    "service_request": "2022-912399",
    "request_type": "Property Maintenance",
    "request_reason": "Property Maintenance",
    "date_created": "2022-08-22T18:26:37.000",
    "date_modified": "2022-08-22T18:26:37.000",
    "request_status": "Pending",
    "responsible_agency": "Department of Code Enforcement",
    "final_address": "3303 Lamarque St",
    "address_councildis": "C",
    "status": "Pending",
    "rowid": "912399",
    "final_x": "3696428.89008",
    "final_y": "526567.661246",
    "longitude": "-90.02110959497826",
    "latitude": "29.941416759473466",
    "geocoded_column": {
      "latitude": "29.941416759473466",
      "longitude": "-90.02110959497826"
    }
  },
  {
    "service_request": "2022-912398",
    "request_type": "Property Maintenance",
    "request_reason": "Property Maintenance",
    "date_created": "2022-08-22T18:26:22.000",
    "date_modified": "2022-08-22T18:26:22.000",
    "request_status": "Pending",
    "responsible_agency": "Department of Code Enforcement",
    "final_address": "6700 Cindy Pl",
    "address_councildis": "E",
    "status": "Pending",
    "rowid": "912398",
    "final_x": "3707199.446",
    "final_y": "558627.075036",
    "longitude": "-89.98591491844806",
    "latitude": "30.02922462809095",
    "geocoded_column": {
      "latitude": "30.02922462809095",
      "longitude": "-89.98591491844806"
    }
  },
  {
    "service_request": "2022-912397",
    "request_type": "Roads/Drainage",
    "request_reason": "Street Flooding / Drainage",
    "date_created": "2022-08-22T18:26:10.000",
    "date_modified": "2022-08-22T18:26:10.000",
    "request_status": "Pending",
    "responsible_agency": "Department of Public Works",
    "final_address": "2820 St Claude Ave",
    "address_councildis": "C",
    "status": "Pending",
    "rowid": "912397",
    "final_x": "3687888.37526",
    "final_y": "536223.685639",
    "longitude": "-90.04773154534784",
    "latitude": "29.968233674109356",
    "geocoded_column": {
      "latitude": "29.968233674109356",
      "longitude": "-90.04773154534784"
    }
  },
  {
    "service_request": "2022-912396",
    "request_type": "Property Maintenance",
    "request_reason": "Property Maintenance",
    "date_created": "2022-08-22T18:13:50.000",
    "date_modified": "2022-08-22T18:13:50.000",
    "request_status": "Pending",
    "responsible_agency": "Department of Code Enforcement",
    "final_address": "5730 Bundy Rd",
    "address_councildis": "E",
    "status": "Pending",
    "rowid": "912396",
    "final_x": "3707982.92158",
    "final_y": "558775.281052",
    "longitude": "-89.98343366067516",
    "latitude": "30.029606780724826",
    "geocoded_column": {
      "latitude": "30.029606780724826",
      "longitude": "-89.98343366067516"
    }
  },
  {
    "service_request": "2022-912395",
    "request_type": "Traffic Signals/Signs/Striping/Streetlights",
    "request_reason": "Street Light Outage/Malfunction",
    "date_created": "2022-08-22T18:13:27.000",
    "date_modified": "2022-08-22T18:13:28.000",
    "request_status": "Pending",
    "responsible_agency": "Department of Public Works",
    "final_address": "6461 Vicksburg St",
    "address_councildis": "A",
    "status": "Pending",
    "contractor": "Legacy Professional Services",
    "rowid": "912395",
    "final_x": "3669252.83591",
    "final_y": "550462.483412",
    "longitude": "-90.10610194635039",
    "latitude": "30.00794725198003",
    "geocoded_column": {
      "latitude": "30.00794725198003",
      "longitude": "-90.10610194635039"
    }
  },
  {
    "service_request": "2022-912394",
    "request_type": "Traffic Signals/Signs/Striping/Streetlights",
    "request_reason": "Street Light Outage/Malfunction",
    "date_created": "2022-08-22T18:10:30.000",
    "date_modified": "2022-08-22T18:10:31.000",
    "request_status": "Pending",
    "responsible_agency": "Department of Public Works",
    "final_address": "ST BERNARD AVE & ST BERNARD EXIT",
    "address_councildis": "D",
    "status": "Pending",
    "contractor": "Legacy Professional Services",
    "rowid": "912394",
    "final_x": "3682040.7",
    "final_y": "538035.78",
    "longitude": "-90.06613545165598",
    "latitude": "29.973395414826143",
    "geocoded_column": {
      "latitude": "29.973395414826143",
      "longitude": "-90.06613545165598"
    }
  },
  {
    "service_request": "2022-912393",
    "request_type": "Parks & Parkways",
    "request_reason": "Request Tree Service (Right of Way/Public Property)",
    "date_created": "2022-08-22T17:51:12.000",
    "date_modified": "2022-08-22T17:51:12.000",
    "request_status": "Pending",
    "responsible_agency": "Department of Parks & Parkway",
    "final_address": "BORDEAUX ST & CAMP ST",
    "address_councildis": "B",
    "status": "Pending",
    "rowid": "912393",
    "final_x": "3669556.1",
    "final_y": "519007.38",
    "longitude": "-90.10620809985426",
    "latitude": "29.921447259451757",
    "geocoded_column": {
      "latitude": "29.921447259451757",
      "longitude": "-90.10620809985426"
    }
  },
  {
    "service_request": "2022-912392",
    "request_type": "Roads/Drainage",
    "request_reason": "Street Subsidence (Sinking)",
    "date_created": "2022-08-22T17:48:54.000",
    "date_modified": "2022-08-22T17:48:54.000",
    "request_status": "Pending",
    "responsible_agency": "Department of Public Works",
    "final_address": "1028 8th St, New Orleans, Louisiana, 70115",
    "status": "Pending",
    "rowid": "912392",
    "longitude": "0.0",
    "latitude": "0.0",
    "geocoded_column": {
      "latitude": "0.0",
      "longitude": "0.0"
    }
  },
  {
    "service_request": "2022-912391",
    "request_type": "Parks & Parkways",
    "request_reason": "Request Tree Service (Right of Way/Public Property)",
    "date_created": "2022-08-22T17:47:43.000",
    "date_modified": "2022-08-22T17:47:43.000",
    "request_status": "Pending",
    "responsible_agency": "Department of Parks & Parkway",
    "final_address": "5800 St Bernard Ave",
    "address_councildis": "D",
    "status": "Pending",
    "rowid": "912391",
    "final_x": "3676748.10843",
    "final_y": "553665.508119",
    "longitude": "-90.0823116292081",
    "latitude": "30.016531560699285",
    "geocoded_column": {
      "latitude": "30.016531560699285",
      "longitude": "-90.0823116292081"
    }
  },
  {
    "service_request": "2022-912390",
    "request_type": "Property Maintenance",
    "request_reason": "Property Maintenance",
    "date_created": "2022-08-22T17:37:05.000",
    "date_modified": "2022-08-22T17:37:05.000",
    "request_status": "Pending",
    "responsible_agency": "Department of Code Enforcement",
    "final_address": "2229 Forstall St",
    "address_councildis": "E",
    "status": "Pending",
    "rowid": "912390",
    "final_x": "3697505.41514",
    "final_y": "538552.157001",
    "longitude": "-90.01727623427124",
    "latitude": "29.974335941080632",
    "geocoded_column": {
      "latitude": "29.974335941080632",
      "longitude": "-90.01727623427124"
    }
  },
  {
    "service_request": "2022-912389",
    "request_type": "Property Maintenance",
    "request_reason": "Property Maintenance",
    "date_created": "2022-08-22T17:36:38.000",
    "date_modified": "2022-08-22T17:36:38.000",
    "request_status": "Pending",
    "responsible_agency": "Department of Code Enforcement",
    "final_address": "2235 Forstall St",
    "address_councildis": "E",
    "status": "Pending",
    "rowid": "912389",
    "final_x": "3697526.07971",
    "final_y": "538605.467657",
    "longitude": "-90.01720903716506",
    "latitude": "29.97448187355685",
    "geocoded_column": {
      "latitude": "29.97448187355685",
      "longitude": "-90.01720903716506"
    }
  },
  {
    "service_request": "2022-912388",
    "request_type": "Trash/Recycling",
    "request_reason": "Request a Large Item Pick Up",
    "date_created": "2022-08-22T17:35:40.000",
    "date_modified": "2022-08-22T17:35:41.000",
    "request_status": "Pending",
    "responsible_agency": "Department of Sanitation",
    "final_address": "1518 Fern St, New Orleans, Louisiana, 70118",
    "address_councildis": "A",
    "status": "Assigned to Contractor",
    "contractor": "Richards Disposal",
    "rowid": "912388",
    "final_x": "3663341.98899",
    "final_y": "528794.211904",
    "longitude": "-90.12549778172864",
    "latitude": "29.94853947530304",
    "geocoded_column": {
      "latitude": "29.94853947530304",
      "longitude": "-90.12549778172864"
    }
  },
  {
    "service_request": "2022-912387",
    "request_type": "Property Maintenance",
    "request_reason": "Property Maintenance",
    "date_created": "2022-08-22T17:35:14.000",
    "date_modified": "2022-08-22T17:35:15.000",
    "request_status": "Pending",
    "responsible_agency": "Department of Code Enforcement",
    "final_address": "2226 Forstall St",
    "address_councildis": "E",
    "status": "Pending",
    "rowid": "912387",
    "final_x": "3697442.33661",
    "final_y": "538557.575369",
    "longitude": "-90.01747525352387",
    "latitude": "29.97435283158387",
    "geocoded_column": {
      "latitude": "29.97435283158387",
      "longitude": "-90.01747525352387"
    }
  },
  {
    "service_request": "2022-912385",
    "request_type": "Trash/Recycling",
    "request_reason": "Missed Trash Pick-Up",
    "date_created": "2022-08-22T17:31:07.000",
    "date_modified": "2022-08-22T17:31:08.000",
    "request_status": "Pending",
    "responsible_agency": "Department of Sanitation",
    "final_address": "5524 Mandeville St",
    "address_councildis": "D",
    "status": "Assigned to Contractor",
    "contractor": "Metro Disposal",
    "rowid": "912385",
    "final_x": "3684366.53807",
    "final_y": "553296.742359",
    "longitude": "-90.05825365292627",
    "latitude": "30.01528668144594",
    "geocoded_column": {
      "latitude": "30.01528668144594",
      "longitude": "-90.05825365292627"
    }
  },
  {
    "service_request": "2022-912384",
    "request_type": "Trash/Recycling",
    "request_reason": "Missed Trash Pick-Up",
    "date_created": "2022-08-22T17:27:34.000",
    "date_modified": "2022-08-22T17:27:35.000",
    "request_status": "Pending",
    "responsible_agency": "Department of Sanitation",
    "final_address": "5526 Mandeville St",
    "address_councildis": "D",
    "status": "Assigned to Contractor",
    "contractor": "Metro Disposal",
    "rowid": "912384",
    "final_x": "3684365.07983",
    "final_y": "553310.922583",
    "longitude": "-90.05825776171615",
    "latitude": "30.01532571649185",
    "geocoded_column": {
      "latitude": "30.01532571649185",
      "longitude": "-90.05825776171615"
    }
  },
  {
    "service_request": "2022-912383",
    "request_type": "Trash/Recycling",
    "request_reason": "Request a Large Item Pick Up",
    "date_created": "2022-08-22T17:18:38.000",
    "date_modified": "2022-08-22T17:18:38.000",
    "request_status": "Pending",
    "responsible_agency": "Department of Sanitation",
    "final_address": "2020 Valentine Ct",
    "address_councildis": "C",
    "status": "Assigned to Contractor",
    "contractor": "Richards Disposal",
    "rowid": "912383",
    "final_x": "3699801.15204",
    "final_y": "523858.159611",
    "longitude": "-90.01056152908515",
    "latitude": "29.93385995191881",
    "geocoded_column": {
      "latitude": "29.93385995191881",
      "longitude": "-90.01056152908515"
    }
  },
  {
    "service_request": "2022-912382",
    "request_type": "Roads/Drainage",
    "request_reason": "Pothole",
    "date_created": "2022-08-22T17:14:16.000",
    "date_modified": "2022-08-22T17:14:16.000",
    "request_status": "Pending",
    "responsible_agency": "Department of Public Works",
    "final_address": "5724 Memphis St",
    "address_councildis": "A",
    "status": "Pending",
    "rowid": "912382",
    "final_x": "3668948.39265",
    "final_y": "545566.650832",
    "longitude": "-90.10722928583944",
    "latitude": "29.994494374157973",
    "geocoded_column": {
      "latitude": "29.994494374157973",
      "longitude": "-90.10722928583944"
    }
  },
  {
    "service_request": "2022-912381",
    "request_type": "Health Related Questions",
    "request_reason": "Noise Ordinance Complaint",
    "date_created": "2022-08-22T17:13:35.000",
    "date_modified": "2022-08-22T17:13:35.000",
    "request_status": "Pending",
    "responsible_agency": "Health Department",
    "final_address": "2816 Louisiana Ave",
    "address_councildis": "B",
    "status": "Pending",
    "rowid": "912381",
    "final_x": "3672351.56084",
    "final_y": "525609.931837",
    "longitude": "-90.09715918942224",
    "latitude": "29.939519534778835",
    "geocoded_column": {
      "latitude": "29.939519534778835",
      "longitude": "-90.09715918942224"
    }
  },
  {
    "service_request": "2022-912380",
    "request_type": "Abandoned Vehicles",
    "request_reason": "Abandoned/Junk Vehicles",
    "date_created": "2022-08-22T17:06:56.000",
    "date_modified": "2022-08-22T17:06:56.000",
    "request_status": "Pending",
    "responsible_agency": "Department of Public Works",
    "final_address": "2733 Danneel St",
    "address_councildis": "B",
    "status": "Pending",
    "rowid": "912380",
    "final_x": "3675152.1019",
    "final_y": "523787.036027",
    "longitude": "-90.088380023197",
    "latitude": "29.934423793526783",
    "geocoded_column": {
      "latitude": "29.934423793526783",
      "longitude": "-90.088380023197"
    }
  },
  {
    "service_request": "2022-912377",
    "request_type": "Trash/Recycling",
    "request_reason": "Order Trash Cart",
    "date_created": "2022-08-22T16:59:55.000",
    "date_modified": "2022-08-22T16:59:56.000",
    "request_status": "Pending",
    "responsible_agency": "Department of Sanitation",
    "final_address": "2428 Bristol Pl",
    "address_councildis": "C",
    "status": "Assigned to Contractor",
    "contractor": "Richards Disposal",
    "rowid": "912377",
    "final_x": "3702694.36721",
    "final_y": "522054.051066",
    "longitude": "-90.00149404431058",
    "latitude": "29.92880712687749",
    "geocoded_column": {
      "latitude": "29.92880712687749",
      "longitude": "-90.00149404431058"
    }
  },
  {
    "service_request": "2022-912376",
    "request_type": "Abandoned Vehicles",
    "request_reason": "Abandoned/Junk Vehicles",
    "date_created": "2022-08-22T16:59:35.000",
    "date_modified": "2022-08-22T16:59:35.000",
    "request_status": "Pending",
    "responsible_agency": "Department of Public Works",
    "final_address": "819 Marigny St",
    "address_councildis": "C",
    "status": "Pending",
    "rowid": "912376",
    "final_x": "3685531.49711",
    "final_y": "535428.236102",
    "longitude": "-90.05520267440781",
    "latitude": "29.966118964045297",
    "geocoded_column": {
      "latitude": "29.966118964045297",
      "longitude": "-90.05520267440781"
    }
  },
  {
    "service_request": "2022-912375",
    "request_type": "Trash/Recycling",
    "request_reason": "Order Trash Cart",
    "date_created": "2022-08-22T16:57:57.000",
    "date_modified": "2022-08-22T16:57:58.000",
    "request_status": "Pending",
    "responsible_agency": "Department of Sanitation",
    "final_address": "4544 LaSalle St",
    "address_councildis": "B",
    "status": "Assigned to Contractor",
    "contractor": "Richards Disposal",
    "rowid": "912375",
    "final_x": "3669871.11182",
    "final_y": "523549.639419",
    "longitude": "-90.10506004820583",
    "latitude": "29.93392774307686",
    "geocoded_column": {
      "latitude": "29.93392774307686",
      "longitude": "-90.10506004820583"
    }
  },
  {
    "service_request": "2022-912374",
    "request_type": "Trash/Recycling",
    "request_reason": "Order Recycling Cart",
    "date_created": "2022-08-22T16:57:38.000",
    "date_modified": "2022-08-22T16:57:38.000",
    "request_status": "Pending",
    "responsible_agency": "Department of Sanitation",
    "final_address": "4544 LaSalle St",
    "address_councildis": "B",
    "status": "Pending",
    "rowid": "912374",
    "final_x": "3669871.11182",
    "final_y": "523549.639419",
    "longitude": "-90.10506004820583",
    "latitude": "29.93392774307686",
    "geocoded_column": {
      "latitude": "29.93392774307686",
      "longitude": "-90.10506004820583"
    }
  },
  {
    "service_request": "2022-912373",
    "request_type": "Roads/Drainage",
    "request_reason": "Street Subsidence (Sinking)",
    "date_created": "2022-08-22T16:48:11.000",
    "date_modified": "2022-08-22T16:48:12.000",
    "request_status": "Pending",
    "responsible_agency": "Department of Public Works",
    "final_address": "ELYSIAN FIELDS AV OVER & ELYSIAN FIELDS AVE",
    "address_councildis": "D",
    "status": "Pending",
    "rowid": "912373",
    "final_x": "3684527.2",
    "final_y": "541571.48",
    "longitude": "-90.05815831576034",
    "latitude": "29.98304150480719",
    "geocoded_column": {
      "latitude": "29.98304150480719",
      "longitude": "-90.05815831576034"
    }
  },
  {
    "service_request": "2022-912371",
    "request_type": "Roads/Drainage",
    "request_reason": "Pothole",
    "date_created": "2022-08-22T16:46:56.000",
    "date_modified": "2022-08-22T16:48:15.000",
    "request_status": "Pending",
    "responsible_agency": "Department of Public Works",
    "final_address": "CANAL ST & S GALVEZ ST",
    "address_councildis": "B",
    "status": "Pending",
    "rowid": "912371",
    "final_x": "3676994.9",
    "final_y": "533820.38",
    "longitude": "-90.0822165030091",
    "latitude": "29.961956970183454",
    "geocoded_column": {
      "latitude": "29.961956970183454",
      "longitude": "-90.0822165030091"
    }
  },
  {
    "service_request": "2022-912370",
    "request_type": "Property Maintenance",
    "request_reason": "Property Maintenance",
    "date_created": "2022-08-22T16:46:15.000",
    "date_modified": "2022-08-22T16:46:15.000",
    "request_status": "Pending",
    "responsible_agency": "Department of Code Enforcement",
    "final_address": "3452 St Ferdinand St",
    "address_councildis": "D",
    "status": "Pending",
    "rowid": "912370",
    "final_x": "3689936.60854",
    "final_y": "545918.101136",
    "longitude": "-90.04091784170053",
    "latitude": "29.994826512984734",
    "geocoded_column": {
      "latitude": "29.994826512984734",
      "longitude": "-90.04091784170053"
    }
  },
  {
    "service_request": "2022-912369",
    "request_type": "Parks & Parkways",
    "request_reason": "Request Grass Cutting Service (City Owned Property)",
    "date_created": "2022-08-22T16:44:14.000",
    "date_modified": "2022-08-22T16:44:15.000",
    "request_status": "Pending",
    "responsible_agency": "Department of Parks & Parkway",
    "final_address": "FRANCIS ST & DWYER RD",
    "address_councildis": "D",
    "status": "Pending",
    "rowid": "912369",
    "final_x": "3698147.5",
    "final_y": "555291.28",
    "longitude": "-90.01463998101886",
    "latitude": "30.020342039839964",
    "geocoded_column": {
      "latitude": "30.020342039839964",
      "longitude": "-90.01463998101886"
    }
  },
  {
    "service_request": "2022-912367",
    "request_type": "Trash/Recycling",
    "request_reason": "Request a Large Item Pick Up",
    "date_created": "2022-08-22T16:38:51.000",
    "date_modified": "2022-08-22T16:38:53.000",
    "request_status": "Pending",
    "responsible_agency": "Department of Sanitation",
    "final_address": "1212 N Gayoso St",
    "address_councildis": "A",
    "status": "Assigned to Contractor",
    "contractor": "Richards Disposal",
    "rowid": "912367",
    "final_x": "3676763.55048",
    "final_y": "539421.960906",
    "longitude": "-90.08275401098841",
    "latitude": "29.977366353180507",
    "geocoded_column": {
      "latitude": "29.977366353180507",
      "longitude": "-90.08275401098841"
    }
  },
  {
    "service_request": "2022-912365",
    "request_type": "Trash/Recycling",
    "request_reason": "Request a Large Item Pick Up",
    "date_created": "2022-08-22T16:28:33.000",
    "date_modified": "2022-08-22T16:28:35.000",
    "request_status": "Pending",
    "responsible_agency": "Department of Sanitation",
    "final_address": "3321 General Taylor St, New Orleans, Louisiana, 70125",
    "address_councildis": "B",
    "status": "Assigned to Contractor",
    "contractor": "Richards Disposal",
    "rowid": "912365",
    "final_x": "3671240.33479",
    "final_y": "527188.711487",
    "longitude": "-90.10061386436449",
    "latitude": "29.943893582190693",
    "geocoded_column": {
      "latitude": "29.943893582190693",
      "longitude": "-90.10061386436449"
    }
  },
  {
    "service_request": "2022-912364",
    "request_type": "Trash/Recycling",
    "request_reason": "MIssed Recycling Pick-Up",
    "date_created": "2022-08-22T16:18:28.000",
    "date_modified": "2022-08-22T16:18:29.000",
    "request_status": "Pending",
    "responsible_agency": "Department of Sanitation",
    "final_address": "7913 Cohn St",
    "address_councildis": "A",
    "status": "Assigned to Contractor",
    "contractor": "Richards Disposal",
    "rowid": "912364",
    "final_x": "3664123.07956",
    "final_y": "529770.738369",
    "longitude": "-90.1229989713199",
    "latitude": "29.951201945398147",
    "geocoded_column": {
      "latitude": "29.951201945398147",
      "longitude": "-90.1229989713199"
    }
  },
  {
    "service_request": "2022-912363",
    "request_type": "Abandoned Vehicles",
    "request_reason": "Abandoned/Junk Vehicles",
    "date_created": "2022-08-22T16:18:11.000",
    "date_modified": "2022-08-22T16:18:11.000",
    "request_status": "Pending",
    "responsible_agency": "Department of Public Works",
    "final_address": "2730 Dauphine St",
    "address_councildis": "C",
    "status": "Pending",
    "rowid": "912363",
    "final_x": "3687368.2541",
    "final_y": "535162.575622",
    "longitude": "-90.04941165473089",
    "latitude": "29.96533202695357",
    "geocoded_column": {
      "latitude": "29.96533202695357",
      "longitude": "-90.04941165473089"
    }
  },
  {
    "service_request": "2022-912361",
    "request_type": "Trash/Recycling",
    "request_reason": "Order Recycling Cart",
    "date_created": "2022-08-22T16:16:30.000",
    "date_modified": "2022-08-22T16:16:31.000",
    "request_status": "Pending",
    "responsible_agency": "Department of Sanitation",
    "final_address": "1838 Feliciana St",
    "address_councildis": "D",
    "status": "Pending",
    "rowid": "912361",
    "final_x": "3689426.75593",
    "final_y": "538984.559754",
    "longitude": "-90.04277508692059",
    "latitude": "29.975777556192707",
    "geocoded_column": {
      "latitude": "29.975777556192707",
      "longitude": "-90.04277508692059"
    }
  },
  {
    "service_request": "2022-912360",
    "request_type": "Trash/Recycling",
    "request_reason": "Start Trash Service",
    "date_created": "2022-08-22T16:15:59.000",
    "date_modified": "2022-08-22T16:15:59.000",
    "request_status": "Pending",
    "responsible_agency": "Department of Sanitation",
    "final_address": "1838 Feliciana St",
    "address_councildis": "D",
    "status": "Assigned to Contractor",
    "contractor": "Metro Disposal",
    "rowid": "912360",
    "final_x": "3689426.75593",
    "final_y": "538984.559754",
    "longitude": "-90.04277508692059",
    "latitude": "29.975777556192707",
    "geocoded_column": {
      "latitude": "29.975777556192707",
      "longitude": "-90.04277508692059"
    }
  },
  {
    "service_request": "2022-912359",
    "request_type": "Trash/Recycling",
    "request_reason": "Order Trash Cart",
    "date_created": "2022-08-22T16:15:23.000",
    "date_modified": "2022-08-22T16:15:24.000",
    "request_status": "Pending",
    "responsible_agency": "Department of Sanitation",
    "final_address": "1838 Feliciana St",
    "address_councildis": "D",
    "status": "Assigned to Contractor",
    "contractor": "Metro Disposal",
    "rowid": "912359",
    "final_x": "3689426.75593",
    "final_y": "538984.559754",
    "longitude": "-90.04277508692059",
    "latitude": "29.975777556192707",
    "geocoded_column": {
      "latitude": "29.975777556192707",
      "longitude": "-90.04277508692059"
    }
  },
  {
    "service_request": "2022-912357",
    "request_type": "Parks & Parkways",
    "request_reason": "Request Tree Service (Right of Way/Public Property)",
    "date_created": "2022-08-22T16:14:54.000",
    "date_modified": "2022-08-22T16:16:56.000",
    "case_close_date": "2021-12-27T18:00:00.000",
    "request_status": "Pending",
    "responsible_agency": "Department of Parks & Parkway",
    "final_address": "5203 Pitt St",
    "address_councildis": "B",
    "rowid": "912357",
    "final_x": "3668056.60557",
    "final_y": "520488.290616",
    "longitude": "-90.11089149314375",
    "latitude": "29.925563366387376",
    "geocoded_column": {
      "latitude": "29.925563366387376",
      "longitude": "-90.11089149314375"
    }
  },
  {
    "service_request": "2022-912356",
    "request_type": "Trash/Recycling",
    "request_reason": "MIssed Recycling Pick-Up",
    "date_created": "2022-08-22T16:14:28.000",
    "date_modified": "2022-08-22T16:14:29.000",
    "request_status": "Pending",
    "responsible_agency": "Department of Sanitation",
    "final_address": "2528 Cambronne St",
    "address_councildis": "A",
    "status": "Assigned to Contractor",
    "contractor": "Richards Disposal",
    "rowid": "912356",
    "final_x": "3664457.78944",
    "final_y": "532781.833796",
    "longitude": "-90.12184159591777",
    "latitude": "29.959471753351487",
    "geocoded_column": {
      "latitude": "29.959471753351487",
      "longitude": "-90.12184159591777"
    }
  },
  {
    "service_request": "2022-912354",
    "request_type": "Property Maintenance",
    "request_reason": "Property Maintenance",
    "date_created": "2022-08-22T16:09:21.000",
    "date_modified": "2022-08-22T16:09:22.000",
    "request_status": "Pending",
    "responsible_agency": "Department of Code Enforcement",
    "final_address": "1309 General Pershing St",
    "address_councildis": "B",
    "status": "Pending",
    "rowid": "912354",
    "final_x": "3671400.2443",
    "final_y": "520210.75628",
    "longitude": "-90.1003460543834",
    "latitude": "29.9247017266399",
    "geocoded_column": {
      "latitude": "29.9247017266399",
      "longitude": "-90.1003460543834"
    }
  },
  {
    "service_request": "2022-912353",
    "request_type": "Property Maintenance",
    "request_reason": "Property Maintenance",
    "date_created": "2022-08-22T16:09:08.000",
    "date_modified": "2022-08-22T16:09:08.000",
    "request_status": "Pending",
    "responsible_agency": "Department of Code Enforcement",
    "final_address": "1404 Saint Bernard Ave, New Orleans, Louisiana, 70116",
    "status": "Pending",
    "rowid": "912353",
    "longitude": "0.0",
    "latitude": "0.0",
    "geocoded_column": {
      "latitude": "0.0",
      "longitude": "0.0"
    }
  },
  {
    "service_request": "2022-912352",
    "request_type": "Abandoned Vehicles",
    "request_reason": "Abandoned/Junk Vehicles",
    "date_created": "2022-08-22T16:08:39.000",
    "date_modified": "2022-08-22T16:10:45.000",
    "request_status": "Pending",
    "responsible_agency": "Department of Public Works",
    "final_address": "3700 BLK Perrier St",
    "address_councildis": "B",
    "status": "Pending",
    "rowid": "912352",
    "final_x": "3673210.58464",
    "final_y": "520348.946951",
    "longitude": "-90.0946266888141",
    "latitude": "29.92502801811942",
    "geocoded_column": {
      "latitude": "29.92502801811942",
      "longitude": "-90.0946266888141"
    }
  },
  {
    "service_request": "2022-912351",
    "request_type": "Trash/Recycling",
    "request_reason": "Missed Trash Pick-Up",
    "date_created": "2022-08-22T16:07:02.000",
    "date_modified": "2022-08-22T16:07:03.000",
    "request_status": "Pending",
    "responsible_agency": "Department of Sanitation",
    "final_address": "9128 Quince St",
    "address_councildis": "A",
    "status": "Assigned to Contractor",
    "contractor": "Richards Disposal",
    "rowid": "912351",
    "final_x": "3666788.8706",
    "final_y": "539250.798986",
    "longitude": "-90.1142632306236",
    "latitude": "29.977191284794046",
    "geocoded_column": {
      "latitude": "29.977191284794046",
      "longitude": "-90.1142632306236"
    }
  },
  {
    "service_request": "2022-912350",
    "request_type": "Trash/Recycling",
    "request_reason": "Replace Trash Cart",
    "date_created": "2022-08-22T16:04:24.000",
    "date_modified": "2022-08-22T16:04:24.000",
    "request_status": "Pending",
    "responsible_agency": "Department of Sanitation",
    "final_address": "3101 De Soto St",
    "address_councildis": "A",
    "status": "Assigned to Contractor",
    "contractor": "Richards Disposal",
    "rowid": "912350",
    "final_x": "3676398.66939",
    "final_y": "539890.937994",
    "longitude": "-90.08389027651855",
    "latitude": "29.978666824010915",
    "geocoded_column": {
      "latitude": "29.978666824010915",
      "longitude": "-90.08389027651855"
    }
  },
  {
    "service_request": "2022-912349",
    "request_type": "Trash/Recycling",
    "request_reason": "Illegal Dumping",
    "date_created": "2022-08-22T16:00:10.000",
    "date_modified": "2022-08-22T16:00:11.000",
    "request_status": "Pending",
    "responsible_agency": "Department of Sanitation",
    "final_address": "ST CLAUDE AVE & FRENCHMEN ST",
    "address_councildis": "C",
    "status": "Pending",
    "rowid": "912349",
    "final_x": "3684586.2",
    "final_y": "536320.78",
    "longitude": "-90.05815652732994",
    "latitude": "29.968602110151146",
    "geocoded_column": {
      "latitude": "29.968602110151146",
      "longitude": "-90.05815652732994"
    }
  },
  {
    "service_request": "2022-912348",
    "request_type": "Property Maintenance",
    "request_reason": "Property Maintenance",
    "date_created": "2022-08-22T15:56:21.000",
    "date_modified": "2022-08-22T15:56:21.000",
    "request_status": "Pending",
    "responsible_agency": "Department of Code Enforcement",
    "final_address": "3619 General Ogden St",
    "address_councildis": "A",
    "status": "Pending",
    "rowid": "912348",
    "final_x": "3665785.09517",
    "final_y": "536711.549639",
    "longitude": "-90.11751858930127",
    "latitude": "29.970238521582388",
    "geocoded_column": {
      "latitude": "29.970238521582388",
      "longitude": "-90.11751858930127"
    }
  },
  {
    "service_request": "2022-912347",
    "request_type": "Trash/Recycling",
    "request_reason": "Request a Large Item Pick Up",
    "date_created": "2022-08-22T15:52:42.000",
    "date_modified": "2022-08-22T15:52:43.000",
    "request_status": "Pending",
    "responsible_agency": "Department of Sanitation",
    "final_address": "1024 Fourth St",
    "address_councildis": "B",
    "status": "Assigned to Contractor",
    "contractor": "Richards Disposal",
    "rowid": "912347",
    "final_x": "3677373.71701",
    "final_y": "520855.896057",
    "longitude": "-90.08146753732505",
    "latitude": "29.92629755697452",
    "geocoded_column": {
      "latitude": "29.92629755697452",
      "longitude": "-90.08146753732505"
    }
  },
  {
    "service_request": "2022-912344",
    "request_type": "Property Maintenance",
    "request_reason": "Property Maintenance",
    "date_created": "2022-08-22T15:47:58.000",
    "date_modified": "2022-08-22T15:47:58.000",
    "request_status": "Pending",
    "responsible_agency": "Department of Code Enforcement",
    "final_address": "13545 St Marie Ct",
    "address_councildis": "E",
    "status": "Pending",
    "rowid": "912344",
    "final_x": "3724106.53363",
    "final_y": "569330.799142",
    "longitude": "-89.93207609262069",
    "latitude": "30.05809794051616",
    "geocoded_column": {
      "latitude": "30.05809794051616",
      "longitude": "-89.93207609262069"
    }
  },
  {
    "service_request": "2022-912343",
    "request_type": "Trash/Recycling",
    "request_reason": "Replace Trash Cart",
    "date_created": "2022-08-22T15:45:43.000",
    "date_modified": "2022-08-22T15:45:43.000",
    "request_status": "Pending",
    "responsible_agency": "Department of Sanitation",
    "final_address": "842 Broadway St",
    "address_councildis": "A",
    "status": "Assigned to Contractor",
    "contractor": "Richards Disposal",
    "rowid": "912343",
    "final_x": "3663507.96922",
    "final_y": "525594.174013",
    "longitude": "-90.12508025227002",
    "latitude": "29.939735583461143",
    "geocoded_column": {
      "latitude": "29.939735583461143",
      "longitude": "-90.12508025227002"
    }
  },
  {
    "service_request": "2022-912341",
    "request_type": "Traffic Signals/Signs/Striping/Streetlights",
    "request_reason": "Street Light Outage/Malfunction",
    "date_created": "2022-08-22T15:37:49.000",
    "date_modified": "2022-08-22T15:37:50.000",
    "request_status": "Pending",
    "responsible_agency": "Department of Public Works",
    "final_address": "8000 Devine Ave",
    "address_councildis": "E",
    "status": "Pending",
    "contractor": "Legacy Professional Services",
    "rowid": "912341",
    "final_x": "3705015.10033",
    "final_y": "564064.017505",
    "longitude": "-89.99261631417295",
    "latitude": "30.044244527990564",
    "geocoded_column": {
      "latitude": "30.044244527990564",
      "longitude": "-89.99261631417295"
    }
  },
  {
    "service_request": "2022-912340",
    "request_type": "Trash/Recycling",
    "request_reason": "MIssed Recycling Pick-Up",
    "date_created": "2022-08-22T15:36:24.000",
    "date_modified": "2022-08-22T15:36:25.000",
    "request_status": "Pending",
    "responsible_agency": "Department of Sanitation",
    "final_address": "8823 Colapissa St",
    "address_councildis": "A",
    "status": "Assigned to Contractor",
    "contractor": "Richards Disposal",
    "rowid": "912340",
    "final_x": "3664569.88436",
    "final_y": "535247.568838",
    "longitude": "-90.12140527184842",
    "latitude": "29.966248456504",
    "geocoded_column": {
      "latitude": "29.966248456504",
      "longitude": "-90.12140527184842"
    }
  },
  {
    "service_request": "2022-912339",
    "request_type": "Abandoned Vehicles",
    "request_reason": "Abandoned/Junk Vehicles",
    "date_created": "2022-08-22T15:35:32.000",
    "date_modified": "2022-08-22T15:36:25.000",
    "request_status": "Pending",
    "responsible_agency": "Department of Public Works",
    "final_address": "7501 Trapier Ave",
    "address_councildis": "E",
    "status": "Pending",
    "rowid": "912339",
    "final_x": "3706855.91403",
    "final_y": "563217.242592",
    "longitude": "-89.98683001240232",
    "latitude": "30.04185688166206",
    "geocoded_column": {
      "latitude": "30.04185688166206",
      "longitude": "-89.98683001240232"
    }
  },
  {
    "service_request": "2022-912338",
    "request_type": "Trash/Recycling",
    "request_reason": "Missed Trash Pick-Up",
    "date_created": "2022-08-22T15:33:45.000",
    "date_modified": "2022-08-22T15:33:45.000",
    "request_status": "Pending",
    "responsible_agency": "Department of Sanitation",
    "final_address": "994 Topaz St",
    "address_councildis": "D",
    "status": "Assigned to Contractor",
    "contractor": "Metro Disposal",
    "rowid": "912338",
    "final_x": "3671424.9211",
    "final_y": "557280.411483",
    "longitude": "-90.09900762809676",
    "latitude": "30.02662998097407",
    "geocoded_column": {
      "latitude": "30.02662998097407",
      "longitude": "-90.09900762809676"
    }
  },
  {
    "service_request": "2022-912337",
    "request_type": "Property Maintenance",
    "request_reason": "Property Maintenance",
    "date_created": "2022-08-22T15:29:41.000",
    "date_modified": "2022-08-22T15:29:41.000",
    "request_status": "Pending",
    "responsible_agency": "Department of Code Enforcement",
    "final_address": "505 S Alexander St",
    "address_councildis": "A",
    "status": "Pending",
    "rowid": "912337",
    "final_x": "3668957.11598",
    "final_y": "537869.314313",
    "longitude": "-90.10746186202262",
    "latitude": "29.97332905908107",
    "geocoded_column": {
      "latitude": "29.97332905908107",
      "longitude": "-90.10746186202262"
    }
  },
  {
    "service_request": "2022-912336",
    "request_type": "Abandoned Vehicles",
    "request_reason": "Abandoned/Junk Vehicles",
    "date_created": "2022-08-22T15:25:38.000",
    "date_modified": "2022-08-22T15:26:52.000",
    "request_status": "Pending",
    "responsible_agency": "Department of Public Works",
    "final_address": "3461 Vespasian St",
    "address_councildis": "C",
    "status": "Pending",
    "rowid": "912336",
    "final_x": "3696010.16963",
    "final_y": "522571.62265",
    "longitude": "-90.02257589066889",
    "latitude": "29.930442206980167",
    "geocoded_column": {
      "latitude": "29.930442206980167",
      "longitude": "-90.02257589066889"
    }
  },
  {
    "service_request": "2022-912335",
    "request_type": "Roads/Drainage",
    "request_reason": "Street Subsidence (Sinking)",
    "date_created": "2022-08-22T15:22:00.000",
    "date_modified": "2022-08-22T15:22:00.000",
    "request_status": "Pending",
    "responsible_agency": "Department of Public Works",
    "final_address": "1918 Kerlerec St",
    "address_councildis": "D",
    "status": "Pending",
    "rowid": "912335",
    "final_x": "3680458.19861",
    "final_y": "537574.086856",
    "longitude": "-90.07114937747092",
    "latitude": "29.972173944939588",
    "geocoded_column": {
      "latitude": "29.972173944939588",
      "longitude": "-90.07114937747092"
    }
  },
  {
    "service_request": "2022-912334",
    "request_type": "Safety & Permits",
    "request_reason": "Short term Rental (Enforcement)",
    "date_created": "2022-08-22T15:21:17.000",
    "date_modified": "2022-08-22T15:21:18.000",
    "request_status": "Pending",
    "responsible_agency": "Safety and Permits",
    "final_address": "1724 Piety St",
    "address_councildis": "D",
    "status": "Pending",
    "rowid": "912334",
    "final_x": "3690409.60368",
    "final_y": "538239.980809",
    "longitude": "-90.03969753650362",
    "latitude": "29.973699753087235",
    "geocoded_column": {
      "latitude": "29.973699753087235",
      "longitude": "-90.03969753650362"
    }
  },
  {
    "service_request": "2022-912333",
    "request_type": "Property Maintenance",
    "request_reason": "Property Maintenance",
    "date_created": "2022-08-22T15:20:00.000",
    "date_modified": "2022-08-22T15:20:01.000",
    "request_status": "Pending",
    "responsible_agency": "Department of Code Enforcement",
    "final_address": "1724 Piety St",
    "address_councildis": "D",
    "status": "Pending",
    "rowid": "912333",
    "final_x": "3690409.60368",
    "final_y": "538239.980809",
    "longitude": "-90.03969753650362",
    "latitude": "29.973699753087235",
    "geocoded_column": {
      "latitude": "29.973699753087235",
      "longitude": "-90.03969753650362"
    }
  },
  {
    "service_request": "2022-912332",
    "request_type": "Roads/Drainage",
    "request_reason": "Accessibility Ramps, Curbs and Sidewalk Repair",
    "date_created": "2022-08-22T15:19:52.000",
    "date_modified": "2022-08-22T15:19:52.000",
    "request_status": "Pending",
    "responsible_agency": "Department of Public Works",
    "final_address": "3254 Gentilly Blvd",
    "address_councildis": "D",
    "status": "Pending",
    "rowid": "912332",
    "final_x": "3684568.82684",
    "final_y": "547877.05717",
    "longitude": "-90.05780513337791",
    "latitude": "30.000378322744837",
    "geocoded_column": {
      "latitude": "30.000378322744837",
      "longitude": "-90.05780513337791"
    }
  },
  {
    "service_request": "2022-912331",
    "request_type": "Trash/Recycling",
    "request_reason": "Request a Large Item Pick Up",
    "date_created": "2022-08-22T15:19:01.000",
    "date_modified": "2022-08-22T15:19:02.000",
    "request_status": "Pending",
    "responsible_agency": "Department of Sanitation",
    "final_address": "125 Sherwood Forest Dr",
    "address_councildis": "A",
    "status": "Assigned to Contractor",
    "contractor": "Richards Disposal",
    "rowid": "912331",
    "final_x": "3673234.14561",
    "final_y": "541090.015692",
    "longitude": "-90.0938440750508",
    "latitude": "29.982058378968688",
    "geocoded_column": {
      "latitude": "29.982058378968688",
      "longitude": "-90.0938440750508"
    }
  },
  {
    "service_request": "2022-912330",
    "request_type": "Parks & Parkways",
    "request_reason": "Request Tree Service (Right of Way/Public Property)",
    "date_created": "2022-08-22T15:16:15.000",
    "date_modified": "2022-08-22T15:16:16.000",
    "request_status": "Pending",
    "responsible_agency": "Department of Parks & Parkway",
    "final_address": "821 Lyons St",
    "address_councildis": "B",
    "status": "Pending",
    "rowid": "912330",
    "final_x": "3669340.91482",
    "final_y": "518444.370358",
    "longitude": "-90.10690636907307",
    "latitude": "29.91990549586443",
    "geocoded_column": {
      "latitude": "29.91990549586443",
      "longitude": "-90.10690636907307"
    }
  },
  {
    "service_request": "2022-912329",
    "request_type": "Roads/Drainage",
    "request_reason": "Debris in Roadway",
    "date_created": "2022-08-22T15:13:35.000",
    "date_modified": "2022-08-22T15:13:36.000",
    "request_status": "Pending",
    "responsible_agency": "Department of Public Works",
    "final_address": "805 Howard Ave",
    "address_councildis": "B",
    "status": "Pending",
    "rowid": "912329",
    "final_x": "3679737.39995",
    "final_y": "527465.317311",
    "longitude": "-90.07377671549568",
    "latitude": "29.94440006484991",
    "geocoded_column": {
      "latitude": "29.94440006484991",
      "longitude": "-90.07377671549568"
    }
  },
  {
    "service_request": "2022-912328",
    "request_type": "Trash/Recycling",
    "request_reason": "Replace Trash Cart",
    "date_created": "2022-08-22T15:11:21.000",
    "date_modified": "2022-08-22T15:11:22.000",
    "request_status": "Pending",
    "responsible_agency": "Department of Sanitation",
    "final_address": "1906 Constantinople St",
    "address_councildis": "B",
    "status": "Assigned to Contractor",
    "contractor": "Richards Disposal",
    "rowid": "912328",
    "final_x": "3672141.71105",
    "final_y": "522158.824058",
    "longitude": "-90.09793918654947",
    "latitude": "29.930036328539924",
    "geocoded_column": {
      "latitude": "29.930036328539924",
      "longitude": "-90.09793918654947"
    }
  },
  {
    "service_request": "2022-912327",
    "request_type": "Property Maintenance",
    "request_reason": "Property Maintenance",
    "date_created": "2022-08-22T15:10:41.000",
    "date_modified": "2022-08-22T15:10:41.000",
    "request_status": "Pending",
    "responsible_agency": "Department of Code Enforcement",
    "final_address": "3844 Napoleon Ave",
    "address_councildis": "B",
    "status": "Pending",
    "rowid": "912327",
    "final_x": "3669900.91124",
    "final_y": "528869.685376",
    "longitude": "-90.1047858979056",
    "latitude": "29.948555266604696",
    "geocoded_column": {
      "latitude": "29.948555266604696",
      "longitude": "-90.1047858979056"
    }
  },
  {
    "service_request": "2022-912326",
    "request_type": "Trash/Recycling",
    "request_reason": "Missed Trash Pick-Up",
    "date_created": "2022-08-22T15:08:21.000",
    "date_modified": "2022-08-22T15:08:21.000",
    "request_status": "Pending",
    "responsible_agency": "Department of Sanitation",
    "final_address": "2476 Dauphine St",
    "address_councildis": "C",
    "status": "Assigned to Contractor",
    "contractor": "Metro Disposal",
    "rowid": "912326",
    "final_x": "3686503.5343",
    "final_y": "535313.58375",
    "longitude": "-90.0521370594595",
    "latitude": "29.96577386063313",
    "geocoded_column": {
      "latitude": "29.96577386063313",
      "longitude": "-90.0521370594595"
    }
  },
  {
    "service_request": "2022-912325",
    "request_type": "Abandoned Vehicles",
    "request_reason": "Vehicle Blocking Your Driveway",
    "date_created": "2022-08-22T15:06:45.000",
    "date_modified": "2022-08-22T15:06:45.000",
    "request_status": "Pending",
    "responsible_agency": "Department of Public Works",
    "final_address": "8336 Pritchard Pl",
    "address_councildis": "A",
    "status": "Pending",
    "rowid": "912325",
    "final_x": "3665269.46912",
    "final_y": "533553.965317",
    "longitude": "-90.1192526568307",
    "latitude": "29.961571239822813",
    "geocoded_column": {
      "latitude": "29.961571239822813",
      "longitude": "-90.1192526568307"
    }
  },
  {
    "service_request": "2022-912324",
    "request_type": "Trash/Recycling",
    "request_reason": "Order Recycling Cart",
    "date_created": "2022-08-22T15:06:04.000",
    "date_modified": "2022-08-22T15:06:04.000",
    "request_status": "Pending",
    "responsible_agency": "Department of Sanitation",
    "final_address": "2511 General Taylor St",
    "address_councildis": "B",
    "status": "Pending",
    "rowid": "912324",
    "final_x": "3671902.00788",
    "final_y": "524317.486204",
    "longitude": "-90.09862246070571",
    "latitude": "29.935979056747314",
    "geocoded_column": {
      "latitude": "29.935979056747314",
      "longitude": "-90.09862246070571"
    }
  },
  {
    "service_request": "2022-912323",
    "request_type": "Trash/Recycling",
    "request_reason": "Request a Large Item Pick Up",
    "date_created": "2022-08-22T15:05:24.000",
    "date_modified": "2022-08-22T15:05:25.000",
    "request_status": "Pending",
    "responsible_agency": "Department of Sanitation",
    "final_address": "3602 Banks St, New Orleans, Louisiana, 70119",
    "address_councildis": "B",
    "status": "Assigned to Contractor",
    "contractor": "Richards Disposal",
    "rowid": "912323",
    "final_x": "3671790.22913",
    "final_y": "536212.682695",
    "longitude": "-90.09857067211787",
    "latitude": "29.968690234493177",
    "geocoded_column": {
      "latitude": "29.968690234493177",
      "longitude": "-90.09857067211787"
    }
  },
  {
    "service_request": "2022-912322",
    "request_type": "Abandoned Vehicles",
    "request_reason": "Abandoned/Junk Vehicles",
    "date_created": "2022-08-22T15:03:19.000",
    "date_modified": "2022-08-22T15:06:18.000",
    "request_status": "Pending",
    "responsible_agency": "Department of Public Works",
    "final_address": "LAUREL ST & ARABELLA ST",
    "address_councildis": "A",
    "status": "Pending",
    "rowid": "912322",
    "final_x": "3665610.0",
    "final_y": "517941.38",
    "longitude": "-90.11869993246462",
    "latitude": "29.91863170566519",
    "geocoded_column": {
      "latitude": "29.91863170566519",
      "longitude": "-90.11869993246462"
    }
  },
  {
    "service_request": "2022-912321",
    "request_type": "Trash/Recycling",
    "request_reason": "Order Recycling Cart",
    "date_created": "2022-08-22T15:02:30.000",
    "date_modified": "2022-08-22T15:02:31.000",
    "request_status": "Pending",
    "responsible_agency": "Department of Sanitation",
    "final_address": "24 Lakewood Estates Dr",
    "address_councildis": "C",
    "status": "Pending",
    "rowid": "912321",
    "final_x": "3701134.38058",
    "final_y": "513218.755826",
    "longitude": "-90.0067414786372",
    "latitude": "29.90456284899607",
    "geocoded_column": {
      "latitude": "29.90456284899607",
      "longitude": "-90.0067414786372"
    }
  },
  {
    "service_request": "2022-912320",
    "request_type": "Traffic Signals/Signs/Striping/Streetlights",
    "request_reason": "Request for Stop Sign",
    "date_created": "2022-08-22T14:57:43.000",
    "date_modified": "2022-08-22T14:57:43.000",
    "request_status": "Pending",
    "responsible_agency": "Department of Public Works",
    "final_address": "MARIGNY ST & GENTILLY BLVD",
    "address_councildis": "D",
    "status": "Pending",
    "rowid": "912320",
    "final_x": "3684489.94",
    "final_y": "547976.66",
    "longitude": "-90.05805083932694",
    "latitude": "30.000654609073266",
    "geocoded_column": {
      "latitude": "30.000654609073266",
      "longitude": "-90.05805083932694"
    }
  },
  {
    "service_request": "2022-912319",
    "request_type": "Trash/Recycling",
    "request_reason": "Request a Large Item Pick Up",
    "date_created": "2022-08-22T14:57:31.000",
    "date_modified": "2022-08-22T14:57:32.000",
    "request_status": "Pending",
    "responsible_agency": "Department of Sanitation",
    "final_address": "8918 Belfast St",
    "address_councildis": "A",
    "status": "Assigned to Contractor",
    "contractor": "Richards Disposal",
    "rowid": "912319",
    "final_x": "3663334.84864",
    "final_y": "534372.409797",
    "longitude": "-90.12533464516333",
    "latitude": "29.96387791629968",
    "geocoded_column": {
      "latitude": "29.96387791629968",
      "longitude": "-90.12533464516333"
    }
  },
  {
    "service_request": "2022-912318",
    "request_type": "Roads/Drainage",
    "request_reason": "Street Subsidence (Sinking)",
    "date_created": "2022-08-22T14:53:55.000",
    "date_modified": "2022-08-22T14:53:56.000",
    "request_status": "Pending",
    "responsible_agency": "Department of Public Works",
    "final_address": "1917 N Johnson St",
    "address_councildis": "D",
    "status": "Pending",
    "rowid": "912318",
    "final_x": "3683022.66607",
    "final_y": "539511.222858",
    "longitude": "-90.06298254284049",
    "latitude": "29.977422472114416",
    "geocoded_column": {
      "latitude": "29.977422472114416",
      "longitude": "-90.06298254284049"
    }
  },
  {
    "service_request": "2022-912317",
    "request_type": "Abandoned Vehicles",
    "request_reason": "Abandoned/Junk Vehicles",
    "date_created": "2022-08-22T14:53:29.000",
    "date_modified": "2022-08-22T14:53:29.000",
    "request_status": "Pending",
    "responsible_agency": "Department of Public Works",
    "final_address": "4725 Crowder Blvd",
    "address_councildis": "E",
    "status": "Pending",
    "rowid": "912317",
    "final_x": "3706558.65041",
    "final_y": "555623.069017",
    "longitude": "-89.98805124686034",
    "latitude": "30.02098548502369",
    "geocoded_column": {
      "latitude": "30.02098548502369",
      "longitude": "-89.98805124686034"
    }
  },
  {
    "service_request": "2022-912316",
    "request_type": "Trash/Recycling",
    "request_reason": "Order Trash Cart",
    "date_created": "2022-08-22T14:52:47.000",
    "date_modified": "2022-08-22T14:52:48.000",
    "request_status": "Pending",
    "responsible_agency": "Department of Sanitation",
    "final_address": "4118 S Derbigny St",
    "address_councildis": "B",
    "status": "Assigned to Contractor",
    "contractor": "Richards Disposal",
    "rowid": "912316",
    "final_x": "3671226.30881",
    "final_y": "526246.688382",
    "longitude": "-90.10069014369333",
    "latitude": "29.94130374039445",
    "geocoded_column": {
      "latitude": "29.94130374039445",
      "longitude": "-90.10069014369333"
    }
  },
  {
    "service_request": "2022-912315",
    "request_type": "Trash/Recycling",
    "request_reason": "Order Trash Cart",
    "date_created": "2022-08-22T14:51:08.000",
    "date_modified": "2022-08-22T14:51:09.000",
    "request_status": "Pending",
    "responsible_agency": "Department of Sanitation",
    "final_address": "4116 S Derbigny St",
    "address_councildis": "B",
    "status": "Assigned to Contractor",
    "contractor": "Richards Disposal",
    "rowid": "912315",
    "final_x": "3671220.84571",
    "final_y": "526302.173886",
    "longitude": "-90.10070550731729",
    "latitude": "29.941456469078613",
    "geocoded_column": {
      "latitude": "29.941456469078613",
      "longitude": "-90.10070550731729"
    }
  },
  {
    "service_request": "2022-912314",
    "request_type": "Abandoned Vehicles",
    "request_reason": "Abandoned/Junk Vehicles",
    "date_created": "2022-08-22T14:49:14.000",
    "date_modified": "2022-08-22T14:49:14.000",
    "request_status": "Pending",
    "responsible_agency": "Department of Public Works",
    "final_address": "4725 Crowder Blvd",
    "address_councildis": "E",
    "status": "Pending",
    "rowid": "912314",
    "final_x": "3706558.65041",
    "final_y": "555623.069017",
    "longitude": "-89.98805124686034",
    "latitude": "30.02098548502369",
    "geocoded_column": {
      "latitude": "30.02098548502369",
      "longitude": "-89.98805124686034"
    }
  },
  {
    "service_request": "2022-912313",
    "request_type": "Trash/Recycling",
    "request_reason": "Request a Large Item Pick Up",
    "date_created": "2022-08-22T14:49:07.000",
    "date_modified": "2022-08-22T14:49:08.000",
    "request_status": "Pending",
    "responsible_agency": "Department of Sanitation",
    "final_address": "3627 Herald St",
    "address_councildis": "C",
    "status": "Assigned to Contractor",
    "contractor": "Richards Disposal",
    "rowid": "912313",
    "final_x": "3702144.65169",
    "final_y": "517690.672758",
    "longitude": "-90.0033892454127",
    "latitude": "29.91682689818623",
    "geocoded_column": {
      "latitude": "29.91682689818623",
      "longitude": "-90.0033892454127"
    }
  },
  {
    "service_request": "2022-912312",
    "request_type": "Trash/Recycling",
    "request_reason": "Illegal Dumping",
    "date_created": "2022-08-22T14:47:25.000",
    "date_modified": "2022-08-22T14:47:25.000",
    "request_status": "Pending",
    "responsible_agency": "Department of Sanitation",
    "final_address": "7621 Hickory St",
    "address_councildis": "A",
    "status": "Pending",
    "rowid": "912312",
    "final_x": "3664649.61927",
    "final_y": "528913.375872",
    "longitude": "-90.12136504647269",
    "latitude": "29.948829172118586",
    "geocoded_column": {
      "latitude": "29.948829172118586",
      "longitude": "-90.12136504647269"
    }
  },
  {
    "service_request": "2022-912311",
    "request_type": "Roads/Drainage",
    "request_reason": "Street Flooding / Drainage",
    "date_created": "2022-08-22T14:45:29.000",
    "date_modified": "2022-08-22T14:45:29.000",
    "request_status": "Pending",
    "responsible_agency": "Department of Public Works",
    "final_address": "6234 Perlita Dr",
    "address_councildis": "D",
    "status": "Pending",
    "rowid": "912311",
    "final_x": "3678244.87586",
    "final_y": "555881.643353",
    "longitude": "-90.07750574136733",
    "latitude": "30.022580110479648",
    "geocoded_column": {
      "latitude": "30.022580110479648",
      "longitude": "-90.07750574136733"
    }
  },
  {
    "service_request": "2022-912310",
    "request_type": "Trash/Recycling",
    "request_reason": "Request a Large Item Pick Up",
    "date_created": "2022-08-22T14:40:51.000",
    "date_modified": "2022-08-22T14:40:52.000",
    "request_status": "Pending",
    "responsible_agency": "Department of Sanitation",
    "final_address": "1229 St Andrew St",
    "address_councildis": "B",
    "status": "Assigned to Contractor",
    "contractor": "Richards Disposal",
    "rowid": "912310",
    "final_x": "3679147.14357",
    "final_y": "523064.109755",
    "longitude": "-90.07579283041892",
    "latitude": "29.93231602707715",
    "geocoded_column": {
      "latitude": "29.93231602707715",
      "longitude": "-90.07579283041892"
    }
  },
  {
    "service_request": "2022-912309",
    "request_type": "Property Maintenance",
    "request_reason": "Property Maintenance",
    "date_created": "2022-08-22T14:38:07.000",
    "date_modified": "2022-08-22T14:38:07.000",
    "request_status": "Pending",
    "responsible_agency": "Department of Code Enforcement",
    "final_address": "13900 Hayne Blvd",
    "address_councildis": "E",
    "status": "Pending",
    "rowid": "912309",
    "final_x": "3717393.92191",
    "final_y": "572843.408361",
    "longitude": "-89.95315992476364",
    "latitude": "30.06798015606697",
    "geocoded_column": {
      "latitude": "30.06798015606697",
      "longitude": "-89.95315992476364"
    }
  },
  {
    "service_request": "2022-912308",
    "request_type": "Trash/Recycling",
    "request_reason": "Dead Animal Pick Up",
    "date_created": "2022-08-22T14:36:08.000",
    "date_modified": "2022-08-22T14:36:09.000",
    "request_status": "Pending",
    "responsible_agency": "Department of Sanitation",
    "final_address": "3330 Iberville St",
    "address_councildis": "B",
    "status": "Assigned to Contractor",
    "contractor": "Richards Disposal",
    "rowid": "912308",
    "final_x": "3673619.57505",
    "final_y": "536848.50516",
    "longitude": "-90.09277174338442",
    "latitude": "29.97038420021272",
    "geocoded_column": {
      "latitude": "29.97038420021272",
      "longitude": "-90.09277174338442"
    }
  },
  {
    "service_request": "2022-912307",
    "request_type": "Trash/Recycling",
    "request_reason": "Order Recycling Cart",
    "date_created": "2022-08-22T14:34:07.000",
    "date_modified": "2022-08-22T14:34:08.000",
    "request_status": "Pending",
    "responsible_agency": "Department of Sanitation",
    "final_address": "1432 Eighth St",
    "address_councildis": "B",
    "status": "Pending",
    "rowid": "912307",
    "final_x": "3675347.86721",
    "final_y": "521275.088569",
    "longitude": "-90.08784819438367",
    "latitude": "29.927510904005086",
    "geocoded_column": {
      "latitude": "29.927510904005086",
      "longitude": "-90.08784819438367"
    }
  },
  {
    "service_request": "2022-912306",
    "request_type": "Abandoned Vehicles",
    "request_reason": "Abandoned/Junk Vehicles",
    "date_created": "2022-08-22T14:31:25.000",
    "date_modified": "2022-08-22T14:31:26.000",
    "request_status": "Pending",
    "responsible_agency": "Department of Public Works",
    "final_address": "4400 BLK Danneel St",
    "address_councildis": "B",
    "status": "Pending",
    "rowid": "912306",
    "final_x": "3670488.76627",
    "final_y": "522269.962138",
    "longitude": "-90.10315350665053",
    "latitude": "29.930390821952628",
    "geocoded_column": {
      "latitude": "29.930390821952628",
      "longitude": "-90.10315350665053"
    }
  },
  {
    "service_request": "2022-912305",
    "request_type": "Trash/Recycling",
    "request_reason": "Order Recycling Cart",
    "date_created": "2022-08-22T14:31:11.000",
    "date_modified": "2022-08-22T14:31:11.000",
    "request_status": "Pending",
    "responsible_agency": "Department of Sanitation",
    "final_address": "216 38Th St",
    "address_councildis": "A",
    "status": "Pending",
    "rowid": "912305",
    "final_x": "3665586.8713",
    "final_y": "552615.445334",
    "longitude": "-90.11761170986269",
    "latitude": "30.013974598392412",
    "geocoded_column": {
      "latitude": "30.013974598392412",
      "longitude": "-90.11761170986269"
    }
  },
  {
    "service_request": "2022-912304",
    "request_type": "Property Maintenance",
    "request_reason": "Property Maintenance",
    "date_created": "2022-08-22T14:30:36.000",
    "date_modified": "2022-08-22T14:30:36.000",
    "request_status": "Pending",
    "responsible_agency": "Department of Code Enforcement",
    "final_address": "3727 Pittari Pl",
    "address_councildis": "C",
    "status": "Pending",
    "rowid": "912304",
    "final_x": "3709481.27256",
    "final_y": "517069.332533",
    "longitude": "-89.98025519052631",
    "latitude": "29.914882245271478",
    "geocoded_column": {
      "latitude": "29.914882245271478",
      "longitude": "-89.98025519052631"
    }
  },
  {
    "service_request": "2022-912303",
    "request_type": "Roads/Drainage",
    "request_reason": "Street Subsidence (Sinking)",
    "date_created": "2022-08-22T14:29:00.000",
    "date_modified": "2022-08-22T14:36:07.000",
    "request_status": "Pending",
    "responsible_agency": "Department of Public Works",
    "final_address": "870 Harrison Ave",
    "address_councildis": "A",
    "status": "Inspected",
    "rowid": "912303",
    "final_x": "3669852.70433",
    "final_y": "549062.535827",
    "longitude": "-90.10425421803602",
    "latitude": "30.004080206459058",
    "geocoded_column": {
      "latitude": "30.004080206459058",
      "longitude": "-90.10425421803602"
    }
  },
  {
    "service_request": "2022-912302",
    "request_type": "Trash/Recycling",
    "request_reason": "Missed Trash Pick-Up",
    "date_created": "2022-08-22T14:27:04.000",
    "date_modified": "2022-08-22T14:27:07.000",
    "request_status": "Pending",
    "responsible_agency": "Department of Sanitation",
    "final_address": "2900 Kabel Dr, New Orleans, Louisiana, 70131",
    "address_councildis": "C",
    "status": "Assigned to Contractor",
    "contractor": "Richards Disposal",
    "rowid": "912302",
    "final_x": "3700765.31722",
    "final_y": "520555.977848",
    "longitude": "-90.0076383341691",
    "latitude": "29.924749453878736",
    "geocoded_column": {
      "latitude": "29.924749453878736",
      "longitude": "-90.0076383341691"
    }
  },
  {
    "service_request": "2022-912301",
    "request_type": "Trash/Recycling",
    "request_reason": "Replace Trash Cart",
    "date_created": "2022-08-22T14:26:13.000",
    "date_modified": "2022-08-22T14:26:14.000",
    "request_status": "Pending",
    "responsible_agency": "Department of Sanitation",
    "final_address": "924 Soniat St",
    "address_councildis": "B",
    "status": "Assigned to Contractor",
    "contractor": "Richards Disposal",
    "rowid": "912301",
    "final_x": "3668262.94004",
    "final_y": "518816.690039",
    "longitude": "-90.11029647876214",
    "latitude": "29.92096093906293",
    "geocoded_column": {
      "latitude": "29.92096093906293",
      "longitude": "-90.11029647876214"
    }
  },
  {
    "service_request": "2022-912300",
    "request_type": "Traffic Signals/Signs/Striping/Streetlights",
    "request_reason": "Street Light Outage/Malfunction",
    "date_created": "2022-08-22T14:20:04.000",
    "date_modified": "2022-08-22T14:20:05.000",
    "request_status": "Pending",
    "responsible_agency": "Department of Public Works",
    "final_address": "5315 Wilton Dr",
    "address_councildis": "D",
    "status": "Pending",
    "contractor": "Legacy Professional Services",
    "rowid": "912300",
    "final_x": "3681982.63656",
    "final_y": "552584.215574",
    "longitude": "-90.06581056505972",
    "latitude": "30.013400218234548",
    "geocoded_column": {
      "latitude": "30.013400218234548",
      "longitude": "-90.06581056505972"
    }
  },
  {
    "service_request": "2022-912299",
    "request_type": "Trash/Recycling",
    "request_reason": "Order Trash Cart",
    "date_created": "2022-08-22T14:18:34.000",
    "date_modified": "2022-08-22T14:18:35.000",
    "request_status": "Pending",
    "responsible_agency": "Department of Sanitation",
    "final_address": "5315 Wilton Dr",
    "address_councildis": "D",
    "status": "Assigned to Contractor",
    "contractor": "Metro Disposal",
    "rowid": "912299",
    "final_x": "3681982.63656",
    "final_y": "552584.215574",
    "longitude": "-90.06581056505972",
    "latitude": "30.013400218234548",
    "geocoded_column": {
      "latitude": "30.013400218234548",
      "longitude": "-90.06581056505972"
    }
  },
  {
    "service_request": "2022-912298",
    "request_type": "Trash/Recycling",
    "request_reason": "MIssed Recycling Pick-Up",
    "date_created": "2022-08-22T14:16:15.000",
    "date_modified": "2022-08-22T14:16:16.000",
    "request_status": "Pending",
    "responsible_agency": "Department of Sanitation",
    "final_address": "326 Vallette St",
    "address_councildis": "C",
    "status": "Assigned to Contractor",
    "contractor": "Richards Disposal",
    "rowid": "912298",
    "final_x": "3687603.99958",
    "final_y": "530548.077698",
    "longitude": "-90.0488305419127",
    "latitude": "29.95263648687249",
    "geocoded_column": {
      "latitude": "29.95263648687249",
      "longitude": "-90.0488305419127"
    }
  },
  {
    "service_request": "2022-912297",
    "request_type": "Parks & Parkways",
    "request_reason": "Request Grass Cutting Service (City Owned Property)",
    "date_created": "2022-08-22T14:13:35.000",
    "date_modified": "2022-08-22T14:20:40.000",
    "case_close_date": "2022-08-22T09:20:40.000",
    "request_status": "Closed",
    "responsible_agency": "Department of Parks & Parkway",
    "final_address": "5468 Grand Bayou Dr",
    "address_councildis": "E",
    "status": "Resolved",
    "rowid": "912297",
    "final_x": "3725562.16595",
    "final_y": "563438.60784",
    "longitude": "-89.92770353859395",
    "latitude": "30.041847851252715",
    "geocoded_column": {
      "latitude": "30.041847851252715",
      "longitude": "-89.92770353859395"
    }
  },
  {
    "service_request": "2022-912296",
    "request_type": "Trash/Recycling",
    "request_reason": "Missed Trash Pick-Up",
    "date_created": "2022-08-22T14:13:19.000",
    "date_modified": "2022-08-22T14:13:20.000",
    "request_status": "Pending",
    "responsible_agency": "Department of Sanitation",
    "final_address": "2227 Royal St",
    "address_councildis": "C",
    "status": "Assigned to Contractor",
    "contractor": "Metro Disposal",
    "rowid": "912296",
    "final_x": "3685391.7837",
    "final_y": "534924.807622",
    "longitude": "-90.05566161243566",
    "latitude": "29.964738994440992",
    "geocoded_column": {
      "latitude": "29.964738994440992",
      "longitude": "-90.05566161243566"
    }
  },
  {
    "service_request": "2022-912294",
    "request_type": "Trash/Recycling",
    "request_reason": "Repair Trash Cart",
    "date_created": "2022-08-22T14:10:26.000",
    "date_modified": "2022-08-22T14:10:26.000",
    "case_close_date": "2021-09-13T19:00:00.000",
    "request_status": "Pending",
    "responsible_agency": "Department of Sanitation",
    "final_address": "7421 Fieldston Rd",
    "address_councildis": "E",
    "status": "Assigned to Contractor",
    "contractor": "Metro Disposal",
    "rowid": "912294",
    "final_x": "3700761.98794",
    "final_y": "560085.425949",
    "longitude": "-90.00620361079929",
    "latitude": "30.03344110245042",
    "geocoded_column": {
      "latitude": "30.03344110245042",
      "longitude": "-90.00620361079929"
    }
  },
  {
    "service_request": "2022-912293",
    "request_type": "Trash/Recycling",
    "request_reason": "Order Trash Cart",
    "date_created": "2022-08-22T14:09:53.000",
    "date_modified": "2022-08-22T14:09:54.000",
    "request_status": "Pending",
    "responsible_agency": "Department of Sanitation",
    "final_address": "930 Second St",
    "address_councildis": "B",
    "status": "Assigned to Contractor",
    "contractor": "Richards Disposal",
    "rowid": "912293",
    "final_x": "3678050.45698",
    "final_y": "520908.644089",
    "longitude": "-90.07932943819186",
    "latitude": "29.92642224958616",
    "geocoded_column": {
      "latitude": "29.92642224958616",
      "longitude": "-90.07932943819186"
    }
  },
  {
    "service_request": "2022-912292",
    "request_type": "Trash/Recycling",
    "request_reason": "Repair Trash Cart",
    "date_created": "2022-08-22T14:08:34.000",
    "date_modified": "2022-08-22T14:08:35.000",
    "request_status": "Pending",
    "responsible_agency": "Department of Sanitation",
    "final_address": "206 N Miro St, New Orleans, Louisiana, 70119",
    "address_councildis": "B",
    "status": "Assigned to Contractor",
    "contractor": "Richards Disposal",
    "rowid": "912292",
    "final_x": "3677050.89486",
    "final_y": "534457.432197",
    "longitude": "-90.0820177109301",
    "latitude": "29.963706967018457",
    "geocoded_column": {
      "latitude": "29.963706967018457",
      "longitude": "-90.0820177109301"
    }
  },
  {
    "service_request": "2022-912291",
    "request_type": "Property Maintenance",
    "request_reason": "Property Maintenance",
    "date_created": "2022-08-22T14:07:53.000",
    "date_modified": "2022-08-22T14:07:53.000",
    "request_status": "Pending",
    "responsible_agency": "Department of Code Enforcement",
    "final_address": "7420 Mayo Rd",
    "address_councildis": "E",
    "status": "Pending",
    "rowid": "912291",
    "final_x": "3700876.18109",
    "final_y": "560142.028957",
    "longitude": "-90.00584067825267",
    "latitude": "30.03359310159656",
    "geocoded_column": {
      "latitude": "30.03359310159656",
      "longitude": "-90.00584067825267"
    }
  },
  {
    "service_request": "2022-912290",
    "request_type": "Trash/Recycling",
    "request_reason": "Repair Trash Cart",
    "date_created": "2022-08-22T14:02:02.000",
    "date_modified": "2022-08-22T14:02:06.000",
    "request_status": "Pending",
    "responsible_agency": "Department of Sanitation",
    "final_address": "4938 Maid Marion Dr",
    "address_councildis": "E",
    "status": "Assigned to Contractor",
    "contractor": "Metro Disposal",
    "rowid": "912290",
    "final_x": "3716804.16268",
    "final_y": "557864.244763",
    "longitude": "-89.95559360390517",
    "latitude": "30.026813099106562",
    "geocoded_column": {
      "latitude": "30.026813099106562",
      "longitude": "-89.95559360390517"
    }
  },
  {
    "service_request": "2022-912289",
    "request_type": "Trash/Recycling",
    "request_reason": "Replace Trash Cart",
    "date_created": "2022-08-22T14:01:47.000",
    "date_modified": "2022-08-22T14:01:48.000",
    "request_status": "Pending",
    "responsible_agency": "Department of Sanitation",
    "final_address": "1420 Lowerline St",
    "address_councildis": "A",
    "status": "Assigned to Contractor",
    "contractor": "Richards Disposal",
    "rowid": "912289",
    "final_x": "3664116.21191",
    "final_y": "527646.475519",
    "longitude": "-90.12309149968232",
    "latitude": "29.9453611062736",
    "geocoded_column": {
      "latitude": "29.9453611062736",
      "longitude": "-90.12309149968232"
    }
  },