[
  {
    "service_request": "2022-853738",
    "request_type": "Traffic Signals/Signs/Striping/Streetlights",
    "request_reason": "Request for Traffic Calming due to Speeding",
    "date_created": "2022-01-13T01:01:54.000",
    "date_modified": "2022-01-13T01:01:54.000",
    "request_status": "Pending",
    "responsible_agency": "Department of Public Works",
    "final_address": "7719 Tricia Ct",
    "address_councildis": "E",
    "status": "Pending",
    "rowid": "853738",
    "final_x": "3717420.45452",
    "final_y": "571532.18084",
    "longitude": "-89.95312597935884",
    "latitude": "30.064373949882338",
    "geocoded_column": {
      "latitude": "30.064373949882338",
      "longitude": "-89.95312597935884"
    }
  },
  {
    "service_request": "2022-853737",
    "request_type": "Roads/Drainage",
    "request_reason": "Street Subsidence (Sinking)",
    "date_created": "2022-01-13T00:57:19.000",
    "date_modified": "2022-01-13T00:57:19.000",
    "request_status": "Pending",
    "responsible_agency": "Department of Public Works",
    "final_address": "7866 Scottwood Dr",
    "address_councildis": "E",
    "status": "Pending",
    "rowid": "853737",
    "final_x": "3716270.71308",
    "final_y": "571896.107688",
    "longitude": "-89.95674655064968",
    "latitude": "30.065412626467268",
    "geocoded_column": {
      "latitude": "30.065412626467268",
      "longitude": "-89.95674655064968"
    }
  },
  {
    "service_request": "2022-853736",
    "request_type": "Traffic Signals/Signs/Striping/Streetlights",
    "request_reason": "Request for Traffic Calming due to Speeding",
    "date_created": "2022-01-13T00:53:23.000",
    "date_modified": "2022-01-13T00:53:23.000",
    "request_status": "Pending",
    "responsible_agency": "Department of Public Works",
    "final_address": "6730 Curran Rd",
    "address_councildis": "E",
    "status": "Pending",
    "rowid": "853736",
    "final_x": "3697976.15203",
    "final_y": "559951.086493",
    "longitude": "-90.01501198653547",
    "latitude": "30.03316014580028",
    "geocoded_column": {
      "latitude": "30.03316014580028",
      "longitude": "-90.01501198653547"
    }
  },
  {
    "service_request": "2022-853735",
    "request_type": "Traffic Signals/Signs/Striping/Streetlights",
    "request_reason": "Request for Traffic Calming due to Speeding",
    "date_created": "2022-01-13T00:51:09.000",
    "date_modified": "2022-01-13T00:51:09.000",
    "request_status": "Pending",
    "responsible_agency": "Department of Public Works",
    "final_address": "7810 Exeter St",
    "address_councildis": "E",
    "status": "Pending",
    "rowid": "853735",
    "final_x": "3697480.08099",
    "final_y": "559995.223965",
    "longitude": "-90.01657800852742",
    "latitude": "30.033297190830837",
    "geocoded_column": {
      "latitude": "30.033297190830837",
      "longitude": "-90.01657800852742"
    }
  },
  {
    "service_request": "2022-853733",
    "request_type": "Mayor's Request",
    "request_reason": "Requests to the Mayor",
    "date_created": "2022-01-12T23:57:33.000",
    "date_modified": "2022-01-12T23:57:33.000",
    "request_status": "Pending",
    "responsible_agency": "Executive Office of the Mayor",
    "status": "Pending",
    "rowid": "853733",
    "longitude": "0.0",
    "latitude": "0.0",
    "geocoded_column": {
      "latitude": "0.0",
      "longitude": "0.0"
    }
  },
  {
    "service_request": "2022-853732",
    "request_type": "Traffic Signals/Signs/Striping/Streetlights",
    "request_reason": "Street Light Knocked Down/Leaning",
    "date_created": "2022-01-12T23:29:30.000",
    "date_modified": "2022-01-12T23:29:31.000",
    "request_status": "Pending",
    "responsible_agency": "Department of Public Works",
    "final_address": "856 City Park Ave",
    "address_councildis": "A",
    "status": "Pending",
    "contractor": "Royal Engineering",
    "rowid": "853732",
    "final_x": "3671466.85134",
    "final_y": "541574.489804",
    "longitude": "-90.09940957432603",
    "latitude": "29.983442965015648",
    "geocoded_column": {
      "latitude": "29.983442965015648",
      "longitude": "-90.09940957432603"
    }
  },
  {
    "service_request": "2022-853731",
    "request_type": "Mayor's Request",
    "request_reason": "Requests to the Mayor",
    "date_created": "2022-01-12T23:13:13.000",
    "date_modified": "2022-01-12T23:13:13.000",
    "request_status": "Pending",
    "responsible_agency": "Executive Office of the Mayor",
    "status": "Pending",
    "rowid": "853731",
    "longitude": "0.0",
    "latitude": "0.0",
    "geocoded_column": {
      "latitude": "0.0",
      "longitude": "0.0"
    }
  },
  {
    "service_request": "2022-853730",
    "request_type": "Abandoned Vehicles",
    "request_reason": "Abandoned/Junk Vehicles",
    "date_created": "2022-01-12T22:13:26.000",
    "date_modified": "2022-01-12T22:13:26.000",
    "request_status": "Pending",
    "responsible_agency": "Department of Public Works",
    "final_address": "1721 St Philip St",
    "address_councildis": "D",
    "status": "Pending",
    "rowid": "853730",
    "final_x": "3680274.15599",
    "final_y": "535674.193927",
    "longitude": "-90.07179667496236",
    "latitude": "29.966955465142547",
    "geocoded_column": {
      "latitude": "29.966955465142547",
      "longitude": "-90.07179667496236"
    }
  },
  {
    "service_request": "2022-853729",
    "request_type": "Abandoned Vehicles",
    "request_reason": "Abandoned/Junk Vehicles",
    "date_created": "2022-01-12T22:06:42.000",
    "date_modified": "2022-01-12T22:06:42.000",
    "request_status": "Pending",
    "responsible_agency": "Department of Public Works",
    "final_address": "1721 St Philip St",
    "address_councildis": "D",
    "status": "Pending",
    "rowid": "853729",
    "final_x": "3680274.15599",
    "final_y": "535674.193927",
    "longitude": "-90.07179667496236",
    "latitude": "29.966955465142547",
    "geocoded_column": {
      "latitude": "29.966955465142547",
      "longitude": "-90.07179667496236"
    }
  },
  {
    "service_request": "2022-853728",
    "request_type": "Property Maintenance",
    "request_reason": "Property Maintenance",
    "date_created": "2022-01-12T21:55:54.000",
    "date_modified": "2022-01-12T21:55:54.000",
    "request_status": "Pending",
    "responsible_agency": "Department of Code Enforcement",
    "final_address": "5820 Louis Xiv St",
    "address_councildis": "A",
    "status": "Pending",
    "rowid": "853728",
    "final_x": "3667916.88148",
    "final_y": "546260.137296",
    "longitude": "-90.11046433195173",
    "latitude": "29.996431532831036",
    "geocoded_column": {
      "latitude": "29.996431532831036",
      "longitude": "-90.11046433195173"
    }
  },
  {
    "service_request": "2022-853727",
    "request_type": "Trash/Recycling",
    "request_reason": "Request a Large Item Pick Up",
    "date_created": "2022-01-12T21:40:25.000",
    "date_modified": "2022-01-12T21:40:26.000",
    "request_status": "Pending",
    "responsible_agency": "Department of Sanitation",
    "final_address": "937 Henry Clay Ave",
    "address_councildis": "A",
    "status": "Assigned to Contractor",
    "contractor": "Richards Disposal",
    "rowid": "853727",
    "final_x": "3664079.17332",
    "final_y": "520141.523896",
    "longitude": "-90.12345864054552",
    "latitude": "29.92472594535707",
    "geocoded_column": {
      "latitude": "29.92472594535707",
      "longitude": "-90.12345864054552"
    }
  },
  {
    "service_request": "2022-853726",
    "request_type": "Trash/Recycling",
    "request_reason": "Replace Trash Cart",
    "date_created": "2022-01-12T21:30:28.000",
    "date_modified": "2022-01-12T21:30:28.000",
    "request_status": "Pending",
    "responsible_agency": "Department of Sanitation",
    "final_address": "2628 Dauphine St",
    "address_councildis": "C",
    "status": "Assigned to Contractor",
    "contractor": "Metro Disposal",
    "rowid": "853726",
    "final_x": "3687051.64777",
    "final_y": "535240.379334",
    "longitude": "-90.05040872871386",
    "latitude": "29.96555571098487",
    "geocoded_column": {
      "latitude": "29.96555571098487",
      "longitude": "-90.05040872871386"
    }
  },
  {
    "service_request": "2022-853725",
    "request_type": "Mosquito, Termite & Rodent Control",
    "request_reason": "Rodent Complaint (Rats)",
    "date_created": "2022-01-12T21:27:23.000",
    "date_modified": "2022-01-12T21:27:23.000",
    "request_status": "Pending",
    "responsible_agency": "Mosquito, Termite & Rodent Control Board",
    "final_address": "5820 Louis Xiv St",
    "address_councildis": "A",
    "status": "Pending",
    "rowid": "853725",
    "final_x": "3667916.88148",
    "final_y": "546260.137296",
    "longitude": "-90.11046433195173",
    "latitude": "29.996431532831036",
    "geocoded_column": {
      "latitude": "29.996431532831036",
      "longitude": "-90.11046433195173"
    }
  },
  {
    "service_request": "2022-853724",
    "request_type": "Property Maintenance",
    "request_reason": "Property Maintenance",
    "date_created": "2022-01-12T21:01:42.000",
    "date_modified": "2022-01-12T21:01:42.000",
    "request_status": "Pending",
    "responsible_agency": "Department of Code Enforcement",
    "final_address": "2822 Bell St",
    "address_councildis": "A",
    "status": "Pending",
    "rowid": "853724",
    "final_x": "3677160.39598",
    "final_y": "539158.054154",
    "longitude": "-90.0815097463394",
    "latitude": "29.97662878508844",
    "geocoded_column": {
      "latitude": "29.97662878508844",
      "longitude": "-90.0815097463394"
    }
  },
  {
    "service_request": "2022-853723",
    "request_type": "Traffic Signals/Signs/Striping/Streetlights",
    "request_reason": "Street Light Outage/Malfunction",
    "date_created": "2022-01-12T19:40:29.000",
    "date_modified": "2022-01-12T19:40:30.000",
    "request_status": "Pending",
    "responsible_agency": "Department of Public Works",
    "final_address": "1424 Louisiana Ave",
    "address_councildis": "B",
    "status": "Pending",
    "contractor": "Royal Engineering",
    "rowid": "853723",
    "final_x": "3674462.16276",
    "final_y": "520747.888953",
    "longitude": "-90.09066219883726",
    "latitude": "29.926087717284652",
    "geocoded_column": {
      "latitude": "29.926087717284652",
      "longitude": "-90.09066219883726"
    }
  },
  {
    "service_request": "2022-853722",
    "request_type": "Trash/Recycling",
    "request_reason": "Missed Trash Pick-Up",
    "date_created": "2022-01-12T19:36:14.000",
    "date_modified": "2022-01-12T19:36:15.000",
    "request_status": "Pending",
    "responsible_agency": "Department of Sanitation",
    "final_address": "96 Fontainebleau Dr, New Orleans, Louisiana, 70125",
    "address_councildis": "A",
    "status": "Assigned to Contractor",
    "contractor": "Richards Disposal",
    "rowid": "853722",
    "final_x": "3667130.42996",
    "final_y": "530471.520706",
    "longitude": "-90.11347965957945",
    "latitude": "29.95304117924657",
    "geocoded_column": {
      "latitude": "29.95304117924657",
      "longitude": "-90.11347965957945"
    }
  },
  {
    "service_request": "2022-853720",
    "request_type": "Trash/Recycling",
    "request_reason": "Illegal Dumping",
    "date_created": "2022-01-12T19:29:31.000",
    "date_modified": "2022-01-12T19:29:31.000",
    "request_status": "Pending",
    "responsible_agency": "Department of Code Enforcement",
    "final_address": "2919 Baudin St",
    "address_councildis": "B",
    "status": "Pending",
    "rowid": "853720",
    "final_x": "3673522.87611",
    "final_y": "534523.101765",
    "longitude": "-90.09315661493548",
    "latitude": "29.963993002899183",
    "geocoded_column": {
      "latitude": "29.963993002899183",
      "longitude": "-90.09315661493548"
    }
  },
  {
    "service_request": "2022-853719",
    "request_type": "Trash/Recycling",
    "request_reason": "Request a Large Item Pick Up",
    "date_created": "2022-01-12T19:18:42.000",
    "date_modified": "2022-01-12T19:18:43.000",
    "request_status": "Pending",
    "responsible_agency": "Department of Sanitation",
    "final_address": "3001 Amazon St",
    "address_councildis": "C",
    "status": "Assigned to Contractor",
    "contractor": "Richards Disposal",
    "rowid": "853719",
    "final_x": "3694731.04611",
    "final_y": "520913.060921",
    "longitude": "-90.0266735757736",
    "latitude": "29.925921898248742",
    "geocoded_column": {
      "latitude": "29.925921898248742",
      "longitude": "-90.0266735757736"
    }
  },
  {
    "service_request": "2022-853717",
    "request_type": "Traffic Signals/Signs/Striping/Streetlights",
    "request_reason": "Street Light Outage/Malfunction",
    "date_created": "2022-01-12T18:54:18.000",
    "date_modified": "2022-01-12T18:54:18.000",
    "request_status": "Pending",
    "responsible_agency": "Department of Public Works",
    "final_address": "1014 N Carrollton Ave",
    "address_councildis": "A",
    "status": "Pending",
    "contractor": "Royal Engineering",
    "rowid": "853717",
    "final_x": "3673787.24987",
    "final_y": "541106.512972",
    "longitude": "-90.09209653868531",
    "latitude": "29.982087277803604",
    "geocoded_column": {
      "latitude": "29.982087277803604",
      "longitude": "-90.09209653868531"
    }
  },
  {
    "service_request": "2022-853716",
    "request_type": "Property Maintenance",
    "request_reason": "Property Maintenance",
    "date_created": "2022-01-12T18:46:27.000",
    "date_modified": "2022-01-12T18:46:27.000",
    "request_status": "Pending",
    "responsible_agency": "Department of Code Enforcement",
    "final_address": "3400 St Claude Ave",
    "address_councildis": "C",
    "status": "Pending",
    "rowid": "853716",
    "final_x": "3690228.23446",
    "final_y": "535658.603206",
    "longitude": "-90.040362331323",
    "latitude": "29.966607502806205",
    "geocoded_column": {
      "latitude": "29.966607502806205",
      "longitude": "-90.040362331323"
    }
  },
  {
    "service_request": "2022-853715",
    "request_type": "Property Maintenance",
    "request_reason": "Property Maintenance",
    "date_created": "2022-01-12T18:42:52.000",
    "date_modified": "2022-01-12T18:42:52.000",
    "request_status": "Pending",
    "responsible_agency": "Department of Code Enforcement",
    "final_address": "1020 Desire St",
    "address_councildis": "C",
    "status": "Pending",
    "rowid": "853715",
    "final_x": "3690091.43433",
    "final_y": "535461.391814",
    "longitude": "-90.04080136874742",
    "latitude": "29.966069484430676",
    "geocoded_column": {
      "latitude": "29.966069484430676",
      "longitude": "-90.04080136874742"
    }
  },
  {
    "service_request": "2022-853714",
    "request_type": "Trash/Recycling",
    "request_reason": "MIssed Recycling Pick-Up",
    "date_created": "2022-01-12T18:29:28.000",
    "date_modified": "2022-01-12T18:29:28.000",
    "request_status": "Pending",
    "responsible_agency": "Department of Sanitation",
    "final_address": "7324 Green St",
    "address_councildis": "A",
    "status": "Assigned to Contractor",
    "contractor": "Richards Disposal",
    "rowid": "853714",
    "final_x": "3664682.21965",
    "final_y": "528192.384832",
    "longitude": "-90.12128619280756",
    "latitude": "29.94684573102767",
    "geocoded_column": {
      "latitude": "29.94684573102767",
      "longitude": "-90.12128619280756"
    }
  },
  {
    "service_request": "2022-853713",
    "request_type": "Trash/Recycling",
    "request_reason": "Request a Large Item Pick Up",
    "date_created": "2022-01-12T18:22:11.000",
    "date_modified": "2022-01-12T18:22:12.000",
    "request_status": "Pending",
    "responsible_agency": "Department of Sanitation",
    "final_address": "2521 Carondelet St",
    "address_councildis": "B",
    "status": "Assigned to Contractor",
    "contractor": "Richards Disposal",
    "rowid": "853713",
    "final_x": "3676307.6635",
    "final_y": "523300.032443",
    "longitude": "-90.08474869605244",
    "latitude": "29.933050119607515",
    "geocoded_column": {
      "latitude": "29.933050119607515",
      "longitude": "-90.08474869605244"
    }
  },
  {
    "service_request": "2022-853711",
    "request_type": "Trash/Recycling",
    "request_reason": "Request a Large Item Pick Up",
    "date_created": "2022-01-12T18:09:12.000",
    "date_modified": "2022-01-12T18:09:13.000",
    "request_status": "Pending",
    "responsible_agency": "Department of Sanitation",
    "final_address": "1812 Desire St",
    "address_councildis": "D",
    "status": "Assigned to Contractor",
    "contractor": "Metro Disposal",
    "rowid": "853711",
    "final_x": "3690823.66787",
    "final_y": "538465.255817",
    "longitude": "-90.03838179650715",
    "latitude": "29.974306319213607",
    "geocoded_column": {
      "latitude": "29.974306319213607",
      "longitude": "-90.03838179650715"
    }
  },
  {
    "service_request": "2022-853710",
    "request_type": "Property Maintenance",
    "request_reason": "Property Maintenance",
    "date_created": "2022-01-12T18:04:17.000",
    "date_modified": "2022-01-12T18:04:17.000",
    "request_status": "Pending",
    "responsible_agency": "Department of Code Enforcement",
    "final_address": "1300 Music St",
    "address_councildis": "C",
    "status": "Pending",
    "rowid": "853710",
    "final_x": "3686757.73167",
    "final_y": "537216.872584",
    "longitude": "-90.05126706399463",
    "latitude": "29.970999423925814",
    "geocoded_column": {
      "latitude": "29.970999423925814",
      "longitude": "-90.05126706399463"
    }
  },
  {
    "service_request": "2022-853709",
    "request_type": "Property Maintenance",
    "request_reason": "Property Maintenance",
    "date_created": "2022-01-12T17:55:50.000",
    "date_modified": "2022-01-12T17:55:50.000",
    "request_status": "Pending",
    "responsible_agency": "Department of Code Enforcement",
    "final_address": "1246 Franklin Ave",
    "address_councildis": "C",
    "status": "Pending",
    "rowid": "853709",
    "final_x": "3687184.49788",
    "final_y": "537164.93332",
    "longitude": "-90.04992112113032",
    "latitude": "29.970843472530447",
    "geocoded_column": {
      "latitude": "29.970843472530447",
      "longitude": "-90.04992112113032"
    }
  },
  {
    "service_request": "2022-853708",
    "request_type": "Traffic Signals/Signs/Striping/Streetlights",
    "request_reason": "Street Light Outage/Malfunction",
    "date_created": "2022-01-12T17:50:11.000",
    "date_modified": "2022-01-12T17:50:11.000",
    "request_status": "Pending",
    "responsible_agency": "Department of Public Works",
    "final_address": "1013 Broadway St",
    "address_councildis": "A",
    "status": "Pending",
    "contractor": "Royal Engineering",
    "rowid": "853708",
    "final_x": "3663885.16365",
    "final_y": "525967.297917",
    "longitude": "-90.12387695665684",
    "latitude": "29.940750613267653",
    "geocoded_column": {
      "latitude": "29.940750613267653",
      "longitude": "-90.12387695665684"
    }
  },
  {
    "service_request": "2022-853707",
    "request_type": "Traffic Signals/Signs/Striping/Streetlights",
    "request_reason": "Street Light Outage/Malfunction",
    "date_created": "2022-01-12T17:46:57.000",
    "date_modified": "2022-01-12T17:46:58.000",
    "request_status": "Pending",
    "responsible_agency": "Department of Public Works",
    "final_address": "936 Broadway St",
    "address_councildis": "A",
    "status": "Pending",
    "contractor": "Royal Engineering",
    "rowid": "853707",
    "final_x": "3663692.55463",
    "final_y": "525884.518333",
    "longitude": "-90.12448781673785",
    "latitude": "29.940528584558518",
    "geocoded_column": {
      "latitude": "29.940528584558518",
      "longitude": "-90.12448781673785"
    }
  },
  {
    "service_request": "2022-853706",
    "request_type": "Trash/Recycling",
    "request_reason": "Missed Trash Pick-Up",
    "date_created": "2022-01-12T17:41:52.000",
    "date_modified": "2022-01-12T17:41:52.000",
    "request_status": "Pending",
    "responsible_agency": "Department of Sanitation",
    "final_address": "7320 Hurst St",
    "address_councildis": "A",
    "status": "Assigned to Contractor",
    "contractor": "Richards Disposal",
    "rowid": "853706",
    "final_x": "3661819.1513",
    "final_y": "523847.623483",
    "longitude": "-90.13047000182155",
    "latitude": "29.934981980100186",
    "geocoded_column": {
      "latitude": "29.934981980100186",
      "longitude": "-90.13047000182155"
    }
  },
  {
    "service_request": "2022-853705",
    "request_type": "Trash/Recycling",
    "request_reason": "Request a Large Item Pick Up",
    "date_created": "2022-01-12T17:26:29.000",
    "date_modified": "2022-01-12T17:26:30.000",
    "request_status": "Pending",
    "responsible_agency": "Department of Sanitation",
    "final_address": "3335 St Ann St",
    "address_councildis": "A",
    "status": "Assigned to Contractor",
    "contractor": "Richards Disposal",
    "rowid": "853705",
    "final_x": "3674682.91406",
    "final_y": "538961.453834",
    "longitude": "-90.08934115087595",
    "latitude": "29.97616239187732",
    "geocoded_column": {
      "latitude": "29.97616239187732",
      "longitude": "-90.08934115087595"
    }
  },
  {
    "service_request": "2022-853703",
    "request_type": "Trash/Recycling",
    "request_reason": "Dead Animal Pick Up",
    "date_created": "2022-01-12T17:17:08.000",
    "date_modified": "2022-01-12T17:17:09.000",
    "request_status": "Pending",
    "responsible_agency": "Department of Sanitation",
    "final_address": "N WHITE ST & ORLEANS AVE",
    "address_councildis": "A",
    "status": "Assigned to Contractor",
    "contractor": "Richards Disposal",
    "rowid": "853703",
    "final_x": "3676340.6",
    "final_y": "537377.28",
    "longitude": "-90.08416023171814",
    "latitude": "29.97175686643312",
    "geocoded_column": {
      "latitude": "29.97175686643312",
      "longitude": "-90.08416023171814"
    }
  },
  {
    "service_request": "2022-853702",
    "request_type": "Roads/Drainage",
    "request_reason": "Street Flooding / Drainage",
    "date_created": "2022-01-12T17:06:25.000",
    "date_modified": "2022-01-12T17:06:25.000",
    "request_status": "Pending",
    "responsible_agency": "Department of Public Works",
    "final_address": "1 Yellowstone Ct",
    "address_councildis": "C",
    "status": "Pending",
    "rowid": "853702",
    "final_x": "3699465.26154",
    "final_y": "518122.142518",
    "longitude": "-90.01183075771621",
    "latitude": "29.918098532995085",
    "geocoded_column": {
      "latitude": "29.918098532995085",
      "longitude": "-90.01183075771621"
    }
  },
  {
    "service_request": "2022-853701",
    "request_type": "Trash/Recycling",
    "request_reason": "Replace Trash Cart",
    "date_created": "2022-01-12T16:55:38.000",
    "date_modified": "2022-01-12T16:55:39.000",
    "request_status": "Pending",
    "responsible_agency": "Department of Sanitation",
    "final_address": "1 Yellowstone Ct",
    "address_councildis": "C",
    "status": "Assigned to Contractor",
    "contractor": "Richards Disposal",
    "rowid": "853701",
    "final_x": "3699465.26154",
    "final_y": "518122.142518",
    "longitude": "-90.01183075771621",
    "latitude": "29.918098532995085",
    "geocoded_column": {
      "latitude": "29.918098532995085",
      "longitude": "-90.01183075771621"
    }
  },
  {
    "service_request": "2022-853700",
    "request_type": "Trash/Recycling",
    "request_reason": "Missed Trash Pick-Up",
    "date_created": "2022-01-12T16:54:15.000",
    "date_modified": "2022-01-12T16:54:16.000",
    "request_status": "Pending",
    "responsible_agency": "Department of Sanitation",
    "final_address": "329 Lowerline St",
    "address_councildis": "A",
    "status": "Assigned to Contractor",
    "contractor": "Richards Disposal",
    "rowid": "853700",
    "final_x": "3661536.41658",
    "final_y": "523552.803195",
    "longitude": "-90.13137236076453",
    "latitude": "29.93417947531416",
    "geocoded_column": {
      "latitude": "29.93417947531416",
      "longitude": "-90.13137236076453"
    }
  },
  {
    "service_request": "2022-853699",
    "request_type": "Safety & Permits",
    "request_reason": "Short term Rental (Enforcement)",
    "date_created": "2022-01-12T16:53:36.000",
    "date_modified": "2022-01-12T16:53:36.000",
    "request_status": "Pending",
    "responsible_agency": "Safety and Permits",
    "final_address": "910 N Dorgenois St",
    "address_councildis": "D",
    "status": "Pending",
    "rowid": "853699",
    "final_x": "3677673.56347",
    "final_y": "537234.38676",
    "longitude": "-90.07995546149222",
    "latitude": "29.97132393436578",
    "geocoded_column": {
      "latitude": "29.97132393436578",
      "longitude": "-90.07995546149222"
    }
  },
  {
    "service_request": "2022-853698",
    "request_type": "Roads/Drainage",
    "request_reason": "Pothole",
    "date_created": "2022-01-12T16:51:37.000",
    "date_modified": "2022-01-12T16:51:37.000",
    "request_status": "Pending",
    "responsible_agency": "Department of Public Works",
    "final_address": "CALLIOPE ST & EARHART BLVD",
    "address_councildis": "B",
    "status": "Pending",
    "rowid": "853698",
    "final_x": "3671197.4",
    "final_y": "532123.98",
    "longitude": "-90.10058178269615",
    "latitude": "29.95746521817489",
    "geocoded_column": {
      "latitude": "29.95746521817489",
      "longitude": "-90.10058178269615"
    }
  },
  {
    "service_request": "2022-853697",
    "request_type": "Trash/Recycling",
    "request_reason": "Replace Trash Cart",
    "date_created": "2022-01-12T16:49:56.000",
    "date_modified": "2022-01-12T16:49:56.000",
    "request_status": "Pending",
    "responsible_agency": "Department of Sanitation",
    "final_address": "3608 N Derbigny St",
    "address_councildis": "D",
    "status": "Assigned to Contractor",
    "contractor": "Metro Disposal",
    "rowid": "853697",
    "final_x": "3691340.99043",
    "final_y": "537754.898312",
    "longitude": "-90.03677336198817",
    "latitude": "29.972337002022105",
    "geocoded_column": {
      "latitude": "29.972337002022105",
      "longitude": "-90.03677336198817"
    }
  },
  {
    "service_request": "2022-853696",
    "request_type": "Safety & Permits",
    "request_reason": "Short term Rental (Enforcement)",
    "date_created": "2022-01-12T16:49:19.000",
    "date_modified": "2022-01-12T16:49:19.000",
    "request_status": "Pending",
    "responsible_agency": "Safety and Permits",
    "final_address": "2544 Dumaine St",
    "address_councildis": "D",
    "status": "Pending",
    "rowid": "853696",
    "final_x": "3677652.67042",
    "final_y": "537080.595336",
    "longitude": "-90.08002675719123",
    "latitude": "29.9709016889274",
    "geocoded_column": {
      "latitude": "29.9709016889274",
      "longitude": "-90.08002675719123"
    }
  },
  {
    "service_request": "2022-853694",
    "request_type": "Roads/Drainage",
    "request_reason": "Damaged Sidewalk",
    "date_created": "2022-01-12T16:43:41.000",
    "date_modified": "2022-01-12T16:43:41.000",
    "request_status": "Pending",
    "responsible_agency": "Department of Public Works",
    "final_address": "5336 Dryades St",
    "address_councildis": "B",
    "status": "Pending",
    "rowid": "853694",
    "final_x": "3667609.66049",
    "final_y": "521793.283898",
    "longitude": "-90.11225846699281",
    "latitude": "29.929164787498774",
    "geocoded_column": {
      "latitude": "29.929164787498774",
      "longitude": "-90.11225846699281"
    }
  },
  {
    "service_request": "2022-853695",
    "request_type": "Roads/Drainage",
    "request_reason": "Damaged Sidewalk",
    "date_created": "2022-01-12T16:43:41.000",
    "date_modified": "2022-01-12T16:43:41.000",
    "request_status": "Pending",
    "responsible_agency": "Department of Public Works",
    "final_address": "5336 Dryades St",
    "address_councildis": "B",
    "status": "Pending",
    "rowid": "853695",
    "final_x": "3667609.66049",
    "final_y": "521793.283898",
    "longitude": "-90.11225846699281",
    "latitude": "29.929164787498774",
    "geocoded_column": {
      "latitude": "29.929164787498774",
      "longitude": "-90.11225846699281"
    }
  },
  {
    "service_request": "2022-853693",
    "request_type": "Abandoned Vehicles",
    "request_reason": "Abandoned/Junk Vehicles",
    "date_created": "2022-01-12T16:43:35.000",
    "date_modified": "2022-01-12T16:54:31.000",
    "request_status": "Pending",
    "responsible_agency": "Department of Public Works",
    "status": "Inspected",
    "rowid": "853693",
    "longitude": "0.0",
    "latitude": "0.0",
    "geocoded_column": {
      "latitude": "0.0",
      "longitude": "0.0"
    }
  },
  {
    "service_request": "2022-853692",
    "request_type": "Trash/Recycling",
    "request_reason": "Order Trash Cart",
    "date_created": "2022-01-12T16:39:35.000",
    "date_modified": "2022-01-12T16:39:36.000",
    "request_status": "Pending",
    "responsible_agency": "Department of Sanitation",
    "final_address": "7600 Michigan St",
    "address_councildis": "E",
    "status": "Assigned to Contractor",
    "contractor": "Metro Disposal",
    "rowid": "853692",
    "final_x": "3711820.17739",
    "final_y": "566309.779491",
    "longitude": "-89.97102504167553",
    "latitude": "30.050198773358773",
    "geocoded_column": {
      "latitude": "30.050198773358773",
      "longitude": "-89.97102504167553"
    }
  },
  {
    "service_request": "2022-853691",
    "request_type": "Traffic Signals/Signs/Striping/Streetlights",
    "request_reason": "Street Light Outage/Malfunction",
    "date_created": "2022-01-12T16:36:59.000",
    "date_modified": "2022-01-12T16:37:00.000",
    "request_status": "Pending",
    "responsible_agency": "Department of Public Works",
    "final_address": "2005 Milan St",
    "address_councildis": "B",
    "status": "Pending",
    "contractor": "Royal Engineering",
    "rowid": "853691",
    "final_x": "3671491.84103",
    "final_y": "522428.923578",
    "longitude": "-90.09998154561262",
    "latitude": "29.93079826528627",
    "geocoded_column": {
      "latitude": "29.93079826528627",
      "longitude": "-90.09998154561262"
    }
  },
  {
    "service_request": "2022-853690",
    "request_type": "Trash/Recycling",
    "request_reason": "Request a Large Item Pick Up",
    "date_created": "2022-01-12T16:35:09.000",
    "date_modified": "2022-01-12T17:14:24.000",
    "request_status": "Pending",
    "responsible_agency": "Department of Sanitation",
    "final_address": "New Orleans,LA",
    "address_councildis": "A",
    "status": "Assigned to Contractor",
    "contractor": "Richards Disposal",
    "rowid": "853690",
    "final_x": "3663417.82464",
    "final_y": "527355.962623",
    "longitude": "-90.12530621182555",
    "latitude": "29.94458255305258",
    "geocoded_column": {
      "latitude": "29.94458255305258",
      "longitude": "-90.12530621182555"
    }
  },
  {
    "service_request": "2022-853689",
    "request_type": "Traffic Signals/Signs/Striping/Streetlights",
    "request_reason": "Street Light Outage/Malfunction",
    "date_created": "2022-01-12T16:33:32.000",
    "date_modified": "2022-01-12T16:33:32.000",
    "request_status": "Pending",
    "responsible_agency": "Department of Public Works",
    "final_address": "700 Jena St",
    "address_councildis": "B",
    "status": "Pending",
    "contractor": "Royal Engineering",
    "rowid": "853689",
    "final_x": "3670684.48743",
    "final_y": "518052.83327",
    "longitude": "-90.10267862597833",
    "latitude": "29.91878928238475",
    "geocoded_column": {
      "latitude": "29.91878928238475",
      "longitude": "-90.10267862597833"
    }
  },
  {
    "service_request": "2022-853688",
    "request_type": "Trash/Recycling",
    "request_reason": "MIssed Recycling Pick-Up",
    "date_created": "2022-01-12T16:31:56.000",
    "date_modified": "2022-01-12T16:31:57.000",
    "request_status": "Pending",
    "responsible_agency": "Department of Sanitation",
    "final_address": "2233 Washington Ave",
    "address_councildis": "B",
    "status": "Assigned to Contractor",
    "contractor": "Richards Disposal",
    "rowid": "853688",
    "final_x": "3674625.65736",
    "final_y": "524567.716476",
    "longitude": "-90.09001525431059",
    "latitude": "29.936586127445302",
    "geocoded_column": {
      "latitude": "29.936586127445302",
      "longitude": "-90.09001525431059"
    }
  },
  {
    "service_request": "2022-853687",
    "request_type": "Trash/Recycling",
    "request_reason": "Repair Trash Cart",
    "date_created": "2022-01-12T16:24:22.000",
    "date_modified": "2022-01-12T16:24:22.000",
    "request_status": "Pending",
    "responsible_agency": "Department of Sanitation",
    "final_address": "5362 Chatham Dr",
    "address_councildis": "D",
    "status": "Assigned to Contractor",
    "contractor": "Metro Disposal",
    "rowid": "853687",
    "final_x": "3679705.39541",
    "final_y": "552089.267798",
    "longitude": "-90.0730226461869",
    "latitude": "30.01210835929237",
    "geocoded_column": {
      "latitude": "30.01210835929237",
      "longitude": "-90.0730226461869"
    }
  },
  {
    "service_request": "2022-853686",
    "request_type": "Trash/Recycling",
    "request_reason": "Request a Large Item Pick Up",
    "date_created": "2022-01-12T16:22:14.000",
    "date_modified": "2022-01-12T16:22:15.000",
    "request_status": "Pending",
    "responsible_agency": "Department of Sanitation",
    "final_address": "1454 Mithra St",
    "address_councildis": "D",
    "status": "Assigned to Contractor",
    "contractor": "Metro Disposal",
    "rowid": "853686",
    "final_x": "3677906.21186",
    "final_y": "552032.37199",
    "longitude": "-90.07870901513307",
    "latitude": "30.012006206805566",
    "geocoded_column": {
      "latitude": "30.012006206805566",
      "longitude": "-90.07870901513307"
    }
  },
  {
    "service_request": "2022-853685",
    "request_type": "Roads/Drainage",
    "request_reason": "Pothole",
    "date_created": "2022-01-12T16:18:56.000",
    "date_modified": "2022-01-12T16:18:56.000",
    "request_status": "Pending",
    "responsible_agency": "Department of Public Works",
    "final_address": "EDINBURGH ST & S CARROLLTON AVE",
    "address_councildis": "B",
    "status": "Pending",
    "rowid": "853685",
    "final_x": "3667572.2",
    "final_y": "534360.28",
    "longitude": "-90.11195385334143",
    "latitude": "29.963721049693252",
    "geocoded_column": {
      "latitude": "29.963721049693252",
      "longitude": "-90.11195385334143"
    }
  },
  {
    "service_request": "2022-853684",
    "request_type": "Trash/Recycling",
    "request_reason": "Order Recycling Cart",
    "date_created": "2022-01-12T16:18:09.000",
    "date_modified": "2022-01-12T16:18:09.000",
    "request_status": "Pending",
    "responsible_agency": "Department of Sanitation",
    "final_address": "4122 Fontainebleau Dr",
    "address_councildis": "B",
    "status": "Pending",
    "rowid": "853684",
    "final_x": "3669802.24839",
    "final_y": "529080.19104",
    "longitude": "-90.10509029432937",
    "latitude": "29.94913699671444",
    "geocoded_column": {
      "latitude": "29.94913699671444",
      "longitude": "-90.10509029432937"
    }
  },
  {
    "service_request": "2022-853683",
    "request_type": "Trash/Recycling",
    "request_reason": "Order Trash Cart",
    "date_created": "2022-01-12T16:17:49.000",
    "date_modified": "2022-01-12T16:17:50.000",
    "request_status": "Pending",
    "responsible_agency": "Department of Sanitation",
    "final_address": "4122 Fontainebleau Dr",
    "address_councildis": "B",
    "status": "Assigned to Contractor",
    "contractor": "Richards Disposal",
    "rowid": "853683",
    "final_x": "3669802.24839",
    "final_y": "529080.19104",
    "longitude": "-90.10509029432937",
    "latitude": "29.94913699671444",
    "geocoded_column": {
      "latitude": "29.94913699671444",
      "longitude": "-90.10509029432937"
    }
  },
  {
    "service_request": "2022-853682",
    "request_type": "Trash/Recycling",
    "request_reason": "Start Trash Service",
    "date_created": "2022-01-12T16:17:35.000",
    "date_modified": "2022-01-12T16:17:36.000",
    "request_status": "Pending",
    "responsible_agency": "Department of Sanitation",
    "final_address": "4122 Fontainebleau Dr",
    "address_councildis": "B",
    "status": "Assigned to Contractor",
    "contractor": "Richards Disposal",
    "rowid": "853682",
    "final_x": "3669802.24839",
    "final_y": "529080.19104",
    "longitude": "-90.10509029432937",
    "latitude": "29.94913699671444",
    "geocoded_column": {
      "latitude": "29.94913699671444",
      "longitude": "-90.10509029432937"
    }
  },
  {
    "service_request": "2022-853681",
    "request_type": "Trash/Recycling",
    "request_reason": "Change Size of Trash Cart",
    "date_created": "2022-01-12T16:17:10.000",
    "date_modified": "2022-01-12T16:17:11.000",
    "request_status": "Pending",
    "responsible_agency": "Department of Sanitation",
    "final_address": "4814 Carondelet St",
    "address_councildis": "B",
    "status": "Assigned to Contractor",
    "contractor": "Richards Disposal",
    "rowid": "853681",
    "final_x": "3669197.38612",
    "final_y": "520978.964665",
    "longitude": "-90.10727381483886",
    "latitude": "29.926879049888193",
    "geocoded_column": {
      "latitude": "29.926879049888193",
      "longitude": "-90.10727381483886"
    }
  },
  {
    "service_request": "2022-853680",
    "request_type": "Abandoned Vehicles",
    "request_reason": "Abandoned/Junk Vehicles",
    "date_created": "2022-01-12T16:12:24.000",
    "date_modified": "2022-01-12T16:12:24.000",
    "request_status": "Pending",
    "responsible_agency": "Department of Public Works",
    "final_address": "6836 Cindy Pl",
    "address_councildis": "E",
    "status": "Pending",
    "rowid": "853680",
    "final_x": "3706849.02795",
    "final_y": "559318.679645",
    "longitude": "-89.98699654244369",
    "latitude": "30.031137595238018",
    "geocoded_column": {
      "latitude": "30.031137595238018",
      "longitude": "-89.98699654244369"
    }
  },
  {
    "service_request": "2022-853679",
    "request_type": "Abandoned Vehicles",
    "request_reason": "Abandoned/Junk Vehicles",
    "date_created": "2022-01-12T16:08:37.000",
    "date_modified": "2022-01-12T16:19:47.000",
    "request_status": "Pending",
    "responsible_agency": "Department of Public Works",
    "final_address": "900 BLK Clouet St",
    "address_councildis": "C",
    "status": "Inspected",
    "rowid": "853679",
    "final_x": "3688848.7535",
    "final_y": "535387.57501",
    "longitude": "-90.04472833309033",
    "latitude": "29.965904999344332",
    "geocoded_column": {
      "latitude": "29.965904999344332",
      "longitude": "-90.04472833309033"
    }
  },
  {
    "service_request": "2022-853678",
    "request_type": "Traffic Signals/Signs/Striping/Streetlights",
    "request_reason": "Traffic Signal Malfunctioning/Damaged",
    "date_created": "2022-01-12T16:04:30.000",
    "date_modified": "2022-01-12T16:04:30.000",
    "request_status": "Pending",
    "responsible_agency": "Department of Public Works",
    "final_address": "MAGAZINE ST & POYDRAS ST",
    "address_councildis": "B",
    "status": "Pending",
    "rowid": "853678",
    "final_x": "3681500.2",
    "final_y": "529133.68",
    "longitude": "-90.06815288928289",
    "latitude": "29.94893410289717",
    "geocoded_column": {
      "latitude": "29.94893410289717",
      "longitude": "-90.06815288928289"
    }
  },
  {
    "service_request": "2022-853677",
    "request_type": "Abandoned Vehicles",
    "request_reason": "Abandoned/Junk Vehicles",
    "date_created": "2022-01-12T16:02:12.000",
    "date_modified": "2022-01-12T16:02:12.000",
    "request_status": "Pending",
    "responsible_agency": "Department of Public Works",
    "final_address": "6836 Cindy Pl",
    "address_councildis": "E",
    "status": "Pending",
    "rowid": "853677",
    "final_x": "3706849.02795",
    "final_y": "559318.679645",
    "longitude": "-89.98699654244369",
    "latitude": "30.031137595238018",
    "geocoded_column": {
      "latitude": "30.031137595238018",
      "longitude": "-89.98699654244369"
    }
  },
  {
    "service_request": "2022-853676",
    "request_type": "Traffic Signals/Signs/Striping/Streetlights",
    "request_reason": "Traffic Signal Malfunctioning/Damaged",
    "date_created": "2022-01-12T16:01:55.000",
    "date_modified": "2022-01-12T16:01:55.000",
    "request_status": "Pending",
    "responsible_agency": "Department of Public Works",
    "final_address": "BARONNE ST & CALLIOPE ST",
    "address_councildis": "B",
    "status": "Pending",
    "rowid": "853676",
    "final_x": "3679060.1",
    "final_y": "527019.36",
    "longitude": "-90.07593059822653",
    "latitude": "29.94319428493894",
    "geocoded_column": {
      "latitude": "29.94319428493894",
      "longitude": "-90.07593059822653"
    }
  },
  {
    "service_request": "2022-853675",
    "request_type": "Trash/Recycling",
    "request_reason": "Missed Trash Pick-Up",
    "date_created": "2022-01-12T16:01:49.000",
    "date_modified": "2022-01-12T16:01:51.000",
    "request_status": "Pending",
    "responsible_agency": "Department of Sanitation",
    "final_address": "1529 St Philip St",
    "address_councildis": "C",
    "status": "Assigned to Contractor",
    "contractor": "Richards Disposal",
    "rowid": "853675",
    "final_x": "3680814.5844",
    "final_y": "535241.603014",
    "longitude": "-90.0701050622799",
    "latitude": "29.965749616971316",
    "geocoded_column": {
      "latitude": "29.965749616971316",
      "longitude": "-90.0701050622799"
    }
  },
  {
    "service_request": "2022-853674",
    "request_type": "Trash/Recycling",
    "request_reason": "Request a Large Item Pick Up",
    "date_created": "2022-01-12T16:00:36.000",
    "date_modified": "2022-01-12T16:00:36.000",
    "request_status": "Pending",
    "responsible_agency": "Department of Sanitation",
    "final_address": "2367 Laurel St",
    "address_councildis": "B",
    "status": "Assigned to Contractor",
    "contractor": "Richards Disposal",
    "rowid": "853674",
    "final_x": "3678543.14376",
    "final_y": "520965.746169",
    "longitude": "-90.0777721883855",
    "latitude": "29.926564426408998",
    "geocoded_column": {
      "latitude": "29.926564426408998",
      "longitude": "-90.0777721883855"
    }
  },
  {
    "service_request": "2022-853673",
    "request_type": "Roads/Drainage",
    "request_reason": "Pothole",
    "date_created": "2022-01-12T15:57:21.000",
    "date_modified": "2022-01-12T15:57:21.000",
    "request_status": "Pending",
    "responsible_agency": "Department of Public Works",
    "final_address": "8736 Birch St",
    "address_councildis": "A",
    "status": "Pending",
    "rowid": "853673",
    "final_x": "3661117.12058",
    "final_y": "531000.965186",
    "longitude": "-90.13244963918423",
    "latitude": "29.95467163741844",
    "geocoded_column": {
      "latitude": "29.95467163741844",
      "longitude": "-90.13244963918423"
    }
  },
  {
    "service_request": "2022-853672",
    "request_type": "Trash/Recycling",
    "request_reason": "Missed Trash Pick-Up",
    "date_created": "2022-01-12T15:56:14.000",
    "date_modified": "2022-01-12T15:56:15.000",
    "request_status": "Pending",
    "responsible_agency": "Department of Sanitation",
    "final_address": "803 Conrad St",
    "address_councildis": "A",
    "status": "Assigned to Contractor",
    "contractor": "Metro Disposal",
    "rowid": "853672",
    "final_x": "3669911.24833",
    "final_y": "554281.328344",
    "longitude": "-90.10389236652077",
    "latitude": "30.018428321010834",
    "geocoded_column": {
      "latitude": "30.018428321010834",
      "longitude": "-90.10389236652077"
    }
  },
  {
    "service_request": "2022-853670",
    "request_type": "Traffic Signals/Signs/Striping/Streetlights",
    "request_reason": "Striping/Road Surface Markings",
    "date_created": "2022-01-12T15:47:54.000",
    "date_modified": "2022-01-12T15:47:54.000",
    "request_status": "Pending",
    "responsible_agency": "Department of Public Works",
    "final_address": "BENJAMIN ST & STATE ST",
    "address_councildis": "A",
    "status": "Pending",
    "rowid": "853670",
    "final_x": "3665643.9",
    "final_y": "522120.18",
    "longitude": "-90.11845307718065",
    "latitude": "29.93012110299354",
    "geocoded_column": {
      "latitude": "29.93012110299354",
      "longitude": "-90.11845307718065"
    }
  },
  {
    "service_request": "2022-853669",
    "request_type": "Trash/Recycling",
    "request_reason": "Request a Large Item Pick Up",
    "date_created": "2022-01-12T15:45:57.000",
    "date_modified": "2022-01-12T15:45:58.000",
    "request_status": "Pending",
    "responsible_agency": "Department of Sanitation",
    "final_address": "2418 Louisa St",
    "address_councildis": "D",
    "status": "Assigned to Contractor",
    "contractor": "Metro Disposal",
    "rowid": "853669",
    "final_x": "3690791.14537",
    "final_y": "540922.835019",
    "longitude": "-90.03839679445264",
    "latitude": "29.981064798537336",
    "geocoded_column": {
      "latitude": "29.981064798537336",
      "longitude": "-90.03839679445264"
    }
  },
  {
    "service_request": "2022-853668",
    "request_type": "Parks & Parkways",
    "request_reason": "Request Tree Service (Right of Way/Public Property)",
    "date_created": "2022-01-12T15:43:17.000",
    "date_modified": "2022-01-12T16:48:10.000",
    "request_status": "Pending",
    "responsible_agency": "Department of Parks & Parkway",
    "final_address": "5979 Marshal Foch St, New Orleans, Louisiana, 70124",
    "address_councildis": "A",
    "rowid": "853668",
    "final_x": "3669905.39572",
    "final_y": "547098.300945",
    "longitude": "-90.10415432308314",
    "latitude": "29.998677689870977",
    "geocoded_column": {
      "latitude": "29.998677689870977",
      "longitude": "-90.10415432308314"
    }
  },
  {
    "service_request": "2022-853667",
    "request_type": "Trash/Recycling",
    "request_reason": "Request a Large Item Pick Up",
    "date_created": "2022-01-12T15:42:55.000",
    "date_modified": "2022-01-12T15:42:56.000",
    "request_status": "Pending",
    "responsible_agency": "Department of Sanitation",
    "final_address": "716 Voisin St",
    "address_councildis": "A",
    "status": "Assigned to Contractor",
    "contractor": "Metro Disposal",
    "rowid": "853667",
    "final_x": "3668363.16404",
    "final_y": "543211.871246",
    "longitude": "-90.10915742540307",
    "latitude": "29.98803674278885",
    "geocoded_column": {
      "latitude": "29.98803674278885",
      "longitude": "-90.10915742540307"
    }
  },
  {
    "service_request": "2022-853666",
    "request_type": "Traffic Signals/Signs/Striping/Streetlights",
    "request_reason": "Traffic Sign Missing/Damaged",
    "date_created": "2022-01-12T15:39:57.000",
    "date_modified": "2022-01-12T15:41:08.000",
    "request_status": "Pending",
    "responsible_agency": "Department of Public Works",
    "final_address": "1851 N Dorgenois St",
    "address_councildis": "D",
    "status": "Pending",
    "rowid": "853666",
    "final_x": "3680996.27458",
    "final_y": "541209.523788",
    "longitude": "-90.06932339050886",
    "latitude": "29.982153825966865",
    "geocoded_column": {
      "latitude": "29.982153825966865",
      "longitude": "-90.06932339050886"
    }
  },
  {
    "service_request": "2022-853665",
    "request_type": "Trash/Recycling",
    "request_reason": "Order Recycling Cart",
    "date_created": "2022-01-12T15:35:49.000",
    "date_modified": "2022-01-12T15:35:49.000",
    "request_status": "Pending",
    "responsible_agency": "Department of Sanitation",
    "final_address": "7728 Plum St",
    "address_councildis": "A",
    "status": "Pending",
    "rowid": "853665",
    "final_x": "3663079.25248",
    "final_y": "527781.895167",
    "longitude": "-90.12636102356754",
    "latitude": "29.945763541728354",
    "geocoded_column": {
      "latitude": "29.945763541728354",
      "longitude": "-90.12636102356754"
    }
  },
  {
    "service_request": "2022-853664",
    "request_type": "Traffic Signals/Signs/Striping/Streetlights",
    "request_reason": "Street Light Outage/Malfunction",
    "date_created": "2022-01-12T15:28:23.000",
    "date_modified": "2022-01-12T16:43:53.000",
    "request_status": "Pending",
    "responsible_agency": "Department of Public Works",
    "final_address": "748 Amethyst St, New Orleans, Louisiana, 70124",
    "address_councildis": "D",
    "status": "Pending",
    "contractor": "Royal Engineering",
    "rowid": "853664",
    "final_x": "3669859.7097",
    "final_y": "556626.299418",
    "longitude": "-90.10397571716221",
    "latitude": "30.024877675508097",
    "geocoded_column": {
      "latitude": "30.024877675508097",
      "longitude": "-90.10397571716221"
    }
  },
  {
    "service_request": "2022-853663",
    "request_type": "Property Maintenance",
    "request_reason": "Property Maintenance",
    "date_created": "2022-01-12T15:22:54.000",
    "date_modified": "2022-01-12T15:22:54.000",
    "request_status": "Pending",
    "responsible_agency": "Department of Code Enforcement",
    "final_address": "3101 Rue Parc Fontaine",
    "address_councildis": "C",
    "status": "Pending",
    "rowid": "853663",
    "final_x": "3700020.30845",
    "final_y": "519563.645559",
    "longitude": "-90.01002623993197",
    "latitude": "29.92204456019195",
    "geocoded_column": {
      "latitude": "29.92204456019195",
      "longitude": "-90.01002623993197"
    }
  },
  {
    "service_request": "2022-853661",
    "request_type": "Property Maintenance",
    "request_reason": "Property Maintenance",
    "date_created": "2022-01-12T15:21:15.000",
    "date_modified": "2022-01-12T15:21:15.000",
    "request_status": "Pending",
    "responsible_agency": "Department of Code Enforcement",
    "final_address": "531 Second St",
    "address_councildis": "B",
    "status": "Pending",
    "rowid": "853661",
    "final_x": "3678946.68136",
    "final_y": "519703.907704",
    "longitude": "-90.07654202089383",
    "latitude": "29.923082616838766",
    "geocoded_column": {
      "latitude": "29.923082616838766",
      "longitude": "-90.07654202089383"
    }
  },
  {
    "service_request": "2022-853659",
    "request_type": "Property Maintenance",
    "request_reason": "Property Maintenance",
    "date_created": "2022-01-12T15:20:56.000",
    "date_modified": "2022-01-12T15:20:56.000",
    "request_status": "Pending",
    "responsible_agency": "Department of Code Enforcement",
    "final_address": "3101 Rue Parc Fontaine",
    "address_councildis": "C",
    "status": "Pending",
    "rowid": "853659",
    "final_x": "3700020.30845",
    "final_y": "519563.645559",
    "longitude": "-90.01002623993197",
    "latitude": "29.92204456019195",
    "geocoded_column": {
      "latitude": "29.92204456019195",
      "longitude": "-90.01002623993197"
    }
  },
  {
    "service_request": "2022-853658",
    "request_type": "Trash/Recycling",
    "request_reason": "Request a Large Item Pick Up",
    "date_created": "2022-01-12T15:20:08.000",
    "date_modified": "2022-01-12T15:20:09.000",
    "request_status": "Pending",
    "responsible_agency": "Department of Sanitation",
    "final_address": "7930 Trout St",
    "address_councildis": "E",
    "status": "Assigned to Contractor",
    "contractor": "Metro Disposal",
    "rowid": "853658",
    "final_x": "3699423.09053",
    "final_y": "561392.444766",
    "longitude": "-90.01038695767159",
    "latitude": "30.037077468789278",
    "geocoded_column": {
      "latitude": "30.037077468789278",
      "longitude": "-90.01038695767159"
    }
  },
  {
    "service_request": "2022-853657",
    "request_type": "Property Maintenance",
    "request_reason": "Property Maintenance",
    "date_created": "2022-01-12T15:17:15.000",
    "date_modified": "2022-01-12T15:17:15.000",
    "request_status": "Pending",
    "responsible_agency": "Department of Code Enforcement",
    "final_address": "3417 S Liberty St",
    "address_councildis": "B",
    "status": "Pending",
    "rowid": "853657",
    "final_x": "3673032.99528",
    "final_y": "523788.320059",
    "longitude": "-90.09506995481556",
    "latitude": "29.934490462685165",
    "geocoded_column": {
      "latitude": "29.934490462685165",
      "longitude": "-90.09506995481556"
    }
  },
  {
    "service_request": "2022-853656",
    "request_type": "Trash/Recycling",
    "request_reason": "Request a Large Item Pick Up",
    "date_created": "2022-01-12T15:14:43.000",
    "date_modified": "2022-01-12T15:14:51.000",
    "request_status": "Pending",
    "responsible_agency": "Department of Sanitation",
    "final_address": "3611 Iberville St, New Orleans, Louisiana, 70119",
    "address_councildis": "B",
    "status": "Assigned to Contractor",
    "contractor": "Richards Disposal",
    "rowid": "853656",
    "final_x": "3672794.20059",
    "final_y": "537640.44404",
    "longitude": "-90.09535135110329",
    "latitude": "29.972586309618897",
    "geocoded_column": {
      "latitude": "29.972586309618897",
      "longitude": "-90.09535135110329"
    }
  },
  {
    "service_request": "2022-853655",
    "request_type": "Roads/Drainage",
    "request_reason": "Road Shoulder Repair",
    "date_created": "2022-01-12T15:13:17.000",
    "date_modified": "2022-01-12T15:13:17.000",
    "request_status": "Pending",
    "responsible_agency": "Department of Public Works",
    "final_address": "5437 Vermillion Blvd",
    "address_councildis": "D",
    "status": "Pending",
    "rowid": "853655",
    "final_x": "3683378.15093",
    "final_y": "552867.340439",
    "longitude": "-90.06139155081364",
    "latitude": "30.014136188151205",
    "geocoded_column": {
      "latitude": "30.014136188151205",
      "longitude": "-90.06139155081364"
    }
  },
  {
    "service_request": "2022-853654",
    "request_type": "Trash/Recycling",
    "request_reason": "Replace Trash Cart",
    "date_created": "2022-01-12T15:13:07.000",
    "date_modified": "2022-01-12T15:13:10.000",
    "request_status": "Pending",
    "responsible_agency": "Department of Sanitation",
    "final_address": "3416 S Liberty St",
    "address_councildis": "B",
    "status": "Assigned to Contractor",
    "contractor": "Richards Disposal",
    "rowid": "853654",
    "final_x": "3673042.92123",
    "final_y": "523724.144187",
    "longitude": "-90.0950408082643",
    "latitude": "29.934313704892734",
    "geocoded_column": {
      "latitude": "29.934313704892734",
      "longitude": "-90.0950408082643"
    }
  },
  {
    "service_request": "2022-853652",
    "request_type": "Trash/Recycling",
    "request_reason": "Repair Trash Cart",
    "date_created": "2022-01-12T15:08:58.000",
    "date_modified": "2022-01-12T15:08:58.000",
    "request_status": "Pending",
    "responsible_agency": "Department of Sanitation",
    "final_address": "4637 Virgilian St",
    "address_councildis": "D",
    "status": "Assigned to Contractor",
    "contractor": "Metro Disposal",
    "rowid": "853652",
    "final_x": "3697607.90307",
    "final_y": "553256.754007",
    "longitude": "-90.01641881433974",
    "latitude": "30.01476492700561",
    "geocoded_column": {
      "latitude": "30.01476492700561",
      "longitude": "-90.01641881433974"
    }
  },
  {
    "service_request": "2022-853651",
    "request_type": "Trash/Recycling",
    "request_reason": "Order Trash Cart",
    "date_created": "2022-01-12T15:06:33.000",
    "date_modified": "2022-01-12T15:06:34.000",
    "request_status": "Pending",
    "responsible_agency": "Department of Sanitation",
    "final_address": "13159 Wales St",
    "address_councildis": "E",
    "status": "Assigned to Contractor",
    "contractor": "Metro Disposal",
    "rowid": "853651",
    "final_x": "3716250.07052",
    "final_y": "571003.433959",
    "longitude": "-89.95684570202447",
    "latitude": "30.062958827038315",
    "geocoded_column": {
      "latitude": "30.062958827038315",
      "longitude": "-89.95684570202447"
    }
  },
  {
    "service_request": "2022-853650",
    "request_type": "Trash/Recycling",
    "request_reason": "Order Recycling Cart",
    "date_created": "2022-01-12T15:06:23.000",
    "date_modified": "2022-01-12T15:06:23.000",
    "request_status": "Pending",
    "responsible_agency": "Department of Sanitation",
    "final_address": "13159 Wales St",
    "address_councildis": "E",
    "status": "Pending",
    "rowid": "853650",
    "final_x": "3716250.07052",
    "final_y": "571003.433959",
    "longitude": "-89.95684570202447",
    "latitude": "30.062958827038315",
    "geocoded_column": {
      "latitude": "30.062958827038315",
      "longitude": "-89.95684570202447"
    }
  },
  {
    "service_request": "2022-853649",
    "request_type": "Trash/Recycling",
    "request_reason": "Start Trash Service",
    "date_created": "2022-01-12T15:06:07.000",
    "date_modified": "2022-01-12T15:06:08.000",
    "request_status": "Pending",
    "responsible_agency": "Department of Sanitation",
    "final_address": "13159 Wales St",
    "address_councildis": "E",
    "status": "Assigned to Contractor",
    "contractor": "Metro Disposal",
    "rowid": "853649",
    "final_x": "3716250.07052",
    "final_y": "571003.433959",
    "longitude": "-89.95684570202447",
    "latitude": "30.062958827038315",
    "geocoded_column": {
      "latitude": "30.062958827038315",
      "longitude": "-89.95684570202447"
    }
  },
  {
    "service_request": "2022-853648",
    "request_type": "Trash/Recycling",
    "request_reason": "Request a Large Item Pick Up",
    "date_created": "2022-01-12T15:04:16.000",
    "date_modified": "2022-01-12T15:04:17.000",
    "request_status": "Pending",
    "responsible_agency": "Department of Sanitation",
    "final_address": "1013 N Galvez St",
    "address_councildis": "D",
    "status": "Assigned to Contractor",
    "contractor": "Richards Disposal",
    "rowid": "853648",
    "final_x": "3679079.33077",
    "final_y": "536711.241223",
    "longitude": "-90.07553398623034",
    "latitude": "29.969843107214597",
    "geocoded_column": {
      "latitude": "29.969843107214597",
      "longitude": "-90.07553398623034"
    }
  },
  {
    "service_request": "2022-853647",
    "request_type": "Trash/Recycling",
    "request_reason": "Illegal Dumping",
    "date_created": "2022-01-12T15:04:04.000",
    "date_modified": "2022-01-12T15:04:04.000",
    "request_status": "Pending",
    "responsible_agency": "Department of Sanitation",
    "final_address": "2600 Third St",
    "address_councildis": "B",
    "status": "Pending",
    "rowid": "853647",
    "final_x": "3674396.17211",
    "final_y": "525903.985533",
    "longitude": "-90.09069399940769",
    "latitude": "29.94026727559292",
    "geocoded_column": {
      "latitude": "29.94026727559292",
      "longitude": "-90.09069399940769"
    }
  },
  {
    "service_request": "2022-853645",
    "request_type": "Roads/Drainage",
    "request_reason": "Pothole",
    "date_created": "2022-01-12T15:02:54.000",
    "date_modified": "2022-01-12T15:02:54.000",
    "request_status": "Pending",
    "responsible_agency": "Department of Public Works",
    "final_address": "2310 Perdido St",
    "address_councildis": "B",
    "status": "Pending",
    "rowid": "853645",
    "final_x": "3674983.93013",
    "final_y": "532212.121731",
    "longitude": "-90.08862200947137",
    "latitude": "29.95759502120518",
    "geocoded_column": {
      "latitude": "29.95759502120518",
      "longitude": "-90.08862200947137"
    }
  },
  {
    "service_request": "2022-853644",
    "request_type": "Trash/Recycling",
    "request_reason": "Illegal Dumping",
    "date_created": "2022-01-12T15:01:58.000",
    "date_modified": "2022-01-12T15:01:58.000",
    "request_status": "Pending",
    "responsible_agency": "Department of Sanitation",
    "final_address": "538 Second St",
    "address_councildis": "B",
    "status": "Pending",
    "rowid": "853644",
    "final_x": "3678866.21755",
    "final_y": "519691.046968",
    "longitude": "-90.07679645934428",
    "latitude": "29.923049680475124",
    "geocoded_column": {
      "latitude": "29.923049680475124",
      "longitude": "-90.07679645934428"
    }
  },
  {
    "service_request": "2022-853643",
    "request_type": "Trash/Recycling",
    "request_reason": "Order Recycling Cart",
    "date_created": "2022-01-12T15:00:41.000",
    "date_modified": "2022-01-12T15:00:41.000",
    "request_status": "Pending",
    "responsible_agency": "Department of Sanitation",
    "final_address": "3473 Vespasian St",
    "address_councildis": "C",
    "status": "Pending",
    "rowid": "853643",
    "final_x": "3696073.47741",
    "final_y": "522569.576186",
    "longitude": "-90.02237611262355",
    "latitude": "29.93043458845842",
    "geocoded_column": {
      "latitude": "29.93043458845842",
      "longitude": "-90.02237611262355"
    }
  },
  {
    "service_request": "2022-853642",
    "request_type": "Trash/Recycling",
    "request_reason": "Order Recycling Cart",
    "date_created": "2022-01-12T15:00:09.000",
    "date_modified": "2022-01-12T15:00:09.000",
    "request_status": "Pending",
    "responsible_agency": "Department of Sanitation",
    "final_address": "3473 Vespasian St",
    "address_councildis": "C",
    "status": "Pending",
    "rowid": "853642",
    "final_x": "3696073.47741",
    "final_y": "522569.576186",
    "longitude": "-90.02237611262355",
    "latitude": "29.93043458845842",
    "geocoded_column": {
      "latitude": "29.93043458845842",
      "longitude": "-90.02237611262355"
    }
  },
  {
    "service_request": "2022-853641",
    "request_type": "Trash/Recycling",
    "request_reason": "Illegal Dumping",
    "date_created": "2022-01-12T14:59:46.000",
    "date_modified": "2022-01-12T14:59:46.000",
    "request_status": "Pending",
    "responsible_agency": "Department of Sanitation",
    "final_address": "517 Second St",
    "address_councildis": "B",
    "status": "Pending",
    "rowid": "853641",
    "final_x": "3679011.86581",
    "final_y": "519604.147",
    "longitude": "-90.07633971322994",
    "latitude": "29.92280634124858",
    "geocoded_column": {
      "latitude": "29.92280634124858",
      "longitude": "-90.07633971322994"
    }
  },
  {
    "service_request": "2022-853640",
    "request_type": "Trash/Recycling",
    "request_reason": "Request a Large Item Pick Up",
    "date_created": "2022-01-12T14:56:20.000",
    "date_modified": "2022-01-12T14:56:21.000",
    "request_status": "Pending",
    "responsible_agency": "Department of Sanitation",
    "final_address": "1811 Lowerline St",
    "address_councildis": "A",
    "status": "Assigned to Contractor",
    "contractor": "Richards Disposal",
    "rowid": "853640",
    "final_x": "3664948.58644",
    "final_y": "528656.734336",
    "longitude": "-90.1204296524177",
    "latitude": "29.9481147923348",
    "geocoded_column": {
      "latitude": "29.9481147923348",
      "longitude": "-90.1204296524177"
    }
  },
  {
    "service_request": "2022-853639",
    "request_type": "Roads/Drainage",
    "request_reason": "Man hole cover issue",
    "date_created": "2022-01-12T14:52:50.000",
    "date_modified": "2022-01-12T14:53:36.000",
    "request_status": "Pending",
    "responsible_agency": "Department of Public Works",
    "final_address": "700 BLK S Claiborne Ave",
    "address_councildis": "B",
    "status": "Pending",
    "rowid": "853639",
    "final_x": "3676457.83373",
    "final_y": "530360.698909",
    "longitude": "-90.08403159212341",
    "latitude": "29.952460121454482",
    "geocoded_column": {
      "latitude": "29.952460121454482",
      "longitude": "-90.08403159212341"
    }
  },
  {
    "service_request": "2022-853638",
    "request_type": "Traffic Signals/Signs/Striping/Streetlights",
    "request_reason": "Street Light Knocked Down/Leaning",
    "date_created": "2022-01-12T14:52:12.000",
    "date_modified": "2022-01-12T14:52:13.000",
    "request_status": "Pending",
    "responsible_agency": "Department of Public Works",
    "final_address": "555 Canal St",
    "address_councildis": "C",
    "status": "Pending",
    "contractor": "Royal Engineering",
    "rowid": "853638",
    "final_x": "3681657.1156",
    "final_y": "530427.761794",
    "longitude": "-90.06761230467993",
    "latitude": "29.952487626263423",
    "geocoded_column": {
      "latitude": "29.952487626263423",
      "longitude": "-90.06761230467993"
    }
  },
  {
    "service_request": "2022-853637",
    "request_type": "Abandoned Vehicles",
    "request_reason": "Abandoned/Junk Vehicles",
    "date_created": "2022-01-12T14:47:16.000",
    "date_modified": "2022-01-12T14:49:48.000",
    "request_status": "Pending",
    "responsible_agency": "Department of Public Works",
    "final_address": "TRICOU ST & N CLAIBORNE AVE",
    "address_councildis": "E",
    "status": "Pending",
    "rowid": "853637",
    "final_x": "3700859.1",
    "final_y": "534813.08",
    "longitude": "-90.00682128505002",
    "latitude": "29.96394848958569",
    "geocoded_column": {
      "latitude": "29.96394848958569",
      "longitude": "-90.00682128505002"
    }
  },
  {
    "service_request": "2022-853636",
    "request_type": "Traffic Signals/Signs/Striping/Streetlights",
    "request_reason": "Traffic Sign Missing/Damaged",
    "date_created": "2022-01-12T14:46:47.000",
    "date_modified": "2022-01-12T14:46:47.000",
    "request_status": "Pending",
    "responsible_agency": "Department of Public Works",
    "final_address": "110 Camp St",
    "address_councildis": "B",
    "status": "Pending",
    "rowid": "853636",
    "final_x": "3681429.59676",
    "final_y": "530296.196674",
    "longitude": "-90.06833529133917",
    "latitude": "29.952132775185845",
    "geocoded_column": {
      "latitude": "29.952132775185845",
      "longitude": "-90.06833529133917"
    }
  },
  {
    "service_request": "2022-853635",
    "request_type": "Abandoned Vehicles",
    "request_reason": "Abandoned/Junk Vehicles",
    "date_created": "2022-01-12T14:44:14.000",
    "date_modified": "2022-01-12T14:45:53.000",
    "request_status": "Pending",
    "responsible_agency": "Department of Public Works",
    "final_address": "1400 BLK Tricou St",
    "address_councildis": "E",
    "status": "Pending",
    "rowid": "853635",
    "final_x": "3700632.70729",
    "final_y": "534275.318704",
    "longitude": "-90.00755585622889",
    "latitude": "29.962477043396216",
    "geocoded_column": {
      "latitude": "29.962477043396216",
      "longitude": "-90.00755585622889"
    }
  },
  {
    "service_request": "2022-853634",
    "request_type": "Trash/Recycling",
    "request_reason": "Missed Trash Pick-Up",
    "date_created": "2022-01-12T14:43:17.000",
    "date_modified": "2022-01-12T14:43:18.000",
    "request_status": "Pending",
    "responsible_agency": "Department of Sanitation",
    "final_address": "2036 Burdette St",
    "address_councildis": "A",
    "status": "Assigned to Contractor",
    "contractor": "Richards Disposal",
    "rowid": "853634",
    "final_x": "3664865.24461",
    "final_y": "529939.422849",
    "longitude": "-90.12064993525313",
    "latitude": "29.95164419651923",
    "geocoded_column": {
      "latitude": "29.95164419651923",
      "longitude": "-90.12064993525313"
    }
  },
  {
    "service_request": "2022-853633",
    "request_type": "Trash/Recycling",
    "request_reason": "MIssed Recycling Pick-Up",
    "date_created": "2022-01-12T14:41:56.000",
    "date_modified": "2022-01-12T14:41:57.000",
    "request_status": "Pending",
    "responsible_agency": "Department of Sanitation",
    "final_address": "4822 Cleveland Ave",
    "address_councildis": "A",
    "status": "Assigned to Contractor",
    "contractor": "Richards Disposal",
    "rowid": "853633",
    "final_x": "3668365.69857",
    "final_y": "539808.562826",
    "longitude": "-90.10926425820907",
    "latitude": "29.97867872482772",
    "geocoded_column": {
      "latitude": "29.97867872482772",
      "longitude": "-90.10926425820907"
    }
  },
  {
    "service_request": "2022-853632",
    "request_type": "Trash/Recycling",
    "request_reason": "Replace Trash Cart",
    "date_created": "2022-01-12T14:41:28.000",
    "date_modified": "2022-01-12T14:41:29.000",
    "request_status": "Pending",
    "responsible_agency": "Department of Sanitation",
    "final_address": "946 Taft Pl",
    "address_councildis": "A",
    "status": "Assigned to Contractor",
    "contractor": "Richards Disposal",
    "rowid": "853632",
    "final_x": "3673931.90958",
    "final_y": "540467.011275",
    "longitude": "-90.09166152078178",
    "latitude": "29.980324557854104",
    "geocoded_column": {
      "latitude": "29.980324557854104",
      "longitude": "-90.09166152078178"
    }
  },
  {
    "service_request": "2022-853631",
    "request_type": "Trash/Recycling",
    "request_reason": "Request a Large Item Pick Up",
    "date_created": "2022-01-12T14:38:27.000",
    "date_modified": "2022-01-12T14:38:27.000",
    "request_status": "Pending",
    "responsible_agency": "Department of Sanitation",
    "final_address": "200 S Cortez St, New Orleans, Louisiana, 70119",
    "address_councildis": "A",
    "status": "Assigned to Contractor",
    "contractor": "Richards Disposal",
    "rowid": "853631",
    "final_x": "3671837.25415",
    "final_y": "537210.823752",
    "longitude": "-90.09838819092859",
    "latitude": "29.97143339280696",
    "geocoded_column": {
      "latitude": "29.97143339280696",
      "longitude": "-90.09838819092859"
    }
  },
  {
    "service_request": "2022-853630",
    "request_type": "Abandoned Vehicles",
    "request_reason": "Abandoned/Junk Vehicles",
    "date_created": "2022-01-12T14:27:48.000",
    "date_modified": "2022-01-12T14:27:48.000",
    "request_status": "Pending",
    "responsible_agency": "Department of Public Works",
    "final_address": "4343 Genoa St",
    "address_councildis": "E",
    "status": "Pending",
    "rowid": "853630",
    "final_x": "3760864.30256",
    "final_y": "573668.433578",
    "longitude": "-89.81571039994324",
    "latitude": "30.068737224402515",
    "geocoded_column": {
      "latitude": "30.068737224402515",
      "longitude": "-89.81571039994324"
    }
  },
  {
    "service_request": "2022-853628",
    "request_type": "Traffic Signals/Signs/Striping/Streetlights",
    "request_reason": "Traffic Signal Malfunctioning/Damaged",
    "date_created": "2022-01-12T14:22:41.000",
    "date_modified": "2022-01-12T14:22:41.000",
    "request_status": "Pending",
    "responsible_agency": "Department of Public Works",
    "final_address": "1735 St Charles Ave",
    "address_councildis": "B",
    "status": "Pending",
    "rowid": "853628",
    "final_x": "3678639.17051",
    "final_y": "524748.987004",
    "longitude": "-90.07733815081768",
    "latitude": "29.936964204791312",
    "geocoded_column": {
      "latitude": "29.936964204791312",
      "longitude": "-90.07733815081768"
    }
  },
  {
    "service_request": "2022-853627",
    "request_type": "Trash/Recycling",
    "request_reason": "Order Trash Cart",
    "date_created": "2022-01-12T14:10:01.000",
    "date_modified": "2022-01-12T14:10:01.000",
    "request_status": "Pending",
    "responsible_agency": "Department of Sanitation",
    "final_address": "3134 General Taylor St",
    "address_councildis": "B",
    "status": "Assigned to Contractor",
    "contractor": "Richards Disposal",
    "rowid": "853627",
    "final_x": "3671275.42708",
    "final_y": "526636.23283",
    "longitude": "-90.10052183541005",
    "latitude": "29.94237340784161",
    "geocoded_column": {
      "latitude": "29.94237340784161",
      "longitude": "-90.10052183541005"
    }
  },
  {
    "service_request": "2022-853626",
    "request_type": "Roads/Drainage",
    "request_reason": "Damaged Sidewalk",
    "date_created": "2022-01-12T14:09:36.000",
    "date_modified": "2022-01-12T14:09:36.000",
    "request_status": "Pending",
    "responsible_agency": "Department of Public Works",
    "final_address": "2408 Valence St",
    "address_councildis": "B",
    "status": "Pending",
    "rowid": "853626",
    "final_x": "3669397.30945",
    "final_y": "523673.356795",
    "longitude": "-90.10655164498321",
    "latitude": "29.93428188289645",
    "geocoded_column": {
      "latitude": "29.93428188289645",
      "longitude": "-90.10655164498321"
    }
  },
  {
    "service_request": "2022-853625",
    "request_type": "Abandoned Vehicles",
    "request_reason": "Vehicle Blocking Your Driveway",
    "date_created": "2022-01-12T14:08:58.000",
    "date_modified": "2022-01-12T14:08:58.000",
    "request_status": "Pending",
    "responsible_agency": "Department of Public Works",
    "final_address": "3524 Paris Ave",
    "address_councildis": "D",
    "status": "Pending",
    "rowid": "853625",
    "final_x": "3679619.99451",
    "final_y": "545342.033296",
    "longitude": "-90.07352684126793",
    "latitude": "29.993558453057243",
    "geocoded_column": {
      "latitude": "29.993558453057243",
      "longitude": "-90.07352684126793"
    }
  },
  {
    "service_request": "2022-853624",
    "request_type": "Trash/Recycling",
    "request_reason": "Repair Trash Cart",
    "date_created": "2022-01-12T14:08:17.000",
    "date_modified": "2022-01-12T14:08:17.000",
    "request_status": "Pending",
    "responsible_agency": "Department of Sanitation",
    "final_address": "3113 Upperline St",
    "address_councildis": "B",
    "status": "Assigned to Contractor",
    "contractor": "Richards Disposal",
    "rowid": "853624",
    "final_x": "3669336.40122",
    "final_y": "526319.047038",
    "longitude": "-90.1066545146889",
    "latitude": "29.941558470883496",
    "geocoded_column": {
      "latitude": "29.941558470883496",
      "longitude": "-90.1066545146889"
    }
  },
  {
    "service_request": "2022-853623",
    "request_type": "Abandoned Vehicles",
    "request_reason": "Abandoned/Junk Vehicles",
    "date_created": "2022-01-12T14:04:15.000",
    "date_modified": "2022-01-12T15:05:57.000",
    "request_status": "Pending",
    "responsible_agency": "Department of Public Works",
    "final_address": "600 BLK S Clark St",
    "address_councildis": "B",
    "status": "Inspected",
    "rowid": "853623",
    "final_x": "3671581.7421",
    "final_y": "535309.833696",
    "longitude": "-90.09925979570103",
    "latitude": "29.96621387859381",
    "geocoded_column": {
      "latitude": "29.96621387859381",
      "longitude": "-90.09925979570103"
    }
  },
  {
    "service_request": "2022-853622",
    "request_type": "Trash/Recycling",
    "request_reason": "Start Trash Service",
    "date_created": "2022-01-12T14:03:25.000",
    "date_modified": "2022-01-12T14:03:38.000",
    "request_status": "Pending",
    "responsible_agency": "Department of Sanitation",
    "final_address": "4030 Clio St",
    "address_councildis": "B",
    "status": "Assigned to Contractor",
    "contractor": "Richards Disposal",
    "rowid": "853622",
    "final_x": "3672082.76999",
    "final_y": "531133.635138",
    "longitude": "-90.09781976144522",
    "latitude": "29.954715877193877",
    "geocoded_column": {
      "latitude": "29.954715877193877",
      "longitude": "-90.09781976144522"
    }
  },
  {
    "service_request": "2022-853621",
    "request_type": "Trash/Recycling",
    "request_reason": "Order Trash Cart",
    "date_created": "2022-01-12T14:03:12.000",
    "date_modified": "2022-01-12T14:04:05.000",
    "request_status": "Pending",
    "responsible_agency": "Department of Sanitation",
    "final_address": "4030 Clio St",
    "address_councildis": "B",
    "status": "Assigned to Contractor",
    "contractor": "Richards Disposal",
    "rowid": "853621",
    "final_x": "3672082.76999",
    "final_y": "531133.635138",
    "longitude": "-90.09781976144522",
    "latitude": "29.954715877193877",
    "geocoded_column": {
      "latitude": "29.954715877193877",
      "longitude": "-90.09781976144522"
    }
  },
  {
    "service_request": "2022-853620",
    "request_type": "Trash/Recycling",
    "request_reason": "Request a Large Item Pick Up",
    "date_created": "2022-01-12T13:57:45.000",
    "date_modified": "2022-01-12T13:57:57.000",
    "request_status": "Pending",
    "responsible_agency": "Department of Sanitation",
    "final_address": "2369 Laurel St",
    "address_councildis": "B",
    "status": "Assigned to Contractor",
    "contractor": "Richards Disposal",
    "rowid": "853620",
    "final_x": "3678529.28885",
    "final_y": "520956.374457",
    "longitude": "-90.07781624868781",
    "latitude": "29.926539074691995",
    "geocoded_column": {
      "latitude": "29.926539074691995",
      "longitude": "-90.07781624868781"
    }
  },
  {
    "service_request": "2022-853619",
    "request_type": "Trash/Recycling",
    "request_reason": "Request a Large Item Pick Up",
    "date_created": "2022-01-12T13:56:37.000",
    "date_modified": "2022-01-12T13:56:38.000",
    "request_status": "Pending",
    "responsible_agency": "Department of Sanitation",
    "final_address": "700 Magazine St",
    "address_councildis": "B",
    "status": "Assigned to Contractor",
    "contractor": "Empire Services",
    "rowid": "853619",
    "final_x": "3681333.99368",
    "final_y": "528291.429888",
    "longitude": "-90.0687070244851",
    "latitude": "29.94662324314497",
    "geocoded_column": {
      "latitude": "29.94662324314497",
      "longitude": "-90.0687070244851"
    }
  },
  {
    "service_request": "2022-853618",
    "request_type": "Trash/Recycling",
    "request_reason": "Order Trash Cart",
    "date_created": "2022-01-12T13:50:58.000",
    "date_modified": "2022-01-12T13:50:58.000",
    "request_status": "Pending",
    "responsible_agency": "Department of Sanitation",
    "final_address": "1626 Gentilly Blvd",
    "address_councildis": "D",
    "status": "Assigned to Contractor",
    "contractor": "Metro Disposal",
    "rowid": "853618",
    "final_x": "3678526.94101",
    "final_y": "540862.910667",
    "longitude": "-90.07713474387636",
    "latitude": "29.981275429415245",
    "geocoded_column": {
      "latitude": "29.981275429415245",
      "longitude": "-90.07713474387636"
    }
  },
  {
    "service_request": "2022-853617",
    "request_type": "Roads/Drainage",
    "request_reason": "Pothole",
    "date_created": "2022-01-12T13:50:55.000",
    "date_modified": "2022-01-12T13:50:55.000",
    "request_status": "Pending",
    "responsible_agency": "Department of Public Works",
    "final_address": "1820 S Carrollton Ave",
    "address_councildis": "A",
    "status": "Pending",
    "rowid": "853617",
    "final_x": "3663475.70631",
    "final_y": "530065.458113",
    "longitude": "-90.12503325145126",
    "latitude": "29.95203111619384",
    "geocoded_column": {
      "latitude": "29.95203111619384",
      "longitude": "-90.12503325145126"
    }
  },
  {
    "service_request": "2022-853616",
    "request_type": "Trash/Recycling",
    "request_reason": "Order Trash Cart",
    "date_created": "2022-01-12T13:50:41.000",
    "date_modified": "2022-01-12T13:50:41.000",
    "request_status": "Pending",
    "responsible_agency": "Department of Sanitation",
    "final_address": "1626 Gentilly Blvd",
    "address_councildis": "D",
    "status": "Assigned to Contractor",
    "contractor": "Metro Disposal",
    "rowid": "853616",
    "final_x": "3678526.94101",
    "final_y": "540862.910667",
    "longitude": "-90.07713474387636",
    "latitude": "29.981275429415245",
    "geocoded_column": {
      "latitude": "29.981275429415245",
      "longitude": "-90.07713474387636"
    }
  },
  {
    "service_request": "2022-853615",
    "request_type": "Trash/Recycling",
    "request_reason": "Order Trash Cart",
    "date_created": "2022-01-12T13:50:26.000",
    "date_modified": "2022-01-12T13:50:27.000",
    "request_status": "Pending",
    "responsible_agency": "Department of Sanitation",
    "final_address": "1626 Gentilly Blvd",
    "address_councildis": "D",
    "status": "Assigned to Contractor",
    "contractor": "Metro Disposal",
    "rowid": "853615",
    "final_x": "3678526.94101",
    "final_y": "540862.910667",
    "longitude": "-90.07713474387636",
    "latitude": "29.981275429415245",
    "geocoded_column": {
      "latitude": "29.981275429415245",
      "longitude": "-90.07713474387636"
    }
  },
  {
    "service_request": "2022-853614",
    "request_type": "COVID-19",
    "request_reason": "COVID-19 Business Non-Compliance",
    "date_created": "2022-01-12T13:49:50.000",
    "date_modified": "2022-01-12T13:49:51.000",
    "request_status": "Pending",
    "responsible_agency": "Safety and Permits",
    "final_address": "111 Robert E Lee Blvd",
    "address_councildis": "D",
    "status": "Pending",
    "rowid": "853614",
    "final_x": "3667124.95469",
    "final_y": "555326.527193",
    "longitude": "-90.11266088073394",
    "latitude": "30.021384156574168",
    "geocoded_column": {
      "latitude": "30.021384156574168",
      "longitude": "-90.11266088073394"
    }
  },
  {
    "service_request": "2022-853613",
    "request_type": "Trash/Recycling",
    "request_reason": "Start Trash Service",
    "date_created": "2022-01-12T13:49:34.000",
    "date_modified": "2022-01-12T13:49:34.000",
    "request_status": "Pending",
    "responsible_agency": "Department of Sanitation",
    "final_address": "1626 Gentilly Blvd",
    "address_councildis": "D",
    "status": "Assigned to Contractor",
    "contractor": "Metro Disposal",
    "rowid": "853613",
    "final_x": "3678526.94101",
    "final_y": "540862.910667",
    "longitude": "-90.07713474387636",
    "latitude": "29.981275429415245",
    "geocoded_column": {
      "latitude": "29.981275429415245",
      "longitude": "-90.07713474387636"
    }
  },
  {
    "service_request": "2022-853612",
    "request_type": "Trash/Recycling",
    "request_reason": "Start Trash Service",
    "date_created": "2022-01-12T13:49:26.000",
    "date_modified": "2022-01-12T13:49:26.000",
    "request_status": "Pending",
    "responsible_agency": "Department of Sanitation",
    "final_address": "1626 Gentilly Blvd",
    "address_councildis": "D",
    "status": "Assigned to Contractor",
    "contractor": "Metro Disposal",
    "rowid": "853612",
    "final_x": "3678526.94101",
    "final_y": "540862.910667",
    "longitude": "-90.07713474387636",
    "latitude": "29.981275429415245",
    "geocoded_column": {
      "latitude": "29.981275429415245",
      "longitude": "-90.07713474387636"
    }
  },
  {
    "service_request": "2022-853611",
    "request_type": "Trash/Recycling",
    "request_reason": "Start Trash Service",
    "date_created": "2022-01-12T13:49:13.000",
    "date_modified": "2022-01-12T13:49:13.000",
    "request_status": "Pending",
    "responsible_agency": "Department of Sanitation",
    "final_address": "1626 Gentilly Blvd",
    "address_councildis": "D",
    "status": "Assigned to Contractor",
    "contractor": "Metro Disposal",
    "rowid": "853611",
    "final_x": "3678526.94101",
    "final_y": "540862.910667",
    "longitude": "-90.07713474387636",
    "latitude": "29.981275429415245",
    "geocoded_column": {
      "latitude": "29.981275429415245",
      "longitude": "-90.07713474387636"
    }
  },
  {
    "service_request": "2022-853610",
    "request_type": "Trash/Recycling",
    "request_reason": "Request a Large Item Pick Up",
    "date_created": "2022-01-12T13:48:45.000",
    "date_modified": "2022-01-12T13:48:46.000",
    "request_status": "Pending",
    "responsible_agency": "Department of Sanitation",
    "final_address": "7530 Garfield St",
    "address_councildis": "A",
    "status": "Assigned to Contractor",
    "contractor": "Richards Disposal",
    "rowid": "853610",
    "final_x": "3660800.06086",
    "final_y": "524291.501052",
    "longitude": "-90.13367260721739",
    "latitude": "29.936231880538614",
    "geocoded_column": {
      "latitude": "29.936231880538614",
      "longitude": "-90.13367260721739"
    }
  },
  {
    "service_request": "2022-853609",
    "request_type": "Trash/Recycling",
    "request_reason": "Request a Large Item Pick Up",
    "date_created": "2022-01-12T13:48:19.000",
    "date_modified": "2022-01-12T13:48:20.000",
    "request_status": "Pending",
    "responsible_agency": "Department of Sanitation",
    "final_address": "2700 Magazine St",
    "address_councildis": "B",
    "status": "Assigned to Contractor",
    "contractor": "Richards Disposal",
    "rowid": "853609",
    "final_x": "3677319.94658",
    "final_y": "520926.820281",
    "longitude": "-90.08163482970033",
    "latitude": "29.92649419076345",
    "geocoded_column": {
      "latitude": "29.92649419076345",
      "longitude": "-90.08163482970033"
    }
  },
  {
    "service_request": "2022-853608",
    "request_type": "Roads/Drainage",
    "request_reason": "Pothole",
    "date_created": "2022-01-12T13:47:53.000",
    "date_modified": "2022-01-12T13:47:53.000",
    "request_status": "Pending",
    "responsible_agency": "Department of Public Works",
    "final_address": "123 N Genois St",
    "address_councildis": "B",
    "status": "Pending",
    "rowid": "853608",
    "final_x": "3672732.1682",
    "final_y": "537439.093128",
    "longitude": "-90.09555413024387",
    "latitude": "29.972034505438224",
    "geocoded_column": {
      "latitude": "29.972034505438224",
      "longitude": "-90.09555413024387"
    }
  },
  {
    "service_request": "2022-853607",
    "request_type": "Abandoned Vehicles",
    "request_reason": "Abandoned/Junk Vehicles",
    "date_created": "2022-01-12T13:45:27.000",
    "date_modified": "2022-01-12T13:45:27.000",
    "request_status": "Pending",
    "responsible_agency": "Department of Public Works",
    "final_address": "7200 Florita Ct",
    "address_councildis": "D",
    "status": "Pending",
    "rowid": "853607",
    "final_x": "3694846.13942",
    "final_y": "556905.027162",
    "longitude": "-90.02501299701262",
    "latitude": "30.024883290121775",
    "geocoded_column": {
      "latitude": "30.024883290121775",
      "longitude": "-90.02501299701262"
    }
  },
  {
    "service_request": "2022-853606",
    "request_type": "Trash/Recycling",
    "request_reason": "Illegal Dumping",
    "date_created": "2022-01-12T13:36:40.000",
    "date_modified": "2022-01-12T13:36:40.000",
    "request_status": "Pending",
    "responsible_agency": "Department of Code Enforcement",
    "final_address": "GANNON RD & CHRISTOPHER CT",
    "address_councildis": "E",
    "status": "Pending",
    "rowid": "853606",
    "final_x": "3716243.3",
    "final_y": "570073.08",
    "longitude": "-89.95690243072961",
    "latitude": "30.060400963306037",
    "geocoded_column": {
      "latitude": "30.060400963306037",
      "longitude": "-89.95690243072961"
    }
  },
  {
    "service_request": "2022-853605",
    "request_type": "Property Maintenance",
    "request_reason": "Property Maintenance",
    "date_created": "2022-01-12T13:36:13.000",
    "date_modified": "2022-01-12T13:36:14.000",
    "request_status": "Pending",
    "responsible_agency": "Department of Code Enforcement",
    "final_address": "GANNON RD & CHRISTOPHER CT",
    "address_councildis": "E",
    "status": "Pending",
    "rowid": "853605",
    "final_x": "3716243.3",
    "final_y": "570073.08",
    "longitude": "-89.95690243072961",
    "latitude": "30.060400963306037",
    "geocoded_column": {
      "latitude": "30.060400963306037",
      "longitude": "-89.95690243072961"
    }
  },
  {
    "service_request": "2022-853604",
    "request_type": "Trash/Recycling",
    "request_reason": "Replace Trash Cart",
    "date_created": "2022-01-12T13:34:47.000",
    "date_modified": "2022-01-12T13:34:47.000",
    "request_status": "Pending",
    "responsible_agency": "Department of Sanitation",
    "final_address": "1007 Hendee St",
    "address_councildis": "C",
    "status": "Assigned to Contractor",
    "contractor": "Richards Disposal",
    "rowid": "853604",
    "final_x": "3690729.2726",
    "final_y": "527689.540031",
    "longitude": "-90.03906432422504",
    "latitude": "29.944679788716964",
    "geocoded_column": {
      "latitude": "29.944679788716964",
      "longitude": "-90.03906432422504"
    }
  },
  {
    "service_request": "2022-853603",
    "request_type": "Roads/Drainage",
    "request_reason": "Pothole",
    "date_created": "2022-01-12T13:26:38.000",
    "date_modified": "2022-01-12T13:26:38.000",
    "request_status": "Pending",
    "responsible_agency": "Department of Public Works",
    "final_address": "RAYNE DR & VAN AVE",
    "address_councildis": "D",
    "status": "Pending",
    "rowid": "853603",
    "final_x": "3679985.3",
    "final_y": "548444.58",
    "longitude": "-90.07226503808414",
    "latitude": "30.002078307028896",
    "geocoded_column": {
      "latitude": "30.002078307028896",
      "longitude": "-90.07226503808414"
    }
  },
  {
    "service_request": "2022-853602",
    "request_type": "Trash/Recycling",
    "request_reason": "Order Recycling Cart",
    "date_created": "2022-01-12T13:25:04.000",
    "date_modified": "2022-01-12T13:25:04.000",
    "request_status": "Pending",
    "responsible_agency": "Department of Sanitation",
    "final_address": "1524 Leonidas St",
    "address_councildis": "A",
    "status": "Pending",
    "rowid": "853602",
    "final_x": "3661451.01754",
    "final_y": "530519.380674",
    "longitude": "-90.13141126685953",
    "latitude": "29.953337808838118",
    "geocoded_column": {
      "latitude": "29.953337808838118",
      "longitude": "-90.13141126685953"
    }
  },
  {
    "service_request": "2022-853601",
    "request_type": "Tax and Revenue",
    "request_reason": "Sales Tax Question",
    "date_created": "2022-01-12T13:24:26.000",
    "date_modified": "2022-01-12T13:24:26.000",
    "request_status": "Pending",
    "responsible_agency": "Bureau of Revenue",
    "final_address": "620 Gallier St",
    "address_councildis": "C",
    "status": "Pending",
    "rowid": "853601",
    "final_x": "3690011.15888",
    "final_y": "533968.947141",
    "longitude": "-90.0411080278378",
    "latitude": "29.961968272940652",
    "geocoded_column": {
      "latitude": "29.961968272940652",
      "longitude": "-90.0411080278378"
    }
  },
  {
    "service_request": "2022-853600",
    "request_type": "Trash/Recycling",
    "request_reason": "Return Recycling Cart",
    "date_created": "2022-01-12T13:23:18.000",
    "date_modified": "2022-01-12T13:23:18.000",
    "request_status": "Pending",
    "responsible_agency": "Department of Sanitation",
    "final_address": "1524 Leonidas St",
    "address_councildis": "A",
    "status": "Pending",
    "rowid": "853600",
    "final_x": "3661451.01754",
    "final_y": "530519.380674",
    "longitude": "-90.13141126685953",
    "latitude": "29.953337808838118",
    "geocoded_column": {
      "latitude": "29.953337808838118",
      "longitude": "-90.13141126685953"
    }
  },
  {
    "service_request": "2022-853599",
    "request_type": "Trash/Recycling",
    "request_reason": "Replace Trash Cart",
    "date_created": "2022-01-12T13:23:12.000",
    "date_modified": "2022-01-12T13:23:12.000",
    "request_status": "Pending",
    "responsible_agency": "Department of Sanitation",
    "final_address": "5737 Dauphine St",
    "address_councildis": "E",
    "status": "Assigned to Contractor",
    "contractor": "Metro Disposal",
    "rowid": "853599",
    "final_x": "3698364.82205",
    "final_y": "532489.110596",
    "longitude": "-90.01478238749716",
    "latitude": "29.957637562347767",
    "geocoded_column": {
      "latitude": "29.957637562347767",
      "longitude": "-90.01478238749716"
    }
  },
  {
    "service_request": "2022-853598",
    "request_type": "Trash/Recycling",
    "request_reason": "Replace Trash Cart",
    "date_created": "2022-01-12T13:21:07.000",
    "date_modified": "2022-01-12T13:21:08.000",
    "request_status": "Pending",
    "responsible_agency": "Department of Sanitation",
    "final_address": "8707 Edinburgh St",
    "address_councildis": "A",
    "status": "Assigned to Contractor",
    "contractor": "Richards Disposal",
    "rowid": "853598",
    "final_x": "3665883.6592",
    "final_y": "535940.555015",
    "longitude": "-90.11723315423463",
    "latitude": "29.968115665968135",
    "geocoded_column": {
      "latitude": "29.968115665968135",
      "longitude": "-90.11723315423463"
    }
  },
  {
    "service_request": "2022-853597",
    "request_type": "Trash/Recycling",
    "request_reason": "Replace Trash Cart",
    "date_created": "2022-01-12T13:20:14.000",
    "date_modified": "2022-01-12T13:20:15.000",
    "request_status": "Pending",
    "responsible_agency": "Department of Sanitation",
    "final_address": "14054 Linden St",
    "address_councildis": "E",
    "status": "Assigned to Contractor",
    "contractor": "Metro Disposal",
    "rowid": "853597",
    "final_x": "3718581.37369",
    "final_y": "572563.457513",
    "longitude": "-89.94941688410609",
    "latitude": "30.067171027865268",
    "geocoded_column": {
      "latitude": "30.067171027865268",
      "longitude": "-89.94941688410609"
    }
  },
  {
    "service_request": "2022-853596",
    "request_type": "Parks & Parkways",
    "request_reason": "Request Tree Service (Right of Way/Public Property)",
    "date_created": "2022-01-12T13:18:55.000",
    "date_modified": "2022-01-12T13:18:55.000",
    "request_status": "Pending",
    "responsible_agency": "Department of Parks & Parkway",
    "final_address": "1545 N Dorgenois St",
    "address_councildis": "D",
    "status": "Pending",
    "rowid": "853596",
    "final_x": "3679324.51663",
    "final_y": "539558.329546",
    "longitude": "-90.07466089867779",
    "latitude": "29.9776642167759",
    "geocoded_column": {
      "latitude": "29.9776642167759",
      "longitude": "-90.07466089867779"
    }
  },
  {
    "service_request": "2022-853595",
    "request_type": "Trash/Recycling",
    "request_reason": "Replace Trash Cart",
    "date_created": "2022-01-12T13:14:29.000",
    "date_modified": "2022-01-12T13:14:30.000",
    "request_status": "Pending",
    "responsible_agency": "Department of Sanitation",
    "final_address": "5521 West End Blvd",
    "address_councildis": "A",
    "status": "Assigned to Contractor",
    "contractor": "Metro Disposal",
    "rowid": "853595",
    "final_x": "3666354.06055",
    "final_y": "544306.287183",
    "longitude": "-90.1154668023517",
    "latitude": "29.99110488141177",
    "geocoded_column": {
      "latitude": "29.99110488141177",
      "longitude": "-90.1154668023517"
    }
  },
  {
    "service_request": "2022-853594",
    "request_type": "Trash/Recycling",
    "request_reason": "Request a Large Item Pick Up",
    "date_created": "2022-01-12T13:12:12.000",
    "date_modified": "2022-01-12T13:12:13.000",
    "request_status": "Pending",
    "responsible_agency": "Department of Sanitation",
    "final_address": "5520 S Tonti St",
    "address_councildis": "A",
    "status": "Assigned to Contractor",
    "contractor": "Richards Disposal",
    "rowid": "853594",
    "final_x": "3668232.66369",
    "final_y": "527989.001087",
    "longitude": "-90.1100829593664",
    "latitude": "29.9461827479449",
    "geocoded_column": {
      "latitude": "29.9461827479449",
      "longitude": "-90.1100829593664"
    }
  },
  {
    "service_request": "2022-853593",
    "request_type": "Roads/Drainage",
    "request_reason": "Accessibility Ramps, Curbs and Sidewalk Repair",
    "date_created": "2022-01-12T13:11:57.000",
    "date_modified": "2022-01-12T14:24:07.000",
    "request_status": "Pending",
    "responsible_agency": "Department of Public Works",
    "final_address": "6940 Martin Dr",
    "address_councildis": "E",
    "status": "Inspected",
    "rowid": "853593",
    "final_x": "3698944.48791",
    "final_y": "557989.614427",
    "longitude": "-90.01202344418746",
    "latitude": "30.027736183930415",
    "geocoded_column": {
      "latitude": "30.027736183930415",
      "longitude": "-90.01202344418746"
    }
  },
  {
    "service_request": "2022-853592",
    "request_type": "Trash/Recycling",
    "request_reason": "Order Recycling Cart",
    "date_created": "2022-01-12T13:10:53.000",
    "date_modified": "2022-01-12T13:10:53.000",
    "request_status": "Pending",
    "responsible_agency": "Department of Sanitation",
    "final_address": "3018 Audubon St",
    "address_councildis": "B",
    "status": "Pending",
    "rowid": "853592",
    "final_x": "3667998.13121",
    "final_y": "531824.519491",
    "longitude": "-90.1106942445219",
    "latitude": "29.95673605394245",
    "geocoded_column": {
      "latitude": "29.95673605394245",
      "longitude": "-90.1106942445219"
    }
  },
  {
    "service_request": "2022-853591",
    "request_type": "Trash/Recycling",
    "request_reason": "Request a Large Item Pick Up",
    "date_created": "2022-01-12T13:05:41.000",
    "date_modified": "2022-01-12T13:05:42.000",
    "request_status": "Pending",
    "responsible_agency": "Department of Sanitation",
    "final_address": "934 St Roch Ave",
    "address_councildis": "C",
    "status": "Assigned to Contractor",
    "contractor": "Metro Disposal",
    "rowid": "853591",
    "final_x": "3686500.32444",
    "final_y": "535989.495687",
    "longitude": "-90.05212332931238",
    "latitude": "29.96763248217114",
    "geocoded_column": {
      "latitude": "29.96763248217114",
      "longitude": "-90.05212332931238"
    }
  },
  {
    "service_request": "2022-853590",
    "request_type": "Trash/Recycling",
    "request_reason": "Request a Large Item Pick Up",
    "date_created": "2022-01-12T13:00:52.000",
    "date_modified": "2022-01-12T13:00:53.000",
    "request_status": "Pending",
    "responsible_agency": "Department of Sanitation",
    "final_address": "5100 St Bernard Ave",
    "address_councildis": "D",
    "status": "Assigned to Contractor",
    "contractor": "Metro Disposal",
    "rowid": "853590",
    "final_x": "3676575.84008",
    "final_y": "550946.432981",
    "longitude": "-90.08294967341932",
    "latitude": "30.009060248823484",
    "geocoded_column": {
      "latitude": "30.009060248823484",
      "longitude": "-90.08294967341932"
    }
  },
  {
    "service_request": "2022-853589",
    "request_type": "Abandoned Vehicles",
    "request_reason": "Abandoned/Junk Vehicles",
    "date_created": "2022-01-12T12:52:09.000",
    "date_modified": "2022-01-12T12:52:09.000",
    "request_status": "Pending",
    "responsible_agency": "Department of Public Works",
    "final_address": "1830 Baronne St",
    "address_councildis": "B",
    "status": "Pending",
    "rowid": "853589",
    "final_x": "3677736.53448",
    "final_y": "524956.772477",
    "longitude": "-90.08018064819774",
    "latitude": "29.93756272111786",
    "geocoded_column": {
      "latitude": "29.93756272111786",
      "longitude": "-90.08018064819774"
    }
  },