[
  {
    "service_request": "2023-1019552",
    "request_type": "Safety & Permits",
    "request_reason": "Licenses & Permits",
    "date_created": "2023-07-22T01:08:17.000",
    "date_modified": "2023-07-22T01:08:17.000",
    "request_status": "Pending",
    "responsible_agency": "Safety and Permits",
    "final_address": "2118 N Rampart St",
    "address_councildis": "C",
    "status": "Pending",
    "rowid": "1019552",
    "final_x": "3684796.00981",
    "final_y": "535895.749767",
    "longitude": "-90.05750888295667",
    "latitude": "29.967427002478452",
    "geocoded_column": {
      "latitude": "29.967427002478452",
      "longitude": "-90.05750888295667"
    }
  },
  {
    "service_request": "2023-1019551",
    "request_type": "Roads/Drainage",
    "request_reason": "Alley Way",
    "date_created": "2023-07-22T00:24:50.000",
    "date_modified": "2023-07-22T00:24:50.000",
    "request_status": "Pending",
    "responsible_agency": "Department of Public Works",
    "final_address": "1219 Marengo St Apt C",
    "address_councildis": "B",
    "status": "Pending",
    "rowid": "1019551",
    "final_x": "3672169.10407",
    "final_y": "520155.514424",
    "longitude": "-90.09792089600349",
    "latitude": "29.924527057776615",
    "geocoded_column": {
      "latitude": "29.924527057776615",
      "longitude": "-90.09792089600349"
    }
  },
  {
    "service_request": "2023-1019550",
    "request_type": "Roads/Drainage",
    "request_reason": "Street Subsidence (Sinking)",
    "date_created": "2023-07-21T23:36:16.000",
    "date_modified": "2023-07-21T23:36:16.000",
    "request_status": "Pending",
    "responsible_agency": "Department of Public Works",
    "final_address": "6000 BLK Paris Ave",
    "address_councildis": "D",
    "status": "Pending",
    "rowid": "1019550",
    "final_x": "3678982.72894",
    "final_y": "554654.940018",
    "longitude": "-90.0752168585773",
    "latitude": "30.01918486627831",
    "geocoded_column": {
      "latitude": "30.01918486627831",
      "longitude": "-90.0752168585773"
    }
  },
  {
    "service_request": "2023-1019549",
    "request_type": "Roads/Drainage",
    "request_reason": "Pothole",
    "date_created": "2023-07-21T23:31:45.000",
    "date_modified": "2023-07-21T23:31:45.000",
    "request_status": "Pending",
    "responsible_agency": "Department of Public Works",
    "final_address": "1579 Henry Clay Ave",
    "address_councildis": "A",
    "status": "Pending",
    "rowid": "1019549",
    "final_x": "3665125.97453",
    "final_y": "522693.49369",
    "longitude": "-90.12006892685164",
    "latitude": "29.931712623369517",
    "geocoded_column": {
      "latitude": "29.931712623369517",
      "longitude": "-90.12006892685164"
    }
  },
  {
    "service_request": "2023-1019548",
    "request_type": "Tax and Revenue",
    "request_reason": "Occupational License Tax",
    "date_created": "2023-07-21T23:31:37.000",
    "date_modified": "2023-07-21T23:31:37.000",
    "request_status": "Pending",
    "responsible_agency": "Bureau of Revenue",
    "final_address": "1131 St Bernard Ave",
    "address_councildis": "C",
    "status": "Pending",
    "rowid": "1019548",
    "final_x": "3683202.52764",
    "final_y": "535984.605959",
    "longitude": "-90.06253800926453",
    "latitude": "29.96772001581233",
    "geocoded_column": {
      "latitude": "29.96772001581233",
      "longitude": "-90.06253800926453"
    }
  },
  {
    "service_request": "2023-1019547",
    "request_type": "Safety & Permits",
    "request_reason": "Licenses & Permits",
    "date_created": "2023-07-21T23:29:43.000",
    "date_modified": "2023-07-21T23:29:43.000",
    "request_status": "Pending",
    "responsible_agency": "Safety and Permits",
    "final_address": "1131 St Bernard Ave",
    "address_councildis": "C",
    "status": "Pending",
    "rowid": "1019547",
    "final_x": "3683202.52764",
    "final_y": "535984.605959",
    "longitude": "-90.06253800926453",
    "latitude": "29.96772001581233",
    "geocoded_column": {
      "latitude": "29.96772001581233",
      "longitude": "-90.06253800926453"
    }
  },
  {
    "service_request": "2023-1019546",
    "request_type": "Roads/Drainage",
    "request_reason": "Pothole",
    "date_created": "2023-07-21T23:26:02.000",
    "date_modified": "2023-07-21T23:26:02.000",
    "request_status": "Pending",
    "responsible_agency": "Department of Public Works",
    "final_address": "1234 Henry Clay Ave",
    "address_councildis": "A",
    "status": "Pending",
    "rowid": "1019546",
    "final_x": "3664327.06445",
    "final_y": "521120.367609",
    "longitude": "-90.12264347982506",
    "latitude": "29.92741025864685",
    "geocoded_column": {
      "latitude": "29.92741025864685",
      "longitude": "-90.12264347982506"
    }
  },
  {
    "service_request": "2023-1019545",
    "request_type": "Health Related Request",
    "request_reason": "Noise Ordinance Complaint",
    "date_created": "2023-07-21T23:25:22.000",
    "date_modified": "2023-07-21T23:25:22.000",
    "request_status": "Pending",
    "responsible_agency": "Health Department",
    "final_address": "1131 St Bernard Ave",
    "address_councildis": "C",
    "status": "Pending",
    "rowid": "1019545",
    "final_x": "3683202.52764",
    "final_y": "535984.605959",
    "longitude": "-90.06253800926453",
    "latitude": "29.96772001581233",
    "geocoded_column": {
      "latitude": "29.96772001581233",
      "longitude": "-90.06253800926453"
    }
  },
  {
    "service_request": "2023-1019544",
    "request_type": "Abandoned Vehicles",
    "request_reason": "Vehicle Blocking Your Driveway",
    "date_created": "2023-07-21T22:12:49.000",
    "date_modified": "2023-07-21T22:12:49.000",
    "request_status": "Pending",
    "responsible_agency": "Department of Public Works",
    "final_address": "1476 N Claiborne Ave",
    "address_councildis": "C",
    "status": "Pending",
    "rowid": "1019544",
    "final_x": "3681770.05045",
    "final_y": "537048.40468",
    "longitude": "-90.0670246799363",
    "latitude": "29.97068870143434",
    "geocoded_column": {
      "latitude": "29.97068870143434",
      "longitude": "-90.0670246799363"
    }
  },
  {
    "service_request": "2023-1019543",
    "request_type": "Property Maintenance",
    "request_reason": "Property Maintenance",
    "date_created": "2023-07-21T22:04:08.000",
    "date_modified": "2023-07-21T22:04:08.000",
    "request_status": "Pending",
    "responsible_agency": "Department of Code Enforcement",
    "final_address": "1200 BLK Piety St",
    "address_councildis": "C",
    "status": "Pending",
    "rowid": "1019543",
    "final_x": "3689971.32737",
    "final_y": "536331.492413",
    "longitude": "-90.04114967534191",
    "latitude": "29.968465680605373",
    "geocoded_column": {
      "latitude": "29.968465680605373",
      "longitude": "-90.04114967534191"
    }
  },
  {
    "service_request": "2023-1019542",
    "request_type": "Trash/Recycling",
    "request_reason": "Order Recycling Cart",
    "date_created": "2023-07-21T22:01:43.000",
    "date_modified": "2023-07-21T22:01:43.000",
    "request_status": "Pending",
    "responsible_agency": "Department of Sanitation",
    "final_address": "1208 Piety St",
    "address_councildis": "C",
    "status": "Pending",
    "rowid": "1019542",
    "final_x": "3689915.75804",
    "final_y": "536252.427655",
    "longitude": "-90.04132798091716",
    "latitude": "29.96825000328295",
    "geocoded_column": {
      "latitude": "29.96825000328295",
      "longitude": "-90.04132798091716"
    }
  },
  {
    "service_request": "2023-1019541",
    "request_type": "Trash/Recycling",
    "request_reason": "Return Trash Cart",
    "date_created": "2023-07-21T21:53:16.000",
    "date_modified": "2023-07-21T21:53:16.000",
    "request_status": "Pending",
    "responsible_agency": "Department of Sanitation",
    "final_address": "1300 Lark St",
    "address_councildis": "D",
    "status": "Assigned to Contractor",
    "contractor": "IV Waste",
    "rowid": "1019541",
    "final_x": "3677334.7501",
    "final_y": "556575.310362",
    "longitude": "-90.08035755798096",
    "latitude": "30.024514838363455",
    "geocoded_column": {
      "latitude": "30.024514838363455",
      "longitude": "-90.08035755798096"
    }
  },
  {
    "service_request": "2023-1019540",
    "request_type": "Traffic Signals/Signs/Striping/Streetlights",
    "request_reason": "Street Light Outage/Malfunction",
    "date_created": "2023-07-21T21:48:57.000",
    "date_modified": "2023-07-21T21:48:58.000",
    "request_status": "Pending",
    "responsible_agency": "Department of Public Works",
    "final_address": "1300 Lark St",
    "address_councildis": "D",
    "status": "Assigned to Contractor",
    "contractor": "Legacy Professional Services",
    "rowid": "1019540",
    "final_x": "3677334.7501",
    "final_y": "556575.310362",
    "longitude": "-90.08035755798096",
    "latitude": "30.024514838363455",
    "geocoded_column": {
      "latitude": "30.024514838363455",
      "longitude": "-90.08035755798096"
    }
  },
  {
    "service_request": "2023-1019539",
    "request_type": "Trash/Recycling",
    "request_reason": "Request a Large Item Pick Up",
    "date_created": "2023-07-21T21:33:44.000",
    "date_modified": "2023-07-21T21:33:45.000",
    "request_status": "Pending",
    "responsible_agency": "Department of Sanitation",
    "final_address": "7541 Pineridge St",
    "address_councildis": "E",
    "status": "Assigned to Contractor",
    "contractor": "Waste Pro",
    "rowid": "1019539",
    "final_x": "3719328.38207",
    "final_y": "571740.584744",
    "longitude": "-89.94708695820057",
    "latitude": "30.064883644627454",
    "geocoded_column": {
      "latitude": "30.064883644627454",
      "longitude": "-89.94708695820057"
    }
  },
  {
    "service_request": "2023-1019538",
    "request_type": "Trash/Recycling",
    "request_reason": "Replace Trash Cart",
    "date_created": "2023-07-21T21:25:47.000",
    "date_modified": "2023-07-21T21:25:48.000",
    "request_status": "Pending",
    "responsible_agency": "Department of Sanitation",
    "final_address": "8614 Marks St",
    "address_councildis": "A",
    "status": "Assigned to Contractor",
    "contractor": "Richards Disposal",
    "rowid": "1019538",
    "final_x": "3667433.91137",
    "final_y": "537261.775432",
    "longitude": "-90.11229291680506",
    "latitude": "29.97170325049542",
    "geocoded_column": {
      "latitude": "29.97170325049542",
      "longitude": "-90.11229291680506"
    }
  },
  {
    "service_request": "2023-1019537",
    "request_type": "Abandoned Vehicles",
    "request_reason": "Abandoned/Junk Vehicles",
    "date_created": "2023-07-21T20:54:36.000",
    "date_modified": "2023-07-21T20:54:36.000",
    "request_status": "Pending",
    "responsible_agency": "Department of Public Works",
    "final_address": "7915 Pearl St",
    "address_councildis": "A",
    "status": "Pending",
    "rowid": "1019537",
    "final_x": "3660808.97242",
    "final_y": "526153.056574",
    "longitude": "-90.13358293798537",
    "latitude": "29.941350313539058",
    "geocoded_column": {
      "latitude": "29.941350313539058",
      "longitude": "-90.13358293798537"
    }
  },
  {
    "service_request": "2023-1019536",
    "request_type": "Trash/Recycling",
    "request_reason": "Request a Large Item Pick Up",
    "date_created": "2023-07-21T20:40:32.000",
    "date_modified": "2023-07-21T20:40:32.000",
    "request_status": "Pending",
    "responsible_agency": "Department of Sanitation",
    "final_address": "120 S Hennessey St",
    "address_councildis": "A",
    "status": "Assigned to Contractor",
    "contractor": "Richards Disposal",
    "rowid": "1019536",
    "final_x": "3670176.1746",
    "final_y": "538731.317961",
    "longitude": "-90.10358259801656",
    "latitude": "29.97566336101968",
    "geocoded_column": {
      "latitude": "29.97566336101968",
      "longitude": "-90.10358259801656"
    }
  },
  {
    "service_request": "2023-1019535",
    "request_type": "Abandoned Vehicles",
    "request_reason": "Abandoned/Junk Vehicles",
    "date_created": "2023-07-21T20:37:34.000",
    "date_modified": "2023-07-21T20:37:34.000",
    "request_status": "Pending",
    "responsible_agency": "Department of Public Works",
    "final_address": "7915 Pearl St",
    "address_councildis": "A",
    "status": "Pending",
    "rowid": "1019535",
    "final_x": "3660808.97242",
    "final_y": "526153.056574",
    "longitude": "-90.13358293798537",
    "latitude": "29.941350313539058",
    "geocoded_column": {
      "latitude": "29.941350313539058",
      "longitude": "-90.13358293798537"
    }
  },
  {
    "service_request": "2023-1019534",
    "request_type": "Property Maintenance",
    "request_reason": "Property Maintenance",
    "date_created": "2023-07-21T20:36:19.000",
    "date_modified": "2023-07-21T20:36:19.000",
    "request_status": "Pending",
    "responsible_agency": "Department of Code Enforcement",
    "final_address": "7110 Deanne St",
    "address_councildis": "D",
    "status": "Pending",
    "rowid": "1019534",
    "final_x": "3695485.5857",
    "final_y": "556634.324378",
    "longitude": "-90.02300224288676",
    "latitude": "30.0241188690957",
    "geocoded_column": {
      "latitude": "30.0241188690957",
      "longitude": "-90.02300224288676"
    }
  },
  {
    "service_request": "2023-1019533",
    "request_type": "Trash/Recycling",
    "request_reason": "Request a Large Item Pick Up",
    "date_created": "2023-07-21T20:34:24.000",
    "date_modified": "2023-07-21T20:34:25.000",
    "request_status": "Pending",
    "responsible_agency": "Department of Sanitation",
    "final_address": "6357 Congress Dr",
    "address_councildis": "D",
    "status": "Assigned to Contractor",
    "contractor": "IV Waste",
    "rowid": "1019533",
    "final_x": "3690625.8776",
    "final_y": "556984.090714",
    "longitude": "-90.038345465967",
    "latitude": "30.025232506227532",
    "geocoded_column": {
      "latitude": "30.025232506227532",
      "longitude": "-90.038345465967"
    }
  },
  {
    "service_request": "2023-1019532",
    "request_type": "Abandoned Vehicles",
    "request_reason": "Abandoned/Junk Vehicles",
    "date_created": "2023-07-21T20:30:20.000",
    "date_modified": "2023-07-21T20:30:20.000",
    "request_status": "Pending",
    "responsible_agency": "Department of Public Works",
    "final_address": "7915 Pearl St",
    "address_councildis": "A",
    "status": "Pending",
    "rowid": "1019532",
    "final_x": "3660808.97242",
    "final_y": "526153.056574",
    "longitude": "-90.13358293798537",
    "latitude": "29.941350313539058",
    "geocoded_column": {
      "latitude": "29.941350313539058",
      "longitude": "-90.13358293798537"
    }
  },
  {
    "service_request": "2023-1019531",
    "request_type": "Trash/Recycling",
    "request_reason": "Order Trash Cart",
    "date_created": "2023-07-21T20:29:21.000",
    "date_modified": "2023-07-21T20:29:21.000",
    "request_status": "Pending",
    "responsible_agency": "Department of Sanitation",
    "final_address": "1314 Pauline St",
    "address_councildis": "D",
    "status": "Assigned to Contractor",
    "contractor": "IV Waste",
    "rowid": "1019531",
    "final_x": "3691394.50435",
    "final_y": "536335.275847",
    "longitude": "-90.03665509241793",
    "latitude": "29.968431876642164",
    "geocoded_column": {
      "latitude": "29.968431876642164",
      "longitude": "-90.03665509241793"
    }
  },
  {
    "service_request": "2023-1019530",
    "request_type": "Trash/Recycling",
    "request_reason": "Illegal Dumping",
    "date_created": "2023-07-21T20:11:16.000",
    "date_modified": "2023-07-21T20:11:16.000",
    "request_status": "Pending",
    "responsible_agency": "Department of Sanitation",
    "final_address": "SISTER ST & ST CLAUDE AVE",
    "address_councildis": "E",
    "status": "Pending",
    "rowid": "1019530",
    "final_x": "3694658.9",
    "final_y": "534585.98",
    "longitude": "-90.02640902894048",
    "latitude": "29.96351995360696",
    "geocoded_column": {
      "latitude": "29.96351995360696",
      "longitude": "-90.02640902894048"
    }
  },
  {
    "service_request": "2023-1019529",
    "request_type": "Trash/Recycling",
    "request_reason": "Order Recycling Cart",
    "date_created": "2023-07-21T20:05:01.000",
    "date_modified": "2023-07-21T20:05:01.000",
    "request_status": "Pending",
    "responsible_agency": "Department of Sanitation",
    "final_address": "1613 Columbus St",
    "address_councildis": "D",
    "status": "Pending",
    "rowid": "1019529",
    "final_x": "3681606.78197",
    "final_y": "537322.409224",
    "longitude": "-90.0675307417794",
    "latitude": "29.971447079630277",
    "geocoded_column": {
      "latitude": "29.971447079630277",
      "longitude": "-90.0675307417794"
    }
  },
  {
    "service_request": "2023-1019528",
    "request_type": "Trash/Recycling",
    "request_reason": "Order Trash Cart",
    "date_created": "2023-07-21T20:03:57.000",
    "date_modified": "2023-07-21T20:03:57.000",
    "request_status": "Pending",
    "responsible_agency": "Department of Sanitation",
    "final_address": "1611 Columbus St",
    "address_councildis": "D",
    "status": "Assigned to Contractor",
    "contractor": "IV Waste",
    "rowid": "1019528",
    "final_x": "3681619.36879",
    "final_y": "537315.89876",
    "longitude": "-90.06749121795256",
    "latitude": "29.971428795768894",
    "geocoded_column": {
      "latitude": "29.971428795768894",
      "longitude": "-90.06749121795256"
    }
  },
  {
    "service_request": "2023-1019527",
    "request_type": "Trash/Recycling",
    "request_reason": "Order Recycling Cart",
    "date_created": "2023-07-21T20:02:59.000",
    "date_modified": "2023-07-21T20:02:59.000",
    "request_status": "Pending",
    "responsible_agency": "Department of Sanitation",
    "final_address": "1613 Columbus St",
    "address_councildis": "D",
    "status": "Pending",
    "rowid": "1019527",
    "final_x": "3681606.78197",
    "final_y": "537322.409224",
    "longitude": "-90.0675307417794",
    "latitude": "29.971447079630277",
    "geocoded_column": {
      "latitude": "29.971447079630277",
      "longitude": "-90.0675307417794"
    }
  },
  {
    "service_request": "2023-1019526",
    "request_type": "Trash/Recycling",
    "request_reason": "Order Trash Cart",
    "date_created": "2023-07-21T20:01:49.000",
    "date_modified": "2023-07-21T20:01:50.000",
    "request_status": "Pending",
    "responsible_agency": "Department of Sanitation",
    "final_address": "1613 Columbus St",
    "address_councildis": "D",
    "status": "Assigned to Contractor",
    "contractor": "IV Waste",
    "rowid": "1019526",
    "final_x": "3681606.78197",
    "final_y": "537322.409224",
    "longitude": "-90.0675307417794",
    "latitude": "29.971447079630277",
    "geocoded_column": {
      "latitude": "29.971447079630277",
      "longitude": "-90.0675307417794"
    }
  },
  {
    "service_request": "2023-1019525",
    "request_type": "Abandoned Vehicles",
    "request_reason": "Abandoned/Junk Vehicles",
    "date_created": "2023-07-21T19:47:11.000",
    "date_modified": "2023-07-21T19:47:11.000",
    "request_status": "Pending",
    "responsible_agency": "Department of Public Works",
    "final_address": "315 Decatur St",
    "address_councildis": "C",
    "status": "Pending",
    "rowid": "1019525",
    "final_x": "3682332.13967",
    "final_y": "530970.484162",
    "longitude": "-90.06546192627788",
    "latitude": "29.953959408807965",
    "geocoded_column": {
      "latitude": "29.953959408807965",
      "longitude": "-90.06546192627788"
    }
  },
  {
    "service_request": "2023-1019524",
    "request_type": "Abandoned Vehicles",
    "request_reason": "Abandoned/Junk Vehicles",
    "date_created": "2023-07-21T19:37:54.000",
    "date_modified": "2023-07-21T19:37:54.000",
    "request_status": "Pending",
    "responsible_agency": "Department of Public Works",
    "final_address": "1500 BLK Monroe St",
    "address_councildis": "A",
    "status": "Pending",
    "rowid": "1019524",
    "final_x": "3661214.54761",
    "final_y": "530715.936059",
    "longitude": "-90.13215143543071",
    "latitude": "29.953885091150777",
    "geocoded_column": {
      "latitude": "29.953885091150777",
      "longitude": "-90.13215143543071"
    }
  },
  {
    "service_request": "2023-1019523",
    "request_type": "Trash/Recycling",
    "request_reason": "Replace Trash Cart",
    "date_created": "2023-07-21T19:07:52.000",
    "date_modified": "2023-07-21T19:07:53.000",
    "request_status": "Pending",
    "responsible_agency": "Department of Sanitation",
    "final_address": "900 French St",
    "address_councildis": "A",
    "status": "Assigned to Contractor",
    "contractor": "IV Waste",
    "rowid": "1019523",
    "final_x": "3669980.16878",
    "final_y": "548372.131218",
    "longitude": "-90.10387493684888",
    "latitude": "30.002178074542346",
    "geocoded_column": {
      "latitude": "30.002178074542346",
      "longitude": "-90.10387493684888"
    }
  },
  {
    "service_request": "2023-1019522",
    "request_type": "Trash/Recycling",
    "request_reason": "Illegal Dumping",
    "date_created": "2023-07-21T19:05:26.000",
    "date_modified": "2023-07-21T19:05:26.000",
    "request_status": "Pending",
    "responsible_agency": "Department of Sanitation",
    "final_address": "6003 Bullard Ave",
    "address_councildis": "E",
    "status": "Pending",
    "rowid": "1019522",
    "final_x": "3716107.82546",
    "final_y": "563950.871393",
    "longitude": "-89.95756300834744",
    "latitude": "30.043571875272146",
    "geocoded_column": {
      "latitude": "30.043571875272146",
      "longitude": "-89.95756300834744"
    }
  },
  {
    "service_request": "2023-1019521",
    "request_type": "Trash/Recycling",
    "request_reason": "Replace Trash Cart",
    "date_created": "2023-07-21T19:00:09.000",
    "date_modified": "2023-07-21T19:00:10.000",
    "request_status": "Pending",
    "responsible_agency": "Department of Sanitation",
    "final_address": "1830 General Taylor St",
    "address_councildis": "B",
    "status": "Assigned to Contractor",
    "contractor": "Richards Disposal",
    "rowid": "1019521",
    "final_x": "3672367.75022",
    "final_y": "522013.03417",
    "longitude": "-90.0972305817191",
    "latitude": "29.92962875024938",
    "geocoded_column": {
      "latitude": "29.92962875024938",
      "longitude": "-90.0972305817191"
    }
  },
  {
    "service_request": "2023-1019520",
    "request_type": "Trash/Recycling",
    "request_reason": "MIssed Recycling Pick-Up",
    "date_created": "2023-07-21T18:56:15.000",
    "date_modified": "2023-07-21T18:56:15.000",
    "request_status": "Pending",
    "responsible_agency": "Department of Sanitation",
    "final_address": "821 Louisa St",
    "address_councildis": "C",
    "status": "Assigned to Contractor",
    "contractor": "IV Waste",
    "rowid": "1019520",
    "final_x": "3689345.80732",
    "final_y": "534884.190278",
    "longitude": "-90.04317655614172",
    "latitude": "29.9645054877613",
    "geocoded_column": {
      "latitude": "29.9645054877613",
      "longitude": "-90.04317655614172"
    }
  },
  {
    "service_request": "2023-1019519",
    "request_type": "Trash/Recycling",
    "request_reason": "Request a Large Item Pick Up",
    "date_created": "2023-07-21T18:54:48.000",
    "date_modified": "2023-07-21T18:54:49.000",
    "request_status": "Pending",
    "responsible_agency": "Department of Sanitation",
    "final_address": "919 Jackson Ave",
    "address_councildis": "B",
    "status": "Assigned to Contractor",
    "contractor": "Richards Disposal",
    "rowid": "1019519",
    "final_x": "3679238.26255",
    "final_y": "521658.228793",
    "longitude": "-90.07555389443763",
    "latitude": "29.92844756530152",
    "geocoded_column": {
      "latitude": "29.92844756530152",
      "longitude": "-90.07555389443763"
    }
  },
  {
    "service_request": "2023-1019518",
    "request_type": "Abandoned Vehicles",
    "request_reason": "Vehicle Blocking Your Driveway",
    "date_created": "2023-07-21T18:45:13.000",
    "date_modified": "2023-07-21T18:45:13.000",
    "request_status": "Pending",
    "responsible_agency": "Department of Public Works",
    "final_address": "3300 BLK Saint Claude Ave",
    "address_councildis": "C",
    "status": "Pending",
    "rowid": "1019518",
    "final_x": "3690025.99983",
    "final_y": "535816.004927",
    "longitude": "-90.04099537820876",
    "latitude": "29.96704657556889",
    "geocoded_column": {
      "latitude": "29.96704657556889",
      "longitude": "-90.04099537820876"
    }
  },
  {
    "service_request": "2023-1019517",
    "request_type": "Trash/Recycling",
    "request_reason": "Order Recycling Cart",
    "date_created": "2023-07-21T18:26:54.000",
    "date_modified": "2023-07-21T18:26:54.000",
    "request_status": "Pending",
    "responsible_agency": "Department of Sanitation",
    "final_address": "307 Florida Blvd",
    "address_councildis": "A",
    "status": "Pending",
    "rowid": "1019517",
    "final_x": "3666933.16833",
    "final_y": "545604.38696",
    "longitude": "-90.1135938806291",
    "latitude": "29.99465727473794",
    "geocoded_column": {
      "latitude": "29.99465727473794",
      "longitude": "-90.1135938806291"
    }
  },
  {
    "service_request": "2023-1019516",
    "request_type": "Trash/Recycling",
    "request_reason": "Missed Trash Pick-Up",
    "date_created": "2023-07-21T18:26:44.000",
    "date_modified": "2023-07-21T18:26:45.000",
    "request_status": "Pending",
    "responsible_agency": "Department of Sanitation",
    "final_address": "6250 Curran Rd",
    "address_councildis": "E",
    "status": "Assigned to Contractor",
    "contractor": "Waste Pro",
    "rowid": "1019516",
    "final_x": "3696302.62877",
    "final_y": "559173.366236",
    "longitude": "-90.02032862024114",
    "latitude": "30.03107454946493",
    "geocoded_column": {
      "latitude": "30.03107454946493",
      "longitude": "-90.02032862024114"
    }
  },
  {
    "service_request": "2023-1019515",
    "request_type": "Trash/Recycling",
    "request_reason": "MIssed Recycling Pick-Up",
    "date_created": "2023-07-21T18:26:06.000",
    "date_modified": "2023-07-21T18:26:07.000",
    "request_status": "Pending",
    "responsible_agency": "Department of Sanitation",
    "final_address": "2527 Eagle St",
    "address_councildis": "A",
    "status": "Assigned to Contractor",
    "contractor": "Richards Disposal",
    "rowid": "1019515",
    "final_x": "3663464.16557",
    "final_y": "533648.775237",
    "longitude": "-90.124950371683",
    "latitude": "29.961884408713747",
    "geocoded_column": {
      "latitude": "29.961884408713747",
      "longitude": "-90.124950371683"
    }
  },
  {
    "service_request": "2023-1019513",
    "request_type": "Abandoned Vehicles",
    "request_reason": "Abandoned/Junk Vehicles",
    "date_created": "2023-07-21T18:16:55.000",
    "date_modified": "2023-07-21T18:16:55.000",
    "request_status": "Pending",
    "responsible_agency": "Department of Public Works",
    "final_address": "2738 Prancer St",
    "address_councildis": "C",
    "status": "Pending",
    "rowid": "1019513",
    "final_x": "3699624.34589",
    "final_y": "520761.165689",
    "longitude": "-90.01123250488251",
    "latitude": "29.925349898005585",
    "geocoded_column": {
      "latitude": "29.925349898005585",
      "longitude": "-90.01123250488251"
    }
  },
  {
    "service_request": "2023-1019512",
    "request_type": "Abandoned Vehicles",
    "request_reason": "Abandoned/Junk Vehicles",
    "date_created": "2023-07-21T18:14:54.000",
    "date_modified": "2023-07-21T18:14:54.000",
    "request_status": "Pending",
    "responsible_agency": "Department of Public Works",
    "final_address": "6094 Wilton Dr",
    "address_councildis": "D",
    "status": "Pending",
    "rowid": "1019512",
    "final_x": "3681626.09948",
    "final_y": "555435.106777",
    "longitude": "-90.06683747585029",
    "latitude": "30.021249969645787",
    "geocoded_column": {
      "latitude": "30.021249969645787",
      "longitude": "-90.06683747585029"
    }
  },
  {
    "service_request": "2023-1019511",
    "request_type": "Abandoned Vehicles",
    "request_reason": "Abandoned/Junk Vehicles",
    "date_created": "2023-07-21T18:09:06.000",
    "date_modified": "2023-07-21T18:09:06.000",
    "request_status": "Pending",
    "responsible_agency": "Department of Public Works",
    "final_address": "614 Philip St",
    "address_councildis": "B",
    "status": "Pending",
    "rowid": "1019511",
    "final_x": "3679545.66472",
    "final_y": "520480.459256",
    "longitude": "-90.0746243341308",
    "latitude": "29.925199802101954",
    "geocoded_column": {
      "latitude": "29.925199802101954",
      "longitude": "-90.0746243341308"
    }
  },
  {
    "service_request": "2023-1019509",
    "request_type": "Property Maintenance",
    "request_reason": "Property Maintenance",
    "date_created": "2023-07-21T17:29:04.000",
    "date_modified": "2023-07-21T17:29:04.000",
    "request_status": "Pending",
    "responsible_agency": "Department of Code Enforcement",
    "final_address": "4520 Wilson Ave",
    "address_councildis": "E",
    "status": "Pending",
    "rowid": "1019509",
    "final_x": "3703033.50532",
    "final_y": "553720.472727",
    "longitude": "-89.9992596045554",
    "latitude": "30.015867403083128",
    "geocoded_column": {
      "latitude": "30.015867403083128",
      "longitude": "-89.9992596045554"
    }
  },
  {
    "service_request": "2023-1019508",
    "request_type": "Property Maintenance",
    "request_reason": "Property Maintenance",
    "date_created": "2023-07-21T17:25:43.000",
    "date_modified": "2023-07-21T17:25:43.000",
    "request_status": "Pending",
    "responsible_agency": "Department of Code Enforcement",
    "final_address": "4854 Wilson Ave",
    "address_councildis": "E",
    "status": "Pending",
    "rowid": "1019508",
    "final_x": "3702851.32804",
    "final_y": "555593.000153",
    "longitude": "-89.9997663425383",
    "latitude": "30.021021966709068",
    "geocoded_column": {
      "latitude": "30.021021966709068",
      "longitude": "-89.9997663425383"
    }
  },
  {
    "service_request": "2023-1019507",
    "request_type": "Trash/Recycling",
    "request_reason": "Request a Large Item Pick Up",
    "date_created": "2023-07-21T17:25:40.000",
    "date_modified": "2023-07-21T17:25:40.000",
    "request_status": "Pending",
    "responsible_agency": "Department of Sanitation",
    "final_address": "233 S Bernadotte St",
    "address_councildis": "A",
    "status": "Assigned to Contractor",
    "contractor": "Richards Disposal",
    "rowid": "1019507",
    "final_x": "3668336.21991",
    "final_y": "539509.335242",
    "longitude": "-90.10936745823622",
    "latitude": "29.977856815735194",
    "geocoded_column": {
      "latitude": "29.977856815735194",
      "longitude": "-90.10936745823622"
    }
  },
  {
    "service_request": "2023-1019506",
    "request_type": "Property Maintenance",
    "request_reason": "Property Maintenance",
    "date_created": "2023-07-21T17:20:43.000",
    "date_modified": "2023-07-21T17:20:43.000",
    "request_status": "Pending",
    "responsible_agency": "Department of Code Enforcement",
    "final_address": "5101 Sandhurst Dr",
    "address_councildis": "E",
    "status": "Pending",
    "rowid": "1019506",
    "final_x": "3705272.05028",
    "final_y": "556679.877082",
    "longitude": "-89.99207741461058",
    "latitude": "30.023932769594037",
    "geocoded_column": {
      "latitude": "30.023932769594037",
      "longitude": "-89.99207741461058"
    }
  },
  {
    "service_request": "2023-1019505",
    "request_type": "Traffic Signals/Signs/Striping/Streetlights",
    "request_reason": "Street Light Outage/Malfunction",
    "date_created": "2023-07-21T17:01:45.000",
    "date_modified": "2023-07-21T17:01:46.000",
    "request_status": "Pending",
    "responsible_agency": "Department of Public Works",
    "final_address": "841 Canal St",
    "address_councildis": "C",
    "status": "Assigned to Contractor",
    "contractor": "Legacy Professional Services",
    "rowid": "1019505",
    "final_x": "3680702.21563",
    "final_y": "531159.824962",
    "longitude": "-90.07060196939204",
    "latitude": "29.95452952179781",
    "geocoded_column": {
      "latitude": "29.95452952179781",
      "longitude": "-90.07060196939204"
    }
  },
  {
    "service_request": "2023-1019504",
    "request_type": "Roads/Drainage",
    "request_reason": "Pothole",
    "date_created": "2023-07-21T16:57:34.000",
    "date_modified": "2023-07-21T16:57:35.000",
    "request_status": "Pending",
    "responsible_agency": "Department of Public Works",
    "final_address": "7465 Hurst St",
    "address_councildis": "A",
    "status": "Pending",
    "rowid": "1019504",
    "final_x": "3661320.3047",
    "final_y": "524261.00646",
    "longitude": "-90.13203118218975",
    "latitude": "29.93613304285306",
    "geocoded_column": {
      "latitude": "29.93613304285306",
      "longitude": "-90.13203118218975"
    }
  },
  {
    "service_request": "2023-1019503",
    "request_type": "Trash/Recycling",
    "request_reason": "Missed Trash Pick-Up",
    "date_created": "2023-07-21T16:56:52.000",
    "date_modified": "2023-07-21T16:56:52.000",
    "request_status": "Pending",
    "responsible_agency": "Department of Sanitation",
    "final_address": "4516 Citrus Dr",
    "address_councildis": "E",
    "status": "Assigned to Contractor",
    "contractor": "Waste Pro",
    "rowid": "1019503",
    "final_x": "3710675.84651",
    "final_y": "554865.600856",
    "longitude": "-89.97507058658634",
    "latitude": "30.018769188829157",
    "geocoded_column": {
      "latitude": "30.018769188829157",
      "longitude": "-89.97507058658634"
    }
  },
  {
    "service_request": "2023-1019502",
    "request_type": "Trash/Recycling",
    "request_reason": "Order Recycling Cart",
    "date_created": "2023-07-21T16:55:22.000",
    "date_modified": "2023-07-21T16:55:23.000",
    "request_status": "Pending",
    "responsible_agency": "Department of Sanitation",
    "final_address": "6200 BLK Dorothea St",
    "address_councildis": "D",
    "status": "Pending",
    "rowid": "1019502",
    "final_x": "3696441.82952",
    "final_y": "557518.866377",
    "longitude": "-90.0199486710007",
    "latitude": "30.026520920563392",
    "geocoded_column": {
      "latitude": "30.026520920563392",
      "longitude": "-90.0199486710007"
    }
  },
  {
    "service_request": "2023-1019501",
    "request_type": "Trash/Recycling",
    "request_reason": "Order Trash Cart",
    "date_created": "2023-07-21T16:55:08.000",
    "date_modified": "2023-07-21T16:55:09.000",
    "request_status": "Pending",
    "responsible_agency": "Department of Sanitation",
    "final_address": "6200 BLK Dorothea St",
    "address_councildis": "D",
    "status": "Assigned to Contractor",
    "contractor": "Waste Pro",
    "rowid": "1019501",
    "final_x": "3696441.82952",
    "final_y": "557518.866377",
    "longitude": "-90.0199486710007",
    "latitude": "30.026520920563392",
    "geocoded_column": {
      "latitude": "30.026520920563392",
      "longitude": "-90.0199486710007"
    }
  },
  {
    "service_request": "2023-1019500",
    "request_type": "Parks & Parkways",
    "request_reason": "Request Tree Service (Right of Way/Public Property)",
    "date_created": "2023-07-21T16:46:50.000",
    "date_modified": "2023-07-21T16:46:51.000",
    "request_status": "Pending",
    "responsible_agency": "Department of Parks & Parkway",
    "final_address": "5345 St Charles Ave",
    "address_councildis": "B",
    "status": "Pending",
    "rowid": "1019500",
    "final_x": "3667572.04986",
    "final_y": "521634.952057",
    "longitude": "-90.11238252277676",
    "latitude": "29.928730527266275",
    "geocoded_column": {
      "latitude": "29.928730527266275",
      "longitude": "-90.11238252277676"
    }
  },
  {
    "service_request": "2023-1019499",
    "request_type": "Trash/Recycling",
    "request_reason": "Request a Large Item Pick Up",
    "date_created": "2023-07-21T16:40:44.000",
    "date_modified": "2023-07-21T16:40:45.000",
    "request_status": "Pending",
    "responsible_agency": "Department of Sanitation",
    "final_address": "4743 Evangeline Dr",
    "address_councildis": "E",
    "status": "Assigned to Contractor",
    "contractor": "Waste Pro",
    "rowid": "1019499",
    "final_x": "3709172.80325",
    "final_y": "555801.765721",
    "longitude": "-89.97978468100905",
    "latitude": "30.021392181581376",
    "geocoded_column": {
      "latitude": "30.021392181581376",
      "longitude": "-89.97978468100905"
    }
  },
  {
    "service_request": "2023-1019498",
    "request_type": "Roads/Drainage",
    "request_reason": "Leaking Hydrant",
    "date_created": "2023-07-21T16:38:38.000",
    "date_modified": "2023-07-21T16:38:38.000",
    "request_status": "Pending",
    "responsible_agency": "Department of Public Works",
    "final_address": "6444 Louisville St",
    "address_councildis": "A",
    "status": "Pending",
    "rowid": "1019498",
    "final_x": "3667938.13466",
    "final_y": "550490.853588",
    "longitude": "-90.11025453980118",
    "latitude": "30.00806391191541",
    "geocoded_column": {
      "latitude": "30.00806391191541",
      "longitude": "-90.11025453980118"
    }
  },
  {
    "service_request": "2023-1019497",
    "request_type": "Roads/Drainage",
    "request_reason": "WaterMain Break",
    "date_created": "2023-07-21T16:31:38.000",
    "date_modified": "2023-07-21T16:34:05.000",
    "request_status": "Pending",
    "responsible_agency": "Department of Public Works",
    "final_address": "1451 N Broad St",
    "address_councildis": "A",
    "status": "Pending",
    "rowid": "1019497",
    "final_x": "3678382.88987",
    "final_y": "539388.599306",
    "longitude": "-90.07764075287804",
    "latitude": "29.977225924628403",
    "geocoded_column": {
      "latitude": "29.977225924628403",
      "longitude": "-90.07764075287804"
    }
  },
  {
    "service_request": "2023-1019496",
    "request_type": "Utility Poles",
    "request_reason": "Utility Pole Leaning",
    "date_created": "2023-07-21T16:20:33.000",
    "date_modified": "2023-07-21T16:20:37.000",
    "request_status": "Pending",
    "responsible_agency": "Utility Company Collective",
    "final_address": "1425 Alvar St",
    "address_councildis": "D",
    "status": "Pending",
    "rowid": "1019496",
    "final_x": "3691861.06038",
    "final_y": "536703.238471",
    "longitude": "-90.03516852601503",
    "latitude": "29.969429118249334",
    "geocoded_column": {
      "latitude": "29.969429118249334",
      "longitude": "-90.03516852601503"
    }
  },
  {
    "service_request": "2023-1019495",
    "request_type": "Trash/Recycling",
    "request_reason": "Replace Trash Cart",
    "date_created": "2023-07-21T16:15:44.000",
    "date_modified": "2023-07-21T16:15:44.000",
    "request_status": "Pending",
    "responsible_agency": "Department of Sanitation",
    "final_address": "6328 Annunciation St",
    "address_councildis": "A",
    "status": "Assigned to Contractor",
    "contractor": "Richards Disposal",
    "rowid": "1019495",
    "final_x": "3662699.03539",
    "final_y": "518456.263478",
    "longitude": "-90.12787126339161",
    "latitude": "29.920132002180992",
    "geocoded_column": {
      "latitude": "29.920132002180992",
      "longitude": "-90.12787126339161"
    }
  },
  {
    "service_request": "2023-1019494",
    "request_type": "Trash/Recycling",
    "request_reason": "Request a Large Item Pick Up",
    "date_created": "2023-07-21T16:14:22.000",
    "date_modified": "2023-07-21T16:14:23.000",
    "request_status": "Pending",
    "responsible_agency": "Department of Sanitation",
    "final_address": "8237 Apricot St",
    "address_councildis": "A",
    "status": "Assigned to Contractor",
    "contractor": "Richards Disposal",
    "rowid": "1019494",
    "final_x": "3665372.41389",
    "final_y": "533087.166724",
    "longitude": "-90.11894319578644",
    "latitude": "29.960284697163896",
    "geocoded_column": {
      "latitude": "29.960284697163896",
      "longitude": "-90.11894319578644"
    }
  },
  {
    "service_request": "2023-1019493",
    "request_type": "Traffic Signals/Signs/Striping/Streetlights",
    "request_reason": "Street Name Sign Damaged or Missing",
    "date_created": "2023-07-21T16:11:27.000",
    "date_modified": "2023-07-21T16:11:28.000",
    "request_status": "Pending",
    "responsible_agency": "Department of Public Works",
    "final_address": "NUMA ST & LAWRENCE ST",
    "address_councildis": "C",
    "status": "Pending",
    "rowid": "1019493",
    "final_x": "3691741.7",
    "final_y": "525513.58",
    "longitude": "-90.03594558960597",
    "latitude": "29.938665160709785",
    "geocoded_column": {
      "latitude": "29.938665160709785",
      "longitude": "-90.03594558960597"
    }
  },
  {
    "service_request": "2023-1019492",
    "request_type": "Property Maintenance",
    "request_reason": "Property Maintenance",
    "date_created": "2023-07-21T16:09:48.000",
    "date_modified": "2023-07-21T16:09:48.000",
    "request_status": "Pending",
    "responsible_agency": "Department of Code Enforcement",
    "final_address": "1524 Numa St",
    "address_councildis": "C",
    "status": "Pending",
    "rowid": "1019492",
    "final_x": "3691787.49392",
    "final_y": "525649.998589",
    "longitude": "-90.03579613677972",
    "latitude": "29.939038839441338",
    "geocoded_column": {
      "latitude": "29.939038839441338",
      "longitude": "-90.03579613677972"
    }
  },
  {
    "service_request": "2023-1019491",
    "request_type": "Roads/Drainage",
    "request_reason": "Pothole",
    "date_created": "2023-07-21T16:03:48.000",
    "date_modified": "2023-07-21T16:04:16.000",
    "case_close_date": "2023-07-21T11:04:16.000",
    "request_status": "Closed",
    "responsible_agency": "Department of Public Works",
    "final_address": "6318 Milne Blvd",
    "address_councildis": "A",
    "status": "Resolved",
    "rowid": "1019491",
    "final_x": "3667140.73876",
    "final_y": "549645.02978",
    "longitude": "-90.11280222905391",
    "latitude": "30.00576157026881",
    "geocoded_column": {
      "latitude": "30.00576157026881",
      "longitude": "-90.11280222905391"
    }
  },
  {
    "service_request": "2023-1019490",
    "request_type": "Abandoned Vehicles",
    "request_reason": "Abandoned/Junk Vehicles",
    "date_created": "2023-07-21T16:03:46.000",
    "date_modified": "2023-07-21T16:03:46.000",
    "request_status": "Pending",
    "responsible_agency": "Department of Public Works",
    "final_address": "3400 Banks St",
    "address_councildis": "B",
    "status": "Pending",
    "rowid": "1019490",
    "final_x": "3672462.71111",
    "final_y": "535714.396679",
    "longitude": "-90.0964639173892",
    "latitude": "29.96730017251894",
    "geocoded_column": {
      "latitude": "29.96730017251894",
      "longitude": "-90.0964639173892"
    }
  },
  {
    "service_request": "2023-1019489",
    "request_type": "Roads/Drainage",
    "request_reason": "Pothole",
    "date_created": "2023-07-21T16:02:39.000",
    "date_modified": "2023-07-21T16:03:07.000",
    "case_close_date": "2023-07-21T11:03:07.000",
    "request_status": "Closed",
    "responsible_agency": "Department of Public Works",
    "final_address": "6424 Milne Blvd",
    "address_councildis": "A",
    "status": "Resolved",
    "rowid": "1019489",
    "final_x": "3667223.92756",
    "final_y": "550532.691604",
    "longitude": "-90.11250953699762",
    "latitude": "30.008199894454588",
    "geocoded_column": {
      "latitude": "30.008199894454588",
      "longitude": "-90.11250953699762"
    }
  },
  {
    "service_request": "2023-1019488",
    "request_type": "Trash/Recycling",
    "request_reason": "Order Recycling Cart",
    "date_created": "2023-07-21T16:00:20.000",
    "date_modified": "2023-07-21T16:00:20.000",
    "request_status": "Pending",
    "responsible_agency": "Department of Sanitation",
    "final_address": "6238 Stratford Pl",
    "address_councildis": "C",
    "status": "Pending",
    "rowid": "1019488",
    "final_x": "3707201.04945",
    "final_y": "516237.571956",
    "longitude": "-89.98748315778032",
    "latitude": "29.91266903289236",
    "geocoded_column": {
      "latitude": "29.91266903289236",
      "longitude": "-89.98748315778032"
    }
  },
  {
    "service_request": "2023-1019487",
    "request_type": "Parks & Parkways",
    "request_reason": "Request Tree Service (Right of Way/Public Property)",
    "date_created": "2023-07-21T15:59:47.000",
    "date_modified": "2023-07-21T15:59:47.000",
    "request_status": "Pending",
    "responsible_agency": "Department of Parks & Parkway",
    "final_address": "3600 BLK Elysian Fields Ave",
    "address_councildis": "D",
    "status": "Pending",
    "rowid": "1019487",
    "final_x": "3684181.36651",
    "final_y": "546060.729188",
    "longitude": "-90.05909295082797",
    "latitude": "29.995395925553385",
    "geocoded_column": {
      "latitude": "29.995395925553385",
      "longitude": "-90.05909295082797"
    }
  },
  {
    "service_request": "2023-1019486",
    "request_type": "Trash/Recycling",
    "request_reason": "Illegal Dumping",
    "date_created": "2023-07-21T15:58:50.000",
    "date_modified": "2023-07-21T15:58:50.000",
    "request_status": "Pending",
    "responsible_agency": "Department of Sanitation",
    "final_address": "1600 BLK Numa St",
    "address_councildis": "C",
    "status": "Pending",
    "rowid": "1019486",
    "final_x": "3691727.14571",
    "final_y": "525321.930115",
    "longitude": "-90.03599838943485",
    "latitude": "29.938138642054895",
    "geocoded_column": {
      "latitude": "29.938138642054895",
      "longitude": "-90.03599838943485"
    }
  },
  {
    "service_request": "2023-1019485",
    "request_type": "Abandoned Vehicles",
    "request_reason": "Abandoned/Junk Vehicles",
    "date_created": "2023-07-21T15:58:43.000",
    "date_modified": "2023-07-21T15:58:44.000",
    "request_status": "Pending",
    "responsible_agency": "Department of Public Works",
    "final_address": "1400 BLK Alix St",
    "address_councildis": "C",
    "status": "Pending",
    "rowid": "1019485",
    "final_x": "3690049.85444",
    "final_y": "530246.688638",
    "longitude": "-90.04111839212516",
    "latitude": "29.951732153087892",
    "geocoded_column": {
      "latitude": "29.951732153087892",
      "longitude": "-90.04111839212516"
    }
  },
  {
    "service_request": "2023-1019484",
    "request_type": "Trash/Recycling",
    "request_reason": "Replace Trash Cart",
    "date_created": "2023-07-21T15:57:03.000",
    "date_modified": "2023-07-21T15:57:06.000",
    "request_status": "Pending",
    "responsible_agency": "Department of Sanitation",
    "final_address": "6238 Stratford Pl",
    "address_councildis": "C",
    "status": "Assigned to Contractor",
    "contractor": "Richards Disposal",
    "rowid": "1019484",
    "final_x": "3707201.04945",
    "final_y": "516237.571956",
    "longitude": "-89.98748315778032",
    "latitude": "29.91266903289236",
    "geocoded_column": {
      "latitude": "29.91266903289236",
      "longitude": "-89.98748315778032"
    }
  },
  {
    "service_request": "2023-1019483",
    "request_type": "Abandoned Vehicles",
    "request_reason": "Abandoned/Junk Vehicles",
    "date_created": "2023-07-21T15:56:47.000",
    "date_modified": "2023-07-21T15:56:47.000",
    "request_status": "Pending",
    "responsible_agency": "Department of Public Works",
    "final_address": "4420 Venus St",
    "address_councildis": "D",
    "status": "Pending",
    "rowid": "1019483",
    "final_x": "3686528.8127",
    "final_y": "549057.648211",
    "longitude": "-90.05157171338098",
    "latitude": "30.0035643828395",
    "geocoded_column": {
      "latitude": "30.0035643828395",
      "longitude": "-90.05157171338098"
    }
  },
  {
    "service_request": "2023-1019482",
    "request_type": "Traffic Signals/Signs/Striping/Streetlights",
    "request_reason": "Disabled Parking Sign ",
    "date_created": "2023-07-21T15:54:25.000",
    "date_modified": "2023-07-21T15:54:26.000",
    "request_status": "Pending",
    "responsible_agency": "Department of Public Works",
    "final_address": "9114 Dixon St",
    "address_councildis": "A",
    "status": "Pending",
    "rowid": "1019482",
    "final_x": "3665700.1634",
    "final_y": "537903.008713",
    "longitude": "-90.11774689600438",
    "latitude": "29.97351711554177",
    "geocoded_column": {
      "latitude": "29.97351711554177",
      "longitude": "-90.11774689600438"
    }
  },
  {
    "service_request": "2023-1019481",
    "request_type": "Trash/Recycling",
    "request_reason": "Replace Trash Cart",
    "date_created": "2023-07-21T15:49:35.000",
    "date_modified": "2023-07-21T15:49:35.000",
    "request_status": "Pending",
    "responsible_agency": "Department of Sanitation",
    "final_address": "6238 Stratford Pl",
    "address_councildis": "C",
    "status": "Assigned to Contractor",
    "contractor": "Richards Disposal",
    "rowid": "1019481",
    "final_x": "3707201.04945",
    "final_y": "516237.571956",
    "longitude": "-89.98748315778032",
    "latitude": "29.91266903289236",
    "geocoded_column": {
      "latitude": "29.91266903289236",
      "longitude": "-89.98748315778032"
    }
  },
  {
    "service_request": "2023-1019480",
    "request_type": "Roads/Drainage",
    "request_reason": "Pothole",
    "date_created": "2023-07-21T15:48:14.000",
    "date_modified": "2023-07-21T15:48:42.000",
    "case_close_date": "2023-07-21T10:48:42.000",
    "request_status": "Closed",
    "responsible_agency": "Department of Public Works",
    "final_address": "3400 BLK Camp St",
    "address_councildis": "B",
    "status": "Resolved",
    "rowid": "1019480",
    "final_x": "3674429.5868",
    "final_y": "519778.515349",
    "longitude": "-90.09079821444347",
    "latitude": "29.92342322324258",
    "geocoded_column": {
      "latitude": "29.92342322324258",
      "longitude": "-90.09079821444347"
    }
  },
  {
    "service_request": "2023-1019479",
    "request_type": "Trash/Recycling",
    "request_reason": "Request a Large Item Pick Up",
    "date_created": "2023-07-21T15:47:56.000",
    "date_modified": "2023-07-21T15:47:57.000",
    "request_status": "Pending",
    "responsible_agency": "Department of Sanitation",
    "final_address": "7422 W Laverne St",
    "address_councildis": "D",
    "status": "Assigned to Contractor",
    "contractor": "Waste Pro",
    "rowid": "1019479",
    "final_x": "3695259.46877",
    "final_y": "558091.828123",
    "longitude": "-90.02366408746867",
    "latitude": "30.02813355854713",
    "geocoded_column": {
      "latitude": "30.02813355854713",
      "longitude": "-90.02366408746867"
    }
  },
  {
    "service_request": "2023-1019478",
    "request_type": "Abandoned Vehicles",
    "request_reason": "Abandoned/Junk Vehicles",
    "date_created": "2023-07-21T15:46:54.000",
    "date_modified": "2023-07-21T15:46:54.000",
    "request_status": "Pending",
    "responsible_agency": "Department of Public Works",
    "final_address": "N PRIEUR ST & PAINTERS ST",
    "address_councildis": "D",
    "status": "Pending",
    "rowid": "1019478",
    "final_x": "3687327.1",
    "final_y": "539454.38",
    "longitude": "-90.04938974887624",
    "latitude": "29.97713425417967",
    "geocoded_column": {
      "latitude": "29.97713425417967",
      "longitude": "-90.04938974887624"
    }
  },
  {
    "service_request": "2023-1019477",
    "request_type": "Roads/Drainage",
    "request_reason": "Road Shoulder Repair",
    "date_created": "2023-07-21T15:45:43.000",
    "date_modified": "2023-07-21T15:46:46.000",
    "case_close_date": "2023-07-21T10:46:46.000",
    "request_status": "Closed",
    "responsible_agency": "Department of Public Works",
    "final_address": "300 BLK East Dr",
    "address_councildis": "A",
    "status": "Resolved",
    "rowid": "1019477",
    "final_x": "3662455.64552",
    "final_y": "518694.005051",
    "longitude": "-90.12863164265056",
    "latitude": "29.920792756085987",
    "geocoded_column": {
      "latitude": "29.920792756085987",
      "longitude": "-90.12863164265056"
    }
  },
  {
    "service_request": "2023-1019475",
    "request_type": "Trash/Recycling",
    "request_reason": "Repair Trash Cart",
    "date_created": "2023-07-21T15:44:22.000",
    "date_modified": "2023-07-21T15:44:23.000",
    "request_status": "Pending",
    "responsible_agency": "Department of Sanitation",
    "final_address": "7905 Downman Rd",
    "address_councildis": "D",
    "status": "Assigned to Contractor",
    "contractor": "Waste Pro",
    "rowid": "1019475",
    "final_x": "3694444.35363",
    "final_y": "559308.720925",
    "longitude": "-90.02619592426126",
    "latitude": "30.031505142153605",
    "geocoded_column": {
      "latitude": "30.031505142153605",
      "longitude": "-90.02619592426126"
    }
  },
  {
    "service_request": "2023-1019474",
    "request_type": "Trash/Recycling",
    "request_reason": "Request a Large Item Pick Up",
    "date_created": "2023-07-21T15:43:17.000",
    "date_modified": "2023-07-21T15:43:18.000",
    "request_status": "Pending",
    "responsible_agency": "Department of Sanitation",
    "final_address": "3110 Cleveland Ave",
    "address_councildis": "B",
    "status": "Assigned to Contractor",
    "contractor": "Richards Disposal",
    "rowid": "1019474",
    "final_x": "3673704.57908",
    "final_y": "535777.075527",
    "longitude": "-90.09253993171296",
    "latitude": "29.967435599880453",
    "geocoded_column": {
      "latitude": "29.967435599880453",
      "longitude": "-90.09253993171296"
    }
  },
  {
    "service_request": "2023-1019473",
    "request_type": "Abandoned Vehicles",
    "request_reason": "Abandoned/Junk Vehicles",
    "date_created": "2023-07-21T15:38:20.000",
    "date_modified": "2023-07-21T15:38:21.000",
    "request_status": "Pending",
    "responsible_agency": "Department of Public Works",
    "final_address": "MONTICELLO AVE & COLAPISSA ST & LIVINGSTON ST",
    "address_councildis": "A",
    "status": "Pending",
    "rowid": "1019473",
    "final_x": "3662928.1",
    "final_y": "536686.08",
    "longitude": "-90.1265421748744",
    "latitude": "29.970251534229494",
    "geocoded_column": {
      "latitude": "29.970251534229494",
      "longitude": "-90.1265421748744"
    }
  },
  {
    "service_request": "2023-1019472",
    "request_type": "Trash/Recycling",
    "request_reason": "Illegal Dumping",
    "date_created": "2023-07-21T15:36:59.000",
    "date_modified": "2023-07-21T15:36:59.000",
    "request_status": "Pending",
    "responsible_agency": "Department of Sanitation",
    "final_address": "MONTICELLO AVE & APRICOT ST",
    "address_councildis": "A",
    "status": "Pending",
    "rowid": "1019472",
    "final_x": "3662448.7",
    "final_y": "535705.28",
    "longitude": "-90.12808875942216",
    "latitude": "29.96756853100463",
    "geocoded_column": {
      "latitude": "29.96756853100463",
      "longitude": "-90.12808875942216"
    }
  },
  {
    "service_request": "2023-1019471",
    "request_type": "Roads/Drainage",
    "request_reason": "Catch Basin - Clogged",
    "date_created": "2023-07-21T15:36:44.000",
    "date_modified": "2023-07-21T15:36:44.000",
    "request_status": "Pending",
    "responsible_agency": "Department of Public Works",
    "final_address": "574 Walnut St",
    "address_councildis": "A",
    "status": "Pending",
    "rowid": "1019471",
    "final_x": "3663149.51603",
    "final_y": "524078.16326",
    "longitude": "-90.12626236535993",
    "latitude": "29.935577423330315",
    "geocoded_column": {
      "latitude": "29.935577423330315",
      "longitude": "-90.12626236535993"
    }
  },
  {
    "service_request": "2023-1019470",
    "request_type": "Property Maintenance",
    "request_reason": "Property Maintenance",
    "date_created": "2023-07-21T15:35:04.000",
    "date_modified": "2023-07-21T15:35:04.000",
    "request_status": "Pending",
    "responsible_agency": "Department of Code Enforcement",
    "final_address": "1609 Piety St",
    "address_councildis": "D",
    "status": "Pending",
    "rowid": "1019470",
    "final_x": "3690365.38787",
    "final_y": "537772.937352",
    "longitude": "-90.03985382986299",
    "latitude": "29.97241692117842",
    "geocoded_column": {
      "latitude": "29.97241692117842",
      "longitude": "-90.03985382986299"
    }
  },
  {
    "service_request": "2023-1019469",
    "request_type": "Trash/Recycling",
    "request_reason": "Request a Large Item Pick Up",
    "date_created": "2023-07-21T15:34:44.000",
    "date_modified": "2023-07-21T15:34:45.000",
    "request_status": "Pending",
    "responsible_agency": "Department of Sanitation",
    "final_address": "2529 Aubry St",
    "address_councildis": "D",
    "status": "Assigned to Contractor",
    "contractor": "IV Waste",
    "rowid": "1019469",
    "final_x": "3679981.83797",
    "final_y": "540929.730507",
    "longitude": "-90.07253719498901",
    "latitude": "29.981415222970245",
    "geocoded_column": {
      "latitude": "29.981415222970245",
      "longitude": "-90.07253719498901"
    }
  },
  {
    "service_request": "2023-1019467",
    "request_type": "Trash/Recycling",
    "request_reason": "Illegal Dumping",
    "date_created": "2023-07-21T15:29:41.000",
    "date_modified": "2023-07-21T15:29:42.000",
    "request_status": "Pending",
    "responsible_agency": "Department of Sanitation",
    "final_address": "MONTICELLO AVE & APRICOT ST",
    "address_councildis": "A",
    "status": "Pending",
    "rowid": "1019467",
    "final_x": "3662448.7",
    "final_y": "535705.28",
    "longitude": "-90.12808875942216",
    "latitude": "29.96756853100463",
    "geocoded_column": {
      "latitude": "29.96756853100463",
      "longitude": "-90.12808875942216"
    }
  },
  {
    "service_request": "2023-1019466",
    "request_type": "Trash/Recycling",
    "request_reason": "Request a Large Item Pick Up",
    "date_created": "2023-07-21T15:27:46.000",
    "date_modified": "2023-07-21T15:27:47.000",
    "request_status": "Pending",
    "responsible_agency": "Department of Sanitation",
    "final_address": "5881 Bellaire Dr",
    "address_councildis": "A",
    "status": "Assigned to Contractor",
    "contractor": "IV Waste",
    "rowid": "1019466",
    "final_x": "3664276.74208",
    "final_y": "546965.773137",
    "longitude": "-90.12193978337716",
    "latitude": "29.99847810763874",
    "geocoded_column": {
      "latitude": "29.99847810763874",
      "longitude": "-90.12193978337716"
    }
  },
  {
    "service_request": "2023-1019464",
    "request_type": "Property Maintenance",
    "request_reason": "Property Maintenance",
    "date_created": "2023-07-21T15:16:40.000",
    "date_modified": "2023-07-21T15:16:40.000",
    "request_status": "Pending",
    "responsible_agency": "Department of Code Enforcement",
    "final_address": "7441 Poitevent Ave",
    "address_councildis": "E",
    "status": "Pending",
    "rowid": "1019464",
    "final_x": "3707260.58136",
    "final_y": "563702.709537",
    "longitude": "-89.98553307648577",
    "latitude": "30.043178641014954",
    "geocoded_column": {
      "latitude": "30.043178641014954",
      "longitude": "-89.98553307648577"
    }
  },
  {
    "service_request": "2023-1019463",
    "request_type": "Trash/Recycling",
    "request_reason": "Request a Large Item Pick Up",
    "date_created": "2023-07-21T15:15:47.000",
    "date_modified": "2023-07-21T15:15:47.000",
    "request_status": "Pending",
    "responsible_agency": "Department of Sanitation",
    "final_address": "936 Mazant St",
    "address_councildis": "C",
    "status": "Assigned to Contractor",
    "contractor": "IV Waste",
    "rowid": "1019463",
    "final_x": "3691957.16502",
    "final_y": "534737.252934",
    "longitude": "-90.03493537463662",
    "latitude": "29.964020356462267",
    "geocoded_column": {
      "latitude": "29.964020356462267",
      "longitude": "-90.03493537463662"
    }
  },
  {
    "service_request": "2023-1019462",
    "request_type": "Parks & Parkways",
    "request_reason": "Request Tree Service (Right of Way/Public Property)",
    "date_created": "2023-07-21T15:11:09.000",
    "date_modified": "2023-07-21T15:11:44.000",
    "request_status": "Pending",
    "responsible_agency": "Department of Parks & Parkway",
    "final_address": "1430 Urania St",
    "address_councildis": "B",
    "status": "Pending",
    "rowid": "1019462",
    "final_x": "3679124.03253",
    "final_y": "524044.04134",
    "longitude": "-90.07583183965485",
    "latitude": "29.93501121400894",
    "geocoded_column": {
      "latitude": "29.93501121400894",
      "longitude": "-90.07583183965485"
    }
  },
  {
    "service_request": "2023-1019461",
    "request_type": "Trash/Recycling",
    "request_reason": "Missed Trash Pick-Up",
    "date_created": "2023-07-21T15:10:46.000",
    "date_modified": "2023-07-21T15:10:46.000",
    "request_status": "Pending",
    "responsible_agency": "Department of Sanitation",
    "final_address": "6234 Curran Rd",
    "address_councildis": "E",
    "status": "Assigned to Contractor",
    "contractor": "Waste Pro",
    "rowid": "1019461",
    "final_x": "3696218.63293",
    "final_y": "559139.830364",
    "longitude": "-90.0205952625803",
    "latitude": "30.030984984904087",
    "geocoded_column": {
      "latitude": "30.030984984904087",
      "longitude": "-90.0205952625803"
    }
  },
  {
    "service_request": "2023-1019460",
    "request_type": "Trash/Recycling",
    "request_reason": "Order Recycling Cart",
    "date_created": "2023-07-21T15:09:59.000",
    "date_modified": "2023-07-21T15:09:59.000",
    "request_status": "Pending",
    "responsible_agency": "Department of Sanitation",
    "final_address": "4515 Canal St",
    "address_councildis": "A",
    "status": "Pending",
    "rowid": "1019460",
    "final_x": "3669694.00135",
    "final_y": "539612.314442",
    "longitude": "-90.10507561391138",
    "latitude": "29.9781000239976",
    "geocoded_column": {
      "latitude": "29.9781000239976",
      "longitude": "-90.10507561391138"
    }
  },
  {
    "service_request": "2023-1019459",
    "request_type": "Trash/Recycling",
    "request_reason": "Replace Trash Cart",
    "date_created": "2023-07-21T15:08:55.000",
    "date_modified": "2023-07-21T15:08:56.000",
    "request_status": "Pending",
    "responsible_agency": "Department of Sanitation",
    "final_address": "2726 Republic St",
    "address_councildis": "D",
    "status": "Assigned to Contractor",
    "contractor": "IV Waste",
    "rowid": "1019459",
    "final_x": "3680671.35112",
    "final_y": "542555.444877",
    "longitude": "-90.07030279703041",
    "latitude": "29.985864489991965",
    "geocoded_column": {
      "latitude": "29.985864489991965",
      "longitude": "-90.07030279703041"
    }
  },
  {
    "service_request": "2023-1019458",
    "request_type": "Parks & Parkways",
    "request_reason": "Tree Stump (removal, grind)",
    "date_created": "2023-07-21T15:08:27.000",
    "date_modified": "2023-07-21T15:08:27.000",
    "request_status": "Pending",
    "responsible_agency": "Department of Parks & Parkway",
    "final_address": "4726 St Roch Ave",
    "address_councildis": "D",
    "status": "Pending",
    "rowid": "1019458",
    "final_x": "3685206.09308",
    "final_y": "550447.312468",
    "longitude": "-90.0557014395547",
    "latitude": "30.00742607389687",
    "geocoded_column": {
      "latitude": "30.00742607389687",
      "longitude": "-90.0557014395547"
    }
  },
  {
    "service_request": "2023-1019457",
    "request_type": "Tax and Revenue",
    "request_reason": "Sales Tax Question",
    "date_created": "2023-07-21T15:02:54.000",
    "date_modified": "2023-07-21T15:02:54.000",
    "request_status": "Pending",
    "responsible_agency": "Bureau of Revenue",
    "status": "Pending",
    "rowid": "1019457",
    "longitude": "0.0",
    "latitude": "0.0",
    "geocoded_column": {
      "latitude": "0.0",
      "longitude": "0.0"
    }
  },
  {
    "service_request": "2023-1019456",
    "request_type": "Trash/Recycling",
    "request_reason": "Missed Trash Pick-Up",
    "date_created": "2023-07-21T15:01:56.000",
    "date_modified": "2023-07-21T15:04:07.000",
    "request_status": "Pending",
    "responsible_agency": "Department of Sanitation",
    "final_address": "5681 New England Dr",
    "address_councildis": "E",
    "status": "Assigned to Contractor",
    "contractor": "Waste Pro",
    "rowid": "1019456",
    "final_x": "3723701.63654",
    "final_y": "564522.241249",
    "longitude": "-89.9335415878868",
    "latitude": "30.044890020007163",
    "geocoded_column": {
      "latitude": "30.044890020007163",
      "longitude": "-89.9335415878868"
    }
  },
  {
    "service_request": "2023-1019455",
    "request_type": "Abandoned Vehicles",
    "request_reason": "Abandoned/Junk Vehicles",
    "date_created": "2023-07-21T15:00:55.000",
    "date_modified": "2023-07-21T15:00:55.000",
    "request_status": "Pending",
    "responsible_agency": "Department of Public Works",
    "final_address": "6941 Edgefield Dr",
    "address_councildis": "E",
    "status": "Pending",
    "rowid": "1019455",
    "final_x": "3719197.7381",
    "final_y": "568706.475813",
    "longitude": "-89.9476159217673",
    "latitude": "30.05654545601053",
    "geocoded_column": {
      "latitude": "30.05654545601053",
      "longitude": "-89.9476159217673"
    }
  },
  {
    "service_request": "2023-1019454",
    "request_type": "Roads/Drainage",
    "request_reason": "Alley Way",
    "date_created": "2023-07-21T15:00:35.000",
    "date_modified": "2023-07-21T15:00:35.000",
    "request_status": "Pending",
    "responsible_agency": "Department of Public Works",
    "final_address": "5924 Louis Xiv St",
    "address_councildis": "A",
    "status": "Pending",
    "rowid": "1019454",
    "final_x": "3667941.12884",
    "final_y": "546870.176401",
    "longitude": "-90.1103671679768",
    "latitude": "29.9981082185529",
    "geocoded_column": {
      "latitude": "29.9981082185529",
      "longitude": "-90.1103671679768"
    }
  },
  {
    "service_request": "2023-1019453",
    "request_type": "Trash/Recycling",
    "request_reason": "Order Recycling Cart",
    "date_created": "2023-07-21T14:54:17.000",
    "date_modified": "2023-07-21T14:57:32.000",
    "request_status": "Pending",
    "responsible_agency": "Department of Sanitation",
    "final_address": "10230 Flossmoor Dr",
    "address_councildis": "E",
    "status": "Pending",
    "rowid": "1019453",
    "final_x": "3709920.83774",
    "final_y": "563674.766305",
    "longitude": "-89.97712668421181",
    "latitude": "30.04301550060245",
    "geocoded_column": {
      "latitude": "30.04301550060245",
      "longitude": "-89.97712668421181"
    }
  },
  {
    "service_request": "2023-1019451",
    "request_type": "Roads/Drainage",
    "request_reason": "Catch Basin - Clogged",
    "date_created": "2023-07-21T14:51:55.000",
    "date_modified": "2023-07-21T14:51:55.000",
    "request_status": "Pending",
    "responsible_agency": "Department of Public Works",
    "final_address": "718 Piety St",
    "address_councildis": "C",
    "status": "Pending",
    "rowid": "1019451",
    "final_x": "3689474.26127",
    "final_y": "534455.121605",
    "longitude": "-90.04278617029769",
    "latitude": "29.963321721167194",
    "geocoded_column": {
      "latitude": "29.963321721167194",
      "longitude": "-90.04278617029769"
    }
  },
  {
    "service_request": "2023-1019450",
    "request_type": "Roads/Drainage",
    "request_reason": "Catch Basin - Clogged",
    "date_created": "2023-07-21T14:51:30.000",
    "date_modified": "2023-07-21T14:51:30.000",
    "request_status": "Pending",
    "responsible_agency": "Department of Public Works",
    "final_address": "718 Piety St",
    "address_councildis": "C",
    "status": "Pending",
    "rowid": "1019450",
    "final_x": "3689474.26127",
    "final_y": "534455.121605",
    "longitude": "-90.04278617029769",
    "latitude": "29.963321721167194",
    "geocoded_column": {
      "latitude": "29.963321721167194",
      "longitude": "-90.04278617029769"
    }
  },
  {
    "service_request": "2023-1019449",
    "request_type": "Roads/Drainage",
    "request_reason": "Pothole",
    "date_created": "2023-07-21T14:50:14.000",
    "date_modified": "2023-07-21T14:50:14.000",
    "request_status": "Pending",
    "responsible_agency": "Department of Public Works",
    "final_address": "1424 General Pershing St",
    "address_councildis": "B",
    "status": "Pending",
    "rowid": "1019449",
    "final_x": "3671231.74715",
    "final_y": "520565.119224",
    "longitude": "-90.10086591310865",
    "latitude": "29.92568109598324",
    "geocoded_column": {
      "latitude": "29.92568109598324",
      "longitude": "-90.10086591310865"
    }
  },
  {
    "service_request": "2023-1019447",
    "request_type": "Roads/Drainage",
    "request_reason": "Pothole",
    "date_created": "2023-07-21T14:50:13.000",
    "date_modified": "2023-07-21T14:50:13.000",
    "request_status": "Pending",
    "responsible_agency": "Department of Public Works",
    "final_address": "217 N Peters St",
    "address_councildis": "C",
    "status": "Pending",
    "rowid": "1019447",
    "final_x": "3682325.20316",
    "final_y": "530513.822978",
    "longitude": "-90.06549978359563",
    "latitude": "29.952703956376517",
    "geocoded_column": {
      "latitude": "29.952703956376517",
      "longitude": "-90.06549978359563"
    }
  },
  {
    "service_request": "2023-1019448",
    "request_type": "Parks & Parkways",
    "request_reason": "Request Tree Service (Right of Way/Public Property)",
    "date_created": "2023-07-21T14:50:13.000",
    "date_modified": "2023-07-21T14:50:13.000",
    "request_status": "Pending",
    "responsible_agency": "Department of Parks & Parkway",
    "final_address": "1738 Robert St",
    "address_councildis": "B",
    "status": "Pending",
    "rowid": "1019448",
    "final_x": "3668671.33159",
    "final_y": "522096.33689",
    "longitude": "-90.10889674269764",
    "latitude": "29.929966934647595",
    "geocoded_column": {
      "latitude": "29.929966934647595",
      "longitude": "-90.10889674269764"
    }
  },
  {
    "service_request": "2023-1019446",
    "request_type": "Trash/Recycling",
    "request_reason": "Request a Large Item Pick Up",
    "date_created": "2023-07-21T14:45:39.000",
    "date_modified": "2023-07-21T14:45:40.000",
    "request_status": "Pending",
    "responsible_agency": "Department of Sanitation",
    "final_address": "13237 St Helena Pl",
    "address_councildis": "E",
    "status": "Assigned to Contractor",
    "contractor": "Waste Pro",
    "rowid": "1019446",
    "final_x": "3726934.04313",
    "final_y": "564221.260065",
    "longitude": "-89.92333752255193",
    "latitude": "30.04395347426982",
    "geocoded_column": {
      "latitude": "30.04395347426982",
      "longitude": "-89.92333752255193"
    }
  },
  {
    "service_request": "2023-1019445",
    "request_type": "Trash/Recycling",
    "request_reason": "Request a Large Item Pick Up",
    "date_created": "2023-07-21T14:44:34.000",
    "date_modified": "2023-07-21T14:44:35.000",
    "request_status": "Pending",
    "responsible_agency": "Department of Sanitation",
    "final_address": "7638 Maple St",
    "address_councildis": "A",
    "status": "Assigned to Contractor",
    "contractor": "Richards Disposal",
    "rowid": "1019445",
    "final_x": "3662118.32058",
    "final_y": "526287.304574",
    "longitude": "-90.12944459983558",
    "latitude": "29.941681691242138",
    "geocoded_column": {
      "latitude": "29.941681691242138",
      "longitude": "-90.12944459983558"
    }
  },
  {
    "service_request": "2023-1019444",
    "request_type": "Parks & Parkways",
    "request_reason": "Request Tree Service (Right of Way/Public Property)",
    "date_created": "2023-07-21T14:44:03.000",
    "date_modified": "2023-07-21T14:44:03.000",
    "request_status": "Pending",
    "responsible_agency": "Department of Parks & Parkway",
    "final_address": "212 Audubon Blvd",
    "address_councildis": "A",
    "status": "Pending",
    "rowid": "1019444",
    "final_x": "3666196.38125",
    "final_y": "528490.828288",
    "longitude": "-90.11649540477715",
    "latitude": "29.94762222708292",
    "geocoded_column": {
      "latitude": "29.94762222708292",
      "longitude": "-90.11649540477715"
    }
  },
  {
    "service_request": "2023-1019443",
    "request_type": "Parks & Parkways",
    "request_reason": "Request Tree Service (Right of Way/Public Property)",
    "date_created": "2023-07-21T14:43:51.000",
    "date_modified": "2023-07-21T14:43:51.000",
    "request_status": "Pending",
    "responsible_agency": "Department of Parks & Parkway",
    "final_address": "718 Jefferson Ave",
    "address_councildis": "A",
    "status": "Pending",
    "rowid": "1019443",
    "final_x": "3666495.87706",
    "final_y": "518069.624182",
    "longitude": "-90.11589937313465",
    "latitude": "29.918958486054986",
    "geocoded_column": {
      "latitude": "29.918958486054986",
      "longitude": "-90.11589937313465"
    }
  },
  {
    "service_request": "2023-1019442",
    "request_type": "Trash/Recycling",
    "request_reason": "Request a Large Item Pick Up",
    "date_created": "2023-07-21T14:42:40.000",
    "date_modified": "2023-07-21T14:42:40.000",
    "request_status": "Pending",
    "responsible_agency": "Department of Sanitation",
    "final_address": "4920 Palace St",
    "address_councildis": "E",
    "status": "Assigned to Contractor",
    "contractor": "Waste Pro",
    "rowid": "1019442",
    "final_x": "3729094.42739",
    "final_y": "562526.974176",
    "longitude": "-89.91657607148825",
    "latitude": "30.0392216219623",
    "geocoded_column": {
      "latitude": "30.0392216219623",
      "longitude": "-89.91657607148825"
    }
  },
  {
    "service_request": "2023-1019441",
    "request_type": "Trash/Recycling",
    "request_reason": "Replace Trash Cart",
    "date_created": "2023-07-21T14:39:50.000",
    "date_modified": "2023-07-21T14:39:51.000",
    "request_status": "Pending",
    "responsible_agency": "Department of Sanitation",
    "final_address": "4132 Iberville St",
    "address_councildis": "A",
    "status": "Assigned to Contractor",
    "contractor": "Richards Disposal",
    "rowid": "1019441",
    "final_x": "3671080.67719",
    "final_y": "538837.964745",
    "longitude": "-90.10072229702116",
    "latitude": "29.97592988056902",
    "geocoded_column": {
      "latitude": "29.97592988056902",
      "longitude": "-90.10072229702116"
    }
  },
  {
    "service_request": "2023-1019440",
    "request_type": "Parks & Parkways",
    "request_reason": "Request Grass Cutting Service (City Owned Property)",
    "date_created": "2023-07-21T14:37:27.000",
    "date_modified": "2023-07-21T15:03:06.000",
    "case_close_date": "2023-07-21T10:03:06.000",
    "request_status": "Closed",
    "responsible_agency": "Department of Parks & Parkway",
    "final_address": "3301 Blair St",
    "address_councildis": "C",
    "status": "Resolved",
    "rowid": "1019440",
    "final_x": "3709381.43064",
    "final_y": "518626.258167",
    "longitude": "-89.98051230534469",
    "latitude": "29.9191664887311",
    "geocoded_column": {
      "latitude": "29.9191664887311",
      "longitude": "-89.98051230534469"
    }
  },
  {
    "service_request": "2023-1019439",
    "request_type": "Trash/Recycling",
    "request_reason": "MIssed Recycling Pick-Up",
    "date_created": "2023-07-21T14:36:50.000",
    "date_modified": "2023-07-21T14:36:51.000",
    "request_status": "Pending",
    "responsible_agency": "Department of Sanitation",
    "final_address": "13911 Wales St",
    "address_councildis": "E",
    "status": "Assigned to Contractor",
    "contractor": "Waste Pro",
    "rowid": "1019439",
    "final_x": "3717871.8021",
    "final_y": "572396.763113",
    "longitude": "-89.951666292221",
    "latitude": "30.066736233163798",
    "geocoded_column": {
      "latitude": "30.066736233163798",
      "longitude": "-89.951666292221"
    }
  },
  {
    "service_request": "2023-1019438",
    "request_type": "Safety & Permits",
    "request_reason": "Licenses & Permits",
    "date_created": "2023-07-21T14:28:48.000",
    "date_modified": "2023-07-21T14:28:49.000",
    "request_status": "Pending",
    "responsible_agency": "Safety and Permits",
    "final_address": "4229 Coliseum St",
    "address_councildis": "B",
    "status": "Pending",
    "rowid": "1019438",
    "final_x": "3671423.56404",
    "final_y": "519923.865464",
    "longitude": "-90.10028218704886",
    "latitude": "29.92391217847065",
    "geocoded_column": {
      "latitude": "29.92391217847065",
      "longitude": "-90.10028218704886"
    }
  },
  {
    "service_request": "2023-1019437",
    "request_type": "Roads/Drainage",
    "request_reason": "Alley Way",
    "date_created": "2023-07-21T14:25:27.000",
    "date_modified": "2023-07-21T14:28:53.000",
    "request_status": "Pending",
    "responsible_agency": "Department of Public Works",
    "final_address": "6443 Canal Blvd",
    "address_councildis": "A",
    "status": "Pending",
    "rowid": "1019437",
    "final_x": "3668896.65921",
    "final_y": "550400.807892",
    "longitude": "-90.10722930401808",
    "latitude": "30.0077881503203",
    "geocoded_column": {
      "latitude": "30.0077881503203",
      "longitude": "-90.10722930401808"
    }
  },
  {
    "service_request": "2023-1019436",
    "request_type": "Abandoned Vehicles",
    "request_reason": "Abandoned/Junk Vehicles",
    "date_created": "2023-07-21T14:23:43.000",
    "date_modified": "2023-07-21T14:23:43.000",
    "request_status": "Pending",
    "responsible_agency": "Department of Public Works",
    "final_address": "STATE ST & DELORD ST",
    "address_councildis": "A",
    "status": "Pending",
    "rowid": "1019436",
    "final_x": "3666928.1",
    "final_y": "526086.98",
    "longitude": "-90.11426582370457",
    "latitude": "29.940991033656523",
    "geocoded_column": {
      "latitude": "29.940991033656523",
      "longitude": "-90.11426582370457"
    }
  },
  {
    "service_request": "2023-1019435",
    "request_type": "Traffic Signals/Signs/Striping/Streetlights",
    "request_reason": "Traffic Signal Malfunctioning/Damaged",
    "date_created": "2023-07-21T14:19:11.000",
    "date_modified": "2023-07-21T14:19:11.000",
    "request_status": "Pending",
    "responsible_agency": "Department of Public Works",
    "final_address": "CROWDER BLVD & CROWDER EXIT & I 10 W ONRAMP",
    "address_councildis": "E",
    "status": "Pending",
    "rowid": "1019435",
    "final_x": "3704699.5",
    "final_y": "559063.58",
    "longitude": "-89.99379849601604",
    "latitude": "30.030505441406184",
    "geocoded_column": {
      "latitude": "30.030505441406184",
      "longitude": "-89.99379849601604"
    }
  },
  {
    "service_request": "2023-1019434",
    "request_type": "Abandoned Vehicles",
    "request_reason": "Abandoned/Junk Vehicles",
    "date_created": "2023-07-21T14:18:35.000",
    "date_modified": "2023-07-21T14:18:35.000",
    "request_status": "Pending",
    "responsible_agency": "Department of Public Works",
    "final_address": "STATE ST & DELORD ST",
    "address_councildis": "A",
    "status": "Pending",
    "rowid": "1019434",
    "final_x": "3666928.1",
    "final_y": "526086.98",
    "longitude": "-90.11426582370457",
    "latitude": "29.940991033656523",
    "geocoded_column": {
      "latitude": "29.940991033656523",
      "longitude": "-90.11426582370457"
    }
  },
  {
    "service_request": "2023-1019433",
    "request_type": "Traffic Signals/Signs/Striping/Streetlights",
    "request_reason": "Traffic Signal Malfunctioning/Damaged",
    "date_created": "2023-07-21T14:18:32.000",
    "date_modified": "2023-07-21T14:18:33.000",
    "request_status": "Pending",
    "responsible_agency": "Department of Public Works",
    "final_address": "CROWDER BLVD & I 10 E ONRAMP & CROWDER EXIT",
    "address_councildis": "E",
    "status": "Pending",
    "rowid": "1019433",
    "final_x": "3704803.6",
    "final_y": "558652.58",
    "longitude": "-89.9934847277084",
    "latitude": "30.029372005085413",
    "geocoded_column": {
      "latitude": "30.029372005085413",
      "longitude": "-89.9934847277084"
    }
  },
  {
    "service_request": "2023-1019432",
    "request_type": "Property Maintenance",
    "request_reason": "Property Maintenance",
    "date_created": "2023-07-21T14:16:42.000",
    "date_modified": "2023-07-21T14:16:42.000",
    "request_status": "Pending",
    "responsible_agency": "Department of Code Enforcement",
    "final_address": "3101 Rue Parc Fontaine Apt 1301",
    "address_councildis": "C",
    "status": "Pending",
    "rowid": "1019432",
    "final_x": "3699952.82359",
    "final_y": "519656.787896",
    "longitude": "-90.01023586511265",
    "latitude": "29.922302812544448",
    "geocoded_column": {
      "latitude": "29.922302812544448",
      "longitude": "-90.01023586511265"
    }
  },
  {
    "service_request": "2023-1019431",
    "request_type": "Property Maintenance",
    "request_reason": "Property Maintenance",
    "date_created": "2023-07-21T14:16:15.000",
    "date_modified": "2023-07-21T14:16:15.000",
    "request_status": "Pending",
    "responsible_agency": "Department of Code Enforcement",
    "final_address": "3101 Rue Parc Fontaine Apt 1301",
    "address_councildis": "C",
    "status": "Pending",
    "rowid": "1019431",
    "final_x": "3699952.82359",
    "final_y": "519656.787896",
    "longitude": "-90.01023586511265",
    "latitude": "29.922302812544448",
    "geocoded_column": {
      "latitude": "29.922302812544448",
      "longitude": "-90.01023586511265"
    }
  },
  {
    "service_request": "2023-1019430",
    "request_type": "Trash/Recycling",
    "request_reason": "Request a Large Item Pick Up",
    "date_created": "2023-07-21T14:14:41.000",
    "date_modified": "2023-07-21T14:14:41.000",
    "request_status": "Pending",
    "responsible_agency": "Department of Sanitation",
    "final_address": "4701 Owens Blvd",
    "address_councildis": "D",
    "status": "Assigned to Contractor",
    "contractor": "IV Waste",
    "rowid": "1019430",
    "final_x": "3676583.26337",
    "final_y": "549482.856531",
    "longitude": "-90.08297667769446",
    "latitude": "30.00503571168145",
    "geocoded_column": {
      "latitude": "30.00503571168145",
      "longitude": "-90.08297667769446"
    }
  },
  {
    "service_request": "2023-1019429",
    "request_type": "Trash/Recycling",
    "request_reason": "Request a Large Item Pick Up",
    "date_created": "2023-07-21T14:10:25.000",
    "date_modified": "2023-07-21T14:10:26.000",
    "request_status": "Pending",
    "responsible_agency": "Department of Sanitation",
    "final_address": "3117 Dumaine St",
    "address_councildis": "A",
    "status": "Assigned to Contractor",
    "contractor": "Richards Disposal",
    "rowid": "1019429",
    "final_x": "3675592.85281",
    "final_y": "538750.497993",
    "longitude": "-90.08647454368099",
    "latitude": "29.975555140723795",
    "geocoded_column": {
      "latitude": "29.975555140723795",
      "longitude": "-90.08647454368099"
    }
  },
  {
    "service_request": "2023-1019428",
    "request_type": "Trash/Recycling",
    "request_reason": "Request a Large Item Pick Up",
    "date_created": "2023-07-21T14:09:22.000",
    "date_modified": "2023-07-21T14:09:23.000",
    "request_status": "Pending",
    "responsible_agency": "Department of Sanitation",
    "final_address": "8007 Fig St",
    "address_councildis": "B",
    "status": "Assigned to Contractor",
    "contractor": "Richards Disposal",
    "rowid": "1019428",
    "final_x": "3666632.80589",
    "final_y": "532945.513476",
    "longitude": "-90.114967882056",
    "latitude": "29.95985840721936",
    "geocoded_column": {
      "latitude": "29.95985840721936",
      "longitude": "-90.114967882056"
    }
  },
  {
    "service_request": "2023-1019427",
    "request_type": "Roads/Drainage",
    "request_reason": "Road Shoulder Repair",
    "date_created": "2023-07-21T14:07:51.000",
    "date_modified": "2023-07-21T14:07:51.000",
    "request_status": "Pending",
    "responsible_agency": "Department of Public Works",
    "final_address": "7923 Hammond St",
    "address_councildis": "E",
    "status": "Pending",
    "rowid": "1019427",
    "final_x": "3704495.34762",
    "final_y": "555638.091609",
    "longitude": "-89.99457008629562",
    "latitude": "30.02109323792914",
    "geocoded_column": {
      "latitude": "30.02109323792914",
      "longitude": "-89.99457008629562"
    }
  },
  {
    "service_request": "2023-1019426",
    "request_type": "Roads/Drainage",
    "request_reason": "Road Shoulder Repair",
    "date_created": "2023-07-21T14:07:22.000",
    "date_modified": "2023-07-21T14:07:23.000",
    "request_status": "Pending",
    "responsible_agency": "Department of Public Works",
    "final_address": "7925 Hammond St",
    "address_councildis": "E",
    "status": "Pending",
    "rowid": "1019426",
    "final_x": "3704553.18378",
    "final_y": "555642.557977",
    "longitude": "-89.99438717694655",
    "latitude": "30.021103660558946",
    "geocoded_column": {
      "latitude": "30.021103660558946",
      "longitude": "-89.99438717694655"
    }
  },
  {
    "service_request": "2023-1019425",
    "request_type": "Trash/Recycling",
    "request_reason": "Illegal Dumping",
    "date_created": "2023-07-21T13:59:11.000",
    "date_modified": "2023-07-21T13:59:11.000",
    "request_status": "Pending",
    "responsible_agency": "Department of Sanitation",
    "final_address": "6320 N Johnson St",
    "address_councildis": "E",
    "status": "Pending",
    "rowid": "1019425",
    "final_x": "3701535.61137",
    "final_y": "536093.867975",
    "longitude": "-90.00463803921907",
    "latitude": "29.96744864304894",
    "geocoded_column": {
      "latitude": "29.96744864304894",
      "longitude": "-90.00463803921907"
    }
  },
  {
    "service_request": "2023-1019424",
    "request_type": "Property Maintenance",
    "request_reason": "Property Maintenance",
    "date_created": "2023-07-21T13:57:44.000",
    "date_modified": "2023-07-21T13:57:44.000",
    "request_status": "Pending",
    "responsible_agency": "Department of Code Enforcement",
    "final_address": "3325 N Miro St",
    "address_councildis": "D",
    "status": "Pending",
    "rowid": "1019424",
    "final_x": "3691094.7398",
    "final_y": "539937.42401",
    "longitude": "-90.03747310893485",
    "latitude": "29.97834583230723",
    "geocoded_column": {
      "latitude": "29.97834583230723",
      "longitude": "-90.03747310893485"
    }
  },
  {
    "service_request": "2023-1019423",
    "request_type": "Trash/Recycling",
    "request_reason": "Request a Large Item Pick Up",
    "date_created": "2023-07-21T13:57:37.000",
    "date_modified": "2023-07-21T13:57:38.000",
    "request_status": "Pending",
    "responsible_agency": "Department of Sanitation",
    "final_address": "2310 Fats Domino Ave",
    "address_councildis": "E",
    "status": "Assigned to Contractor",
    "contractor": "Waste Pro",
    "rowid": "1019423",
    "final_x": "3699214.07517",
    "final_y": "538376.934793",
    "longitude": "-90.01188629793346",
    "latitude": "29.973800071262165",
    "geocoded_column": {
      "latitude": "29.973800071262165",
      "longitude": "-90.01188629793346"
    }
  },
  {
    "service_request": "2023-1019422",
    "request_type": "Trash/Recycling",
    "request_reason": "Order Trash Cart",
    "date_created": "2023-07-21T13:57:07.000",
    "date_modified": "2023-07-21T13:57:08.000",
    "request_status": "Pending",
    "responsible_agency": "Department of Sanitation",
    "final_address": "9140 Bunker Hill Rd",
    "address_councildis": "E",
    "status": "Assigned to Contractor",
    "contractor": "Waste Pro",
    "rowid": "1019422",
    "final_x": "3707129.82257",
    "final_y": "560348.056477",
    "longitude": "-89.98607098273594",
    "latitude": "30.033958901948253",
    "geocoded_column": {
      "latitude": "30.033958901948253",
      "longitude": "-89.98607098273594"
    }
  },
  {
    "service_request": "2023-1019421",
    "request_type": "Trash/Recycling",
    "request_reason": "Illegal Dumping",
    "date_created": "2023-07-21T13:57:06.000",
    "date_modified": "2023-07-21T13:57:06.000",
    "request_status": "Pending",
    "responsible_agency": "Department of Sanitation",
    "final_address": "2619 Banks St A",
    "address_councildis": "B",
    "status": "Pending",
    "rowid": "1019421",
    "final_x": "3674963.31176",
    "final_y": "533963.863429",
    "longitude": "-90.08862702873034",
    "latitude": "29.96241233919172",
    "geocoded_column": {
      "latitude": "29.96241233919172",
      "longitude": "-90.08862702873034"
    }
  },
  {
    "service_request": "2023-1019420",
    "request_type": "Trash/Recycling",
    "request_reason": "Missed Trash Pick-Up",
    "date_created": "2023-07-21T13:55:36.000",
    "date_modified": "2023-07-21T13:55:37.000",
    "request_status": "Pending",
    "responsible_agency": "Department of Sanitation",
    "final_address": "4633 Pecan St",
    "address_councildis": "E",
    "status": "Assigned to Contractor",
    "contractor": "Waste Pro",
    "rowid": "1019420",
    "final_x": "3701916.97092",
    "final_y": "553681.542359",
    "longitude": "-90.00278875559688",
    "latitude": "30.0157960560853",
    "geocoded_column": {
      "latitude": "30.0157960560853",
      "longitude": "-90.00278875559688"
    }
  },
  {
    "service_request": "2023-1019419",
    "request_type": "Trash/Recycling",
    "request_reason": "Request a Large Item Pick Up",
    "date_created": "2023-07-21T13:55:34.000",
    "date_modified": "2023-07-21T13:55:35.000",
    "request_status": "Pending",
    "responsible_agency": "Department of Sanitation",
    "final_address": "4811 Warren Dr",
    "address_councildis": "E",
    "status": "Assigned to Contractor",
    "contractor": "Waste Pro",
    "rowid": "1019419",
    "final_x": "3713500.65304",
    "final_y": "556570.147162",
    "longitude": "-89.96608103824623",
    "latitude": "30.02336364641113",
    "geocoded_column": {
      "latitude": "30.02336364641113",
      "longitude": "-89.96608103824623"
    }
  },
  {
    "service_request": "2023-1019418",
    "request_type": "Abandoned Vehicles",
    "request_reason": "Abandoned/Junk Vehicles",
    "date_created": "2023-07-21T13:54:47.000",
    "date_modified": "2023-07-21T13:54:47.000",
    "request_status": "Pending",
    "responsible_agency": "Department of Public Works",
    "final_address": "6104 Colbert St",
    "address_councildis": "A",
    "status": "Pending",
    "rowid": "1019418",
    "final_x": "3667384.58138",
    "final_y": "548104.226194",
    "longitude": "-90.11208375226272",
    "latitude": "30.001517750790235",
    "geocoded_column": {
      "latitude": "30.001517750790235",
      "longitude": "-90.11208375226272"
    }
  },
  {
    "service_request": "2023-1019417",
    "request_type": "Roads/Drainage",
    "request_reason": "Street Subsidence (Sinking)",
    "date_created": "2023-07-21T13:53:43.000",
    "date_modified": "2023-07-21T13:53:43.000",
    "request_status": "Pending",
    "responsible_agency": "Department of Public Works",
    "final_address": "6724 Louis Xiv St",
    "address_councildis": "A",
    "status": "Pending",
    "rowid": "1019417",
    "final_x": "3668434.32212",
    "final_y": "552269.652566",
    "longitude": "-90.10862686197356",
    "latitude": "30.01294041294701",
    "geocoded_column": {
      "latitude": "30.01294041294701",
      "longitude": "-90.10862686197356"
    }
  },
  {
    "service_request": "2023-1019416",
    "request_type": "Trash/Recycling",
    "request_reason": "Request a Large Item Pick Up",
    "date_created": "2023-07-21T13:53:22.000",
    "date_modified": "2023-07-21T13:53:22.000",
    "request_status": "Pending",
    "responsible_agency": "Department of Sanitation",
    "status": "Assigned to Contractor",
    "rowid": "1019416",
    "longitude": "0.0",
    "latitude": "0.0",
    "geocoded_column": {
      "latitude": "0.0",
      "longitude": "0.0"
    }
  },
  {
    "service_request": "2023-1019415",
    "request_type": "Trash/Recycling",
    "request_reason": "Request a Large Item Pick Up",
    "date_created": "2023-07-21T13:53:16.000",
    "date_modified": "2023-07-21T13:53:17.000",
    "request_status": "Pending",
    "responsible_agency": "Department of Sanitation",
    "status": "Assigned to Contractor",
    "rowid": "1019415",
    "longitude": "0.0",
    "latitude": "0.0",
    "geocoded_column": {
      "latitude": "0.0",
      "longitude": "0.0"
    }
  },
  {
    "service_request": "2023-1019414",
    "request_type": "Trash/Recycling",
    "request_reason": "Request a Large Item Pick Up",
    "date_created": "2023-07-21T13:53:00.000",
    "date_modified": "2023-07-21T13:53:01.000",
    "request_status": "Pending",
    "responsible_agency": "Department of Sanitation",
    "final_address": "1615 Lisbon St",
    "address_councildis": "D",
    "status": "Assigned to Contractor",
    "contractor": "IV Waste",
    "rowid": "1019414",
    "final_x": "3679069.3661",
    "final_y": "556270.297434",
    "longitude": "-90.07488705930703",
    "latitude": "30.02362389504491",
    "geocoded_column": {
      "latitude": "30.02362389504491",
      "longitude": "-90.07488705930703"
    }
  },
  {
    "service_request": "2023-1019413",
    "request_type": "Trash/Recycling",
    "request_reason": "Return Trash Cart",
    "date_created": "2023-07-21T13:52:52.000",
    "date_modified": "2023-07-21T16:11:48.000",
    "case_close_date": "2023-07-21T11:11:48.000",
    "request_status": "Closed",
    "responsible_agency": "Department of Sanitation",
    "final_address": "4618 Bundy Rd",
    "address_councildis": "E",
    "status": "Assigned to Contractor",
    "contractor": "Waste Pro",
    "contractor_action": "Completed",
    "rowid": "1019413",
    "final_x": "3709348.30117",
    "final_y": "554963.619032",
    "longitude": "-89.97926145664017",
    "latitude": "30.019081903457163",
    "geocoded_column": {
      "latitude": "30.019081903457163",
      "longitude": "-89.97926145664017"
    }
  },
  {
    "service_request": "2023-1019412",
    "request_type": "Trash/Recycling",
    "request_reason": "Request a Large Item Pick Up",
    "date_created": "2023-07-21T13:41:52.000",
    "date_modified": "2023-07-21T13:41:53.000",
    "request_status": "Pending",
    "responsible_agency": "Department of Sanitation",
    "final_address": "4327 Ray Ave",
    "address_councildis": "E",
    "status": "Assigned to Contractor",
    "contractor": "Waste Pro",
    "rowid": "1019412",
    "final_x": "3699067.42768",
    "final_y": "552137.679766",
    "longitude": "-90.01184822800099",
    "latitude": "30.011641691461982",
    "geocoded_column": {
      "latitude": "30.011641691461982",
      "longitude": "-90.01184822800099"
    }
  },
  {
    "service_request": "2023-1019411",
    "request_type": "Safety & Permits",
    "request_reason": "Licenses & Permits",
    "date_created": "2023-07-21T13:39:54.000",
    "date_modified": "2023-07-21T13:39:55.000",
    "request_status": "Pending",
    "responsible_agency": "Safety and Permits",
    "final_address": "5790 Crowder Blvd",
    "address_councildis": "E",
    "status": "Pending",
    "rowid": "1019411",
    "final_x": "3704694.77431",
    "final_y": "558192.461531",
    "longitude": "-89.99384560868877",
    "latitude": "30.0281103569615",
    "geocoded_column": {
      "latitude": "30.0281103569615",
      "longitude": "-89.99384560868877"
    }
  },
  {
    "service_request": "2023-1019410",
    "request_type": "Roads/Drainage",
    "request_reason": "Catch Basin - Clogged",
    "date_created": "2023-07-21T13:39:00.000",
    "date_modified": "2023-07-21T13:39:00.000",
    "request_status": "Pending",
    "responsible_agency": "Department of Public Works",
    "final_address": "227 Bourbon St",
    "address_councildis": "C",
    "status": "Pending",
    "rowid": "1019410",
    "final_x": "3681277.67452",
    "final_y": "531424.927171",
    "longitude": "-90.06877565800119",
    "latitude": "29.955241013195174",
    "geocoded_column": {
      "latitude": "29.955241013195174",
      "longitude": "-90.06877565800119"
    }
  },
  {
    "service_request": "2023-1019409",
    "request_type": "Parks & Parkways",
    "request_reason": "Request Tree Service (Right of Way/Public Property)",
    "date_created": "2023-07-21T13:35:14.000",
    "date_modified": "2023-07-21T13:35:14.000",
    "request_status": "Pending",
    "responsible_agency": "Department of Parks & Parkway",
    "final_address": "506 Short St",
    "address_councildis": "A",
    "status": "Pending",
    "rowid": "1019409",
    "final_x": "3660629.22003",
    "final_y": "526298.523774",
    "longitude": "-90.13414564746667",
    "latitude": "29.94175547617331",
    "geocoded_column": {
      "latitude": "29.94175547617331",
      "longitude": "-90.13414564746667"
    }
  },
  {
    "service_request": "2023-1019408",
    "request_type": "Trash/Recycling",
    "request_reason": "Missed Trash Pick-Up",
    "date_created": "2023-07-21T13:33:37.000",
    "date_modified": "2023-07-21T13:33:37.000",
    "request_status": "Pending",
    "responsible_agency": "Department of Sanitation",
    "final_address": "3301 St Charles Ave",
    "address_councildis": "B",
    "status": "Assigned to Contractor",
    "contractor": "Richards Disposal",
    "rowid": "1019408",
    "final_x": "3674509.86772",
    "final_y": "521743.833914",
    "longitude": "-90.0904775069435",
    "latitude": "29.92882482169829",
    "geocoded_column": {
      "latitude": "29.92882482169829",
      "longitude": "-90.0904775069435"
    }
  },
  {
    "service_request": "2023-1019407",
    "request_type": "Roads/Drainage",
    "request_reason": "Pothole",
    "date_created": "2023-07-21T13:27:15.000",
    "date_modified": "2023-07-21T13:27:15.000",
    "request_status": "Pending",
    "responsible_agency": "Department of Public Works",
    "final_address": "415 Bellaire Dr",
    "address_councildis": "A",
    "status": "Pending",
    "rowid": "1019407",
    "final_x": "3664019.00698",
    "final_y": "542396.754381",
    "longitude": "-90.12290644353483",
    "latitude": "29.98592234652699",
    "geocoded_column": {
      "latitude": "29.98592234652699",
      "longitude": "-90.12290644353483"
    }
  },
  {
    "service_request": "2023-1019406",
    "request_type": "Trash/Recycling",
    "request_reason": "Repair Trash Cart",
    "date_created": "2023-07-21T13:25:07.000",
    "date_modified": "2023-07-21T13:25:07.000",
    "request_status": "Pending",
    "responsible_agency": "Department of Sanitation",
    "final_address": "1016 Washington Ave",
    "address_councildis": "B",
    "status": "Assigned to Contractor",
    "contractor": "Richards Disposal",
    "rowid": "1019406",
    "final_x": "3677115.28654",
    "final_y": "520610.05132",
    "longitude": "-90.082291802655",
    "latitude": "29.925629324709064",
    "geocoded_column": {
      "latitude": "29.925629324709064",
      "longitude": "-90.082291802655"
    }
  },