[
  {
    "service_request": "2021-842366",
    "request_type": "Trash/Recycling",
    "request_reason": "Illegal Dumping",
    "date_created": "2021-11-15T22:44:19.000",
    "date_modified": "2021-11-15T22:44:19.000",
    "request_status": "Pending",
    "responsible_agency": "Department of Sanitation",
    "final_address": "2010 Second St",
    "address_councildis": "B",
    "status": "Pending",
    "rowid": "842366",
    "final_x": "3675819.79374",
    "final_y": "524310.139516",
    "longitude": "-90.0862541624071",
    "latitude": "29.9358421929424",
    "geocoded_column": {
      "latitude": "29.9358421929424",
      "longitude": "-90.0862541624071"
    }
  },
  {
    "service_request": "2021-842365",
    "request_type": "Safety & Permits",
    "request_reason": "Construction permit",
    "date_created": "2021-11-15T21:23:23.000",
    "date_modified": "2021-11-15T21:23:23.000",
    "request_status": "Pending",
    "responsible_agency": "Department of Code Enforcement",
    "final_address": "1714 Governor Nicholls St",
    "address_councildis": "D",
    "status": "Pending",
    "rowid": "842365",
    "final_x": "3680679.67087",
    "final_y": "536155.159239",
    "longitude": "-90.07049931879075",
    "latitude": "29.968265672379363",
    "geocoded_column": {
      "latitude": "29.968265672379363",
      "longitude": "-90.07049931879075"
    }
  },
  {
    "service_request": "2021-842364",
    "request_type": "Abandoned Vehicles",
    "request_reason": "Abandoned/Junk Vehicles",
    "date_created": "2021-11-15T21:22:23.000",
    "date_modified": "2021-11-15T21:22:23.000",
    "request_status": "Pending",
    "responsible_agency": "Department of Public Works",
    "final_address": "537 S Rocheblave St",
    "address_councildis": "B",
    "status": "Pending",
    "rowid": "842364",
    "final_x": "3674978.78401",
    "final_y": "533041.44154",
    "longitude": "-90.08860981201978",
    "latitude": "29.95987552663811",
    "geocoded_column": {
      "latitude": "29.95987552663811",
      "longitude": "-90.08860981201978"
    }
  },
  {
    "service_request": "2021-842362",
    "request_type": "Trash/Recycling",
    "request_reason": "Missed Trash Pick-Up",
    "date_created": "2021-11-15T21:13:48.000",
    "date_modified": "2021-11-15T21:13:48.000",
    "request_status": "Pending",
    "responsible_agency": "Department of Sanitation",
    "final_address": "919 Franklin Ave",
    "address_councildis": "C",
    "status": "Assigned to Contractor",
    "contractor": "Metro Disposal",
    "rowid": "842362",
    "final_x": "3686992.87951",
    "final_y": "535836.237319",
    "longitude": "-90.05057325056477",
    "latitude": "29.967195922244624",
    "geocoded_column": {
      "latitude": "29.967195922244624",
      "longitude": "-90.05057325056477"
    }
  },
  {
    "service_request": "2021-842361",
    "request_type": "Roads/Drainage",
    "request_reason": "Pothole",
    "date_created": "2021-11-15T21:07:53.000",
    "date_modified": "2021-11-15T21:07:53.000",
    "request_status": "Pending",
    "responsible_agency": "Department of Public Works",
    "final_address": "FRANKLIN AVE & N MIRO ST",
    "address_councildis": "D",
    "status": "Pending",
    "rowid": "842361",
    "final_x": "3687634.8",
    "final_y": "540595.28",
    "longitude": "-90.04837752680744",
    "latitude": "29.980261842020028",
    "geocoded_column": {
      "latitude": "29.980261842020028",
      "longitude": "-90.04837752680744"
    }
  },
  {
    "service_request": "2021-842360",
    "request_type": "Traffic Signals/Signs/Striping/Streetlights",
    "request_reason": "Street Light Outage/Malfunction",
    "date_created": "2021-11-15T20:59:09.000",
    "date_modified": "2021-11-15T20:59:10.000",
    "request_status": "Pending",
    "responsible_agency": "Department of Public Works",
    "final_address": "5400 BLK Magnolia St",
    "address_councildis": "A",
    "status": "Pending",
    "contractor": "Royal Engineering",
    "rowid": "842360",
    "final_x": "3667895.55951",
    "final_y": "524720.922131",
    "longitude": "-90.11125736702326",
    "latitude": "29.937206476541583",
    "geocoded_column": {
      "latitude": "29.937206476541583",
      "longitude": "-90.11125736702326"
    }
  },
  {
    "service_request": "2021-842357",
    "request_type": "Trash/Recycling",
    "request_reason": "Missed Trash Pick-Up",
    "date_created": "2021-11-15T20:31:18.000",
    "date_modified": "2021-11-15T20:31:19.000",
    "request_status": "Pending",
    "responsible_agency": "Department of Sanitation",
    "final_address": "528 Franklin Ave",
    "address_councildis": "C",
    "status": "Assigned to Contractor",
    "contractor": "Metro Disposal",
    "rowid": "842357",
    "final_x": "3686580.33615",
    "final_y": "534498.659525",
    "longitude": "-90.05192330226801",
    "latitude": "29.963530740243193",
    "geocoded_column": {
      "latitude": "29.963530740243193",
      "longitude": "-90.05192330226801"
    }
  },
  {
    "service_request": "2021-842356",
    "request_type": "Traffic Signals/Signs/Striping/Streetlights",
    "request_reason": "Traffic Signal Malfunctioning/Damaged",
    "date_created": "2021-11-15T20:26:53.000",
    "date_modified": "2021-11-15T20:26:53.000",
    "request_status": "Pending",
    "responsible_agency": "Department of Public Works",
    "final_address": "2800 S Carrollton Ave",
    "address_councildis": "A",
    "status": "Pending",
    "rowid": "842356",
    "final_x": "3665839.74567",
    "final_y": "532697.821636",
    "longitude": "-90.11748049956833",
    "latitude": "29.95920049874055",
    "geocoded_column": {
      "latitude": "29.95920049874055",
      "longitude": "-90.11748049956833"
    }
  },
  {
    "service_request": "2021-842355",
    "request_type": "Trash/Recycling",
    "request_reason": "Illegal Dumping",
    "date_created": "2021-11-15T20:17:16.000",
    "date_modified": "2021-11-15T20:17:16.000",
    "request_status": "Pending",
    "responsible_agency": "Department of Sanitation",
    "final_address": "2713 N Roman St",
    "address_councildis": "D",
    "status": "Pending",
    "rowid": "842355",
    "final_x": "3688212.75292",
    "final_y": "539015.543178",
    "longitude": "-90.04660814107022",
    "latitude": "29.975900290640247",
    "geocoded_column": {
      "latitude": "29.975900290640247",
      "longitude": "-90.04660814107022"
    }
  },
  {
    "service_request": "2021-842354",
    "request_type": "Traffic Signals/Signs/Striping/Streetlights",
    "request_reason": "Street Light Knocked Down/Leaning",
    "date_created": "2021-11-15T20:16:58.000",
    "date_modified": "2021-11-15T20:16:59.000",
    "request_status": "Pending",
    "responsible_agency": "Department of Public Works",
    "final_address": "53 Crane St",
    "address_councildis": "D",
    "status": "Pending",
    "contractor": "Royal Engineering",
    "rowid": "842354",
    "final_x": "3672985.3108",
    "final_y": "555182.694617",
    "longitude": "-90.09414864096532",
    "latitude": "30.020815704425274",
    "geocoded_column": {
      "latitude": "30.020815704425274",
      "longitude": "-90.09414864096532"
    }
  },
  {
    "service_request": "2021-842353",
    "request_type": "Traffic Signals/Signs/Striping/Streetlights",
    "request_reason": "Traffic Signal Malfunctioning/Damaged",
    "date_created": "2021-11-15T20:13:54.000",
    "date_modified": "2021-11-15T20:13:54.000",
    "request_status": "Pending",
    "responsible_agency": "Department of Public Works",
    "final_address": "53 Crane St",
    "address_councildis": "D",
    "status": "Pending",
    "rowid": "842353",
    "final_x": "3672985.3108",
    "final_y": "555182.694617",
    "longitude": "-90.09414864096532",
    "latitude": "30.020815704425274",
    "geocoded_column": {
      "latitude": "30.020815704425274",
      "longitude": "-90.09414864096532"
    }
  },
  {
    "service_request": "2021-842352",
    "request_type": "Trash/Recycling",
    "request_reason": "Illegal Dumping",
    "date_created": "2021-11-15T19:29:55.000",
    "date_modified": "2021-11-15T19:29:55.000",
    "request_status": "Pending",
    "responsible_agency": "Department of Sanitation",
    "final_address": "4532 Banks St",
    "address_councildis": "A",
    "status": "Pending",
    "rowid": "842352",
    "final_x": "3668702.54734",
    "final_y": "538563.403465",
    "longitude": "-90.10824240741275",
    "latitude": "29.975245057320944",
    "geocoded_column": {
      "latitude": "29.975245057320944",
      "longitude": "-90.10824240741275"
    }
  },
  {
    "service_request": "2021-842351",
    "request_type": "Traffic Signals/Signs/Striping/Streetlights",
    "request_reason": "Street Light Outage/Malfunction",
    "date_created": "2021-11-15T19:14:31.000",
    "date_modified": "2021-11-15T19:14:32.000",
    "request_status": "Pending",
    "responsible_agency": "Department of Public Works",
    "final_address": "5350 Prytania St",
    "address_councildis": "B",
    "status": "Pending",
    "contractor": "Royal Engineering",
    "rowid": "842351",
    "final_x": "3667253.74503",
    "final_y": "520194.253304",
    "longitude": "-90.1134357682562",
    "latitude": "29.92477838421913",
    "geocoded_column": {
      "latitude": "29.92477838421913",
      "longitude": "-90.1134357682562"
    }
  },
  {
    "service_request": "2021-842350",
    "request_type": "Traffic Signals/Signs/Striping/Streetlights",
    "request_reason": "Traffic Signal Malfunctioning/Damaged",
    "date_created": "2021-11-15T18:55:52.000",
    "date_modified": "2021-11-15T18:55:52.000",
    "request_status": "Pending",
    "responsible_agency": "Department of Public Works",
    "final_address": "5080 Pontchartrain Blvd",
    "address_councildis": "A",
    "status": "Pending",
    "rowid": "842350",
    "final_x": "3666841.38119",
    "final_y": "540528.132811",
    "longitude": "-90.1140544564024",
    "latitude": "29.980701987063558",
    "geocoded_column": {
      "latitude": "29.980701987063558",
      "longitude": "-90.1140544564024"
    }
  },
  {
    "service_request": "2021-842349",
    "request_type": "Roads/Drainage",
    "request_reason": "Catch Basin - Broken/Damage",
    "date_created": "2021-11-15T18:45:28.000",
    "date_modified": "2021-11-15T18:45:28.000",
    "request_status": "Pending",
    "responsible_agency": "Department of Public Works",
    "final_address": "4524 Bancroft Dr",
    "address_councildis": "D",
    "status": "Pending",
    "rowid": "842349",
    "final_x": "3676190.22939",
    "final_y": "548808.307795",
    "longitude": "-90.08424158567357",
    "latitude": "30.003192728572262",
    "geocoded_column": {
      "latitude": "30.003192728572262",
      "longitude": "-90.08424158567357"
    }
  },
  {
    "service_request": "2021-842348",
    "request_type": "Traffic Signals/Signs/Striping/Streetlights",
    "request_reason": "Traffic Signal Malfunctioning/Damaged",
    "date_created": "2021-11-15T18:21:45.000",
    "date_modified": "2021-11-15T18:21:46.000",
    "request_status": "Pending",
    "responsible_agency": "Department of Public Works",
    "final_address": "DIXON ST & S CARROLLTON AVE",
    "address_councildis": "A",
    "status": "Pending",
    "rowid": "842348",
    "final_x": "3668460.8",
    "final_y": "535443.28",
    "longitude": "-90.10911119468042",
    "latitude": "29.966672865841474",
    "geocoded_column": {
      "latitude": "29.966672865841474",
      "longitude": "-90.10911119468042"
    }
  },
  {
    "service_request": "2021-842347",
    "request_type": "Traffic Signals/Signs/Striping/Streetlights",
    "request_reason": "Street Light Outage/Malfunction",
    "date_created": "2021-11-15T18:19:08.000",
    "date_modified": "2021-11-15T18:19:08.000",
    "request_status": "Pending",
    "responsible_agency": "Department of Public Works",
    "final_address": "8326 Sycamore St",
    "address_councildis": "A",
    "status": "Pending",
    "contractor": "Royal Engineering",
    "rowid": "842347",
    "final_x": "3663589.35232",
    "final_y": "531586.495491",
    "longitude": "-90.12462374665762",
    "latitude": "29.956210180599268",
    "geocoded_column": {
      "latitude": "29.956210180599268",
      "longitude": "-90.12462374665762"
    }
  },
  {
    "service_request": "2021-842346",
    "request_type": "Traffic Signals/Signs/Striping/Streetlights",
    "request_reason": "Traffic Signal Malfunctioning/Damaged",
    "date_created": "2021-11-15T18:17:41.000",
    "date_modified": "2021-11-15T19:02:42.000",
    "request_status": "Pending",
    "responsible_agency": "Department of Public Works",
    "final_address": "3800 S Carrollton Ave",
    "address_councildis": "A",
    "status": "Pending",
    "rowid": "842346",
    "final_x": "3668219.71425",
    "final_y": "535411.318918",
    "longitude": "-90.10987362213439",
    "latitude": "29.966592063794067",
    "geocoded_column": {
      "latitude": "29.966592063794067",
      "longitude": "-90.10987362213439"
    }
  },
  {
    "service_request": "2021-842345",
    "request_type": "Trash/Recycling",
    "request_reason": "Order Recycling Cart",
    "date_created": "2021-11-15T18:16:10.000",
    "date_modified": "2021-11-15T18:16:10.000",
    "request_status": "Pending",
    "responsible_agency": "Department of Sanitation",
    "final_address": "802 Philip St",
    "address_councildis": "B",
    "status": "Pending",
    "rowid": "842345",
    "final_x": "3679160.62325",
    "final_y": "520980.390137",
    "longitude": "-90.07582246824852",
    "latitude": "29.92658607362606",
    "geocoded_column": {
      "latitude": "29.92658607362606",
      "longitude": "-90.07582246824852"
    }
  },
  {
    "service_request": "2021-842344",
    "request_type": "Traffic Signals/Signs/Striping/Streetlights",
    "request_reason": "Traffic Signal Malfunctioning/Damaged",
    "date_created": "2021-11-15T17:55:28.000",
    "date_modified": "2021-11-15T18:02:19.000",
    "request_status": "Pending",
    "responsible_agency": "Department of Public Works",
    "final_address": "MOSS ST & ORLEANS AVE",
    "address_councildis": "A",
    "status": "Pending",
    "rowid": "842344",
    "final_x": "3674424.0",
    "final_y": "538813.88",
    "longitude": "-90.09016393547608",
    "latitude": "29.975764340725075",
    "geocoded_column": {
      "latitude": "29.975764340725075",
      "longitude": "-90.09016393547608"
    }
  },
  {
    "service_request": "2021-842343",
    "request_type": "Trash/Recycling",
    "request_reason": "Repair Trash Cart",
    "date_created": "2021-11-15T17:54:14.000",
    "date_modified": "2021-11-15T18:02:22.000",
    "request_status": "Pending",
    "responsible_agency": "Department of Sanitation",
    "final_address": "5630 New England Dr",
    "address_councildis": "E",
    "status": "Assigned to Contractor",
    "contractor": "Metro Disposal",
    "rowid": "842343",
    "final_x": "3723573.82105",
    "final_y": "564272.477921",
    "longitude": "-89.9339551795746",
    "latitude": "30.04420756688486",
    "geocoded_column": {
      "latitude": "30.04420756688486",
      "longitude": "-89.9339551795746"
    }
  },
  {
    "service_request": "2021-842342",
    "request_type": "Traffic Signals/Signs/Striping/Streetlights",
    "request_reason": "Street Light Outage/Malfunction",
    "date_created": "2021-11-15T17:42:41.000",
    "date_modified": "2021-11-15T18:02:23.000",
    "request_status": "Pending",
    "responsible_agency": "Department of Public Works",
    "final_address": "6516 Bellaire Dr",
    "address_councildis": "A",
    "status": "Pending",
    "contractor": "Royal Engineering",
    "rowid": "842342",
    "final_x": "3664431.94816",
    "final_y": "551450.278165",
    "longitude": "-90.12129963561242",
    "latitude": "30.010804436871908",
    "geocoded_column": {
      "latitude": "30.010804436871908",
      "longitude": "-90.12129963561242"
    }
  },
  {
    "service_request": "2021-842341",
    "request_type": "Traffic Signals/Signs/Striping/Streetlights",
    "request_reason": "Street Light Outage/Malfunction",
    "date_created": "2021-11-15T17:36:23.000",
    "date_modified": "2021-11-15T18:02:24.000",
    "request_status": "Pending",
    "responsible_agency": "Department of Public Works",
    "final_address": "5122 Cartier Ave",
    "address_councildis": "D",
    "status": "Pending",
    "contractor": "Royal Engineering",
    "rowid": "842341",
    "final_x": "3677627.9188",
    "final_y": "551030.382933",
    "longitude": "-90.07962290007043",
    "latitude": "30.009259471470884",
    "geocoded_column": {
      "latitude": "30.009259471470884",
      "longitude": "-90.07962290007043"
    }
  },
  {
    "service_request": "2021-842340",
    "request_type": "Trash/Recycling",
    "request_reason": "Missed Trash Pick-Up",
    "date_created": "2021-11-15T17:35:03.000",
    "date_modified": "2021-11-15T18:02:25.000",
    "request_status": "Pending",
    "responsible_agency": "Department of Sanitation",
    "final_address": "5122 Cartier Ave",
    "address_councildis": "D",
    "status": "Assigned to Contractor",
    "contractor": "Metro Disposal",
    "rowid": "842340",
    "final_x": "3677627.9188",
    "final_y": "551030.382933",
    "longitude": "-90.07962290007043",
    "latitude": "30.009259471470884",
    "geocoded_column": {
      "latitude": "30.009259471470884",
      "longitude": "-90.07962290007043"
    }
  },
  {
    "service_request": "2021-842339",
    "request_type": "Abandoned Vehicles",
    "request_reason": "Abandoned/Junk Vehicles",
    "date_created": "2021-11-15T17:22:33.000",
    "date_modified": "2021-11-15T17:22:33.000",
    "request_status": "Pending",
    "responsible_agency": "Department of Public Works",
    "final_address": "737 Alvar St",
    "address_councildis": "C",
    "status": "Pending",
    "rowid": "842339",
    "final_x": "3691223.04092",
    "final_y": "534172.153861",
    "longitude": "-90.03727384847002",
    "latitude": "29.962489384999238",
    "geocoded_column": {
      "latitude": "29.962489384999238",
      "longitude": "-90.03727384847002"
    }
  },
  {
    "service_request": "2021-842338",
    "request_type": "Trash/Recycling",
    "request_reason": "Repair Recycling Cart",
    "date_created": "2021-11-15T17:01:23.000",
    "date_modified": "2021-11-15T17:01:50.000",
    "case_close_date": "2019-09-22T19:00:00.000",
    "request_status": "Pending",
    "responsible_agency": "Department of Sanitation",
    "final_address": "2724 Mithra St",
    "address_councildis": "D",
    "status": "Pending",
    "rowid": "842338",
    "final_x": "3687559.30972",
    "final_y": "552934.393751",
    "longitude": "-90.04817885208625",
    "latitude": "30.014192278409258",
    "geocoded_column": {
      "latitude": "30.014192278409258",
      "longitude": "-90.04817885208625"
    }
  },
  {
    "service_request": "2021-842337",
    "request_type": "Traffic Signals/Signs/Striping/Streetlights",
    "request_reason": "Traffic Signal Malfunctioning/Damaged",
    "date_created": "2021-11-15T16:56:13.000",
    "date_modified": "2021-11-15T17:01:52.000",
    "request_status": "Pending",
    "responsible_agency": "Department of Public Works",
    "final_address": "PRESS DR & CHEF MENTEUR HWY",
    "address_councildis": "D",
    "status": "Pending",
    "rowid": "842337",
    "final_x": "3690197.0",
    "final_y": "549256.08",
    "longitude": "-90.03997628024518",
    "latitude": "30.003996661255247",
    "geocoded_column": {
      "latitude": "30.003996661255247",
      "longitude": "-90.03997628024518"
    }
  },
  {
    "service_request": "2021-842336",
    "request_type": "Roads/Drainage",
    "request_reason": "Pothole",
    "date_created": "2021-11-15T16:48:30.000",
    "date_modified": "2021-11-15T17:01:54.000",
    "request_status": "Pending",
    "responsible_agency": "Department of Public Works",
    "final_address": "219 Whitney Ave",
    "address_councildis": "C",
    "status": "Pending",
    "rowid": "842336",
    "final_x": "3690213.9583",
    "final_y": "530878.602818",
    "longitude": "-90.0405777214524",
    "latitude": "29.95346460911449",
    "geocoded_column": {
      "latitude": "29.95346460911449",
      "longitude": "-90.0405777214524"
    }
  },
  {
    "service_request": "2021-842335",
    "request_type": "Safety & Permits",
    "request_reason": "Licenses & Permits",
    "date_created": "2021-11-15T16:44:15.000",
    "date_modified": "2021-11-15T16:44:15.000",
    "request_status": "Pending",
    "responsible_agency": "Safety and Permits",
    "final_address": "2544 Dumaine St",
    "address_councildis": "D",
    "status": "Pending",
    "rowid": "842335",
    "final_x": "3677652.67042",
    "final_y": "537080.595336",
    "longitude": "-90.08002675719123",
    "latitude": "29.9709016889274",
    "geocoded_column": {
      "latitude": "29.9709016889274",
      "longitude": "-90.08002675719123"
    }
  },
  {
    "service_request": "2021-842334",
    "request_type": "Roads/Drainage",
    "request_reason": "Accessibility Ramps, Curbs and Sidewalk Repair",
    "date_created": "2021-11-15T16:43:15.000",
    "date_modified": "2021-11-15T16:43:15.000",
    "request_status": "Pending",
    "responsible_agency": "Department of Public Works",
    "final_address": "5936 Chestnut St",
    "address_councildis": "A",
    "status": "Pending",
    "rowid": "842334",
    "final_x": "3665058.17364",
    "final_y": "519732.814712",
    "longitude": "-90.12038190717045",
    "latitude": "29.92357366341712",
    "geocoded_column": {
      "latitude": "29.92357366341712",
      "longitude": "-90.12038190717045"
    }
  },
  {
    "service_request": "2021-842333",
    "request_type": "Trash/Recycling",
    "request_reason": "Replace Trash Cart",
    "date_created": "2021-11-15T16:41:42.000",
    "date_modified": "2021-11-15T17:01:56.000",
    "request_status": "Pending",
    "responsible_agency": "Department of Sanitation",
    "final_address": "115 Westpark Ct",
    "address_councildis": "C",
    "status": "Assigned to Contractor",
    "contractor": "Richards Disposal",
    "rowid": "842333",
    "final_x": "3695769.3208",
    "final_y": "521958.927802",
    "longitude": "-90.0233583221829",
    "latitude": "29.928765078942483",
    "geocoded_column": {
      "latitude": "29.928765078942483",
      "longitude": "-90.0233583221829"
    }
  },
  {
    "service_request": "2021-842332",
    "request_type": "Trash/Recycling",
    "request_reason": "Illegal Dumping",
    "date_created": "2021-11-15T16:41:00.000",
    "date_modified": "2021-11-15T16:41:00.000",
    "request_status": "Pending",
    "responsible_agency": "Department of Sanitation",
    "final_address": "2544 Dumaine St",
    "address_councildis": "D",
    "status": "Pending",
    "rowid": "842332",
    "final_x": "3677652.67042",
    "final_y": "537080.595336",
    "longitude": "-90.08002675719123",
    "latitude": "29.9709016889274",
    "geocoded_column": {
      "latitude": "29.9709016889274",
      "longitude": "-90.08002675719123"
    }
  },
  {
    "service_request": "2021-842331",
    "request_type": "Property Maintenance",
    "request_reason": "Property Maintenance",
    "date_created": "2021-11-15T16:39:07.000",
    "date_modified": "2021-11-15T16:39:07.000",
    "request_status": "Pending",
    "responsible_agency": "Department of Code Enforcement",
    "final_address": "2544 Dumaine St",
    "address_councildis": "D",
    "status": "Pending",
    "rowid": "842331",
    "final_x": "3677652.67042",
    "final_y": "537080.595336",
    "longitude": "-90.08002675719123",
    "latitude": "29.9709016889274",
    "geocoded_column": {
      "latitude": "29.9709016889274",
      "longitude": "-90.08002675719123"
    }
  },
  {
    "service_request": "2021-842328",
    "request_type": "Trash/Recycling",
    "request_reason": "Order Trash Cart",
    "date_created": "2021-11-15T16:38:13.000",
    "date_modified": "2021-11-15T17:02:00.000",
    "request_status": "Pending",
    "responsible_agency": "Department of Sanitation",
    "final_address": "1827 Old Roman St",
    "address_councildis": "D",
    "status": "Assigned to Contractor",
    "contractor": "Metro Disposal",
    "rowid": "842328",
    "final_x": "3682391.23752",
    "final_y": "539303.887242",
    "longitude": "-90.06498405154271",
    "latitude": "29.97687160499342",
    "geocoded_column": {
      "latitude": "29.97687160499342",
      "longitude": "-90.06498405154271"
    }
  },
  {
    "service_request": "2021-842327",
    "request_type": "Trash/Recycling",
    "request_reason": "Request a Large Item Pick Up",
    "date_created": "2021-11-15T16:37:57.000",
    "date_modified": "2021-11-15T17:02:01.000",
    "request_status": "Pending",
    "responsible_agency": "Department of Sanitation",
    "final_address": "2627 Joseph St",
    "address_councildis": "A",
    "status": "Assigned to Contractor",
    "contractor": "Richards Disposal",
    "rowid": "842327",
    "final_x": "3667674.09402",
    "final_y": "525659.545853",
    "longitude": "-90.11192496230962",
    "latitude": "29.939793883046075",
    "geocoded_column": {
      "latitude": "29.939793883046075",
      "longitude": "-90.11192496230962"
    }
  },
  {
    "service_request": "2021-842326",
    "request_type": "Trash/Recycling",
    "request_reason": "Start Trash Service",
    "date_created": "2021-11-15T16:37:50.000",
    "date_modified": "2021-11-15T17:02:06.000",
    "request_status": "Pending",
    "responsible_agency": "Department of Sanitation",
    "final_address": "1827 Old Roman St",
    "address_councildis": "D",
    "status": "Assigned to Contractor",
    "contractor": "Metro Disposal",
    "rowid": "842326",
    "final_x": "3682391.23752",
    "final_y": "539303.887242",
    "longitude": "-90.06498405154271",
    "latitude": "29.97687160499342",
    "geocoded_column": {
      "latitude": "29.97687160499342",
      "longitude": "-90.06498405154271"
    }
  },
  {
    "service_request": "2021-842325",
    "request_type": "Trash/Recycling",
    "request_reason": "Replace Trash Cart",
    "date_created": "2021-11-15T16:36:07.000",
    "date_modified": "2021-11-15T17:02:09.000",
    "request_status": "Pending",
    "responsible_agency": "Department of Sanitation",
    "final_address": "New Orleans,LA",
    "status": "Assigned to Contractor",
    "rowid": "842325",
    "longitude": "0.0",
    "latitude": "0.0",
    "geocoded_column": {
      "latitude": "0.0",
      "longitude": "0.0"
    }
  },
  {
    "service_request": "2021-842324",
    "request_type": "Safety & Permits",
    "request_reason": "Licenses & Permits",
    "date_created": "2021-11-15T16:36:06.000",
    "date_modified": "2021-11-15T16:36:06.000",
    "request_status": "Pending",
    "responsible_agency": "Safety and Permits",
    "final_address": "2544 Dumaine St",
    "address_councildis": "D",
    "status": "Pending",
    "rowid": "842324",
    "final_x": "3677652.67042",
    "final_y": "537080.595336",
    "longitude": "-90.08002675719123",
    "latitude": "29.9709016889274",
    "geocoded_column": {
      "latitude": "29.9709016889274",
      "longitude": "-90.08002675719123"
    }
  },
  {
    "service_request": "2021-842323",
    "request_type": "Trash/Recycling",
    "request_reason": "Illegal Dumping",
    "date_created": "2021-11-15T16:33:47.000",
    "date_modified": "2021-11-15T16:33:47.000",
    "request_status": "Pending",
    "responsible_agency": "Department of Sanitation",
    "final_address": "2544 Dumaine St",
    "address_councildis": "D",
    "status": "Pending",
    "rowid": "842323",
    "final_x": "3677652.67042",
    "final_y": "537080.595336",
    "longitude": "-90.08002675719123",
    "latitude": "29.9709016889274",
    "geocoded_column": {
      "latitude": "29.9709016889274",
      "longitude": "-90.08002675719123"
    }
  },
  {
    "service_request": "2021-842322",
    "request_type": "Property Maintenance",
    "request_reason": "Property Maintenance",
    "date_created": "2021-11-15T16:32:32.000",
    "date_modified": "2021-11-15T16:32:32.000",
    "request_status": "Pending",
    "responsible_agency": "Department of Code Enforcement",
    "final_address": "2544 Dumaine St",
    "address_councildis": "D",
    "status": "Pending",
    "rowid": "842322",
    "final_x": "3677652.67042",
    "final_y": "537080.595336",
    "longitude": "-90.08002675719123",
    "latitude": "29.9709016889274",
    "geocoded_column": {
      "latitude": "29.9709016889274",
      "longitude": "-90.08002675719123"
    }
  },
  {
    "service_request": "2021-842321",
    "request_type": "Roads/Drainage",
    "request_reason": "Pothole",
    "date_created": "2021-11-15T16:29:12.000",
    "date_modified": "2021-11-15T16:29:12.000",
    "request_status": "Pending",
    "responsible_agency": "Department of Public Works",
    "final_address": "JEFFERSON AVE & FRERET ST",
    "address_councildis": "A",
    "status": "Pending",
    "rowid": "842321",
    "final_x": "3667902.0",
    "final_y": "524002.78",
    "longitude": "-90.11126121450557",
    "latitude": "29.935231627090978",
    "geocoded_column": {
      "latitude": "29.935231627090978",
      "longitude": "-90.11126121450557"
    }
  },
  {
    "service_request": "2021-842320",
    "request_type": "Trash/Recycling",
    "request_reason": "Replace Trash Cart",
    "date_created": "2021-11-15T16:28:52.000",
    "date_modified": "2021-11-15T17:02:14.000",
    "request_status": "Pending",
    "responsible_agency": "Department of Sanitation",
    "final_address": "2213 Chestnut St",
    "address_councildis": "B",
    "status": "Assigned to Contractor",
    "contractor": "Richards Disposal",
    "rowid": "842320",
    "final_x": "3678267.56526",
    "final_y": "522597.022394",
    "longitude": "-90.07858572482914",
    "latitude": "29.931058203697027",
    "geocoded_column": {
      "latitude": "29.931058203697027",
      "longitude": "-90.07858572482914"
    }
  },
  {
    "service_request": "2021-842319",
    "request_type": "Traffic Signals/Signs/Striping/Streetlights",
    "request_reason": "Traffic Signal Malfunctioning/Damaged",
    "date_created": "2021-11-15T16:26:29.000",
    "date_modified": "2021-11-15T18:21:39.000",
    "request_status": "Pending",
    "responsible_agency": "Department of Public Works",
    "final_address": "APRICOT ST & S CARROLLTON AVE & WALMSLEY AVE",
    "address_councildis": "B",
    "status": "Pending",
    "rowid": "842319",
    "final_x": "3665915.9",
    "final_y": "532544.68",
    "longitude": "-90.11724515405595",
    "latitude": "29.95877718726222",
    "geocoded_column": {
      "latitude": "29.95877718726222",
      "longitude": "-90.11724515405595"
    }
  },
  {
    "service_request": "2021-842317",
    "request_type": "Traffic Signals/Signs/Striping/Streetlights",
    "request_reason": "Traffic Signal Malfunctioning/Damaged",
    "date_created": "2021-11-15T16:25:46.000",
    "date_modified": "2021-11-15T16:25:46.000",
    "request_status": "Pending",
    "responsible_agency": "Department of Public Works",
    "final_address": "DIXON ST & S CARROLLTON AVE",
    "address_councildis": "A",
    "status": "Pending",
    "rowid": "842317",
    "final_x": "3668460.8",
    "final_y": "535443.28",
    "longitude": "-90.10911119468042",
    "latitude": "29.966672865841474",
    "geocoded_column": {
      "latitude": "29.966672865841474",
      "longitude": "-90.10911119468042"
    }
  },
  {
    "service_request": "2021-842315",
    "request_type": "Traffic Signals/Signs/Striping/Streetlights",
    "request_reason": "Street Light Outage/Malfunction",
    "date_created": "2021-11-15T16:19:55.000",
    "date_modified": "2021-11-15T17:02:19.000",
    "request_status": "Pending",
    "responsible_agency": "Department of Public Works",
    "final_address": "5080 Pontchartrain Blvd",
    "address_councildis": "A",
    "status": "Pending",
    "contractor": "Royal Engineering",
    "rowid": "842315",
    "final_x": "3666841.38119",
    "final_y": "540528.132811",
    "longitude": "-90.1140544564024",
    "latitude": "29.980701987063558",
    "geocoded_column": {
      "latitude": "29.980701987063558",
      "longitude": "-90.1140544564024"
    }
  },
  {
    "service_request": "2021-842314",
    "request_type": "Trash/Recycling",
    "request_reason": "Missed Trash Pick-Up",
    "date_created": "2021-11-15T16:17:32.000",
    "date_modified": "2021-11-15T16:17:33.000",
    "request_status": "Pending",
    "responsible_agency": "Department of Sanitation",
    "final_address": "6854 General Haig St",
    "address_councildis": "A",
    "status": "Assigned to Contractor",
    "contractor": "Metro Disposal",
    "rowid": "842314",
    "final_x": "3670957.52987",
    "final_y": "552940.598935",
    "longitude": "-90.1006320666859",
    "latitude": "30.01471088208776",
    "geocoded_column": {
      "latitude": "30.01471088208776",
      "longitude": "-90.1006320666859"
    }
  },
  {
    "service_request": "2021-842313",
    "request_type": "Parks & Parkways",
    "request_reason": "Request Tree Service (Right of Way/Public Property)",
    "date_created": "2021-11-15T16:16:40.000",
    "date_modified": "2021-11-15T17:02:22.000",
    "request_status": "Pending",
    "responsible_agency": "Department of Parks & Parkway",
    "final_address": "5836 Canal Blvd",
    "address_councildis": "A",
    "status": "Pending",
    "rowid": "842313",
    "final_x": "3668237.35117",
    "final_y": "546374.241552",
    "longitude": "-90.10944813550353",
    "latitude": "29.996735872158876",
    "geocoded_column": {
      "latitude": "29.996735872158876",
      "longitude": "-90.10944813550353"
    }
  },
  {
    "service_request": "2021-842312",
    "request_type": "Trash/Recycling",
    "request_reason": "Replace Trash Cart",
    "date_created": "2021-11-15T16:13:56.000",
    "date_modified": "2021-11-15T17:02:23.000",
    "request_status": "Pending",
    "responsible_agency": "Department of Sanitation",
    "final_address": "2607 Cleveland Ave",
    "address_councildis": "B",
    "status": "Assigned to Contractor",
    "contractor": "Richards Disposal",
    "rowid": "842312",
    "final_x": "3675515.94017",
    "final_y": "534510.104709",
    "longitude": "-90.0868631399054",
    "latitude": "29.963897800514797",
    "geocoded_column": {
      "latitude": "29.963897800514797",
      "longitude": "-90.0868631399054"
    }
  },
  {
    "service_request": "2021-842311",
    "request_type": "Property Maintenance",
    "request_reason": "Property Maintenance",
    "date_created": "2021-11-15T16:13:47.000",
    "date_modified": "2021-11-15T16:13:47.000",
    "request_status": "Pending",
    "responsible_agency": "Department of Code Enforcement",
    "final_address": "4329 Wellington Ave",
    "address_councildis": "D",
    "status": "Pending",
    "rowid": "842311",
    "final_x": "3677315.1947",
    "final_y": "548290.906386",
    "longitude": "-90.08070551850322",
    "latitude": "30.001736290288385",
    "geocoded_column": {
      "latitude": "30.001736290288385",
      "longitude": "-90.08070551850322"
    }
  },
  {
    "service_request": "2021-842310",
    "request_type": "Traffic Signals/Signs/Striping/Streetlights",
    "request_reason": "Street Light Outage/Malfunction",
    "date_created": "2021-11-15T16:13:12.000",
    "date_modified": "2021-11-15T16:13:13.000",
    "request_status": "Pending",
    "responsible_agency": "Department of Public Works",
    "final_address": "LOUISA ST & BURGUNDY ST",
    "address_councildis": "C",
    "status": "Pending",
    "contractor": "Royal Engineering",
    "rowid": "842310",
    "final_x": "3689365.0",
    "final_y": "535074.38",
    "longitude": "-90.0431091844416",
    "latitude": "29.965027848846585",
    "geocoded_column": {
      "latitude": "29.965027848846585",
      "longitude": "-90.0431091844416"
    }
  },
  {
    "service_request": "2021-842309",
    "request_type": "Traffic Signals/Signs/Striping/Streetlights",
    "request_reason": "Traffic Signal Malfunctioning/Damaged",
    "date_created": "2021-11-15T16:10:38.000",
    "date_modified": "2021-11-15T17:02:25.000",
    "case_close_date": "2021-11-15T10:52:54.000",
    "request_status": "Closed",
    "responsible_agency": "Department of Public Works",
    "final_address": "New Orleans,LA",
    "address_councildis": "A",
    "status": "Duplicate Case",
    "rowid": "842309",
    "final_x": "3666908.3",
    "final_y": "540680.08",
    "longitude": "-90.11383798908375",
    "latitude": "29.981117832474713",
    "geocoded_column": {
      "latitude": "29.981117832474713",
      "longitude": "-90.11383798908375"
    }
  },
  {
    "service_request": "2021-842308",
    "request_type": "Roads/Drainage",
    "request_reason": "Pothole",
    "date_created": "2021-11-15T16:05:16.000",
    "date_modified": "2021-11-15T16:05:49.000",
    "request_status": "Pending",
    "responsible_agency": "Department of Public Works",
    "final_address": "2229 Allen St",
    "address_councildis": "D",
    "status": "Pending",
    "rowid": "842308",
    "final_x": "3682467.06498",
    "final_y": "540417.521931",
    "longitude": "-90.06470562356382",
    "latitude": "29.97993140372142",
    "geocoded_column": {
      "latitude": "29.97993140372142",
      "longitude": "-90.06470562356382"
    }
  },
  {
    "service_request": "2021-842307",
    "request_type": "Property Maintenance",
    "request_reason": "Property Maintenance",
    "date_created": "2021-11-15T16:04:59.000",
    "date_modified": "2021-11-15T16:04:59.000",
    "request_status": "Pending",
    "responsible_agency": "Department of Code Enforcement",
    "final_address": "1509 Andry St",
    "address_councildis": "E",
    "status": "Pending",
    "rowid": "842307",
    "final_x": "3697633.13475",
    "final_y": "535519.22151",
    "longitude": "-90.0169829088264",
    "latitude": "29.965992421851112",
    "geocoded_column": {
      "latitude": "29.965992421851112",
      "longitude": "-90.0169829088264"
    }
  },
  {
    "service_request": "2021-842306",
    "request_type": "Roads/Drainage",
    "request_reason": "Pothole",
    "date_created": "2021-11-15T16:03:17.000",
    "date_modified": "2021-11-15T17:02:26.000",
    "request_status": "Pending",
    "responsible_agency": "Department of Public Works",
    "final_address": "925 Thalia St",
    "address_councildis": "B",
    "status": "Pending",
    "rowid": "842306",
    "final_x": "3681121.41493",
    "final_y": "525130.654141",
    "longitude": "-90.06948828621007",
    "latitude": "29.93793861428467",
    "geocoded_column": {
      "latitude": "29.93793861428467",
      "longitude": "-90.06948828621007"
    }
  },
  {
    "service_request": "2021-842305",
    "request_type": "Property Maintenance",
    "request_reason": "Property Maintenance",
    "date_created": "2021-11-15T16:03:03.000",
    "date_modified": "2021-11-15T16:03:03.000",
    "request_status": "Pending",
    "responsible_agency": "Department of Code Enforcement",
    "final_address": "1501 Andry St",
    "address_councildis": "E",
    "status": "Pending",
    "rowid": "842305",
    "final_x": "3697622.70576",
    "final_y": "535480.69799",
    "longitude": "-90.01701724065445",
    "latitude": "29.96588682534922",
    "geocoded_column": {
      "latitude": "29.96588682534922",
      "longitude": "-90.01701724065445"
    }
  },
  {
    "service_request": "2021-842304",
    "request_type": "Trash/Recycling",
    "request_reason": "Missed Trash Pick-Up",
    "date_created": "2021-11-15T16:00:49.000",
    "date_modified": "2021-11-15T16:00:50.000",
    "request_status": "Pending",
    "responsible_agency": "Department of Sanitation",
    "final_address": "1133 Margaret Pl",
    "address_councildis": "B",
    "status": "Assigned to Contractor",
    "contractor": "Richards Disposal",
    "rowid": "842304",
    "final_x": "3680167.4733",
    "final_y": "526167.541438",
    "longitude": "-90.07246393797756",
    "latitude": "29.940818607293036",
    "geocoded_column": {
      "latitude": "29.940818607293036",
      "longitude": "-90.07246393797756"
    }
  },
  {
    "service_request": "2021-842303",
    "request_type": "Trash/Recycling",
    "request_reason": "Missed Trash Pick-Up",
    "date_created": "2021-11-15T15:59:52.000",
    "date_modified": "2021-11-15T15:59:53.000",
    "request_status": "Pending",
    "responsible_agency": "Department of Sanitation",
    "final_address": "1164 Camp St",
    "address_councildis": "B",
    "status": "Assigned to Contractor",
    "contractor": "Richards Disposal",
    "rowid": "842303",
    "final_x": "3680306.68847",
    "final_y": "525812.205053",
    "longitude": "-90.07203676037928",
    "latitude": "29.939837337365695",
    "geocoded_column": {
      "latitude": "29.939837337365695",
      "longitude": "-90.07203676037928"
    }
  },
  {
    "service_request": "2021-842302",
    "request_type": "Traffic Signals/Signs/Striping/Streetlights",
    "request_reason": "Street Light Outage/Malfunction",
    "date_created": "2021-11-15T15:58:20.000",
    "date_modified": "2021-11-15T16:53:47.000",
    "request_status": "Pending",
    "responsible_agency": "Department of Public Works",
    "final_address": "2534 Robert St, New Orleans, Louisiana, 70115",
    "address_councildis": "B",
    "status": "Pending",
    "contractor": "Royal Engineering",
    "rowid": "842302",
    "final_x": "3668802.54644",
    "final_y": "524920.508604",
    "longitude": "-90.1083872086984",
    "latitude": "29.93772864551018",
    "geocoded_column": {
      "latitude": "29.93772864551018",
      "longitude": "-90.1083872086984"
    }
  },
  {
    "service_request": "2021-842301",
    "request_type": "Traffic Signals/Signs/Striping/Streetlights",
    "request_reason": "Request for Stop Sign",
    "date_created": "2021-11-15T15:57:13.000",
    "date_modified": "2021-11-15T15:57:13.000",
    "request_status": "Pending",
    "responsible_agency": "Department of Public Works",
    "final_address": "8326 Apricot St",
    "address_councildis": "A",
    "status": "Pending",
    "rowid": "842301",
    "final_x": "3665068.16461",
    "final_y": "533265.588292",
    "longitude": "-90.11989798903626",
    "latitude": "29.96078416084537",
    "geocoded_column": {
      "latitude": "29.96078416084537",
      "longitude": "-90.11989798903626"
    }
  },
  {
    "service_request": "2021-842299",
    "request_type": "Trash/Recycling",
    "request_reason": "Replace Trash Cart",
    "date_created": "2021-11-15T15:53:07.000",
    "date_modified": "2021-11-15T16:01:34.000",
    "request_status": "Pending",
    "responsible_agency": "Department of Sanitation",
    "final_address": "2337 St Roch Ave",
    "address_councildis": "D",
    "status": "Assigned to Contractor",
    "contractor": "Metro Disposal",
    "rowid": "842299",
    "final_x": "3686188.75439",
    "final_y": "541150.116428",
    "longitude": "-90.05292515971963",
    "latitude": "29.98183195561402",
    "geocoded_column": {
      "latitude": "29.98183195561402",
      "longitude": "-90.05292515971963"
    }
  },
  {
    "service_request": "2021-842298",
    "request_type": "Traffic Signals/Signs/Striping/Streetlights",
    "request_reason": "Street Light Outage/Malfunction",
    "date_created": "2021-11-15T15:51:25.000",
    "date_modified": "2021-11-15T15:51:26.000",
    "request_status": "Pending",
    "responsible_agency": "Department of Public Works",
    "final_address": "4001 Pressburg St",
    "address_councildis": "D",
    "status": "Pending",
    "contractor": "Royal Engineering",
    "rowid": "842298",
    "final_x": "3688282.24502",
    "final_y": "555040.264601",
    "longitude": "-90.04581998432054",
    "latitude": "30.01996032933426",
    "geocoded_column": {
      "latitude": "30.01996032933426",
      "longitude": "-90.04581998432054"
    }
  },
  {
    "service_request": "2021-842296",
    "request_type": "Abandoned Vehicles",
    "request_reason": "Abandoned/Junk Vehicles",
    "date_created": "2021-11-15T15:43:03.000",
    "date_modified": "2021-11-15T16:01:37.000",
    "request_status": "Pending",
    "responsible_agency": "Department of Public Works",
    "final_address": "5911 West End Blvd",
    "address_councildis": "A",
    "status": "Pending",
    "rowid": "842296",
    "final_x": "3666512.24845",
    "final_y": "547226.872209",
    "longitude": "-90.11486902001509",
    "latitude": "29.999130865630104",
    "geocoded_column": {
      "latitude": "29.999130865630104",
      "longitude": "-90.11486902001509"
    }
  },
  {
    "service_request": "2021-842295",
    "request_type": "Trash/Recycling",
    "request_reason": "Order Trash Cart",
    "date_created": "2021-11-15T15:39:59.000",
    "date_modified": "2021-11-15T16:01:41.000",
    "request_status": "Pending",
    "responsible_agency": "Department of Sanitation",
    "final_address": "834 St Mary St",
    "address_councildis": "B",
    "status": "Assigned to Contractor",
    "contractor": "Richards Disposal",
    "rowid": "842295",
    "final_x": "3680317.9405",
    "final_y": "522133.730618",
    "longitude": "-90.07212906335077",
    "latitude": "29.929722407239854",
    "geocoded_column": {
      "latitude": "29.929722407239854",
      "longitude": "-90.07212906335077"
    }
  },
  {
    "service_request": "2021-842294",
    "request_type": "Trash/Recycling",
    "request_reason": "Repair Trash Cart",
    "date_created": "2021-11-15T15:34:46.000",
    "date_modified": "2021-11-15T16:01:42.000",
    "request_status": "Pending",
    "responsible_agency": "Department of Sanitation",
    "final_address": "2327 Wisteria St",
    "address_councildis": "D",
    "status": "Assigned to Contractor",
    "contractor": "Metro Disposal",
    "rowid": "842294",
    "final_x": "3685313.93116",
    "final_y": "548281.23637",
    "longitude": "-90.05543706823325",
    "latitude": "30.001466842232176",
    "geocoded_column": {
      "latitude": "30.001466842232176",
      "longitude": "-90.05543706823325"
    }
  },
  {
    "service_request": "2021-842292",
    "request_type": "Property Maintenance",
    "request_reason": "Property Maintenance",
    "date_created": "2021-11-15T15:31:58.000",
    "date_modified": "2021-11-15T16:01:45.000",
    "request_status": "Pending",
    "responsible_agency": "Department of Code Enforcement",
    "final_address": "5700 Read Blvd",
    "address_councildis": "E",
    "status": "Pending",
    "rowid": "842292",
    "final_x": "3710002.44875",
    "final_y": "560091.278045",
    "longitude": "-89.97700281937084",
    "latitude": "30.033159679139082",
    "geocoded_column": {
      "latitude": "30.033159679139082",
      "longitude": "-89.97700281937084"
    }
  },
  {
    "service_request": "2021-842291",
    "request_type": "Health Related Questions",
    "request_reason": "Noise Ordinance Complaint",
    "date_created": "2021-11-15T15:30:52.000",
    "date_modified": "2021-11-15T16:01:46.000",
    "request_status": "Pending",
    "responsible_agency": "Health Department",
    "final_address": "6060 Cameron Blvd, New Orleans, Louisiana, 70122",
    "address_councildis": "D",
    "status": "Pending",
    "rowid": "842291",
    "final_x": "3682240.00194",
    "final_y": "555376.834265",
    "longitude": "-90.06489975488414",
    "latitude": "30.02107106979052",
    "geocoded_column": {
      "latitude": "30.02107106979052",
      "longitude": "-90.06489975488414"
    }
  },
  {
    "service_request": "2021-842290",
    "request_type": "Abandoned Vehicles",
    "request_reason": "Abandoned/Junk Vehicles",
    "date_created": "2021-11-15T15:30:31.000",
    "date_modified": "2021-11-15T15:30:31.000",
    "request_status": "Pending",
    "responsible_agency": "Department of Public Works",
    "final_address": "700 BLK Seventh St",
    "address_councildis": "B",
    "status": "Pending",
    "rowid": "842290",
    "final_x": "3677089.06639",
    "final_y": "519288.01797",
    "longitude": "-90.08242013114649",
    "latitude": "29.921994948065915",
    "geocoded_column": {
      "latitude": "29.921994948065915",
      "longitude": "-90.08242013114649"
    }
  },
  {
    "service_request": "2021-842289",
    "request_type": "Health Related Questions",
    "request_reason": "Noise Ordinance Complaint",
    "date_created": "2021-11-15T15:28:12.000",
    "date_modified": "2021-11-15T16:01:48.000",
    "request_status": "Pending",
    "responsible_agency": "Health Department",
    "final_address": "6060 Cameron Blvd, New Orleans, Louisiana, 70122",
    "address_councildis": "D",
    "status": "Pending",
    "rowid": "842289",
    "final_x": "3682240.00194",
    "final_y": "555376.834265",
    "longitude": "-90.06489975488414",
    "latitude": "30.02107106979052",
    "geocoded_column": {
      "latitude": "30.02107106979052",
      "longitude": "-90.06489975488414"
    }
  },
  {
    "service_request": "2021-842288",
    "request_type": "Trash/Recycling",
    "request_reason": "Request a Large Item Pick Up",
    "date_created": "2021-11-15T15:26:05.000",
    "date_modified": "2021-11-15T15:26:06.000",
    "request_status": "Pending",
    "responsible_agency": "Department of Sanitation",
    "final_address": "7519 Maple St",
    "address_councildis": "A",
    "status": "Assigned to Contractor",
    "contractor": "Richards Disposal",
    "rowid": "842288",
    "final_x": "3662501.50298",
    "final_y": "526036.325374",
    "longitude": "-90.12824314294673",
    "latitude": "29.940980502718016",
    "geocoded_column": {
      "latitude": "29.940980502718016",
      "longitude": "-90.12824314294673"
    }
  },
  {
    "service_request": "2021-842287",
    "request_type": "Roads/Drainage",
    "request_reason": "Catch Basin - Broken/Damage",
    "date_created": "2021-11-15T15:25:31.000",
    "date_modified": "2021-11-15T15:30:21.000",
    "request_status": "Pending",
    "responsible_agency": "Department of Public Works",
    "final_address": "2617 Reynes St",
    "address_councildis": "E",
    "status": "Pending",
    "rowid": "842287",
    "final_x": "3697609.69482",
    "final_y": "539957.045514",
    "longitude": "-90.01689592077165",
    "latitude": "29.978195583670274",
    "geocoded_column": {
      "latitude": "29.978195583670274",
      "longitude": "-90.01689592077165"
    }
  },
  {
    "service_request": "2021-842286",
    "request_type": "Roads/Drainage",
    "request_reason": "Catch Basin - Broken/Damage",
    "date_created": "2021-11-15T15:24:18.000",
    "date_modified": "2021-11-15T15:24:18.000",
    "request_status": "Pending",
    "responsible_agency": "Department of Public Works",
    "final_address": "5001 Law St",
    "address_councildis": "E",
    "status": "Pending",
    "rowid": "842286",
    "final_x": "3697598.58371",
    "final_y": "539913.989962",
    "longitude": "-90.01693257569984",
    "latitude": "29.978077547474637",
    "geocoded_column": {
      "latitude": "29.978077547474637",
      "longitude": "-90.01693257569984"
    }
  },
  {
    "service_request": "2021-842285",
    "request_type": "Abandoned Vehicles",
    "request_reason": "Abandoned/Junk Vehicles",
    "date_created": "2021-11-15T15:21:37.000",
    "date_modified": "2021-11-15T15:21:37.000",
    "request_status": "Pending",
    "responsible_agency": "Department of Public Works",
    "final_address": "1011 Port St",
    "address_councildis": "C",
    "status": "Pending",
    "rowid": "842285",
    "final_x": "3687366.44591",
    "final_y": "536056.179847",
    "longitude": "-90.04938574405226",
    "latitude": "29.967789183022887",
    "geocoded_column": {
      "latitude": "29.967789183022887",
      "longitude": "-90.04938574405226"
    }
  },
  {
    "service_request": "2021-842284",
    "request_type": "Traffic Signals/Signs/Striping/Streetlights",
    "request_reason": "Street Light Knocked Down/Leaning",
    "date_created": "2021-11-15T15:20:03.000",
    "date_modified": "2021-11-15T15:20:04.000",
    "request_status": "Pending",
    "responsible_agency": "Department of Public Works",
    "final_address": "522 Montegut St",
    "address_councildis": "C",
    "status": "Pending",
    "contractor": "Royal Engineering",
    "rowid": "842284",
    "final_x": "3687895.56438",
    "final_y": "534170.913733",
    "longitude": "-90.04778157356229",
    "latitude": "29.962589044598833",
    "geocoded_column": {
      "latitude": "29.962589044598833",
      "longitude": "-90.04778157356229"
    }
  },
  {
    "service_request": "2021-842283",
    "request_type": "Traffic Signals/Signs/Striping/Streetlights",
    "request_reason": "Street Light Outage/Malfunction",
    "date_created": "2021-11-15T15:11:53.000",
    "date_modified": "2021-11-15T15:11:54.000",
    "request_status": "Pending",
    "responsible_agency": "Department of Public Works",
    "final_address": "WISTERIA ST & IRIS ST",
    "address_councildis": "D",
    "status": "Pending",
    "contractor": "Royal Engineering",
    "rowid": "842283",
    "final_x": "3686239.1",
    "final_y": "548319.08",
    "longitude": "-90.05251304176706",
    "latitude": "30.00154249547647",
    "geocoded_column": {
      "latitude": "30.00154249547647",
      "longitude": "-90.05251304176706"
    }
  },
  {
    "service_request": "2021-842282",
    "request_type": "Trash/Recycling",
    "request_reason": "Missed Trash Pick-Up",
    "date_created": "2021-11-15T15:09:20.000",
    "date_modified": "2021-11-15T15:09:20.000",
    "request_status": "Pending",
    "responsible_agency": "Department of Sanitation",
    "final_address": "6126 Spain St",
    "address_councildis": "D",
    "status": "Assigned to Contractor",
    "contractor": "Metro Disposal",
    "rowid": "842282",
    "final_x": "3684486.36233",
    "final_y": "555624.293977",
    "longitude": "-90.05779320103642",
    "latitude": "30.02168292635669",
    "geocoded_column": {
      "latitude": "30.02168292635669",
      "longitude": "-90.05779320103642"
    }
  },
  {
    "service_request": "2021-842281",
    "request_type": "Trash/Recycling",
    "request_reason": "Repair Trash Cart",
    "date_created": "2021-11-15T15:07:23.000",
    "date_modified": "2021-11-15T16:01:49.000",
    "request_status": "Pending",
    "responsible_agency": "Department of Sanitation",
    "final_address": "423 Bermuda St",
    "address_councildis": "C",
    "status": "Assigned to Contractor",
    "contractor": "Richards Disposal",
    "rowid": "842281",
    "final_x": "3686587.34562",
    "final_y": "530300.09389",
    "longitude": "-90.05204942558763",
    "latitude": "29.951985914516992",
    "geocoded_column": {
      "latitude": "29.951985914516992",
      "longitude": "-90.05204942558763"
    }
  },
  {
    "service_request": "2021-842280",
    "request_type": "Trash/Recycling",
    "request_reason": "Request a Large Item Pick Up",
    "date_created": "2021-11-15T15:05:41.000",
    "date_modified": "2021-11-15T16:01:50.000",
    "request_status": "Pending",
    "responsible_agency": "Department of Sanitation",
    "final_address": "4903 Iberville St, New Orleans, Louisiana, 70119",
    "address_councildis": "A",
    "status": "Assigned to Contractor",
    "contractor": "Richards Disposal",
    "rowid": "842280",
    "final_x": "3668765.02151",
    "final_y": "540729.505035",
    "longitude": "-90.10797193780134",
    "latitude": "29.98119926875621",
    "geocoded_column": {
      "latitude": "29.98119926875621",
      "longitude": "-90.10797193780134"
    }
  },
  {
    "service_request": "2021-842279",
    "request_type": "Trash/Recycling",
    "request_reason": "Replace Trash Cart",
    "date_created": "2021-11-15T15:03:39.000",
    "date_modified": "2021-11-15T16:01:52.000",
    "request_status": "Pending",
    "responsible_agency": "Department of Sanitation",
    "final_address": "2838 Palmyra St",
    "address_councildis": "B",
    "status": "Assigned to Contractor",
    "contractor": "Richards Disposal",
    "rowid": "842279",
    "final_x": "3674124.06222",
    "final_y": "534965.352774",
    "longitude": "-90.09124298212002",
    "latitude": "29.965191139138362",
    "geocoded_column": {
      "latitude": "29.965191139138362",
      "longitude": "-90.09124298212002"
    }
  },
  {
    "service_request": "2021-842278",
    "request_type": "Abandoned Vehicles",
    "request_reason": "Abandoned/Junk Vehicles",
    "date_created": "2021-11-15T15:02:26.000",
    "date_modified": "2021-11-15T15:02:26.000",
    "request_status": "Pending",
    "responsible_agency": "Department of Public Works",
    "final_address": "1015 Kentucky St",
    "address_councildis": "C",
    "status": "Pending",
    "rowid": "842278",
    "final_x": "3693276.97853",
    "final_y": "534592.891205",
    "longitude": "-90.03077272319854",
    "latitude": "29.963582224531816",
    "geocoded_column": {
      "latitude": "29.963582224531816",
      "longitude": "-90.03077272319854"
    }
  },
  {
    "service_request": "2021-842277",
    "request_type": "Trash/Recycling",
    "request_reason": "Replace Trash Cart",
    "date_created": "2021-11-15T15:02:12.000",
    "date_modified": "2021-11-15T16:01:53.000",
    "request_status": "Pending",
    "responsible_agency": "Department of Sanitation",
    "final_address": "801 Frenchmen St",
    "address_councildis": "C",
    "status": "Assigned to Contractor",
    "contractor": "Metro Disposal",
    "rowid": "842277",
    "final_x": "3684699.039",
    "final_y": "535277.983494",
    "longitude": "-90.05783683464468",
    "latitude": "29.965731327497792",
    "geocoded_column": {
      "latitude": "29.965731327497792",
      "longitude": "-90.05783683464468"
    }
  },
  {
    "service_request": "2021-842275",
    "request_type": "Trash/Recycling",
    "request_reason": "Order Trash Cart",
    "date_created": "2021-11-15T14:58:28.000",
    "date_modified": "2021-11-15T15:01:35.000",
    "request_status": "Pending",
    "responsible_agency": "Department of Sanitation",
    "final_address": "3713 Magazine St",
    "address_councildis": "B",
    "status": "Assigned to Contractor",
    "contractor": "Richards Disposal",
    "rowid": "842275",
    "final_x": "3673515.4484",
    "final_y": "519155.383543",
    "longitude": "-90.09370509183589",
    "latitude": "29.921737035722355",
    "geocoded_column": {
      "latitude": "29.921737035722355",
      "longitude": "-90.09370509183589"
    }
  },
  {
    "service_request": "2021-842274",
    "request_type": "Trash/Recycling",
    "request_reason": "Replace Trash Cart",
    "date_created": "2021-11-15T14:56:48.000",
    "date_modified": "2021-11-15T14:56:49.000",
    "request_status": "Pending",
    "responsible_agency": "Department of Sanitation",
    "final_address": "3717 Magazine St",
    "address_councildis": "B",
    "status": "Assigned to Contractor",
    "contractor": "Richards Disposal",
    "rowid": "842274",
    "final_x": "3673482.57774",
    "final_y": "519121.852535",
    "longitude": "-90.09380999558991",
    "latitude": "29.921645813954882",
    "geocoded_column": {
      "latitude": "29.921645813954882",
      "longitude": "-90.09380999558991"
    }
  },
  {
    "service_request": "2021-842272",
    "request_type": "Roads/Drainage",
    "request_reason": "Pothole",
    "date_created": "2021-11-15T14:52:45.000",
    "date_modified": "2021-11-15T14:52:45.000",
    "request_status": "Pending",
    "responsible_agency": "Department of Public Works",
    "final_address": "524 Henry Clay Ave",
    "address_councildis": "A",
    "status": "Pending",
    "rowid": "842272",
    "final_x": "3663415.32359",
    "final_y": "518830.690935",
    "longitude": "-90.12559781649038",
    "latitude": "29.921140821182096",
    "geocoded_column": {
      "latitude": "29.921140821182096",
      "longitude": "-90.12559781649038"
    }
  },
  {
    "service_request": "2021-842271",
    "request_type": "Abandoned Vehicles",
    "request_reason": "Abandoned/Junk Vehicles",
    "date_created": "2021-11-15T14:46:38.000",
    "date_modified": "2021-11-15T14:46:39.000",
    "request_status": "Pending",
    "responsible_agency": "Department of Public Works",
    "final_address": "1403 St Anthony St",
    "address_councildis": "C",
    "status": "Pending",
    "rowid": "842271",
    "final_x": "3683527.92629",
    "final_y": "537332.97684",
    "longitude": "-90.06146312755237",
    "latitude": "29.971417641776227",
    "geocoded_column": {
      "latitude": "29.971417641776227",
      "longitude": "-90.06146312755237"
    }
  },
  {
    "service_request": "2021-842270",
    "request_type": "Trash/Recycling",
    "request_reason": "Request a Large Item Pick Up",
    "date_created": "2021-11-15T14:46:13.000",
    "date_modified": "2021-11-15T15:01:37.000",
    "request_status": "Pending",
    "responsible_agency": "Department of Sanitation",
    "final_address": "4903 Iberville St, New Orleans, Louisiana, 70119",
    "address_councildis": "A",
    "status": "Assigned to Contractor",
    "contractor": "Richards Disposal",
    "rowid": "842270",
    "final_x": "3668765.02151",
    "final_y": "540729.505035",
    "longitude": "-90.10797193780134",
    "latitude": "29.98119926875621",
    "geocoded_column": {
      "latitude": "29.98119926875621",
      "longitude": "-90.10797193780134"
    }
  },
  {
    "service_request": "2021-842269",
    "request_type": "Abandoned Vehicles",
    "request_reason": "Abandoned/Junk Vehicles",
    "date_created": "2021-11-15T14:45:14.000",
    "date_modified": "2021-11-15T14:48:54.000",
    "request_status": "Pending",
    "responsible_agency": "Department of Public Works",
    "final_address": "AUBRY ST & OLD PRIEUR ST",
    "address_councildis": "D",
    "status": "Pending",
    "rowid": "842269",
    "final_x": "3681988.1",
    "final_y": "539314.08",
    "longitude": "-90.06625693032912",
    "latitude": "29.976911895411845",
    "geocoded_column": {
      "latitude": "29.976911895411845",
      "longitude": "-90.06625693032912"
    }
  },
  {
    "service_request": "2021-842268",
    "request_type": "Traffic Signals/Signs/Striping/Streetlights",
    "request_reason": "Request for Traffic Calming due to Speeding",
    "date_created": "2021-11-15T14:44:18.000",
    "date_modified": "2021-11-15T14:44:18.000",
    "request_status": "Pending",
    "responsible_agency": "Department of Public Works",
    "final_address": "1529 Oretha Castle Haley Blvd",
    "address_councildis": "B",
    "status": "Pending",
    "rowid": "842268",
    "final_x": "3677842.93806",
    "final_y": "526062.605246",
    "longitude": "-90.07980653125576",
    "latitude": "29.940600196280922",
    "geocoded_column": {
      "latitude": "29.940600196280922",
      "longitude": "-90.07980653125576"
    }
  },
  {
    "service_request": "2021-842267",
    "request_type": "Trash/Recycling",
    "request_reason": "Request a Large Item Pick Up",
    "date_created": "2021-11-15T14:41:38.000",
    "date_modified": "2021-11-15T14:41:39.000",
    "request_status": "Pending",
    "responsible_agency": "Department of Sanitation",
    "final_address": "1026 Frenchmen St",
    "address_councildis": "C",
    "status": "Assigned to Contractor",
    "contractor": "Metro Disposal",
    "rowid": "842267",
    "final_x": "3684571.69762",
    "final_y": "536137.189319",
    "longitude": "-90.05820877862524",
    "latitude": "29.968097743189716",
    "geocoded_column": {
      "latitude": "29.968097743189716",
      "longitude": "-90.05820877862524"
    }
  },
  {
    "service_request": "2021-842265",
    "request_type": "Trash/Recycling",
    "request_reason": "Repair Trash Cart",
    "date_created": "2021-11-15T14:38:44.000",
    "date_modified": "2021-11-15T15:01:38.000",
    "request_status": "Pending",
    "responsible_agency": "Department of Sanitation",
    "final_address": "2849 Carondelet St",
    "address_councildis": "B",
    "status": "Assigned to Contractor",
    "contractor": "Richards Disposal",
    "rowid": "842265",
    "final_x": "3675355.83592",
    "final_y": "522660.253946",
    "longitude": "-90.08777550750061",
    "latitude": "29.93131942144872",
    "geocoded_column": {
      "latitude": "29.93131942144872",
      "longitude": "-90.08777550750061"
    }
  },
  {
    "service_request": "2021-842264",
    "request_type": "Property Maintenance",
    "request_reason": "Property Maintenance",
    "date_created": "2021-11-15T14:37:41.000",
    "date_modified": "2021-11-15T14:37:41.000",
    "request_status": "Pending",
    "responsible_agency": "Department of Code Enforcement",
    "final_address": "518 Bienville St",
    "address_councildis": "C",
    "status": "Pending",
    "rowid": "842264",
    "final_x": "3682114.65244",
    "final_y": "530923.089346",
    "longitude": "-90.06615031646949",
    "latitude": "29.953835704385035",
    "geocoded_column": {
      "latitude": "29.953835704385035",
      "longitude": "-90.06615031646949"
    }
  },
  {
    "service_request": "2021-842263",
    "request_type": "Traffic Signals/Signs/Striping/Streetlights",
    "request_reason": "Street Light Outage/Malfunction",
    "date_created": "2021-11-15T14:35:40.000",
    "date_modified": "2021-11-15T14:35:41.000",
    "request_status": "Pending",
    "responsible_agency": "Department of Public Works",
    "final_address": "CITY PARK AVE & CITY PARK EXIT & I 10 E ONRAMP",
    "address_councildis": "A",
    "status": "Pending",
    "contractor": "Royal Engineering",
    "rowid": "842263",
    "final_x": "3667012.0",
    "final_y": "540666.78",
    "longitude": "-90.1135109037396",
    "latitude": "29.98107822687111",
    "geocoded_column": {
      "latitude": "29.98107822687111",
      "longitude": "-90.1135109037396"
    }
  },
  {
    "service_request": "2021-842261",
    "request_type": "Traffic Signals/Signs/Striping/Streetlights",
    "request_reason": "Street Light Outage/Malfunction",
    "date_created": "2021-11-15T14:33:36.000",
    "date_modified": "2021-11-15T14:33:56.000",
    "request_status": "Pending",
    "responsible_agency": "Department of Public Works",
    "final_address": "CONSTANCE ST & BELLECASTLE ST",
    "address_councildis": "B",
    "status": "Pending",
    "contractor": "Royal Engineering",
    "rowid": "842261",
    "final_x": "3667685.9",
    "final_y": "518249.28",
    "longitude": "-90.11213702782238",
    "latitude": "29.919417663127515",
    "geocoded_column": {
      "latitude": "29.919417663127515",
      "longitude": "-90.11213702782238"
    }
  },
  {
    "service_request": "2021-842260",
    "request_type": "Property Maintenance",
    "request_reason": "Property Maintenance",
    "date_created": "2021-11-15T14:31:11.000",
    "date_modified": "2021-11-15T14:31:11.000",
    "request_status": "Pending",
    "responsible_agency": "Department of Code Enforcement",
    "final_address": "2629 Caffin Ave",
    "address_councildis": "E",
    "status": "Pending",
    "rowid": "842260",
    "final_x": "3699711.13949",
    "final_y": "539613.03745",
    "longitude": "-90.01027139318748",
    "latitude": "29.977183133962328",
    "geocoded_column": {
      "latitude": "29.977183133962328",
      "longitude": "-90.01027139318748"
    }
  },
  {
    "service_request": "2021-842259",
    "request_type": "Property Maintenance",
    "request_reason": "Property Maintenance",
    "date_created": "2021-11-15T14:30:55.000",
    "date_modified": "2021-11-15T14:30:56.000",
    "request_status": "Pending",
    "responsible_agency": "Department of Code Enforcement",
    "final_address": "2633 Caffin Ave",
    "address_councildis": "E",
    "status": "Pending",
    "rowid": "842259",
    "final_x": "3699718.86877",
    "final_y": "539642.589578",
    "longitude": "-90.01024590402677",
    "latitude": "29.9772641461799",
    "geocoded_column": {
      "latitude": "29.9772641461799",
      "longitude": "-90.01024590402677"
    }
  },
  {
    "service_request": "2021-842258",
    "request_type": "Traffic Signals/Signs/Striping/Streetlights",
    "request_reason": "Traffic Signal Malfunctioning/Damaged",
    "date_created": "2021-11-15T14:30:23.000",
    "date_modified": "2021-11-15T15:01:44.000",
    "request_status": "Pending",
    "responsible_agency": "Department of Public Works",
    "final_address": "APRICOT ST & S CARROLLTON AVE & WALMSLEY AVE",
    "address_councildis": "B",
    "status": "Pending",
    "rowid": "842258",
    "final_x": "3665915.9",
    "final_y": "532544.68",
    "longitude": "-90.11724515405595",
    "latitude": "29.95877718726222",
    "geocoded_column": {
      "latitude": "29.95877718726222",
      "longitude": "-90.11724515405595"
    }
  },
  {
    "service_request": "2021-842257",
    "request_type": "Trash/Recycling",
    "request_reason": "Repair Trash Cart",
    "date_created": "2021-11-15T14:29:59.000",
    "date_modified": "2021-11-15T14:30:00.000",
    "request_status": "Pending",
    "responsible_agency": "Department of Sanitation",
    "final_address": "321 Hillary St",
    "address_councildis": "A",
    "status": "Assigned to Contractor",
    "contractor": "Richards Disposal",
    "rowid": "842257",
    "final_x": "3661318.54566",
    "final_y": "524936.14502",
    "longitude": "-90.13201438922763",
    "latitude": "29.937989511458262",
    "geocoded_column": {
      "latitude": "29.937989511458262",
      "longitude": "-90.13201438922763"
    }
  },
  {
    "service_request": "2021-842255",
    "request_type": "Trash/Recycling",
    "request_reason": "Order Trash Cart",
    "date_created": "2021-11-15T14:27:46.000",
    "date_modified": "2021-11-15T14:27:52.000",
    "request_status": "Pending",
    "responsible_agency": "Department of Sanitation",
    "final_address": "149 26Th St",
    "address_councildis": "A",
    "status": "Assigned to Contractor",
    "contractor": "Metro Disposal",
    "rowid": "842255",
    "final_x": "3665785.00608",
    "final_y": "549947.861844",
    "longitude": "-90.11707516398805",
    "latitude": "30.006633891557897",
    "geocoded_column": {
      "latitude": "30.006633891557897",
      "longitude": "-90.11707516398805"
    }
  },
  {
    "service_request": "2021-842254",
    "request_type": "Abandoned Vehicles",
    "request_reason": "Abandoned/Junk Vehicles",
    "date_created": "2021-11-15T14:25:50.000",
    "date_modified": "2021-11-15T14:25:51.000",
    "request_status": "Pending",
    "responsible_agency": "Department of Public Works",
    "final_address": "N BROAD ST & REPUBLIC ST",
    "address_councildis": "D",
    "status": "Pending",
    "rowid": "842254",
    "final_x": "3680722.6",
    "final_y": "542336.18",
    "longitude": "-90.07014855729182",
    "latitude": "29.985260035010125",
    "geocoded_column": {
      "latitude": "29.985260035010125",
      "longitude": "-90.07014855729182"
    }
  },
  {
    "service_request": "2021-842253",
    "request_type": "Trash/Recycling",
    "request_reason": "Replace Trash Cart",
    "date_created": "2021-11-15T14:25:14.000",
    "date_modified": "2021-11-15T14:25:15.000",
    "request_status": "Pending",
    "responsible_agency": "Department of Sanitation",
    "final_address": "2719 Lavender St",
    "address_councildis": "D",
    "status": "Assigned to Contractor",
    "contractor": "Metro Disposal",
    "rowid": "842253",
    "final_x": "3687984.52329",
    "final_y": "547041.236881",
    "longitude": "-90.04704441043513",
    "latitude": "29.997975127979437",
    "geocoded_column": {
      "latitude": "29.997975127979437",
      "longitude": "-90.04704441043513"
    }
  },
  {
    "service_request": "2021-842252",
    "request_type": "Abandoned Vehicles",
    "request_reason": "Abandoned/Junk Vehicles",
    "date_created": "2021-11-15T14:21:43.000",
    "date_modified": "2021-11-15T14:22:46.000",
    "request_status": "Pending",
    "responsible_agency": "Department of Public Works",
    "final_address": "2623 Barracks St",
    "address_councildis": "D",
    "status": "Pending",
    "rowid": "842252",
    "final_x": "3678350.91957",
    "final_y": "538531.825161",
    "longitude": "-90.07777137646458",
    "latitude": "29.974871054208297",
    "geocoded_column": {
      "latitude": "29.974871054208297",
      "longitude": "-90.07777137646458"
    }
  },
  {
    "service_request": "2021-842250",
    "request_type": "Trash/Recycling",
    "request_reason": "Replace Recycling Cart",
    "date_created": "2021-11-15T14:15:50.000",
    "date_modified": "2021-11-15T14:15:50.000",
    "request_status": "Pending",
    "responsible_agency": "Department of Sanitation",
    "final_address": "2628 Octavia St",
    "address_councildis": "A",
    "status": "Pending",
    "rowid": "842250",
    "final_x": "3667815.90701",
    "final_y": "525293.840445",
    "longitude": "-90.11148954856766",
    "latitude": "29.938784153514366",
    "geocoded_column": {
      "latitude": "29.938784153514366",
      "longitude": "-90.11148954856766"
    }
  },
  {
    "service_request": "2021-842249",
    "request_type": "Property Maintenance",
    "request_reason": "Property Maintenance",
    "date_created": "2021-11-15T14:15:25.000",
    "date_modified": "2021-11-15T15:01:47.000",
    "request_status": "Pending",
    "responsible_agency": "Department of Code Enforcement",
    "final_address": "1725 Paul Morphy St",
    "address_councildis": "D",
    "status": "Pending",
    "rowid": "842249",
    "final_x": "3679355.5172",
    "final_y": "541184.911756",
    "longitude": "-90.07450654960651",
    "latitude": "29.982135817218385",
    "geocoded_column": {
      "latitude": "29.982135817218385",
      "longitude": "-90.07450654960651"
    }
  },
  {
    "service_request": "2021-842246",
    "request_type": "Property Maintenance",
    "request_reason": "Property Maintenance",
    "date_created": "2021-11-15T14:03:23.000",
    "date_modified": "2021-11-15T14:03:23.000",
    "request_status": "Pending",
    "responsible_agency": "Department of Code Enforcement",
    "final_address": "2900 Tulane Ave",
    "address_councildis": "B",
    "status": "Pending",
    "rowid": "842246",
    "final_x": "3673381.42555",
    "final_y": "534111.700037",
    "longitude": "-90.09361735975676",
    "latitude": "29.96286599500652",
    "geocoded_column": {
      "latitude": "29.96286599500652",
      "longitude": "-90.09361735975676"
    }
  },
  {
    "service_request": "2021-842244",
    "request_type": "Property Maintenance",
    "request_reason": "Property Maintenance",
    "date_created": "2021-11-15T14:01:31.000",
    "date_modified": "2021-11-15T14:01:32.000",
    "request_status": "Pending",
    "responsible_agency": "Department of Code Enforcement",
    "final_address": "623 S Dupre St",
    "address_councildis": "B",
    "status": "Pending",
    "rowid": "842244",
    "final_x": "3673280.93153",
    "final_y": "534060.090053",
    "longitude": "-90.09393647053447",
    "latitude": "29.962727074092562",
    "geocoded_column": {
      "latitude": "29.962727074092562",
      "longitude": "-90.09393647053447"
    }
  },
  {
    "service_request": "2021-842243",
    "request_type": "Trash/Recycling",
    "request_reason": "Start Trash Service",
    "date_created": "2021-11-15T14:01:00.000",
    "date_modified": "2021-11-15T14:01:49.000",
    "request_status": "Pending",
    "responsible_agency": "Department of Sanitation",
    "final_address": "3618 N Miro St",
    "address_councildis": "D",
    "status": "Assigned to Contractor",
    "contractor": "Metro Disposal",
    "rowid": "842243",
    "final_x": "3691932.17373",
    "final_y": "539627.16449",
    "longitude": "-90.03483930347134",
    "latitude": "29.97746666146535",
    "geocoded_column": {
      "latitude": "29.97746666146535",
      "longitude": "-90.03483930347134"
    }
  },
  {
    "service_request": "2021-842242",
    "request_type": "Trash/Recycling",
    "request_reason": "Repair Trash Cart",
    "date_created": "2021-11-15T14:00:16.000",
    "date_modified": "2021-11-15T14:01:51.000",
    "request_status": "Pending",
    "responsible_agency": "Department of Sanitation",
    "final_address": "2406 St Ann St",
    "address_councildis": "D",
    "status": "Assigned to Contractor",
    "contractor": "Richards Disposal",
    "rowid": "842242",
    "final_x": "3677919.83182",
    "final_y": "536401.887751",
    "longitude": "-90.07920648720594",
    "latitude": "29.969027437306895",
    "geocoded_column": {
      "latitude": "29.969027437306895",
      "longitude": "-90.07920648720594"
    }
  },
  {
    "service_request": "2021-842241",
    "request_type": "Abandoned Vehicles",
    "request_reason": "Abandoned/Junk Vehicles",
    "date_created": "2021-11-15T13:54:13.000",
    "date_modified": "2021-11-15T13:54:13.000",
    "request_status": "Pending",
    "responsible_agency": "Department of Public Works",
    "final_address": "822 Flood St",
    "address_councildis": "E",
    "status": "Pending",
    "rowid": "842241",
    "final_x": "3697402.1128",
    "final_y": "532844.770564",
    "longitude": "-90.01780943096678",
    "latitude": "29.958645927513004",
    "geocoded_column": {
      "latitude": "29.958645927513004",
      "longitude": "-90.01780943096678"
    }
  },
  {
    "service_request": "2021-842239",
    "request_type": "Trash/Recycling",
    "request_reason": "Start Trash Service",
    "date_created": "2021-11-15T13:50:15.000",
    "date_modified": "2021-11-15T14:01:52.000",
    "request_status": "Pending",
    "responsible_agency": "Department of Sanitation",
    "final_address": "6911 Morrison Rd",
    "address_councildis": "E",
    "status": "Assigned to Contractor",
    "contractor": "Metro Disposal",
    "rowid": "842239",
    "final_x": "3699159.81021",
    "final_y": "558997.106268",
    "longitude": "-90.01130631448453",
    "latitude": "30.03049956993968",
    "geocoded_column": {
      "latitude": "30.03049956993968",
      "longitude": "-90.01130631448453"
    }
  },
  {
    "service_request": "2021-842238",
    "request_type": "Trash/Recycling",
    "request_reason": "Order Trash Cart",
    "date_created": "2021-11-15T13:47:08.000",
    "date_modified": "2021-11-15T14:01:54.000",
    "request_status": "Pending",
    "responsible_agency": "Department of Sanitation",
    "final_address": "1434 Music St",
    "address_councildis": "C",
    "status": "Assigned to Contractor",
    "contractor": "Metro Disposal",
    "rowid": "842238",
    "final_x": "3686689.78191",
    "final_y": "537843.916105",
    "longitude": "-90.05145950389851",
    "latitude": "29.972725664579922",
    "geocoded_column": {
      "latitude": "29.972725664579922",
      "longitude": "-90.05145950389851"
    }
  },
  {
    "service_request": "2021-842237",
    "request_type": "Trash/Recycling",
    "request_reason": "Request a Large Item Pick Up",
    "date_created": "2021-11-15T13:43:31.000",
    "date_modified": "2021-11-15T14:01:56.000",
    "request_status": "Pending",
    "responsible_agency": "Department of Sanitation",
    "final_address": "215 N Cortez St",
    "address_councildis": "A",
    "status": "Assigned to Contractor",
    "contractor": "Richards Disposal",
    "rowid": "842237",
    "final_x": "3672398.33614",
    "final_y": "538088.283273",
    "longitude": "-90.09658629946571",
    "latitude": "29.97382947020802",
    "geocoded_column": {
      "latitude": "29.97382947020802",
      "longitude": "-90.09658629946571"
    }
  },
  {
    "service_request": "2021-842236",
    "request_type": "Trash/Recycling",
    "request_reason": "Repair Trash Cart",
    "date_created": "2021-11-15T13:43:14.000",
    "date_modified": "2021-11-15T13:43:27.000",
    "request_status": "Pending",
    "responsible_agency": "Department of Sanitation",
    "final_address": "2749 Acacia St",
    "address_councildis": "D",
    "status": "Assigned to Contractor",
    "contractor": "Metro Disposal",
    "rowid": "842236",
    "final_x": "3688262.81462",
    "final_y": "546486.525777",
    "longitude": "-90.04618497908326",
    "latitude": "29.996441280095436",
    "geocoded_column": {
      "latitude": "29.996441280095436",
      "longitude": "-90.04618497908326"
    }
  },
  {
    "service_request": "2021-842235",
    "request_type": "Property Maintenance",
    "request_reason": "Property Maintenance",
    "date_created": "2021-11-15T13:41:42.000",
    "date_modified": "2021-11-15T14:01:58.000",
    "request_status": "Pending",
    "responsible_agency": "Department of Code Enforcement",
    "final_address": "2317 Forstall St",
    "address_councildis": "E",
    "status": "Pending",
    "rowid": "842235",
    "final_x": "3697593.75063",
    "final_y": "538833.920265",
    "longitude": "-90.01698702862218",
    "latitude": "29.975107898491313",
    "geocoded_column": {
      "latitude": "29.975107898491313",
      "longitude": "-90.01698702862218"
    }
  },
  {
    "service_request": "2021-842234",
    "request_type": "Property Maintenance",
    "request_reason": "Property Maintenance",
    "date_created": "2021-11-15T13:41:41.000",
    "date_modified": "2021-11-15T14:02:03.000",
    "request_status": "Pending",
    "responsible_agency": "Department of Code Enforcement",
    "final_address": "2317 Forstall St",
    "address_councildis": "E",
    "status": "Pending",
    "rowid": "842234",
    "final_x": "3697593.75063",
    "final_y": "538833.920265",
    "longitude": "-90.01698702862218",
    "latitude": "29.975107898491313",
    "geocoded_column": {
      "latitude": "29.975107898491313",
      "longitude": "-90.01698702862218"
    }
  },
  {
    "service_request": "2021-842233",
    "request_type": "Trash/Recycling",
    "request_reason": "Request a Large Item Pick Up",
    "date_created": "2021-11-15T13:41:14.000",
    "date_modified": "2021-11-15T14:02:10.000",
    "request_status": "Pending",
    "responsible_agency": "Department of Sanitation",
    "final_address": "4122 Cleveland Ave, New Orleans, Louisiana, 70119",
    "address_councildis": "A",
    "status": "Assigned to Contractor",
    "contractor": "Richards Disposal",
    "rowid": "842233",
    "final_x": "3670615.50587",
    "final_y": "538125.373513",
    "longitude": "-90.10221562578894",
    "latitude": "29.97398424633949",
    "geocoded_column": {
      "latitude": "29.97398424633949",
      "longitude": "-90.10221562578894"
    }
  },
  {
    "service_request": "2021-842230",
    "request_type": "Trash/Recycling",
    "request_reason": "Order Trash Cart",
    "date_created": "2021-11-15T13:34:40.000",
    "date_modified": "2021-11-15T14:02:16.000",
    "request_status": "Pending",
    "responsible_agency": "Department of Sanitation",
    "final_address": "6369 Canal Blvd",
    "address_councildis": "A",
    "status": "Assigned to Contractor",
    "contractor": "Metro Disposal",
    "rowid": "842230",
    "final_x": "3668844.84788",
    "final_y": "549879.698772",
    "longitude": "-90.10741060583308",
    "latitude": "30.006356806703582",
    "geocoded_column": {
      "latitude": "30.006356806703582",
      "longitude": "-90.10741060583308"
    }
  },
  {
    "service_request": "2021-842228",
    "request_type": "Health Related Questions",
    "request_reason": "Request Health Records (Immunization, Lead and Health)",
    "date_created": "2021-11-15T13:27:29.000",
    "date_modified": "2021-11-15T14:02:20.000",
    "request_status": "Pending",
    "responsible_agency": "Health Department",
    "final_address": "2312 Barracks St",
    "address_councildis": "D",
    "status": "Pending",
    "rowid": "842228",
    "final_x": "3679285.39656",
    "final_y": "537707.25044",
    "longitude": "-90.07484866398066",
    "latitude": "29.9725755692328",
    "geocoded_column": {
      "latitude": "29.9725755692328",
      "longitude": "-90.07484866398066"
    }
  },
  {
    "service_request": "2021-842224",
    "request_type": "Parks & Parkways",
    "request_reason": "Request Tree Service (Right of Way/Public Property)",
    "date_created": "2021-11-15T13:23:24.000",
    "date_modified": "2021-11-15T14:02:22.000",
    "request_status": "Pending",
    "responsible_agency": "Department of Parks & Parkway",
    "final_address": "5326 N Rampart St",
    "address_councildis": "E",
    "status": "Pending",
    "rowid": "842224",
    "final_x": "3696912.8856",
    "final_y": "533532.022725",
    "longitude": "-90.01932938807664",
    "latitude": "29.960551062867196",
    "geocoded_column": {
      "latitude": "29.960551062867196",
      "longitude": "-90.01932938807664"
    }
  },
  {
    "service_request": "2021-842223",
    "request_type": "Trash/Recycling",
    "request_reason": "Request a Large Item Pick Up",
    "date_created": "2021-11-15T13:21:03.000",
    "date_modified": "2021-11-15T14:02:24.000",
    "request_status": "Pending",
    "responsible_agency": "Department of Sanitation",
    "final_address": "4733 Patterson St",
    "address_councildis": "C",
    "status": "Assigned to Contractor",
    "contractor": "Richards Disposal",
    "rowid": "842223",
    "final_x": "3701585.47261",
    "final_y": "524809.38758",
    "longitude": "-90.00489373244972",
    "latitude": "29.93641873785952",
    "geocoded_column": {
      "latitude": "29.93641873785952",
      "longitude": "-90.00489373244972"
    }
  },
  {
    "service_request": "2021-842220",
    "request_type": "Trash/Recycling",
    "request_reason": "Request a Large Item Pick Up",
    "date_created": "2021-11-15T13:13:11.000",
    "date_modified": "2021-11-15T13:13:12.000",
    "request_status": "Pending",
    "responsible_agency": "Department of Sanitation",
    "final_address": "511 Bellecastle St",
    "address_councildis": "B",
    "status": "Assigned to Contractor",
    "contractor": "Richards Disposal",
    "rowid": "842220",
    "final_x": "3667685.32513",
    "final_y": "517305.812149",
    "longitude": "-90.11217058062803",
    "latitude": "29.91682343962668",
    "geocoded_column": {
      "latitude": "29.91682343962668",
      "longitude": "-90.11217058062803"
    }
  },
  {
    "service_request": "2021-842219",
    "request_type": "Trash/Recycling",
    "request_reason": "Order Recycling Cart",
    "date_created": "2021-11-15T13:06:54.000",
    "date_modified": "2021-11-15T14:02:26.000",
    "request_status": "Pending",
    "responsible_agency": "Department of Sanitation",
    "final_address": "3430 Coliseum St",
    "address_councildis": "B",
    "status": "Pending",
    "rowid": "842219",
    "final_x": "3674364.17492",
    "final_y": "520427.713272",
    "longitude": "-90.090982476753",
    "latitude": "29.925210258964285",
    "geocoded_column": {
      "latitude": "29.925210258964285",
      "longitude": "-90.090982476753"
    }
  },
  {
    "service_request": "2021-842218",
    "request_type": "Trash/Recycling",
    "request_reason": "Repair Trash Cart",
    "date_created": "2021-11-15T13:01:07.000",
    "date_modified": "2021-11-15T13:02:08.000",
    "request_status": "Pending",
    "responsible_agency": "Department of Sanitation",
    "final_address": "4819 Carondelet St",
    "address_councildis": "B",
    "status": "Assigned to Contractor",
    "contractor": "Richards Disposal",
    "rowid": "842218",
    "final_x": "3669166.86868",
    "final_y": "521163.278585",
    "longitude": "-90.10736392540642",
    "latitude": "29.927386752325763",
    "geocoded_column": {
      "latitude": "29.927386752325763",
      "longitude": "-90.10736392540642"
    }
  },
  {
    "service_request": "2021-842216",
    "request_type": "Trash/Recycling",
    "request_reason": "Start Trash Service",
    "date_created": "2021-11-15T12:58:29.000",
    "date_modified": "2021-11-15T13:02:11.000",
    "request_status": "Pending",
    "responsible_agency": "Department of Sanitation",
    "final_address": "5727 N Johnson St B",
    "address_councildis": "E",
    "status": "Assigned to Contractor",
    "contractor": "Metro Disposal",
    "rowid": "842216",
    "final_x": "3699500.83191",
    "final_y": "537017.337544",
    "longitude": "-90.01103021469183",
    "latitude": "29.9700525731874",
    "geocoded_column": {
      "latitude": "29.9700525731874",
      "longitude": "-90.01103021469183"
    }
  },
  {
    "service_request": "2021-842215",
    "request_type": "Trash/Recycling",
    "request_reason": "Order Trash Cart",
    "date_created": "2021-11-15T12:57:54.000",
    "date_modified": "2021-11-15T13:02:13.000",
    "request_status": "Pending",
    "responsible_agency": "Department of Sanitation",
    "final_address": "5727 N Johnson St B",
    "address_councildis": "E",
    "status": "Assigned to Contractor",
    "contractor": "Metro Disposal",
    "rowid": "842215",
    "final_x": "3699500.83191",
    "final_y": "537017.337544",
    "longitude": "-90.01103021469183",
    "latitude": "29.9700525731874",
    "geocoded_column": {
      "latitude": "29.9700525731874",
      "longitude": "-90.01103021469183"
    }
  },
  {
    "service_request": "2021-842213",
    "request_type": "Abandoned Vehicles",
    "request_reason": "Abandoned/Junk Vehicles",
    "date_created": "2021-11-15T12:54:06.000",
    "date_modified": "2021-11-15T12:54:06.000",
    "request_status": "Pending",
    "responsible_agency": "Department of Public Works",
    "final_address": "910 N Dorgenois St",
    "address_councildis": "D",
    "status": "Pending",
    "rowid": "842213",
    "final_x": "3677673.56347",
    "final_y": "537234.38676",
    "longitude": "-90.07995546149222",
    "latitude": "29.97132393436578",
    "geocoded_column": {
      "latitude": "29.97132393436578",
      "longitude": "-90.07995546149222"
    }
  },
  {
    "service_request": "2021-842211",
    "request_type": "Abandoned Vehicles",
    "request_reason": "Abandoned/Junk Vehicles",
    "date_created": "2021-11-15T12:52:19.000",
    "date_modified": "2021-11-15T12:52:19.000",
    "request_status": "Pending",
    "responsible_agency": "Department of Public Works",
    "final_address": "2544 Dumaine St",
    "address_councildis": "D",
    "status": "Pending",
    "rowid": "842211",
    "final_x": "3677652.67042",
    "final_y": "537080.595336",
    "longitude": "-90.08002675719123",
    "latitude": "29.9709016889274",
    "geocoded_column": {
      "latitude": "29.9709016889274",
      "longitude": "-90.08002675719123"
    }
  },
  {
    "service_request": "2021-842207",
    "request_type": "Trash/Recycling",
    "request_reason": "Replace Recycling Cart",
    "date_created": "2021-11-15T12:39:39.000",
    "date_modified": "2021-11-15T13:02:19.000",
    "request_status": "Pending",
    "responsible_agency": "Department of Sanitation",
    "final_address": "1460 Pauger St, New Orleans, Louisiana, 70116",
    "address_councildis": "C",
    "status": "Pending",
    "rowid": "842207",
    "final_x": "3683931.65871",
    "final_y": "535054.864902",
    "longitude": "-90.06026801866976",
    "latitude": "29.965141293936792",
    "geocoded_column": {
      "latitude": "29.965141293936792",
      "longitude": "-90.06026801866976"
    }
  },
  {
    "service_request": "2021-842206",
    "request_type": "Trash/Recycling",
    "request_reason": "Repair Trash Cart",
    "date_created": "2021-11-15T12:38:36.000",
    "date_modified": "2021-11-15T13:02:21.000",
    "request_status": "Pending",
    "responsible_agency": "Department of Sanitation",
    "final_address": "546 Lakeshore Prkwy",
    "address_councildis": "D",
    "status": "Assigned to Contractor",
    "contractor": "Metro Disposal",
    "rowid": "842206",
    "final_x": "3668662.8121",
    "final_y": "557021.461018",
    "longitude": "-90.10774437460543",
    "latitude": "30.025999483461266",
    "geocoded_column": {
      "latitude": "30.025999483461266",
      "longitude": "-90.10774437460543"
    }
  },
  {
    "service_request": "2021-842204",
    "request_type": "Roads/Drainage",
    "request_reason": "Catch Basin - Clogged",
    "date_created": "2021-11-15T12:33:41.000",
    "date_modified": "2021-11-15T12:34:10.000",
    "request_status": "Pending",
    "responsible_agency": "Department of Public Works",
    "final_address": "2533 Constance St",
    "address_councildis": "B",
    "status": "Pending",
    "rowid": "842204",
    "final_x": "3677788.82523",
    "final_y": "520905.922233",
    "longitude": "-90.08015543075973",
    "latitude": "29.926422635885533",
    "geocoded_column": {
      "latitude": "29.926422635885533",
      "longitude": "-90.08015543075973"
    }
  },
  {
    "service_request": "2021-842203",
    "request_type": "Trash/Recycling",
    "request_reason": "Dead Animal Pick Up",
    "date_created": "2021-11-15T12:33:06.000",
    "date_modified": "2021-11-15T13:02:22.000",
    "request_status": "Pending",
    "responsible_agency": "Department of Sanitation",
    "final_address": "2514 S Prieur St",
    "address_councildis": "B",
    "status": "Assigned to Contractor",
    "contractor": "Richards Disposal",
    "rowid": "842203",
    "final_x": "3673336.38216",
    "final_y": "527868.235647",
    "longitude": "-90.09397285378743",
    "latitude": "29.945699879864105",
    "geocoded_column": {
      "latitude": "29.945699879864105",
      "longitude": "-90.09397285378743"
    }
  },
  {
    "service_request": "2021-842202",
    "request_type": "Traffic Signals/Signs/Striping/Streetlights",
    "request_reason": "Request for Traffic Calming due to Speeding",
    "date_created": "2021-11-15T12:30:29.000",
    "date_modified": "2021-11-15T12:30:29.000",
    "request_status": "Pending",
    "responsible_agency": "Department of Public Works",
    "final_address": "14001 Dwyer Blvd",
    "address_councildis": "E",
    "status": "Pending",
    "rowid": "842202",
    "final_x": "3728325.27437",
    "final_y": "563007.478816",
    "longitude": "-89.91898803704869",
    "latitude": "30.04056893644903",
    "geocoded_column": {
      "latitude": "30.04056893644903",
      "longitude": "-89.91898803704869"
    }
  },
  {
    "service_request": "2021-842200",
    "request_type": "Trash/Recycling",
    "request_reason": "Replace Trash Cart",
    "date_created": "2021-11-15T12:22:40.000",
    "date_modified": "2021-11-15T13:02:26.000",
    "request_status": "Pending",
    "responsible_agency": "Department of Sanitation",
    "final_address": "1741 Jourdan Ave, New Orleans, Louisiana, 70117",
    "address_councildis": "E",
    "status": "Assigned to Contractor",
    "contractor": "Metro Disposal",
    "rowid": "842200",
    "final_x": "3695803.68003",
    "final_y": "537056.716168",
    "longitude": "-90.02270470980704",
    "latitude": "29.9702776469525",
    "geocoded_column": {
      "latitude": "29.9702776469525",
      "longitude": "-90.02270470980704"
    }
  },
  {
    "service_request": "2021-842199",
    "request_type": "Property Maintenance",
    "request_reason": "Property Maintenance",
    "date_created": "2021-11-15T12:22:29.000",
    "date_modified": "2021-11-15T12:22:29.000",
    "request_status": "Pending",
    "responsible_agency": "Department of Code Enforcement",
    "final_address": "3116 Broadway St",
    "address_councildis": "B",
    "status": "Pending",
    "rowid": "842199",
    "final_x": "3667986.31117",
    "final_y": "532300.228611",
    "longitude": "-90.1107155406446",
    "latitude": "29.95804444445073",
    "geocoded_column": {
      "latitude": "29.95804444445073",
      "longitude": "-90.1107155406446"
    }
  },
  {
    "service_request": "2021-842198",
    "request_type": "Traffic Signals/Signs/Striping/Streetlights",
    "request_reason": "Traffic Sign Missing/Damaged",
    "date_created": "2021-11-15T12:21:30.000",
    "date_modified": "2021-11-15T13:02:28.000",
    "request_status": "Pending",
    "responsible_agency": "Department of Public Works",
    "final_address": "6154 Press Dr",
    "address_councildis": "D",
    "status": "Pending",
    "rowid": "842198",
    "final_x": "3688712.69244",
    "final_y": "556000.847897",
    "longitude": "-90.04442577083076",
    "latitude": "30.022588269729045",
    "geocoded_column": {
      "latitude": "30.022588269729045",
      "longitude": "-90.04442577083076"
    }
  },
  {
    "service_request": "2021-842197",
    "request_type": "Traffic Signals/Signs/Striping/Streetlights",
    "request_reason": "Traffic Signal Malfunctioning/Damaged",
    "date_created": "2021-11-15T12:17:23.000",
    "date_modified": "2021-11-15T12:17:23.000",
    "request_status": "Pending",
    "responsible_agency": "Department of Public Works",
    "final_address": "APRICOT ST & S CARROLLTON AVE & WALMSLEY AVE",
    "address_councildis": "B",
    "status": "Pending",
    "rowid": "842197",
    "final_x": "3665915.9",
    "final_y": "532544.68",
    "longitude": "-90.11724515405595",
    "latitude": "29.95877718726222",
    "geocoded_column": {
      "latitude": "29.95877718726222",
      "longitude": "-90.11724515405595"
    }
  },
  {
    "service_request": "2021-842196",
    "request_type": "COVID-19",
    "request_reason": "COVID-19 Business Non-Compliance",
    "date_created": "2021-11-15T12:15:23.000",
    "date_modified": "2021-11-15T13:02:29.000",
    "request_status": "Pending",
    "responsible_agency": "Safety and Permits",
    "final_address": "514 City Park Ave",
    "address_councildis": "A",
    "status": "Pending",
    "rowid": "842196",
    "final_x": "3669697.3273",
    "final_y": "541424.52334",
    "longitude": "-90.10500375287299",
    "latitude": "29.98308288568216",
    "geocoded_column": {
      "latitude": "29.98308288568216",
      "longitude": "-90.10500375287299"
    }
  },
  {
    "service_request": "2021-842195",
    "request_type": "Mayor's Request",
    "request_reason": "Requests to the Mayor",
    "date_created": "2021-11-15T12:14:41.000",
    "date_modified": "2021-11-15T12:14:41.000",
    "request_status": "Pending",
    "responsible_agency": "Executive Office of the Mayor",
    "status": "Pending",
    "rowid": "842195",
    "longitude": "0.0",
    "latitude": "0.0",
    "geocoded_column": {
      "latitude": "0.0",
      "longitude": "0.0"
    }
  },
  {
    "service_request": "2021-842194",
    "request_type": "Trash/Recycling",
    "request_reason": "Replace Trash Cart",
    "date_created": "2021-11-15T12:14:40.000",
    "date_modified": "2021-11-15T13:39:21.000",
    "request_status": "Pending",
    "responsible_agency": "Department of Sanitation",
    "final_address": "New Orleans,LA",
    "address_councildis": "D",
    "status": "Assigned to Contractor",
    "contractor": "Metro Disposal",
    "rowid": "842194",
    "final_x": "3679212.35669",
    "final_y": "542449.598605",
    "longitude": "-90.0749148501675",
    "latitude": "29.985617589243265",
    "geocoded_column": {
      "latitude": "29.985617589243265",
      "longitude": "-90.0749148501675"
    }
  },
  {
    "service_request": "2021-842193",
    "request_type": "Trash/Recycling",
    "request_reason": "Request a Large Item Pick Up",
    "date_created": "2021-11-15T12:14:38.000",
    "date_modified": "2021-11-15T13:02:32.000",
    "request_status": "Pending",
    "responsible_agency": "Department of Sanitation",
    "final_address": "6923 Memphis St",
    "address_councildis": "A",
    "status": "Assigned to Contractor",
    "contractor": "Metro Disposal",
    "rowid": "842193",
    "final_x": "3669849.84673",
    "final_y": "553469.192087",
    "longitude": "-90.10411390132855",
    "latitude": "30.01619704577923",
    "geocoded_column": {
      "latitude": "30.01619704577923",
      "longitude": "-90.10411390132855"
    }
  },