[
  {
    "service_request": "2022-920240",
    "request_type": "Property Maintenance",
    "request_reason": "Property Maintenance",
    "date_created": "2022-09-16T00:16:04.000",
    "date_modified": "2022-09-16T00:16:04.000",
    "request_status": "Pending",
    "responsible_agency": "Department of Code Enforcement",
    "final_address": "1216 Gallier St",
    "address_councildis": "C",
    "status": "Pending",
    "rowid": "920240",
    "final_x": "3690550.59126",
    "final_y": "536148.612551",
    "longitude": "-90.03932685942594",
    "latitude": "29.967944850584715",
    "geocoded_column": {
      "latitude": "29.967944850584715",
      "longitude": "-90.03932685942594"
    }
  },
  {
    "service_request": "2022-920239",
    "request_type": "Trash/Recycling",
    "request_reason": "Missed Trash Pick-Up",
    "date_created": "2022-09-16T00:10:30.000",
    "date_modified": "2022-09-16T00:10:31.000",
    "request_status": "Pending",
    "responsible_agency": "Department of Sanitation",
    "final_address": "1220 Gallier St",
    "address_councildis": "C",
    "status": "Assigned to Contractor",
    "contractor": "Metro Disposal",
    "rowid": "920239",
    "final_x": "3690564.23542",
    "final_y": "536177.716295",
    "longitude": "-90.03928273286918",
    "latitude": "29.96802445196129",
    "geocoded_column": {
      "latitude": "29.96802445196129",
      "longitude": "-90.03928273286918"
    }
  },
  {
    "service_request": "2022-920238",
    "request_type": "Trash/Recycling",
    "request_reason": "Repair Recycling Cart",
    "date_created": "2022-09-15T23:44:01.000",
    "date_modified": "2022-09-15T23:44:01.000",
    "request_status": "Pending",
    "responsible_agency": "Department of Sanitation",
    "final_address": "5612 Chestnut St",
    "address_councildis": "A",
    "status": "Pending",
    "rowid": "920238",
    "final_x": "3666078.69076",
    "final_y": "519529.868151",
    "longitude": "-90.11716729891765",
    "latitude": "29.92298588031543",
    "geocoded_column": {
      "latitude": "29.92298588031543",
      "longitude": "-90.11716729891765"
    }
  },
  {
    "service_request": "2022-920237",
    "request_type": "Trash/Recycling",
    "request_reason": "Repair Trash Cart",
    "date_created": "2022-09-15T23:42:49.000",
    "date_modified": "2022-09-15T23:42:50.000",
    "request_status": "Pending",
    "responsible_agency": "Department of Sanitation",
    "final_address": "5612 Chestnut St",
    "address_councildis": "A",
    "status": "Assigned to Contractor",
    "contractor": "Richards Disposal",
    "rowid": "920237",
    "final_x": "3666078.69076",
    "final_y": "519529.868151",
    "longitude": "-90.11716729891765",
    "latitude": "29.92298588031543",
    "geocoded_column": {
      "latitude": "29.92298588031543",
      "longitude": "-90.11716729891765"
    }
  },
  {
    "service_request": "2022-920236",
    "request_type": "Trash/Recycling",
    "request_reason": "MIssed Recycling Pick-Up",
    "date_created": "2022-09-15T23:38:47.000",
    "date_modified": "2022-09-15T23:38:48.000",
    "request_status": "Pending",
    "responsible_agency": "Department of Sanitation",
    "final_address": "4620 S Liberty St",
    "address_councildis": "B",
    "status": "Assigned to Contractor",
    "contractor": "Richards Disposal",
    "rowid": "920236",
    "final_x": "3669668.0187",
    "final_y": "523214.864827",
    "longitude": "-90.10571252941148",
    "latitude": "29.933013205025297",
    "geocoded_column": {
      "latitude": "29.933013205025297",
      "longitude": "-90.10571252941148"
    }
  },
  {
    "service_request": "2022-920234",
    "request_type": "Traffic Signals/Signs/Striping/Streetlights",
    "request_reason": "Street Light Outage/Malfunction",
    "date_created": "2022-09-15T23:19:07.000",
    "date_modified": "2022-09-15T23:19:07.000",
    "request_status": "Pending",
    "responsible_agency": "Department of Public Works",
    "final_address": "4616 Perrier St",
    "address_councildis": "B",
    "status": "Pending",
    "contractor": "Legacy Professional Services",
    "rowid": "920234",
    "final_x": "3670020.35617",
    "final_y": "519947.026552",
    "longitude": "-90.10471083860565",
    "latitude": "29.924017309832756",
    "geocoded_column": {
      "latitude": "29.924017309832756",
      "longitude": "-90.10471083860565"
    }
  },
  {
    "service_request": "2022-920233",
    "request_type": "Health Related Questions",
    "request_reason": "Noise Ordinance Complaint",
    "date_created": "2022-09-15T22:40:49.000",
    "date_modified": "2022-09-15T22:40:49.000",
    "request_status": "Pending",
    "responsible_agency": "Health Department",
    "final_address": "1723 Henriette Delille St",
    "address_councildis": "C",
    "status": "Pending",
    "rowid": "920233",
    "final_x": "3683338.40943",
    "final_y": "536195.373255",
    "longitude": "-90.06210150700602",
    "latitude": "29.968295408632137",
    "geocoded_column": {
      "latitude": "29.968295408632137",
      "longitude": "-90.06210150700602"
    }
  },
  {
    "service_request": "2022-920232",
    "request_type": "Abandoned Vehicles",
    "request_reason": "Vehicle Blocking Your Driveway",
    "date_created": "2022-09-15T22:33:27.000",
    "date_modified": "2022-09-15T22:33:27.000",
    "request_status": "Pending",
    "responsible_agency": "Department of Public Works",
    "final_address": "415 S Genois St, New Orleans, Louisiana, 70119",
    "address_councildis": "B",
    "status": "Pending",
    "rowid": "920232",
    "final_x": "3671705.73703",
    "final_y": "536085.457991",
    "longitude": "-90.09884183230625",
    "latitude": "29.968342912579164",
    "geocoded_column": {
      "latitude": "29.968342912579164",
      "longitude": "-90.09884183230625"
    }
  },
  {
    "service_request": "2022-920231",
    "request_type": "Trash/Recycling",
    "request_reason": "Missed Trash Pick-Up",
    "date_created": "2022-09-15T22:26:26.000",
    "date_modified": "2022-09-15T22:26:27.000",
    "request_status": "Pending",
    "responsible_agency": "Department of Sanitation",
    "final_address": "2348 St Thomas St",
    "address_councildis": "B",
    "status": "Assigned to Contractor",
    "contractor": "Richards Disposal",
    "rowid": "920231",
    "final_x": "3679335.10031",
    "final_y": "520100.722744",
    "longitude": "-90.07530217964539",
    "latitude": "29.924162008908024",
    "geocoded_column": {
      "latitude": "29.924162008908024",
      "longitude": "-90.07530217964539"
    }
  },
  {
    "service_request": "2022-920230",
    "request_type": "Traffic Signals/Signs/Striping/Streetlights",
    "request_reason": "Street Light Outage/Malfunction",
    "date_created": "2022-09-15T22:02:05.000",
    "date_modified": "2022-09-15T22:02:06.000",
    "request_status": "Pending",
    "responsible_agency": "Department of Public Works",
    "final_address": "1535 Burdette St",
    "address_councildis": "A",
    "status": "Pending",
    "contractor": "Legacy Professional Services",
    "rowid": "920230",
    "final_x": "3663730.10791",
    "final_y": "528571.58112",
    "longitude": "-90.12427973892692",
    "latitude": "29.947916057187477",
    "geocoded_column": {
      "latitude": "29.947916057187477",
      "longitude": "-90.12427973892692"
    }
  },
  {
    "service_request": "2022-920229",
    "request_type": "Trash/Recycling",
    "request_reason": "Missed Trash Pick-Up",
    "date_created": "2022-09-15T21:59:52.000",
    "date_modified": "2022-09-15T21:59:53.000",
    "request_status": "Pending",
    "responsible_agency": "Department of Sanitation",
    "final_address": "2833 S Liberty St",
    "address_councildis": "B",
    "status": "Assigned to Contractor",
    "contractor": "Richards Disposal",
    "rowid": "920229",
    "final_x": "3674286.65134",
    "final_y": "524479.15078",
    "longitude": "-90.09108854333479",
    "latitude": "29.936352710840243",
    "geocoded_column": {
      "latitude": "29.936352710840243",
      "longitude": "-90.09108854333479"
    }
  },
  {
    "service_request": "2022-920228",
    "request_type": "Traffic Signals/Signs/Striping/Streetlights",
    "request_reason": "Street Light Outage/Malfunction",
    "date_created": "2022-09-15T21:39:14.000",
    "date_modified": "2022-09-15T21:39:14.000",
    "request_status": "Pending",
    "responsible_agency": "Department of Public Works",
    "final_address": "826 St Ann St",
    "address_councildis": "C",
    "status": "Pending",
    "contractor": "Legacy Professional Services",
    "rowid": "920228",
    "final_x": "3682294.74511",
    "final_y": "533095.652612",
    "longitude": "-90.0655057548322",
    "latitude": "29.959804036568386",
    "geocoded_column": {
      "latitude": "29.959804036568386",
      "longitude": "-90.0655057548322"
    }
  },
  {
    "service_request": "2022-920227",
    "request_type": "Trash/Recycling",
    "request_reason": "Replace Trash Cart",
    "date_created": "2022-09-15T20:56:32.000",
    "date_modified": "2022-09-15T20:56:32.000",
    "request_status": "Pending",
    "responsible_agency": "Department of Sanitation",
    "final_address": "518 Warrington Dr",
    "address_councildis": "D",
    "status": "Assigned to Contractor",
    "contractor": "Metro Disposal",
    "rowid": "920227",
    "final_x": "3681122.91509",
    "final_y": "548648.719443",
    "longitude": "-90.06866406604057",
    "latitude": "30.002605142461622",
    "geocoded_column": {
      "latitude": "30.002605142461622",
      "longitude": "-90.06866406604057"
    }
  },
  {
    "service_request": "2022-920226",
    "request_type": "Trash/Recycling",
    "request_reason": "Missed Trash Pick-Up",
    "date_created": "2022-09-15T20:54:07.000",
    "date_modified": "2022-09-15T20:54:08.000",
    "request_status": "Pending",
    "responsible_agency": "Department of Sanitation",
    "final_address": "7809 Mayo Rd",
    "address_councildis": "E",
    "status": "Assigned to Contractor",
    "contractor": "Metro Disposal",
    "rowid": "920226",
    "final_x": "3700680.38749",
    "final_y": "561372.604702",
    "longitude": "-90.00641437106806",
    "latitude": "30.036982942049587",
    "geocoded_column": {
      "latitude": "30.036982942049587",
      "longitude": "-90.00641437106806"
    }
  },
  {
    "service_request": "2022-920225",
    "request_type": "Traffic Signals/Signs/Striping/Streetlights",
    "request_reason": "Street Light Outage/Malfunction",
    "date_created": "2022-09-15T20:52:24.000",
    "date_modified": "2022-09-15T20:52:24.000",
    "request_status": "Pending",
    "responsible_agency": "Department of Public Works",
    "final_address": "318 Country Club Dr",
    "address_councildis": "A",
    "status": "Pending",
    "contractor": "Legacy Professional Services",
    "rowid": "920225",
    "final_x": "3664631.70509",
    "final_y": "544215.660686",
    "longitude": "-90.12091037457805",
    "latitude": "29.99090591257426",
    "geocoded_column": {
      "latitude": "29.99090591257426",
      "longitude": "-90.12091037457805"
    }
  },
  {
    "service_request": "2022-920224",
    "request_type": "Trash/Recycling",
    "request_reason": "Order Recycling Cart",
    "date_created": "2022-09-15T20:38:31.000",
    "date_modified": "2022-09-15T20:38:31.000",
    "request_status": "Pending",
    "responsible_agency": "Department of Sanitation",
    "final_address": "7326 Cameo St",
    "address_councildis": "D",
    "status": "Pending",
    "rowid": "920224",
    "final_x": "3667743.49428",
    "final_y": "555536.513625",
    "longitude": "-90.11069937869819",
    "latitude": "30.021943411891947",
    "geocoded_column": {
      "latitude": "30.021943411891947",
      "longitude": "-90.11069937869819"
    }
  },
  {
    "service_request": "2022-920223",
    "request_type": "Trash/Recycling",
    "request_reason": "Illegal Dumping",
    "date_created": "2022-09-15T20:20:17.000",
    "date_modified": "2022-09-15T20:20:17.000",
    "request_status": "Pending",
    "responsible_agency": "Department of Sanitation",
    "final_address": "6121 N Prieur St",
    "address_councildis": "E",
    "status": "Pending",
    "rowid": "920223",
    "final_x": "3700861.25079",
    "final_y": "536181.598663",
    "longitude": "-90.00676446030275",
    "latitude": "29.9677113552115",
    "geocoded_column": {
      "latitude": "29.9677113552115",
      "longitude": "-90.00676446030275"
    }
  },
  {
    "service_request": "2022-920222",
    "request_type": "Abandoned Vehicles",
    "request_reason": "Abandoned/Junk Vehicles",
    "date_created": "2022-09-15T20:10:05.000",
    "date_modified": "2022-09-15T20:10:05.000",
    "request_status": "Pending",
    "responsible_agency": "Department of Public Works",
    "final_address": "4113 N Villere St",
    "address_councildis": "D",
    "status": "Pending",
    "rowid": "920222",
    "final_x": "3692555.22025",
    "final_y": "536346.490887",
    "longitude": "-90.03298910754238",
    "latitude": "29.9684265459535",
    "geocoded_column": {
      "latitude": "29.9684265459535",
      "longitude": "-90.03298910754238"
    }
  },
  {
    "service_request": "2022-920221",
    "request_type": "Roads/Drainage",
    "request_reason": "Street Subsidence (Sinking)",
    "date_created": "2022-09-15T19:58:58.000",
    "date_modified": "2022-09-15T19:58:58.000",
    "request_status": "Pending",
    "responsible_agency": "Department of Public Works",
    "final_address": "1 Everett Pl",
    "address_councildis": "A",
    "status": "Pending",
    "rowid": "920221",
    "final_x": "3666374.86842",
    "final_y": "523035.219579",
    "longitude": "-90.11611483428953",
    "latitude": "29.93261584062833",
    "geocoded_column": {
      "latitude": "29.93261584062833",
      "longitude": "-90.11611483428953"
    }
  },
  {
    "service_request": "2022-920220",
    "request_type": "Trash/Recycling",
    "request_reason": "Missed Trash Pick-Up",
    "date_created": "2022-09-15T19:55:05.000",
    "date_modified": "2022-09-15T19:55:06.000",
    "request_status": "Pending",
    "responsible_agency": "Department of Sanitation",
    "final_address": "722 Alvar St",
    "address_councildis": "C",
    "status": "Assigned to Contractor",
    "contractor": "Metro Disposal",
    "rowid": "920220",
    "final_x": "3691130.01712",
    "final_y": "534088.827269",
    "longitude": "-90.03757057926335",
    "latitude": "29.962263158864836",
    "geocoded_column": {
      "latitude": "29.962263158864836",
      "longitude": "-90.03757057926335"
    }
  },
  {
    "service_request": "2022-920219",
    "request_type": "Abandoned Vehicles",
    "request_reason": "Abandoned/Junk Vehicles",
    "date_created": "2022-09-15T19:41:54.000",
    "date_modified": "2022-09-15T19:41:54.000",
    "request_status": "Pending",
    "responsible_agency": "Department of Public Works",
    "final_address": "424 S Alexander St, New Orleans, Louisiana, 70119",
    "address_councildis": "A",
    "status": "Pending",
    "rowid": "920219",
    "final_x": "3669128.85652",
    "final_y": "537978.817033",
    "longitude": "-90.10691576716538",
    "latitude": "29.973625101554806",
    "geocoded_column": {
      "latitude": "29.973625101554806",
      "longitude": "-90.10691576716538"
    }
  },
  {
    "service_request": "2022-920218",
    "request_type": "Trash/Recycling",
    "request_reason": "Missed Trash Pick-Up",
    "date_created": "2022-09-15T19:40:19.000",
    "date_modified": "2022-09-15T19:40:19.000",
    "request_status": "Pending",
    "responsible_agency": "Department of Sanitation",
    "final_address": "3614 N Miro St",
    "address_councildis": "D",
    "status": "Assigned to Contractor",
    "contractor": "Metro Disposal",
    "rowid": "920218",
    "final_x": "3691904.65667",
    "final_y": "539634.043786",
    "longitude": "-90.03492596503203",
    "latitude": "29.977486434471416",
    "geocoded_column": {
      "latitude": "29.977486434471416",
      "longitude": "-90.03492596503203"
    }
  },
  {
    "service_request": "2022-920217",
    "request_type": "Trash/Recycling",
    "request_reason": "Missed Trash Pick-Up",
    "date_created": "2022-09-15T19:29:47.000",
    "date_modified": "2022-09-15T19:29:48.000",
    "request_status": "Pending",
    "responsible_agency": "Department of Sanitation",
    "final_address": "438 Audubon Blvd",
    "address_councildis": "B",
    "status": "Assigned to Contractor",
    "contractor": "Richards Disposal",
    "rowid": "920217",
    "final_x": "3667448.83239",
    "final_y": "530593.17485",
    "longitude": "-90.11247018775092",
    "latitude": "29.953366364044836",
    "geocoded_column": {
      "latitude": "29.953366364044836",
      "longitude": "-90.11247018775092"
    }
  },
  {
    "service_request": "2022-920216",
    "request_type": "Trash/Recycling",
    "request_reason": "Missed Trash Pick-Up",
    "date_created": "2022-09-15T19:19:20.000",
    "date_modified": "2022-09-15T19:19:20.000",
    "request_status": "Pending",
    "responsible_agency": "Department of Sanitation",
    "final_address": "2841 Chestnut St",
    "address_councildis": "B",
    "status": "Assigned to Contractor",
    "contractor": "Richards Disposal",
    "rowid": "920216",
    "final_x": "3676325.50881",
    "final_y": "521271.979129",
    "longitude": "-90.08476212396538",
    "latitude": "29.92747309818333",
    "geocoded_column": {
      "latitude": "29.92747309818333",
      "longitude": "-90.08476212396538"
    }
  },
  {
    "service_request": "2022-920215",
    "request_type": "Trash/Recycling",
    "request_reason": "Request a Large Item Pick Up",
    "date_created": "2022-09-15T19:05:04.000",
    "date_modified": "2022-09-15T19:05:06.000",
    "request_status": "Pending",
    "responsible_agency": "Department of Sanitation",
    "final_address": "2109 St Anthony St",
    "address_councildis": "D",
    "status": "Assigned to Contractor",
    "contractor": "Metro Disposal",
    "rowid": "920215",
    "final_x": "3683294.21576",
    "final_y": "539986.309323",
    "longitude": "-90.06210825260756",
    "latitude": "29.97872051305409",
    "geocoded_column": {
      "latitude": "29.97872051305409",
      "longitude": "-90.06210825260756"
    }
  },
  {
    "service_request": "2022-920214",
    "request_type": "Trash/Recycling",
    "request_reason": "Missed Trash Pick-Up",
    "date_created": "2022-09-15T18:52:01.000",
    "date_modified": "2022-09-15T18:52:01.000",
    "request_status": "Pending",
    "responsible_agency": "Department of Sanitation",
    "final_address": "2831 Audubon St",
    "address_councildis": "B",
    "status": "Assigned to Contractor",
    "contractor": "Richards Disposal",
    "rowid": "920214",
    "final_x": "3667694.17434",
    "final_y": "531295.870018",
    "longitude": "-90.11167184375363",
    "latitude": "29.955291355719048",
    "geocoded_column": {
      "latitude": "29.955291355719048",
      "longitude": "-90.11167184375363"
    }
  },
  {
    "service_request": "2022-920213",
    "request_type": "Roads/Drainage",
    "request_reason": "Pothole",
    "date_created": "2022-09-15T18:49:45.000",
    "date_modified": "2022-09-15T18:49:45.000",
    "request_status": "Pending",
    "responsible_agency": "Department of Public Works",
    "final_address": "931 Navarre St",
    "address_councildis": "A",
    "status": "Pending",
    "rowid": "920213",
    "final_x": "3669780.35239",
    "final_y": "543781.638478",
    "longitude": "-90.10466168457181",
    "latitude": "29.98956169954682",
    "geocoded_column": {
      "latitude": "29.98956169954682",
      "longitude": "-90.10466168457181"
    }
  },
  {
    "service_request": "2022-920212",
    "request_type": "Traffic Signals/Signs/Striping/Streetlights",
    "request_reason": "Request for Traffic Calming due to Speeding",
    "date_created": "2022-09-15T18:48:12.000",
    "date_modified": "2022-09-15T18:48:12.000",
    "request_status": "Pending",
    "responsible_agency": "Department of Public Works",
    "final_address": "10930 Hayne Blvd",
    "address_councildis": "E",
    "status": "Pending",
    "rowid": "920212",
    "final_x": "3709478.98622",
    "final_y": "566938.95658",
    "longitude": "-89.97840111721955",
    "latitude": "30.052005083351833",
    "geocoded_column": {
      "latitude": "30.052005083351833",
      "longitude": "-89.97840111721955"
    }
  },
  {
    "service_request": "2022-920211",
    "request_type": "Property Maintenance",
    "request_reason": "Property Maintenance",
    "date_created": "2022-09-15T18:47:38.000",
    "date_modified": "2022-09-15T18:47:38.000",
    "request_status": "Pending",
    "responsible_agency": "Department of Code Enforcement",
    "final_address": "3418 Touro St",
    "address_councildis": "D",
    "status": "Pending",
    "rowid": "920211",
    "final_x": "3683457.00425",
    "final_y": "545253.948559",
    "longitude": "-90.06140942762765",
    "latitude": "29.99319969562575",
    "geocoded_column": {
      "latitude": "29.99319969562575",
      "longitude": "-90.06140942762765"
    }
  },
  {
    "service_request": "2022-920210",
    "request_type": "Trash/Recycling",
    "request_reason": "Missed Trash Pick-Up",
    "date_created": "2022-09-15T18:45:19.000",
    "date_modified": "2022-09-15T18:45:19.000",
    "request_status": "Pending",
    "responsible_agency": "Department of Sanitation",
    "final_address": "7800 Shubrick Ave",
    "address_councildis": "E",
    "status": "Assigned to Contractor",
    "contractor": "Metro Disposal",
    "rowid": "920210",
    "final_x": "3706491.23012",
    "final_y": "564091.852897",
    "longitude": "-89.98795008597854",
    "latitude": "30.044273490770745",
    "geocoded_column": {
      "latitude": "30.044273490770745",
      "longitude": "-89.98795008597854"
    }
  },
  {
    "service_request": "2022-920209",
    "request_type": "Trash/Recycling",
    "request_reason": "Missed Trash Pick-Up",
    "date_created": "2022-09-15T18:41:06.000",
    "date_modified": "2022-09-15T18:41:07.000",
    "request_status": "Pending",
    "responsible_agency": "Department of Sanitation",
    "final_address": "3120 Camp St",
    "address_councildis": "B",
    "status": "Assigned to Contractor",
    "contractor": "Richards Disposal",
    "rowid": "920209",
    "final_x": "3675742.05153",
    "final_y": "520380.38028",
    "longitude": "-90.08663457968987",
    "latitude": "29.925038958379158",
    "geocoded_column": {
      "latitude": "29.925038958379158",
      "longitude": "-90.08663457968987"
    }
  },
  {
    "service_request": "2022-920208",
    "request_type": "Trash/Recycling",
    "request_reason": "Missed Trash Pick-Up",
    "date_created": "2022-09-15T18:23:44.000",
    "date_modified": "2022-09-15T18:23:45.000",
    "request_status": "Pending",
    "responsible_agency": "Department of Sanitation",
    "final_address": "2519 Loyola Ave",
    "address_councildis": "B",
    "status": "Assigned to Contractor",
    "contractor": "Richards Disposal",
    "rowid": "920208",
    "final_x": "3675325.86101",
    "final_y": "524742.52422",
    "longitude": "-90.08779868069543",
    "latitude": "29.937045881826396",
    "geocoded_column": {
      "latitude": "29.937045881826396",
      "longitude": "-90.08779868069543"
    }
  },
  {
    "service_request": "2022-920207",
    "request_type": "Traffic Signals/Signs/Striping/Streetlights",
    "request_reason": "Street Light Outage/Malfunction",
    "date_created": "2022-09-15T18:22:07.000",
    "date_modified": "2022-09-15T18:22:08.000",
    "request_status": "Pending",
    "responsible_agency": "Department of Public Works",
    "final_address": "3660 White Oak Ave",
    "address_councildis": "C",
    "status": "Pending",
    "contractor": "Legacy Professional Services",
    "rowid": "920207",
    "final_x": "3703896.65118",
    "final_y": "514218.644723",
    "longitude": "-89.99798696345063",
    "latitude": "29.907223979450258",
    "geocoded_column": {
      "latitude": "29.907223979450258",
      "longitude": "-89.99798696345063"
    }
  },
  {
    "service_request": "2022-920206",
    "request_type": "Trash/Recycling",
    "request_reason": "Missed Trash Pick-Up",
    "date_created": "2022-09-15T18:18:18.000",
    "date_modified": "2022-09-15T18:18:19.000",
    "request_status": "Pending",
    "responsible_agency": "Department of Sanitation",
    "final_address": "3143 N Villere St",
    "address_councildis": "C",
    "status": "Assigned to Contractor",
    "contractor": "Metro Disposal",
    "rowid": "920206",
    "final_x": "3689631.24483",
    "final_y": "537051.062984",
    "longitude": "-90.04219806381501",
    "latitude": "29.9704547878306",
    "geocoded_column": {
      "latitude": "29.9704547878306",
      "longitude": "-90.04219806381501"
    }
  },
  {
    "service_request": "2022-920205",
    "request_type": "Trash/Recycling",
    "request_reason": "Missed Trash Pick-Up",
    "date_created": "2022-09-15T18:09:45.000",
    "date_modified": "2022-09-15T18:09:45.000",
    "request_status": "Pending",
    "responsible_agency": "Department of Sanitation",
    "final_address": "3117 N Villere St",
    "address_councildis": "C",
    "status": "Assigned to Contractor",
    "contractor": "Metro Disposal",
    "rowid": "920205",
    "final_x": "3689429.97321",
    "final_y": "537103.568072",
    "longitude": "-90.04283183289137",
    "latitude": "29.97060539285459",
    "geocoded_column": {
      "latitude": "29.97060539285459",
      "longitude": "-90.04283183289137"
    }
  },
  {
    "service_request": "2022-920204",
    "request_type": "Property Maintenance",
    "request_reason": "Property Maintenance",
    "date_created": "2022-09-15T18:07:05.000",
    "date_modified": "2022-09-15T18:07:05.000",
    "request_status": "Pending",
    "responsible_agency": "Department of Code Enforcement",
    "final_address": "9322 Belfast St",
    "address_councildis": "A",
    "status": "Pending",
    "rowid": "920204",
    "final_x": "3662295.12877",
    "final_y": "535313.185478",
    "longitude": "-90.12858676218362",
    "latitude": "29.966494840340722",
    "geocoded_column": {
      "latitude": "29.966494840340722",
      "longitude": "-90.12858676218362"
    }
  },
  {
    "service_request": "2022-920203",
    "request_type": "Property Maintenance",
    "request_reason": "Property Maintenance",
    "date_created": "2022-09-15T18:07:01.000",
    "date_modified": "2022-09-15T18:07:01.000",
    "request_status": "Pending",
    "responsible_agency": "Department of Code Enforcement",
    "final_address": "1818 Lamanche St",
    "address_councildis": "E",
    "status": "Pending",
    "rowid": "920203",
    "final_x": "3699029.07108",
    "final_y": "536473.090055",
    "longitude": "-90.0125398858565",
    "latitude": "29.968571049259648",
    "geocoded_column": {
      "latitude": "29.968571049259648",
      "longitude": "-90.0125398858565"
    }
  },
  {
    "service_request": "2022-920202",
    "request_type": "Trash/Recycling",
    "request_reason": "Missed Trash Pick-Up",
    "date_created": "2022-09-15T17:56:35.000",
    "date_modified": "2022-09-15T17:56:35.000",
    "request_status": "Pending",
    "responsible_agency": "Department of Sanitation",
    "final_address": "3212 Prytania St",
    "address_councildis": "B",
    "status": "Assigned to Contractor",
    "contractor": "Richards Disposal",
    "rowid": "920202",
    "final_x": "3675025.34568",
    "final_y": "521262.878137",
    "longitude": "-90.08886673564436",
    "latitude": "29.927486964821558",
    "geocoded_column": {
      "latitude": "29.927486964821558",
      "longitude": "-90.08886673564436"
    }
  },
  {
    "service_request": "2022-920201",
    "request_type": "Trash/Recycling",
    "request_reason": "Missed Trash Pick-Up",
    "date_created": "2022-09-15T17:49:07.000",
    "date_modified": "2022-09-15T17:49:07.000",
    "request_status": "Pending",
    "responsible_agency": "Department of Sanitation",
    "final_address": "4114 Vincennes Pl, New Orleans, Louisiana, 70125",
    "address_councildis": "B",
    "status": "Assigned to Contractor",
    "contractor": "Richards Disposal",
    "rowid": "920201",
    "final_x": "3668494.16948",
    "final_y": "530619.72045",
    "longitude": "-90.10916855402616",
    "latitude": "29.953408689128235",
    "geocoded_column": {
      "latitude": "29.953408689128235",
      "longitude": "-90.10916855402616"
    }
  },
  {
    "service_request": "2022-920200",
    "request_type": "Trash/Recycling",
    "request_reason": "Replace Trash Cart",
    "date_created": "2022-09-15T17:48:51.000",
    "date_modified": "2022-09-15T17:48:51.000",
    "request_status": "Pending",
    "responsible_agency": "Department of Sanitation",
    "final_address": "1939 Cambronne St",
    "address_councildis": "A",
    "status": "Assigned to Contractor",
    "contractor": "Richards Disposal",
    "rowid": "920200",
    "final_x": "3663066.92391",
    "final_y": "531125.46253",
    "longitude": "-90.12628874264189",
    "latitude": "29.954957632224147",
    "geocoded_column": {
      "latitude": "29.954957632224147",
      "longitude": "-90.12628874264189"
    }
  },
  {
    "service_request": "2022-920199",
    "request_type": "Roads/Drainage",
    "request_reason": "Catch Basin - Clogged",
    "date_created": "2022-09-15T17:39:11.000",
    "date_modified": "2022-09-15T17:39:11.000",
    "request_status": "Pending",
    "responsible_agency": "Department of Public Works",
    "final_address": "2720 Annunciation St",
    "address_councildis": "B",
    "status": "Pending",
    "rowid": "920199",
    "final_x": "3677793.15758",
    "final_y": "519968.04108",
    "longitude": "-90.08017413393189",
    "latitude": "29.923843637004087",
    "geocoded_column": {
      "latitude": "29.923843637004087",
      "longitude": "-90.08017413393189"
    }
  },
  {
    "service_request": "2022-920198",
    "request_type": "Traffic Signals/Signs/Striping/Streetlights",
    "request_reason": "Street Light Outage/Malfunction",
    "date_created": "2022-09-15T17:38:36.000",
    "date_modified": "2022-09-15T17:38:37.000",
    "request_status": "Pending",
    "responsible_agency": "Department of Public Works",
    "final_address": "2051 Cypress Acres Dr",
    "address_councildis": "C",
    "status": "Pending",
    "contractor": "Legacy Professional Services",
    "rowid": "920198",
    "final_x": "3696174.564",
    "final_y": "523298.514235",
    "longitude": "-90.02203066505922",
    "latitude": "29.932435737890575",
    "geocoded_column": {
      "latitude": "29.932435737890575",
      "longitude": "-90.02203066505922"
    }
  },
  {
    "service_request": "2022-920197",
    "request_type": "Trash/Recycling",
    "request_reason": "MIssed Recycling Pick-Up",
    "date_created": "2022-09-15T17:38:22.000",
    "date_modified": "2022-09-15T17:38:23.000",
    "request_status": "Pending",
    "responsible_agency": "Department of Sanitation",
    "final_address": "1615 Prytania St",
    "address_councildis": "B",
    "status": "Assigned to Contractor",
    "contractor": "Richards Disposal",
    "rowid": "920197",
    "final_x": "3679353.61627",
    "final_y": "524899.763452",
    "longitude": "-90.07507738022869",
    "latitude": "29.937357237420994",
    "geocoded_column": {
      "latitude": "29.937357237420994",
      "longitude": "-90.07507738022869"
    }
  },
  {
    "service_request": "2022-920196",
    "request_type": "Trash/Recycling",
    "request_reason": "Missed Trash Pick-Up",
    "date_created": "2022-09-15T17:37:31.000",
    "date_modified": "2022-09-15T17:37:32.000",
    "request_status": "Pending",
    "responsible_agency": "Department of Sanitation",
    "final_address": "1322 Burdette St, New Orleans, Louisiana, 70118",
    "address_councildis": "A",
    "status": "Assigned to Contractor",
    "contractor": "Richards Disposal",
    "rowid": "920196",
    "final_x": "3663123.46458",
    "final_y": "528036.821247",
    "longitude": "-90.1262129512925",
    "latitude": "29.94646322612481",
    "geocoded_column": {
      "latitude": "29.94646322612481",
      "longitude": "-90.1262129512925"
    }
  },
  {
    "service_request": "2022-920195",
    "request_type": "Trash/Recycling",
    "request_reason": "Replace Trash Cart",
    "date_created": "2022-09-15T17:34:46.000",
    "date_modified": "2022-09-15T17:34:47.000",
    "request_status": "Pending",
    "responsible_agency": "Department of Sanitation",
    "final_address": "2720 Valence St",
    "address_councildis": "B",
    "status": "Assigned to Contractor",
    "contractor": "Richards Disposal",
    "rowid": "920195",
    "final_x": "3669294.18919",
    "final_y": "524803.402108",
    "longitude": "-90.10683900705779",
    "latitude": "29.937392179383284",
    "geocoded_column": {
      "latitude": "29.937392179383284",
      "longitude": "-90.10683900705779"
    }
  },
  {
    "service_request": "2022-920194",
    "request_type": "Abandoned Vehicles",
    "request_reason": "Abandoned/Junk Vehicles",
    "date_created": "2022-09-15T17:33:20.000",
    "date_modified": "2022-09-15T17:33:21.000",
    "request_status": "Pending",
    "responsible_agency": "Department of Public Works",
    "final_address": "349 Elmira Ave",
    "address_councildis": "C",
    "status": "Pending",
    "rowid": "920194",
    "final_x": "3688185.56911",
    "final_y": "530359.139458",
    "longitude": "-90.04700090969932",
    "latitude": "29.95209903245769",
    "geocoded_column": {
      "latitude": "29.95209903245769",
      "longitude": "-90.04700090969932"
    }
  },
  {
    "service_request": "2022-920193",
    "request_type": "Trash/Recycling",
    "request_reason": "Missed Trash Pick-Up",
    "date_created": "2022-09-15T17:30:19.000",
    "date_modified": "2022-09-15T17:30:56.000",
    "request_status": "Pending",
    "responsible_agency": "Department of Sanitation",
    "final_address": "2300 BLK Baronne St",
    "address_councildis": "B",
    "status": "Assigned to Contractor",
    "contractor": "Richards Disposal",
    "rowid": "920193",
    "final_x": "3676639.07352",
    "final_y": "523891.872608",
    "longitude": "-90.08368208034355",
    "latitude": "29.934667552606353",
    "geocoded_column": {
      "latitude": "29.934667552606353",
      "longitude": "-90.08368208034355"
    }
  },
  {
    "service_request": "2022-920192",
    "request_type": "Trash/Recycling",
    "request_reason": "Missed Trash Pick-Up",
    "date_created": "2022-09-15T17:27:56.000",
    "date_modified": "2022-09-15T17:27:56.000",
    "request_status": "Pending",
    "responsible_agency": "Department of Sanitation",
    "final_address": "1314 Pauline St",
    "address_councildis": "D",
    "status": "Assigned to Contractor",
    "contractor": "Metro Disposal",
    "rowid": "920192",
    "final_x": "3691394.50435",
    "final_y": "536335.275847",
    "longitude": "-90.03665509241793",
    "latitude": "29.968431876642164",
    "geocoded_column": {
      "latitude": "29.968431876642164",
      "longitude": "-90.03665509241793"
    }
  },
  {
    "service_request": "2022-920191",
    "request_type": "Trash/Recycling",
    "request_reason": "Missed Trash Pick-Up",
    "date_created": "2022-09-15T17:27:11.000",
    "date_modified": "2022-09-15T17:28:03.000",
    "request_status": "Pending",
    "responsible_agency": "Department of Sanitation",
    "final_address": "3619 Dauphine St",
    "address_councildis": "C",
    "status": "Assigned to Contractor",
    "contractor": "Metro Disposal",
    "rowid": "920191",
    "final_x": "3690602.49033",
    "final_y": "534417.808581",
    "longitude": "-90.03922469303436",
    "latitude": "29.963184134964205",
    "geocoded_column": {
      "latitude": "29.963184134964205",
      "longitude": "-90.03922469303436"
    }
  },
  {
    "service_request": "2022-920190",
    "request_type": "Trash/Recycling",
    "request_reason": "Missed Trash Pick-Up",
    "date_created": "2022-09-15T17:24:38.000",
    "date_modified": "2022-09-15T17:24:38.000",
    "request_status": "Pending",
    "responsible_agency": "Department of Sanitation",
    "final_address": "2729 Edna St",
    "address_councildis": "D",
    "status": "Assigned to Contractor",
    "contractor": "Metro Disposal",
    "rowid": "920190",
    "final_x": "3689619.9638",
    "final_y": "545327.968975",
    "longitude": "-90.04193909236174",
    "latitude": "29.993213679326495",
    "geocoded_column": {
      "latitude": "29.993213679326495",
      "longitude": "-90.04193909236174"
    }
  },
  {
    "service_request": "2022-920189",
    "request_type": "Trash/Recycling",
    "request_reason": "Missed Trash Pick-Up",
    "date_created": "2022-09-15T17:23:50.000",
    "date_modified": "2022-09-15T17:23:51.000",
    "request_status": "Pending",
    "responsible_agency": "Department of Sanitation",
    "final_address": "4506 St Claude Ave",
    "address_councildis": "C",
    "status": "Assigned to Contractor",
    "contractor": "Metro Disposal",
    "rowid": "920189",
    "final_x": "3693370.41769",
    "final_y": "534863.163846",
    "longitude": "-90.03046794882333",
    "latitude": "29.964322458050418",
    "geocoded_column": {
      "latitude": "29.964322458050418",
      "longitude": "-90.03046794882333"
    }
  },
  {
    "service_request": "2022-920188",
    "request_type": "Trash/Recycling",
    "request_reason": "Missed Trash Pick-Up",
    "date_created": "2022-09-15T17:21:47.000",
    "date_modified": "2022-09-15T17:21:48.000",
    "request_status": "Pending",
    "responsible_agency": "Department of Sanitation",
    "final_address": "8517 Fordham Ct, New Orleans, Louisiana, 70127",
    "address_councildis": "E",
    "status": "Assigned to Contractor",
    "contractor": "Metro Disposal",
    "rowid": "920188",
    "final_x": "3704801.37579",
    "final_y": "560363.794845",
    "longitude": "-89.9934285240372",
    "latitude": "30.03407724861469",
    "geocoded_column": {
      "latitude": "30.03407724861469",
      "longitude": "-89.9934285240372"
    }
  },
  {
    "service_request": "2022-920187",
    "request_type": "Trash/Recycling",
    "request_reason": "Missed Trash Pick-Up",
    "date_created": "2022-09-15T17:20:20.000",
    "date_modified": "2022-09-15T17:20:21.000",
    "request_status": "Pending",
    "responsible_agency": "Department of Sanitation",
    "final_address": "2700 BLK Edna St",
    "address_councildis": "D",
    "status": "Assigned to Contractor",
    "contractor": "Metro Disposal",
    "rowid": "920187",
    "final_x": "3689686.30038",
    "final_y": "545289.876728",
    "longitude": "-90.04173090314175",
    "latitude": "29.993106883511192",
    "geocoded_column": {
      "latitude": "29.993106883511192",
      "longitude": "-90.04173090314175"
    }
  },
  {
    "service_request": "2022-920186",
    "request_type": "Trash/Recycling",
    "request_reason": "Replace Trash Cart",
    "date_created": "2022-09-15T17:20:08.000",
    "date_modified": "2022-09-15T17:24:58.000",
    "case_close_date": "2022-03-08T18:00:00.000",
    "request_status": "Closed",
    "responsible_agency": "Department of Sanitation",
    "final_address": "435 Gaiennie St",
    "address_councildis": "B",
    "status": "Assigned to Contractor",
    "contractor": "Empire Services",
    "contractor_action": "Completed",
    "rowid": "920186",
    "final_x": "3682146.93576",
    "final_y": "525954.784765",
    "longitude": "-90.06622186103827",
    "latitude": "29.940173556426696",
    "geocoded_column": {
      "latitude": "29.940173556426696",
      "longitude": "-90.06622186103827"
    }
  },
  {
    "service_request": "2022-920185",
    "request_type": "Trash/Recycling",
    "request_reason": "Replace Trash Cart",
    "date_created": "2022-09-15T17:20:07.000",
    "date_modified": "2022-09-15T17:20:07.000",
    "request_status": "Pending",
    "responsible_agency": "Department of Sanitation",
    "final_address": "4925 Freret St",
    "address_councildis": "B",
    "status": "Assigned to Contractor",
    "contractor": "Richards Disposal",
    "rowid": "920185",
    "final_x": "3668930.41652",
    "final_y": "523954.511484",
    "longitude": "-90.10801612430201",
    "latitude": "29.935068704699543",
    "geocoded_column": {
      "latitude": "29.935068704699543",
      "longitude": "-90.10801612430201"
    }
  },
  {
    "service_request": "2022-920184",
    "request_type": "Trash/Recycling",
    "request_reason": "MIssed Recycling Pick-Up",
    "date_created": "2022-09-15T17:18:39.000",
    "date_modified": "2022-09-15T17:18:40.000",
    "request_status": "Pending",
    "responsible_agency": "Department of Sanitation",
    "final_address": "4925 Freret St",
    "address_councildis": "B",
    "status": "Assigned to Contractor",
    "contractor": "Richards Disposal",
    "rowid": "920184",
    "final_x": "3668930.41652",
    "final_y": "523954.511484",
    "longitude": "-90.10801612430201",
    "latitude": "29.935068704699543",
    "geocoded_column": {
      "latitude": "29.935068704699543",
      "longitude": "-90.10801612430201"
    }
  },
  {
    "service_request": "2022-920183",
    "request_type": "Trash/Recycling",
    "request_reason": "Missed Trash Pick-Up",
    "date_created": "2022-09-15T17:16:20.000",
    "date_modified": "2022-09-15T17:16:21.000",
    "request_status": "Pending",
    "responsible_agency": "Department of Sanitation",
    "final_address": "1831 Bordeaux St",
    "address_councildis": "B",
    "status": "Assigned to Contractor",
    "contractor": "Richards Disposal",
    "rowid": "920183",
    "final_x": "3669356.87892",
    "final_y": "521701.446393",
    "longitude": "-90.10674592285943",
    "latitude": "29.928860950778304",
    "geocoded_column": {
      "latitude": "29.928860950778304",
      "longitude": "-90.10674592285943"
    }
  },
  {
    "service_request": "2022-920182",
    "request_type": "Trash/Recycling",
    "request_reason": "Missed Trash Pick-Up",
    "date_created": "2022-09-15T17:15:19.000",
    "date_modified": "2022-09-15T17:15:20.000",
    "request_status": "Pending",
    "responsible_agency": "Department of Sanitation",
    "final_address": "1020 Pauline St",
    "address_councildis": "C",
    "status": "Assigned to Contractor",
    "contractor": "Metro Disposal",
    "rowid": "920182",
    "final_x": "3691117.51459",
    "final_y": "535195.48679",
    "longitude": "-90.03757054119713",
    "latitude": "29.965306473488177",
    "geocoded_column": {
      "latitude": "29.965306473488177",
      "longitude": "-90.03757054119713"
    }
  },
  {
    "service_request": "2022-920181",
    "request_type": "Trash/Recycling",
    "request_reason": "MIssed Recycling Pick-Up",
    "date_created": "2022-09-15T17:12:47.000",
    "date_modified": "2022-09-15T17:12:50.000",
    "request_status": "Pending",
    "responsible_agency": "Department of Sanitation",
    "final_address": "3102 Upperline St",
    "address_councildis": "B",
    "status": "Assigned to Contractor",
    "contractor": "Richards Disposal",
    "rowid": "920181",
    "final_x": "3669208.87495",
    "final_y": "526382.489598",
    "longitude": "-90.10705499807898",
    "latitude": "29.941736670706824",
    "geocoded_column": {
      "latitude": "29.941736670706824",
      "longitude": "-90.10705499807898"
    }
  },
  {
    "service_request": "2022-920180",
    "request_type": "Trash/Recycling",
    "request_reason": "Missed Trash Pick-Up",
    "date_created": "2022-09-15T17:12:31.000",
    "date_modified": "2022-09-15T17:16:39.000",
    "request_status": "Pending",
    "responsible_agency": "Department of Sanitation",
    "final_address": "2015 Louisiana Ave",
    "address_councildis": "B",
    "status": "Assigned to Contractor",
    "contractor": "Richards Disposal",
    "rowid": "920180",
    "final_x": "3673662.8546",
    "final_y": "522986.632891",
    "longitude": "-90.09310889492647",
    "latitude": "29.932267351932232",
    "geocoded_column": {
      "latitude": "29.932267351932232",
      "longitude": "-90.09310889492647"
    }
  },
  {
    "service_request": "2022-920179",
    "request_type": "Trash/Recycling",
    "request_reason": "Request a Large Item Pick Up",
    "date_created": "2022-09-15T17:08:04.000",
    "date_modified": "2022-09-15T17:10:56.000",
    "request_status": "Pending",
    "responsible_agency": "Department of Sanitation",
    "final_address": "1331 Louisiana Ave",
    "address_councildis": "B",
    "status": "Assigned to Contractor",
    "contractor": "Richards Disposal",
    "rowid": "920179",
    "final_x": "3674732.85697",
    "final_y": "520580.112888",
    "longitude": "-90.08981344234653",
    "latitude": "29.92561831222598",
    "geocoded_column": {
      "latitude": "29.92561831222598",
      "longitude": "-90.08981344234653"
    }
  },
  {
    "service_request": "2022-920178",
    "request_type": "Trash/Recycling",
    "request_reason": "Missed Trash Pick-Up",
    "date_created": "2022-09-15T17:07:26.000",
    "date_modified": "2022-09-15T17:07:27.000",
    "request_status": "Pending",
    "responsible_agency": "Department of Sanitation",
    "final_address": "1331 Louisiana Ave",
    "address_councildis": "B",
    "status": "Assigned to Contractor",
    "contractor": "Richards Disposal",
    "rowid": "920178",
    "final_x": "3674732.85697",
    "final_y": "520580.112888",
    "longitude": "-90.08981344234653",
    "latitude": "29.92561831222598",
    "geocoded_column": {
      "latitude": "29.92561831222598",
      "longitude": "-90.08981344234653"
    }
  },
  {
    "service_request": "2022-920177",
    "request_type": "Parks & Parkways",
    "request_reason": "Request Grass Cutting Service (City Owned Property)",
    "date_created": "2022-09-15T17:07:05.000",
    "date_modified": "2022-09-15T17:07:06.000",
    "request_status": "Pending",
    "responsible_agency": "Department of Parks & Parkway",
    "final_address": "10700 BLK Harrow Rd",
    "address_councildis": "E",
    "status": "Pending",
    "rowid": "920177",
    "final_x": "3711613.18238",
    "final_y": "563787.13304",
    "longitude": "-89.97177401349501",
    "latitude": "30.04326927929596",
    "geocoded_column": {
      "latitude": "30.04326927929596",
      "longitude": "-89.97177401349501"
    }
  },
  {
    "service_request": "2022-920176",
    "request_type": "Trash/Recycling",
    "request_reason": "Missed Trash Pick-Up",
    "date_created": "2022-09-15T17:04:14.000",
    "date_modified": "2022-09-15T17:04:15.000",
    "request_status": "Pending",
    "responsible_agency": "Department of Sanitation",
    "final_address": "331 Adams St",
    "address_councildis": "A",
    "status": "Assigned to Contractor",
    "contractor": "Richards Disposal",
    "rowid": "920176",
    "final_x": "3661123.57562",
    "final_y": "525208.924605",
    "longitude": "-90.13262090540944",
    "latitude": "29.938745188278425",
    "geocoded_column": {
      "latitude": "29.938745188278425",
      "longitude": "-90.13262090540944"
    }
  },
  {
    "service_request": "2022-920175",
    "request_type": "Trash/Recycling",
    "request_reason": "Missed Trash Pick-Up",
    "date_created": "2022-09-15T17:04:07.000",
    "date_modified": "2022-09-15T17:04:07.000",
    "request_status": "Pending",
    "responsible_agency": "Department of Sanitation",
    "final_address": "1502 Conery St",
    "address_councildis": "B",
    "status": "Assigned to Contractor",
    "contractor": "Richards Disposal",
    "rowid": "920175",
    "final_x": "3675938.78056",
    "final_y": "521977.203322",
    "longitude": "-90.08595869604144",
    "latitude": "29.92942381741005",
    "geocoded_column": {
      "latitude": "29.92942381741005",
      "longitude": "-90.08595869604144"
    }
  },
  {
    "service_request": "2022-920174",
    "request_type": "Trash/Recycling",
    "request_reason": "Missed Trash Pick-Up",
    "date_created": "2022-09-15T17:03:06.000",
    "date_modified": "2022-09-15T17:03:06.000",
    "request_status": "Pending",
    "responsible_agency": "Department of Sanitation",
    "final_address": "2367 Prentiss Ave",
    "address_councildis": "D",
    "status": "Assigned to Contractor",
    "contractor": "Metro Disposal",
    "rowid": "920174",
    "final_x": "3684913.50569",
    "final_y": "554006.793496",
    "longitude": "-90.05650049477819",
    "latitude": "30.017222314350946",
    "geocoded_column": {
      "latitude": "30.017222314350946",
      "longitude": "-90.05650049477819"
    }
  },
  {
    "service_request": "2022-920173",
    "request_type": "Mosquito, Termite & Rodent Control",
    "request_reason": "Non-Rodent Complaint (Mice, Possums, Snakes)",
    "date_created": "2022-09-15T17:01:29.000",
    "date_modified": "2022-09-15T17:01:29.000",
    "request_status": "Pending",
    "responsible_agency": "Mosquito, Termite & Rodent Control Board",
    "final_address": "521 Third St",
    "address_councildis": "B",
    "status": "Pending",
    "rowid": "920173",
    "final_x": "3678745.00674",
    "final_y": "519487.520439",
    "longitude": "-90.07718611810891",
    "latitude": "29.92249370293357",
    "geocoded_column": {
      "latitude": "29.92249370293357",
      "longitude": "-90.07718611810891"
    }
  },
  {
    "service_request": "2022-920172",
    "request_type": "Trash/Recycling",
    "request_reason": "Order Recycling Cart",
    "date_created": "2022-09-15T16:58:14.000",
    "date_modified": "2022-09-15T16:58:14.000",
    "request_status": "Pending",
    "responsible_agency": "Department of Sanitation",
    "final_address": "1010 Verret St",
    "address_councildis": "C",
    "status": "Pending",
    "rowid": "920172",
    "final_x": "3687274.7725",
    "final_y": "527846.080191",
    "longitude": "-90.04996564695935",
    "latitude": "29.945217060347236",
    "geocoded_column": {
      "latitude": "29.945217060347236",
      "longitude": "-90.04996564695935"
    }
  },
  {
    "service_request": "2022-920171",
    "request_type": "Roads/Drainage",
    "request_reason": "Pothole",
    "date_created": "2022-09-15T16:57:57.000",
    "date_modified": "2022-09-15T16:57:57.000",
    "request_status": "Pending",
    "responsible_agency": "Department of Public Works",
    "final_address": "1701 Independence St",
    "address_councildis": "D",
    "status": "Pending",
    "rowid": "920171",
    "final_x": "3691566.92969",
    "final_y": "537798.155464",
    "longitude": "-90.03605826277577",
    "latitude": "29.97244891221377",
    "geocoded_column": {
      "latitude": "29.97244891221377",
      "longitude": "-90.03605826277577"
    }
  },
  {
    "service_request": "2022-920170",
    "request_type": "Abandoned Vehicles",
    "request_reason": "Abandoned/Junk Vehicles",
    "date_created": "2022-09-15T16:57:31.000",
    "date_modified": "2022-09-15T16:57:31.000",
    "request_status": "Pending",
    "responsible_agency": "Department of Public Works",
    "final_address": "HARCOURT DR & SYBIL ST",
    "address_councildis": "D",
    "status": "Pending",
    "rowid": "920170",
    "final_x": "3679085.5",
    "final_y": "548545.38",
    "longitude": "-90.07510411270674",
    "latitude": "30.002382669793057",
    "geocoded_column": {
      "latitude": "30.002382669793057",
      "longitude": "-90.07510411270674"
    }
  },
  {
    "service_request": "2022-920169",
    "request_type": "Property Maintenance",
    "request_reason": "Property Maintenance",
    "date_created": "2022-09-15T16:53:05.000",
    "date_modified": "2022-09-15T16:53:05.000",
    "request_status": "Pending",
    "responsible_agency": "Department of Code Enforcement",
    "final_address": "7911 Bullard Ave",
    "address_councildis": "E",
    "status": "Pending",
    "rowid": "920169",
    "final_x": "3712727.83755",
    "final_y": "568643.966117",
    "longitude": "-89.96806838311304",
    "latitude": "30.056587131432813",
    "geocoded_column": {
      "latitude": "30.056587131432813",
      "longitude": "-89.96806838311304"
    }
  },
  {
    "service_request": "2022-920167",
    "request_type": "Property Maintenance",
    "request_reason": "Property Maintenance",
    "date_created": "2022-09-15T16:42:33.000",
    "date_modified": "2022-09-15T16:42:33.000",
    "request_status": "Pending",
    "responsible_agency": "Department of Code Enforcement",
    "final_address": "7911 Bullard Ave",
    "address_councildis": "E",
    "status": "Pending",
    "rowid": "920167",
    "final_x": "3712727.83755",
    "final_y": "568643.966117",
    "longitude": "-89.96806838311304",
    "latitude": "30.056587131432813",
    "geocoded_column": {
      "latitude": "30.056587131432813",
      "longitude": "-89.96806838311304"
    }
  },
  {
    "service_request": "2022-920166",
    "request_type": "Trash/Recycling",
    "request_reason": "Missed Trash Pick-Up",
    "date_created": "2022-09-15T16:41:17.000",
    "date_modified": "2022-09-15T16:41:18.000",
    "request_status": "Pending",
    "responsible_agency": "Department of Sanitation",
    "final_address": "1014 Desire St",
    "address_councildis": "C",
    "status": "Assigned to Contractor",
    "contractor": "Metro Disposal",
    "rowid": "920166",
    "final_x": "3690078.27043",
    "final_y": "535408.076614",
    "longitude": "-90.04084483903002",
    "latitude": "29.96592329460682",
    "geocoded_column": {
      "latitude": "29.96592329460682",
      "longitude": "-90.04084483903002"
    }
  },
  {
    "service_request": "2022-920165",
    "request_type": "Trash/Recycling",
    "request_reason": "Missed Trash Pick-Up",
    "date_created": "2022-09-15T16:37:40.000",
    "date_modified": "2022-09-15T16:37:41.000",
    "request_status": "Pending",
    "responsible_agency": "Department of Sanitation",
    "final_address": "2834 Calhoun St, New Orleans, Louisiana, 70118",
    "address_councildis": "A",
    "status": "Assigned to Contractor",
    "contractor": "Richards Disposal",
    "rowid": "920165",
    "final_x": "3666661.96097",
    "final_y": "527229.210751",
    "longitude": "-90.11506773420625",
    "latitude": "29.944139583339734",
    "geocoded_column": {
      "latitude": "29.944139583339734",
      "longitude": "-90.11506773420625"
    }
  },
  {
    "service_request": "2022-920164",
    "request_type": "Trash/Recycling",
    "request_reason": "Damaged Caused By Contractor",
    "date_created": "2022-09-15T16:35:49.000",
    "date_modified": "2022-09-15T16:35:49.000",
    "request_status": "Pending",
    "responsible_agency": "Department of Sanitation",
    "final_address": "630 Napoleon Ave",
    "address_councildis": "B",
    "status": "Assigned to Contractor",
    "contractor": "Richards Disposal",
    "rowid": "920164",
    "final_x": "3671042.34151",
    "final_y": "517975.564662",
    "longitude": "-90.10155168626466",
    "latitude": "29.918566245175832",
    "geocoded_column": {
      "latitude": "29.918566245175832",
      "longitude": "-90.10155168626466"
    }
  },
  {
    "service_request": "2022-920163",
    "request_type": "Trash/Recycling",
    "request_reason": "Missed Trash Pick-Up",
    "date_created": "2022-09-15T16:35:48.000",
    "date_modified": "2022-09-15T16:36:14.000",
    "request_status": "Pending",
    "responsible_agency": "Department of Sanitation",
    "final_address": "7200 BLK Westhaven Rd",
    "address_councildis": "E",
    "status": "Assigned to Contractor",
    "contractor": "Metro Disposal",
    "rowid": "920163",
    "final_x": "3703499.92564",
    "final_y": "560452.897254",
    "longitude": "-89.99753795972967",
    "latitude": "30.034364026863773",
    "geocoded_column": {
      "latitude": "30.034364026863773",
      "longitude": "-89.99753795972967"
    }
  },
  {
    "service_request": "2022-920162",
    "request_type": "Trash/Recycling",
    "request_reason": "Missed Trash Pick-Up",
    "date_created": "2022-09-15T16:34:54.000",
    "date_modified": "2022-09-15T16:34:54.000",
    "request_status": "Pending",
    "responsible_agency": "Department of Sanitation",
    "final_address": "8033 Wales St",
    "address_councildis": "E",
    "status": "Assigned to Contractor",
    "contractor": "Metro Disposal",
    "rowid": "920162",
    "final_x": "3702000.56445",
    "final_y": "562299.600095",
    "longitude": "-90.00220831851539",
    "latitude": "30.03948971417866",
    "geocoded_column": {
      "latitude": "30.03948971417866",
      "longitude": "-90.00220831851539"
    }
  },
  {
    "service_request": "2022-920160",
    "request_type": "Trash/Recycling",
    "request_reason": "Missed Trash Pick-Up",
    "date_created": "2022-09-15T16:33:31.000",
    "date_modified": "2022-09-15T16:33:31.000",
    "request_status": "Pending",
    "responsible_agency": "Department of Sanitation",
    "final_address": "2232 Baronne St",
    "address_councildis": "B",
    "status": "Assigned to Contractor",
    "contractor": "Richards Disposal",
    "rowid": "920160",
    "final_x": "3676827.85768",
    "final_y": "524273.192764",
    "longitude": "-90.08307295666425",
    "latitude": "29.935710395537498",
    "geocoded_column": {
      "latitude": "29.935710395537498",
      "longitude": "-90.08307295666425"
    }
  },
  {
    "service_request": "2022-920159",
    "request_type": "Trash/Recycling",
    "request_reason": "Missed Trash Pick-Up",
    "date_created": "2022-09-15T16:31:51.000",
    "date_modified": "2022-09-15T16:31:51.000",
    "request_status": "Pending",
    "responsible_agency": "Department of Sanitation",
    "final_address": "425 Audubon Blvd",
    "address_councildis": "B",
    "status": "Assigned to Contractor",
    "contractor": "Richards Disposal",
    "rowid": "920159",
    "final_x": "3667522.00935",
    "final_y": "530394.362882",
    "longitude": "-90.11224581527765",
    "latitude": "29.95281755201174",
    "geocoded_column": {
      "latitude": "29.95281755201174",
      "longitude": "-90.11224581527765"
    }
  },
  {
    "service_request": "2022-920158",
    "request_type": "Parks & Parkways",
    "request_reason": "Request Tree Service (Right of Way/Public Property)",
    "date_created": "2022-09-15T16:31:16.000",
    "date_modified": "2022-09-15T16:34:07.000",
    "case_close_date": "2022-09-15T11:34:07.000",
    "request_status": "Closed",
    "responsible_agency": "Department of Parks & Parkway",
    "final_address": "LAKE FOREST BLVD & MAYO RD",
    "address_councildis": "E",
    "status": "Duplicate Request",
    "rowid": "920158",
    "final_x": "3702502.5",
    "final_y": "556568.19",
    "longitude": "-90.00083269889926",
    "latitude": "30.023714521944257",
    "geocoded_column": {
      "latitude": "30.023714521944257",
      "longitude": "-90.00083269889926"
    }
  },
  {
    "service_request": "2022-920157",
    "request_type": "Trash/Recycling",
    "request_reason": "Request a Large Item Pick Up",
    "date_created": "2022-09-15T16:30:12.000",
    "date_modified": "2022-09-15T16:30:13.000",
    "request_status": "Pending",
    "responsible_agency": "Department of Sanitation",
    "final_address": "2716 St Ann St",
    "address_councildis": "A",
    "status": "Assigned to Contractor",
    "contractor": "Richards Disposal",
    "rowid": "920157",
    "final_x": "3676748.19893",
    "final_y": "537304.921608",
    "longitude": "-90.08287546419793",
    "latitude": "29.971545680984985",
    "geocoded_column": {
      "latitude": "29.971545680984985",
      "longitude": "-90.08287546419793"
    }
  },
  {
    "service_request": "2022-920156",
    "request_type": "Parks & Parkways",
    "request_reason": "Request Grass Cutting Service (City Owned Property)",
    "date_created": "2022-09-15T16:28:28.000",
    "date_modified": "2022-09-15T16:28:29.000",
    "request_status": "Pending",
    "responsible_agency": "Department of Parks & Parkway",
    "final_address": "LAKE FOREST BLVD & MAYO RD",
    "address_councildis": "E",
    "status": "Pending",
    "rowid": "920156",
    "final_x": "3702502.5",
    "final_y": "556568.19",
    "longitude": "-90.00083269889926",
    "latitude": "30.023714521944257",
    "geocoded_column": {
      "latitude": "30.023714521944257",
      "longitude": "-90.00083269889926"
    }
  },
  {
    "service_request": "2022-920155",
    "request_type": "Trash/Recycling",
    "request_reason": "Missed Trash Pick-Up",
    "date_created": "2022-09-15T16:28:09.000",
    "date_modified": "2022-09-15T16:28:09.000",
    "request_status": "Pending",
    "responsible_agency": "Department of Sanitation",
    "final_address": "1351 Sere St",
    "address_councildis": "D",
    "status": "Assigned to Contractor",
    "contractor": "Metro Disposal",
    "rowid": "920155",
    "final_x": "3677891.45019",
    "final_y": "545410.21576",
    "longitude": "-90.07898468878689",
    "latitude": "29.993798073769653",
    "geocoded_column": {
      "latitude": "29.993798073769653",
      "longitude": "-90.07898468878689"
    }
  },
  {
    "service_request": "2022-920154",
    "request_type": "Trash/Recycling",
    "request_reason": "Missed Trash Pick-Up",
    "date_created": "2022-09-15T16:27:27.000",
    "date_modified": "2022-09-15T16:27:29.000",
    "request_status": "Pending",
    "responsible_agency": "Department of Sanitation",
    "final_address": "2718 S Liberty St",
    "address_councildis": "B",
    "status": "Assigned to Contractor",
    "contractor": "Richards Disposal",
    "rowid": "920154",
    "final_x": "3674689.68897",
    "final_y": "524661.887036",
    "longitude": "-90.08980987711944",
    "latitude": "29.936843155154854",
    "geocoded_column": {
      "latitude": "29.936843155154854",
      "longitude": "-90.08980987711944"
    }
  },
  {
    "service_request": "2022-920153",
    "request_type": "Trash/Recycling",
    "request_reason": "Missed Trash Pick-Up",
    "date_created": "2022-09-15T16:23:29.000",
    "date_modified": "2022-09-15T16:23:30.000",
    "request_status": "Pending",
    "responsible_agency": "Department of Sanitation",
    "final_address": "2236 Baronne St",
    "address_councildis": "B",
    "status": "Assigned to Contractor",
    "contractor": "Richards Disposal",
    "rowid": "920153",
    "final_x": "3676794.0331",
    "final_y": "524257.581372",
    "longitude": "-90.08318027913576",
    "latitude": "29.935668484103658",
    "geocoded_column": {
      "latitude": "29.935668484103658",
      "longitude": "-90.08318027913576"
    }
  },
  {
    "service_request": "2022-920152",
    "request_type": "Trash/Recycling",
    "request_reason": "Request a Large Item Pick Up",
    "date_created": "2022-09-15T16:21:52.000",
    "date_modified": "2022-09-15T16:21:52.000",
    "request_status": "Pending",
    "responsible_agency": "Department of Sanitation",
    "final_address": "4428 Orleans Ave",
    "address_councildis": "A",
    "status": "Assigned to Contractor",
    "contractor": "Richards Disposal",
    "rowid": "920152",
    "final_x": "3671172.99201",
    "final_y": "541139.818764",
    "longitude": "-90.10035251173393",
    "latitude": "29.98225646600769",
    "geocoded_column": {
      "latitude": "29.98225646600769",
      "longitude": "-90.10035251173393"
    }
  },
  {
    "service_request": "2022-920151",
    "request_type": "Roads/Drainage",
    "request_reason": "Street Subsidence (Sinking)",
    "date_created": "2022-09-15T16:21:20.000",
    "date_modified": "2022-09-15T16:21:20.000",
    "request_status": "Pending",
    "responsible_agency": "Department of Public Works",
    "final_address": "803 Constantinople St",
    "address_councildis": "B",
    "status": "Pending",
    "rowid": "920151",
    "final_x": "3672587.71195",
    "final_y": "518613.221367",
    "longitude": "-90.09665203515789",
    "latitude": "29.920273827833952",
    "geocoded_column": {
      "latitude": "29.920273827833952",
      "longitude": "-90.09665203515789"
    }
  },
  {
    "service_request": "2022-920150",
    "request_type": "Trash/Recycling",
    "request_reason": "Missed Trash Pick-Up",
    "date_created": "2022-09-15T16:20:35.000",
    "date_modified": "2022-09-15T16:20:35.000",
    "request_status": "Pending",
    "responsible_agency": "Department of Sanitation",
    "final_address": "7828 Mercier St",
    "address_councildis": "E",
    "status": "Assigned to Contractor",
    "contractor": "Metro Disposal",
    "rowid": "920150",
    "final_x": "3710972.83921",
    "final_y": "567137.170212",
    "longitude": "-89.97367211454346",
    "latitude": "30.052501435261128",
    "geocoded_column": {
      "latitude": "30.052501435261128",
      "longitude": "-89.97367211454346"
    }
  },
  {
    "service_request": "2022-920149",
    "request_type": "Trash/Recycling",
    "request_reason": "Order Trash Cart",
    "date_created": "2022-09-15T16:14:13.000",
    "date_modified": "2022-09-15T16:14:13.000",
    "request_status": "Pending",
    "responsible_agency": "Department of Sanitation",
    "final_address": "3710 Republic St",
    "address_councildis": "D",
    "status": "Assigned to Contractor",
    "contractor": "Metro Disposal",
    "rowid": "920149",
    "final_x": "3680366.17871",
    "final_y": "546022.803152",
    "longitude": "-90.07114607409922",
    "latitude": "29.995407750150918",
    "geocoded_column": {
      "latitude": "29.995407750150918",
      "longitude": "-90.07114607409922"
    }
  },
  {
    "service_request": "2022-920148",
    "request_type": "Trash/Recycling",
    "request_reason": "Order Trash Cart",
    "date_created": "2022-09-15T16:13:52.000",
    "date_modified": "2022-09-15T16:13:53.000",
    "request_status": "Pending",
    "responsible_agency": "Department of Sanitation",
    "final_address": "3630 Republic St",
    "address_councildis": "D",
    "status": "Assigned to Contractor",
    "contractor": "Metro Disposal",
    "rowid": "920148",
    "final_x": "3680377.89544",
    "final_y": "545806.552784",
    "longitude": "-90.07111658703361",
    "latitude": "29.99481278330198",
    "geocoded_column": {
      "latitude": "29.99481278330198",
      "longitude": "-90.07111658703361"
    }
  },
  {
    "service_request": "2022-920147",
    "request_type": "Trash/Recycling",
    "request_reason": "Missed Trash Pick-Up",
    "date_created": "2022-09-15T16:06:21.000",
    "date_modified": "2022-09-15T16:06:21.000",
    "request_status": "Pending",
    "responsible_agency": "Department of Sanitation",
    "final_address": "1500 BLK Washington Ave",
    "address_councildis": "B",
    "status": "Assigned to Contractor",
    "contractor": "Richards Disposal",
    "rowid": "920147",
    "final_x": "3676076.33219",
    "final_y": "522299.49948",
    "longitude": "-90.08551339075316",
    "latitude": "29.930305909005156",
    "geocoded_column": {
      "latitude": "29.930305909005156",
      "longitude": "-90.08551339075316"
    }
  },
  {
    "service_request": "2022-920146",
    "request_type": "Roads/Drainage",
    "request_reason": "Street Flooding / Drainage",
    "date_created": "2022-09-15T16:05:52.000",
    "date_modified": "2022-09-15T16:05:52.000",
    "request_status": "Pending",
    "responsible_agency": "Department of Public Works",
    "final_address": "2013 Burgundy St",
    "address_councildis": "C",
    "status": "Pending",
    "rowid": "920146",
    "final_x": "3684418.37852",
    "final_y": "535561.401734",
    "longitude": "-90.05871319272495",
    "latitude": "29.96651921713916",
    "geocoded_column": {
      "latitude": "29.96651921713916",
      "longitude": "-90.05871319272495"
    }
  },
  {
    "service_request": "2022-920145",
    "request_type": "Property Maintenance",
    "request_reason": "Property Maintenance",
    "date_created": "2022-09-15T16:04:48.000",
    "date_modified": "2022-09-15T16:04:48.000",
    "request_status": "Pending",
    "responsible_agency": "Department of Code Enforcement",
    "final_address": "5316 Wildair Dr",
    "address_councildis": "D",
    "status": "Pending",
    "rowid": "920145",
    "final_x": "3681588.20124",
    "final_y": "552552.660502",
    "longitude": "-90.06705787371729",
    "latitude": "30.013325444621746",
    "geocoded_column": {
      "latitude": "30.013325444621746",
      "longitude": "-90.06705787371729"
    }
  },
  {
    "service_request": "2022-920143",
    "request_type": "Property Maintenance",
    "request_reason": "Property Maintenance",
    "date_created": "2022-09-15T16:04:15.000",
    "date_modified": "2022-09-15T16:04:15.000",
    "request_status": "Pending",
    "responsible_agency": "Department of Code Enforcement",
    "final_address": "3135 Sullen Pl",
    "address_councildis": "C",
    "status": "Pending",
    "rowid": "920143",
    "final_x": "3707720.68881",
    "final_y": "519112.882423",
    "longitude": "-89.9857363100851",
    "latitude": "29.920558344960202",
    "geocoded_column": {
      "latitude": "29.920558344960202",
      "longitude": "-89.9857363100851"
    }
  },
  {
    "service_request": "2022-920144",
    "request_type": "Trash/Recycling",
    "request_reason": "Missed Trash Pick-Up",
    "date_created": "2022-09-15T16:04:15.000",
    "date_modified": "2022-09-15T16:04:16.000",
    "request_status": "Pending",
    "responsible_agency": "Department of Sanitation",
    "final_address": "2700 LaSalle St",
    "address_councildis": "B",
    "status": "Assigned to Contractor",
    "contractor": "Richards Disposal",
    "rowid": "920144",
    "final_x": "3674603.86075",
    "final_y": "525027.262013",
    "longitude": "-90.09006832562157",
    "latitude": "29.937850377934108",
    "geocoded_column": {
      "latitude": "29.937850377934108",
      "longitude": "-90.09006832562157"
    }
  },
  {
    "service_request": "2022-920142",
    "request_type": "Roads/Drainage",
    "request_reason": "Pothole",
    "date_created": "2022-09-15T16:04:08.000",
    "date_modified": "2022-09-15T16:04:08.000",
    "request_status": "Pending",
    "responsible_agency": "Department of Public Works",
    "final_address": "5420 Royal St",
    "address_councildis": "E",
    "status": "Pending",
    "rowid": "920142",
    "final_x": "3696903.41546",
    "final_y": "532403.363523",
    "longitude": "-90.01940016188428",
    "latitude": "29.95744794772765",
    "geocoded_column": {
      "latitude": "29.95744794772765",
      "longitude": "-90.01940016188428"
    }
  },
  {
    "service_request": "2022-920141",
    "request_type": "Trash/Recycling",
    "request_reason": "Missed Trash Pick-Up",
    "date_created": "2022-09-15T16:03:40.000",
    "date_modified": "2022-09-15T16:03:41.000",
    "request_status": "Pending",
    "responsible_agency": "Department of Sanitation",
    "final_address": "8011 Mackenzie St",
    "address_councildis": "E",
    "status": "Assigned to Contractor",
    "contractor": "Metro Disposal",
    "rowid": "920141",
    "final_x": "3710279.87102",
    "final_y": "567248.320164",
    "longitude": "-89.9758582041857",
    "latitude": "30.052829643892828",
    "geocoded_column": {
      "latitude": "30.052829643892828",
      "longitude": "-89.9758582041857"
    }
  },
  {
    "service_request": "2022-920140",
    "request_type": "Trash/Recycling",
    "request_reason": "Order Trash Cart",
    "date_created": "2022-09-15T16:02:59.000",
    "date_modified": "2022-09-15T16:03:00.000",
    "request_status": "Pending",
    "responsible_agency": "Department of Sanitation",
    "final_address": "6325 N Claiborne Ave",
    "address_councildis": "E",
    "status": "Assigned to Contractor",
    "contractor": "Metro Disposal",
    "rowid": "920140",
    "final_x": "3701043.90954",
    "final_y": "534781.92295",
    "longitude": "-90.00623881714996",
    "latitude": "29.963856934720468",
    "geocoded_column": {
      "latitude": "29.963856934720468",
      "longitude": "-90.00623881714996"
    }
  },
  {
    "service_request": "2022-920139",
    "request_type": "Trash/Recycling",
    "request_reason": "Missed Trash Pick-Up",
    "date_created": "2022-09-15T16:01:24.000",
    "date_modified": "2022-09-15T16:01:25.000",
    "request_status": "Pending",
    "responsible_agency": "Department of Sanitation",
    "final_address": "459 Audubon Blvd",
    "address_councildis": "B",
    "status": "Assigned to Contractor",
    "contractor": "Richards Disposal",
    "rowid": "920139",
    "final_x": "3667737.31322",
    "final_y": "530725.35917",
    "longitude": "-90.1115548350611",
    "latitude": "29.95372137292762",
    "geocoded_column": {
      "latitude": "29.95372137292762",
      "longitude": "-90.1115548350611"
    }
  },
  {
    "service_request": "2022-920138",
    "request_type": "Property Maintenance",
    "request_reason": "Property Maintenance",
    "date_created": "2022-09-15T16:00:04.000",
    "date_modified": "2022-09-15T16:00:04.000",
    "request_status": "Pending",
    "responsible_agency": "Department of Code Enforcement",
    "final_address": "5927 Selma St",
    "address_councildis": "D",
    "status": "Pending",
    "rowid": "920138",
    "final_x": "3696339.29424",
    "final_y": "552464.757974",
    "longitude": "-90.02045565447266",
    "latitude": "30.012627264281395",
    "geocoded_column": {
      "latitude": "30.012627264281395",
      "longitude": "-90.02045565447266"
    }
  },
  {
    "service_request": "2022-920136",
    "request_type": "Roads/Drainage",
    "request_reason": "Accessibility Ramps, Curbs and Sidewalk Repair",
    "date_created": "2022-09-15T15:59:50.000",
    "date_modified": "2022-09-15T15:59:50.000",
    "request_status": "Pending",
    "responsible_agency": "Department of Public Works",
    "final_address": "611 General Pershing St",
    "address_councildis": "B",
    "status": "Pending",
    "rowid": "920136",
    "final_x": "3671603.62286",
    "final_y": "517862.205622",
    "longitude": "-90.09978386549105",
    "latitude": "29.91823794086737",
    "geocoded_column": {
      "latitude": "29.91823794086737",
      "longitude": "-90.09978386549105"
    }
  },
  {
    "service_request": "2022-920135",
    "request_type": "Trash/Recycling",
    "request_reason": "Order Trash Cart",
    "date_created": "2022-09-15T15:59:45.000",
    "date_modified": "2022-09-15T15:59:46.000",
    "request_status": "Pending",
    "responsible_agency": "Department of Sanitation",
    "final_address": "816 Joseph St",
    "address_councildis": "A",
    "status": "Assigned to Contractor",
    "contractor": "Richards Disposal",
    "rowid": "920135",
    "final_x": "3666125.31968",
    "final_y": "519100.846711",
    "longitude": "-90.11703448425271",
    "latitude": "29.921804845255107",
    "geocoded_column": {
      "latitude": "29.921804845255107",
      "longitude": "-90.11703448425271"
    }
  },
  {
    "service_request": "2022-920134",
    "request_type": "Trash/Recycling",
    "request_reason": "Start Trash Service",
    "date_created": "2022-09-15T15:59:37.000",
    "date_modified": "2022-09-15T15:59:38.000",
    "request_status": "Pending",
    "responsible_agency": "Department of Sanitation",
    "final_address": "816 Joseph St",
    "address_councildis": "A",
    "status": "Assigned to Contractor",
    "contractor": "Richards Disposal",
    "rowid": "920134",
    "final_x": "3666125.31968",
    "final_y": "519100.846711",
    "longitude": "-90.11703448425271",
    "latitude": "29.921804845255107",
    "geocoded_column": {
      "latitude": "29.921804845255107",
      "longitude": "-90.11703448425271"
    }
  },
  {
    "service_request": "2022-920133",
    "request_type": "Trash/Recycling",
    "request_reason": "Order Recycling Cart",
    "date_created": "2022-09-15T15:59:28.000",
    "date_modified": "2022-09-15T15:59:29.000",
    "request_status": "Pending",
    "responsible_agency": "Department of Sanitation",
    "final_address": "816 Joseph St",
    "address_councildis": "A",
    "status": "Pending",
    "rowid": "920133",
    "final_x": "3666125.31968",
    "final_y": "519100.846711",
    "longitude": "-90.11703448425271",
    "latitude": "29.921804845255107",
    "geocoded_column": {
      "latitude": "29.921804845255107",
      "longitude": "-90.11703448425271"
    }
  },
  {
    "service_request": "2022-920132",
    "request_type": "Trash/Recycling",
    "request_reason": "Order Trash Cart",
    "date_created": "2022-09-15T15:59:22.000",
    "date_modified": "2022-09-15T16:06:27.000",
    "request_status": "Pending",
    "responsible_agency": "Department of Sanitation",
    "final_address": "1627 Delery St",
    "address_councildis": "E",
    "status": "Assigned to Contractor",
    "contractor": "Metro Disposal",
    "rowid": "920132",
    "final_x": "3701291.85085",
    "final_y": "534954.465606",
    "longitude": "-90.00544953317927",
    "latitude": "29.96432346673452",
    "geocoded_column": {
      "latitude": "29.96432346673452",
      "longitude": "-90.00544953317927"
    }
  },
  {
    "service_request": "2022-920131",
    "request_type": "Trash/Recycling",
    "request_reason": "Order Trash Cart",
    "date_created": "2022-09-15T15:58:43.000",
    "date_modified": "2022-09-15T15:58:44.000",
    "request_status": "Pending",
    "responsible_agency": "Department of Sanitation",
    "final_address": "1609 Delery St",
    "address_councildis": "E",
    "status": "Assigned to Contractor",
    "contractor": "Metro Disposal",
    "rowid": "920131",
    "final_x": "3701279.24868",
    "final_y": "534831.764998",
    "longitude": "-90.00549381976701",
    "latitude": "29.96398648572241",
    "geocoded_column": {
      "latitude": "29.96398648572241",
      "longitude": "-90.00549381976701"
    }
  },
  {
    "service_request": "2022-920129",
    "request_type": "Parks & Parkways",
    "request_reason": "Request Tree Service (Right of Way/Public Property)",
    "date_created": "2022-09-15T15:58:22.000",
    "date_modified": "2022-09-15T15:58:22.000",
    "request_status": "Pending",
    "responsible_agency": "Department of Parks & Parkway",
    "final_address": "611 General Pershing St",
    "address_councildis": "B",
    "status": "Pending",
    "rowid": "920129",
    "final_x": "3671603.62286",
    "final_y": "517862.205622",
    "longitude": "-90.09978386549105",
    "latitude": "29.91823794086737",
    "geocoded_column": {
      "latitude": "29.91823794086737",
      "longitude": "-90.09978386549105"
    }
  },
  {
    "service_request": "2022-920128",
    "request_type": "Trash/Recycling",
    "request_reason": "Order Trash Cart",
    "date_created": "2022-09-15T15:58:06.000",
    "date_modified": "2022-09-15T15:59:04.000",
    "request_status": "Pending",
    "responsible_agency": "Department of Sanitation",
    "final_address": "6325 N Claiborne Ave",
    "address_councildis": "E",
    "status": "Assigned to Contractor",
    "contractor": "Metro Disposal",
    "rowid": "920128",
    "final_x": "3701043.90954",
    "final_y": "534781.92295",
    "longitude": "-90.00623881714996",
    "latitude": "29.963856934720468",
    "geocoded_column": {
      "latitude": "29.963856934720468",
      "longitude": "-90.00623881714996"
    }
  },
  {
    "service_request": "2022-920127",
    "request_type": "Trash/Recycling",
    "request_reason": "Missed Trash Pick-Up",
    "date_created": "2022-09-15T15:54:17.000",
    "date_modified": "2022-09-15T15:54:18.000",
    "request_status": "Pending",
    "responsible_agency": "Department of Sanitation",
    "final_address": "6808 Lake Willow Dr",
    "address_councildis": "E",
    "status": "Assigned to Contractor",
    "contractor": "Metro Disposal",
    "rowid": "920127",
    "final_x": "3703708.99159",
    "final_y": "559012.46262",
    "longitude": "-89.996930377537",
    "latitude": "30.030396690462002",
    "geocoded_column": {
      "latitude": "30.030396690462002",
      "longitude": "-89.996930377537"
    }
  },
  {
    "service_request": "2022-920126",
    "request_type": "Trash/Recycling",
    "request_reason": "Missed Trash Pick-Up",
    "date_created": "2022-09-15T15:53:59.000",
    "date_modified": "2022-09-15T15:54:00.000",
    "request_status": "Pending",
    "responsible_agency": "Department of Sanitation",
    "final_address": "7870 Means Ave",
    "address_councildis": "E",
    "status": "Assigned to Contractor",
    "contractor": "Metro Disposal",
    "rowid": "920126",
    "final_x": "3707632.08472",
    "final_y": "565412.901218",
    "longitude": "-89.98429534772455",
    "latitude": "30.04786896413671",
    "geocoded_column": {
      "latitude": "30.04786896413671",
      "longitude": "-89.98429534772455"
    }
  },
  {
    "service_request": "2022-920125",
    "request_type": "Trash/Recycling",
    "request_reason": "Order Trash Cart",
    "date_created": "2022-09-15T15:53:57.000",
    "date_modified": "2022-09-15T15:53:57.000",
    "request_status": "Pending",
    "responsible_agency": "Department of Sanitation",
    "final_address": "4400 Mithra St",
    "address_councildis": "D",
    "status": "Assigned to Contractor",
    "contractor": "Metro Disposal",
    "rowid": "920125",
    "final_x": "3690080.43004",
    "final_y": "553163.419223",
    "longitude": "-90.0402052373244",
    "latitude": "30.014744022748314",
    "geocoded_column": {
      "latitude": "30.014744022748314",
      "longitude": "-90.0402052373244"
    }
  },
  {
    "service_request": "2022-920124",
    "request_type": "Property Maintenance",
    "request_reason": "Property Maintenance",
    "date_created": "2022-09-15T15:53:55.000",
    "date_modified": "2022-09-15T15:53:55.000",
    "request_status": "Pending",
    "responsible_agency": "Department of Code Enforcement",
    "final_address": "2563 Bayou Rd",
    "address_councildis": "D",
    "status": "Pending",
    "rowid": "920124",
    "final_x": "3678646.98338",
    "final_y": "539380.997194",
    "longitude": "-90.07680692220272",
    "latitude": "29.9771970609649",
    "geocoded_column": {
      "latitude": "29.9771970609649",
      "longitude": "-90.07680692220272"
    }
  },
  {
    "service_request": "2022-920123",
    "request_type": "Trash/Recycling",
    "request_reason": "Order Recycling Cart",
    "date_created": "2022-09-15T15:53:17.000",
    "date_modified": "2022-09-15T15:53:17.000",
    "request_status": "Pending",
    "responsible_agency": "Department of Sanitation",
    "final_address": "1210 Amelia St",
    "address_councildis": "B",
    "status": "Pending",
    "rowid": "920123",
    "final_x": "3673473.96104",
    "final_y": "519576.759416",
    "longitude": "-90.09382166151826",
    "latitude": "29.922896918530615",
    "geocoded_column": {
      "latitude": "29.922896918530615",
      "longitude": "-90.09382166151826"
    }
  },
  {
    "service_request": "2022-920122",
    "request_type": "Trash/Recycling",
    "request_reason": "MIssed Recycling Pick-Up",
    "date_created": "2022-09-15T15:51:25.000",
    "date_modified": "2022-09-15T15:51:25.000",
    "request_status": "Pending",
    "responsible_agency": "Department of Sanitation",
    "final_address": "1601 Constance St",
    "address_councildis": "B",
    "status": "Assigned to Contractor",
    "contractor": "Richards Disposal",
    "rowid": "920122",
    "final_x": "3680349.02395",
    "final_y": "522992.194299",
    "longitude": "-90.07200110670871",
    "latitude": "29.932081959191102",
    "geocoded_column": {
      "latitude": "29.932081959191102",
      "longitude": "-90.07200110670871"
    }
  },
  {
    "service_request": "2022-920121",
    "request_type": "Trash/Recycling",
    "request_reason": "Replace Trash Cart",
    "date_created": "2022-09-15T15:48:27.000",
    "date_modified": "2022-09-15T15:48:28.000",
    "request_status": "Pending",
    "responsible_agency": "Department of Sanitation",
    "final_address": "7130 Pinebrook Dr",
    "address_councildis": "E",
    "status": "Assigned to Contractor",
    "contractor": "Metro Disposal",
    "rowid": "920121",
    "final_x": "3719235.75922",
    "final_y": "570090.460903",
    "longitude": "-89.94744283470409",
    "latitude": "30.060349574747587",
    "geocoded_column": {
      "latitude": "30.060349574747587",
      "longitude": "-89.94744283470409"
    }
  },
  {
    "service_request": "2022-920120",
    "request_type": "Trash/Recycling",
    "request_reason": "Missed Trash Pick-Up",
    "date_created": "2022-09-15T15:47:12.000",
    "date_modified": "2022-09-15T15:47:13.000",
    "request_status": "Pending",
    "responsible_agency": "Department of Sanitation",
    "final_address": "4400 Mithra St",
    "address_councildis": "D",
    "status": "Assigned to Contractor",
    "contractor": "Metro Disposal",
    "rowid": "920120",
    "final_x": "3690080.43004",
    "final_y": "553163.419223",
    "longitude": "-90.0402052373244",
    "latitude": "30.014744022748314",
    "geocoded_column": {
      "latitude": "30.014744022748314",
      "longitude": "-90.0402052373244"
    }
  },
  {
    "service_request": "2022-920119",
    "request_type": "Property Maintenance",
    "request_reason": "Property Maintenance",
    "date_created": "2022-09-15T15:45:26.000",
    "date_modified": "2022-09-15T15:45:27.000",
    "request_status": "Pending",
    "responsible_agency": "Department of Code Enforcement",
    "final_address": "5400 Feliciana Dr",
    "address_councildis": "D",
    "status": "Pending",
    "rowid": "920119",
    "final_x": "3689995.83004",
    "final_y": "553297.017623",
    "longitude": "-90.04046776879704",
    "latitude": "30.01511399377677",
    "geocoded_column": {
      "latitude": "30.01511399377677",
      "longitude": "-90.04046776879704"
    }
  },
  {
    "service_request": "2022-920118",
    "request_type": "Trash/Recycling",
    "request_reason": "Request a Large Item Pick Up",
    "date_created": "2022-09-15T15:44:07.000",
    "date_modified": "2022-09-15T15:44:08.000",
    "request_status": "Pending",
    "responsible_agency": "Department of Sanitation",
    "final_address": "3451 Constance St",
    "address_councildis": "B",
    "status": "Assigned to Contractor",
    "contractor": "Richards Disposal",
    "rowid": "920118",
    "final_x": "3674694.42324",
    "final_y": "519184.430839",
    "longitude": "-90.08998257277067",
    "latitude": "29.92178178238905",
    "geocoded_column": {
      "latitude": "29.92178178238905",
      "longitude": "-90.08998257277067"
    }
  },
  {
    "service_request": "2022-920117",
    "request_type": "Property Maintenance",
    "request_reason": "Property Maintenance",
    "date_created": "2022-09-15T15:43:39.000",
    "date_modified": "2022-09-15T15:43:39.000",
    "request_status": "Pending",
    "responsible_agency": "Department of Code Enforcement",
    "final_address": "9038 Dixon St",
    "address_councildis": "A",
    "status": "Pending",
    "rowid": "920117",
    "final_x": "3665820.80397",
    "final_y": "537794.448712",
    "longitude": "-90.11736952458419",
    "latitude": "29.973215092039993",
    "geocoded_column": {
      "latitude": "29.973215092039993",
      "longitude": "-90.11736952458419"
    }
  },
  {
    "service_request": "2022-920116",
    "request_type": "Trash/Recycling",
    "request_reason": "Damaged Caused By Contractor",
    "date_created": "2022-09-15T15:43:19.000",
    "date_modified": "2022-09-15T15:43:20.000",
    "request_status": "Pending",
    "responsible_agency": "Department of Sanitation",
    "final_address": "1217 S Clark St",
    "address_councildis": "B",
    "status": "Assigned to Contractor",
    "contractor": "Richards Disposal",
    "rowid": "920116",
    "final_x": "3669648.6857",
    "final_y": "532522.85434",
    "longitude": "-90.1054586782378",
    "latitude": "29.95860771443232",
    "geocoded_column": {
      "latitude": "29.95860771443232",
      "longitude": "-90.1054586782378"
    }
  },
  {
    "service_request": "2022-920115",
    "request_type": "Trash/Recycling",
    "request_reason": "Missed Trash Pick-Up",
    "date_created": "2022-09-15T15:42:48.000",
    "date_modified": "2022-09-15T15:42:49.000",
    "request_status": "Pending",
    "responsible_agency": "Department of Sanitation",
    "final_address": "7000 BLK Willow St",
    "address_councildis": "A",
    "status": "Assigned to Contractor",
    "contractor": "Richards Disposal",
    "rowid": "920115",
    "final_x": "3665205.08622",
    "final_y": "526646.664998",
    "longitude": "-90.11968699679741",
    "latitude": "29.942580280479064",
    "geocoded_column": {
      "latitude": "29.942580280479064",
      "longitude": "-90.11968699679741"
    }
  },
  {
    "service_request": "2022-920114",
    "request_type": "Trash/Recycling",
    "request_reason": "Missed Trash Pick-Up",
    "date_created": "2022-09-15T15:41:06.000",
    "date_modified": "2022-09-15T15:41:06.000",
    "request_status": "Pending",
    "responsible_agency": "Department of Sanitation",
    "final_address": "2821 Annunciation St, New Orleans, Louisiana, 70115",
    "address_councildis": "B",
    "status": "Assigned to Contractor",
    "contractor": "Richards Disposal",
    "rowid": "920114",
    "final_x": "3677473.49973",
    "final_y": "519821.400632",
    "longitude": "-90.08118823715846",
    "latitude": "29.923450032182505",
    "geocoded_column": {
      "latitude": "29.923450032182505",
      "longitude": "-90.08118823715846"
    }
  },
  {
    "service_request": "2022-920113",
    "request_type": "Property Maintenance",
    "request_reason": "Property Maintenance",
    "date_created": "2022-09-15T15:39:40.000",
    "date_modified": "2022-09-15T15:39:40.000",
    "request_status": "Pending",
    "responsible_agency": "Department of Code Enforcement",
    "final_address": "9034 Dixon St",
    "address_councildis": "A",
    "status": "Pending",
    "rowid": "920113",
    "final_x": "3665840.8706",
    "final_y": "537775.19028",
    "longitude": "-90.11730679536399",
    "latitude": "29.973161552221555",
    "geocoded_column": {
      "latitude": "29.973161552221555",
      "longitude": "-90.11730679536399"
    }
  },
  {
    "service_request": "2022-920112",
    "request_type": "Trash/Recycling",
    "request_reason": "Request a Large Item Pick Up",
    "date_created": "2022-09-15T15:39:22.000",
    "date_modified": "2022-09-15T15:39:22.000",
    "request_status": "Pending",
    "responsible_agency": "Department of Sanitation",
    "final_address": "5752 Bancroft Dr",
    "address_councildis": "D",
    "status": "Assigned to Contractor",
    "contractor": "Metro Disposal",
    "rowid": "920112",
    "final_x": "3676427.42049",
    "final_y": "553678.681879",
    "longitude": "-90.0833244127266",
    "latitude": "30.016577407077214",
    "geocoded_column": {
      "latitude": "30.016577407077214",
      "longitude": "-90.0833244127266"
    }
  },
  {
    "service_request": "2022-920111",
    "request_type": "Traffic Signals/Signs/Striping/Streetlights",
    "request_reason": "Street Light Outage/Malfunction",
    "date_created": "2022-09-15T15:39:18.000",
    "date_modified": "2022-09-15T15:39:19.000",
    "request_status": "Pending",
    "responsible_agency": "Department of Public Works",
    "final_address": "77 Yosemite Dr",
    "address_councildis": "C",
    "status": "Pending",
    "contractor": "Legacy Professional Services",
    "rowid": "920111",
    "final_x": "3699405.07428",
    "final_y": "516182.253428",
    "longitude": "-90.01209133980548",
    "latitude": "29.912766405520955",
    "geocoded_column": {
      "latitude": "29.912766405520955",
      "longitude": "-90.01209133980548"
    }
  },
  {
    "service_request": "2022-920110",
    "request_type": "Traffic Signals/Signs/Striping/Streetlights",
    "request_reason": "Street Light Outage/Malfunction",
    "date_created": "2022-09-15T15:37:19.000",
    "date_modified": "2022-09-15T15:37:20.000",
    "request_status": "Pending",
    "responsible_agency": "Department of Public Works",
    "final_address": "62 Yosemite Dr",
    "address_councildis": "C",
    "status": "Pending",
    "contractor": "Legacy Professional Services",
    "rowid": "920110",
    "final_x": "3699694.08656",
    "final_y": "516441.248181",
    "longitude": "-90.0111697069508",
    "latitude": "29.913469386714443",
    "geocoded_column": {
      "latitude": "29.913469386714443",
      "longitude": "-90.0111697069508"
    }
  },
  {
    "service_request": "2022-920109",
    "request_type": "Property Maintenance",
    "request_reason": "Property Maintenance",
    "date_created": "2022-09-15T15:36:33.000",
    "date_modified": "2022-09-15T15:36:33.000",
    "request_status": "Pending",
    "responsible_agency": "Department of Code Enforcement",
    "final_address": "9024 Dixon St",
    "address_councildis": "A",
    "status": "Pending",
    "rowid": "920109",
    "final_x": "3665881.40992",
    "final_y": "537729.601928",
    "longitude": "-90.11718029173966",
    "latitude": "29.97303501640699",
    "geocoded_column": {
      "latitude": "29.97303501640699",
      "longitude": "-90.11718029173966"
    }
  },
  {
    "service_request": "2022-920108",
    "request_type": "Traffic Signals/Signs/Striping/Streetlights",
    "request_reason": "Street Light Outage/Malfunction",
    "date_created": "2022-09-15T15:32:38.000",
    "date_modified": "2022-09-15T15:32:38.000",
    "request_status": "Pending",
    "responsible_agency": "Department of Public Works",
    "final_address": "9761 Andover Dr",
    "address_councildis": "E",
    "status": "Pending",
    "contractor": "Legacy Professional Services",
    "rowid": "920108",
    "final_x": "3708684.90929",
    "final_y": "561993.540191",
    "longitude": "-89.98109539493595",
    "latitude": "30.038432962958854",
    "geocoded_column": {
      "latitude": "30.038432962958854",
      "longitude": "-89.98109539493595"
    }
  },
  {
    "service_request": "2022-920107",
    "request_type": "Property Maintenance",
    "request_reason": "Property Maintenance",
    "date_created": "2022-09-15T15:32:31.000",
    "date_modified": "2022-09-15T15:32:31.000",
    "request_status": "Pending",
    "responsible_agency": "Department of Code Enforcement",
    "final_address": "9020 Dixon St",
    "address_councildis": "A",
    "status": "Pending",
    "rowid": "920107",
    "final_x": "3665904.98471",
    "final_y": "537709.021",
    "longitude": "-90.11710652757577",
    "latitude": "29.972977737686044",
    "geocoded_column": {
      "latitude": "29.972977737686044",
      "longitude": "-90.11710652757577"
    }
  },
  {
    "service_request": "2022-920106",
    "request_type": "Abandoned Vehicles",
    "request_reason": "Abandoned/Junk Vehicles",
    "date_created": "2022-09-15T15:32:09.000",
    "date_modified": "2022-09-15T15:32:09.000",
    "request_status": "Pending",
    "responsible_agency": "Department of Public Works",
    "final_address": "3129 St Peter St",
    "address_councildis": "A",
    "status": "Pending",
    "rowid": "920106",
    "final_x": "3675011.16923",
    "final_y": "538139.303113",
    "longitude": "-90.08833263626738",
    "latitude": "29.973891954904495",
    "geocoded_column": {
      "latitude": "29.973891954904495",
      "longitude": "-90.08833263626738"
    }
  },
  {
    "service_request": "2022-920105",
    "request_type": "Trash/Recycling",
    "request_reason": "Missed Trash Pick-Up",
    "date_created": "2022-09-15T15:32:04.000",
    "date_modified": "2022-09-15T15:32:04.000",
    "request_status": "Pending",
    "responsible_agency": "Department of Sanitation",
    "final_address": "2618 St Charles Ave",
    "address_councildis": "B",
    "status": "Assigned to Contractor",
    "contractor": "Richards Disposal",
    "rowid": "920105",
    "final_x": "3676369.97845",
    "final_y": "522667.828538",
    "longitude": "-90.08457372284147",
    "latitude": "29.93130989779299",
    "geocoded_column": {
      "latitude": "29.93130989779299",
      "longitude": "-90.08457372284147"
    }
  },
  {
    "service_request": "2022-920104",
    "request_type": "Property Maintenance",
    "request_reason": "Property Maintenance",
    "date_created": "2022-09-15T15:28:42.000",
    "date_modified": "2022-09-15T15:28:42.000",
    "request_status": "Pending",
    "responsible_agency": "Department of Code Enforcement",
    "final_address": "9020 Dixon St",
    "address_councildis": "A",
    "status": "Pending",
    "rowid": "920104",
    "final_x": "3665904.98471",
    "final_y": "537709.021",
    "longitude": "-90.11710652757577",
    "latitude": "29.972977737686044",
    "geocoded_column": {
      "latitude": "29.972977737686044",
      "longitude": "-90.11710652757577"
    }
  },
  {
    "service_request": "2022-920103",
    "request_type": "Trash/Recycling",
    "request_reason": "Request a Large Item Pick Up",
    "date_created": "2022-09-15T15:28:01.000",
    "date_modified": "2022-09-15T15:28:02.000",
    "request_status": "Pending",
    "responsible_agency": "Department of Sanitation",
    "final_address": "7211 Yorktown Dr",
    "address_councildis": "E",
    "status": "Assigned to Contractor",
    "contractor": "Metro Disposal",
    "rowid": "920103",
    "final_x": "3705859.441",
    "final_y": "561296.067166",
    "longitude": "-89.99005039276307",
    "latitude": "30.036606568219202",
    "geocoded_column": {
      "latitude": "30.036606568219202",
      "longitude": "-89.99005039276307"
    }
  },
  {
    "service_request": "2022-920102",
    "request_type": "Roads/Drainage",
    "request_reason": "Pothole",
    "date_created": "2022-09-15T15:27:34.000",
    "date_modified": "2022-09-15T15:27:34.000",
    "request_status": "Pending",
    "responsible_agency": "Department of Public Works",
    "final_address": "5412 Annunciation St",
    "address_councildis": "A",
    "status": "Pending",
    "rowid": "920102",
    "final_x": "3666352.75476",
    "final_y": "517521.364918",
    "longitude": "-90.11636951806996",
    "latitude": "29.91745512517481",
    "geocoded_column": {
      "latitude": "29.91745512517481",
      "longitude": "-90.11636951806996"
    }
  },
  {
    "service_request": "2022-920101",
    "request_type": "Trash/Recycling",
    "request_reason": "Missed Trash Pick-Up",
    "date_created": "2022-09-15T15:27:09.000",
    "date_modified": "2022-09-15T15:27:10.000",
    "request_status": "Pending",
    "responsible_agency": "Department of Sanitation",
    "final_address": "7930 Sycamore St",
    "address_councildis": "A",
    "status": "Assigned to Contractor",
    "contractor": "Richards Disposal",
    "rowid": "920101",
    "final_x": "3664709.90784",
    "final_y": "530572.133186",
    "longitude": "-90.12111928080861",
    "latitude": "29.953388464323652",
    "geocoded_column": {
      "latitude": "29.953388464323652",
      "longitude": "-90.12111928080861"
    }
  },
  {
    "service_request": "2022-920100",
    "request_type": "Abandoned Vehicles",
    "request_reason": "Abandoned/Junk Vehicles",
    "date_created": "2022-09-15T15:26:46.000",
    "date_modified": "2022-09-15T15:33:14.000",
    "request_status": "Pending",
    "responsible_agency": "Department of Public Works",
    "final_address": "ALLEN ST & N ROCHEBLAVE ST",
    "address_councildis": "D",
    "status": "Pending",
    "rowid": "920100",
    "final_x": "3682390.6",
    "final_y": "540915.28",
    "longitude": "-90.06492972848415",
    "latitude": "29.981302391938407",
    "geocoded_column": {
      "latitude": "29.981302391938407",
      "longitude": "-90.06492972848415"
    }
  },
  {
    "service_request": "2022-920099",
    "request_type": "Trash/Recycling",
    "request_reason": "Replace Trash Cart",
    "date_created": "2022-09-15T15:23:19.000",
    "date_modified": "2022-09-15T15:23:20.000",
    "request_status": "Pending",
    "responsible_agency": "Department of Sanitation",
    "final_address": "839 Webster St",
    "address_councildis": "A",
    "status": "Assigned to Contractor",
    "contractor": "Richards Disposal",
    "rowid": "920099",
    "final_x": "3664258.02388",
    "final_y": "519681.917048",
    "longitude": "-90.12290939246196",
    "latitude": "29.923456976689614",
    "geocoded_column": {
      "latitude": "29.923456976689614",
      "longitude": "-90.12290939246196"
    }
  },