[
  {
    "service_request": "2023-1022634",
    "request_type": "Roads/Drainage",
    "request_reason": "Pothole",
    "date_created": "2023-08-02T01:45:09.000",
    "date_modified": "2023-08-02T01:45:09.000",
    "request_status": "Pending",
    "responsible_agency": "Department of Public Works",
    "final_address": "1221 Constantinople St",
    "address_councildis": "B",
    "status": "Pending",
    "rowid": "1022634",
    "final_x": "3672464.70081",
    "final_y": "520181.419896",
    "longitude": "-90.09698691327688",
    "latitude": "29.92458952289487",
    "geocoded_column": {
      "latitude": "29.92458952289487",
      "longitude": "-90.09698691327688"
    }
  },
  {
    "service_request": "2023-1022633",
    "request_type": "Roads/Drainage",
    "request_reason": "Pothole",
    "date_created": "2023-08-02T01:20:06.000",
    "date_modified": "2023-08-02T01:20:06.000",
    "request_status": "Pending",
    "responsible_agency": "Department of Public Works",
    "final_address": "4200 Perrier St",
    "address_councildis": "B",
    "status": "Pending",
    "rowid": "1022633",
    "final_x": "3671579.76411",
    "final_y": "520095.16844",
    "longitude": "-90.09978329705561",
    "latitude": "29.924378584144126",
    "geocoded_column": {
      "latitude": "29.924378584144126",
      "longitude": "-90.09978329705561"
    }
  },
  {
    "service_request": "2023-1022632",
    "request_type": "Trash/Recycling",
    "request_reason": "Replace Trash Cart",
    "date_created": "2023-08-01T23:32:10.000",
    "date_modified": "2023-08-01T23:32:11.000",
    "request_status": "Pending",
    "responsible_agency": "Department of Sanitation",
    "final_address": "4911 Magnolia St",
    "address_councildis": "B",
    "status": "Assigned to Contractor",
    "contractor": "Richards Disposal",
    "rowid": "1022632",
    "final_x": "3669089.46644",
    "final_y": "524648.525436",
    "longitude": "-90.10749056344149",
    "latitude": "29.936972342251075",
    "geocoded_column": {
      "latitude": "29.936972342251075",
      "longitude": "-90.10749056344149"
    }
  },
  {
    "service_request": "2023-1022631",
    "request_type": "Trash/Recycling",
    "request_reason": "Replace Trash Cart",
    "date_created": "2023-08-01T22:52:41.000",
    "date_modified": "2023-08-01T22:52:41.000",
    "request_status": "Pending",
    "responsible_agency": "Department of Sanitation",
    "final_address": "4911 Magnolia St, New Orleans, Louisiana, 70115",
    "address_councildis": "B",
    "status": "Assigned to Contractor",
    "contractor": "Richards Disposal",
    "rowid": "1022631",
    "final_x": "3669089.46644",
    "final_y": "524648.525436",
    "longitude": "-90.10749056344149",
    "latitude": "29.936972342251075",
    "geocoded_column": {
      "latitude": "29.936972342251075",
      "longitude": "-90.10749056344149"
    }
  },
  {
    "service_request": "2023-1022630",
    "request_type": "Trash/Recycling",
    "request_reason": "Replace Recycling Cart",
    "date_created": "2023-08-01T22:44:57.000",
    "date_modified": "2023-08-01T22:44:57.000",
    "request_status": "Pending",
    "responsible_agency": "Department of Sanitation",
    "final_address": "3728 Banks St",
    "address_councildis": "B",
    "status": "Pending",
    "rowid": "1022630",
    "final_x": "3671374.57537",
    "final_y": "536529.662087",
    "longitude": "-90.09987255777324",
    "latitude": "29.969574130772617",
    "geocoded_column": {
      "latitude": "29.969574130772617",
      "longitude": "-90.09987255777324"
    }
  },
  {
    "service_request": "2023-1022629",
    "request_type": "Mosquito, Termite & Rodent Control",
    "request_reason": "Rodent Complaint (Rats)",
    "date_created": "2023-08-01T22:27:32.000",
    "date_modified": "2023-08-01T22:27:32.000",
    "request_status": "Pending",
    "responsible_agency": "Mosquito, Termite & Rodent Control Board",
    "final_address": "7329 Vanderkloot Ave",
    "address_councildis": "E",
    "status": "Pending",
    "rowid": "1022629",
    "final_x": "3706351.72823",
    "final_y": "562577.974304",
    "longitude": "-89.98844712772154",
    "latitude": "30.040115428587033",
    "geocoded_column": {
      "latitude": "30.040115428587033",
      "longitude": "-89.98844712772154"
    }
  },
  {
    "service_request": "2023-1022628",
    "request_type": "Property Maintenance",
    "request_reason": "Property Maintenance",
    "date_created": "2023-08-01T22:25:12.000",
    "date_modified": "2023-08-01T22:25:12.000",
    "request_status": "Pending",
    "responsible_agency": "Department of Code Enforcement",
    "final_address": "4801 Nottingham Dr",
    "address_councildis": "E",
    "status": "Pending",
    "rowid": "1022628",
    "final_x": "3716450.60613",
    "final_y": "557126.927962",
    "longitude": "-89.95673878366814",
    "latitude": "30.024797456050667",
    "geocoded_column": {
      "latitude": "30.024797456050667",
      "longitude": "-89.95673878366814"
    }
  },
  {
    "service_request": "2023-1022627",
    "request_type": "Trash/Recycling",
    "request_reason": "Request a Large Item Pick Up",
    "date_created": "2023-08-01T22:02:28.000",
    "date_modified": "2023-08-01T22:02:29.000",
    "request_status": "Pending",
    "responsible_agency": "Department of Sanitation",
    "final_address": "417 Henry Clay Ave",
    "address_councildis": "A",
    "status": "Assigned to Contractor",
    "contractor": "Richards Disposal",
    "rowid": "1022627",
    "final_x": "3663375.75616",
    "final_y": "518379.00959",
    "longitude": "-90.12573773977351",
    "latitude": "29.919899984815505",
    "geocoded_column": {
      "latitude": "29.919899984815505",
      "longitude": "-90.12573773977351"
    }
  },
  {
    "service_request": "2023-1022626",
    "request_type": "Trash/Recycling",
    "request_reason": "MIssed Recycling Pick-Up",
    "date_created": "2023-08-01T22:01:50.000",
    "date_modified": "2023-08-01T22:01:50.000",
    "request_status": "Pending",
    "responsible_agency": "Department of Sanitation",
    "final_address": "219 N Tonti St",
    "address_councildis": "B",
    "status": "Assigned to Contractor",
    "contractor": "Richards Disposal",
    "rowid": "1022626",
    "final_x": "3676708.91105",
    "final_y": "534839.579974",
    "longitude": "-90.08308449486326",
    "latitude": "29.96476800860436",
    "geocoded_column": {
      "latitude": "29.96476800860436",
      "longitude": "-90.08308449486326"
    }
  },
  {
    "service_request": "2023-1022625",
    "request_type": "Property Maintenance",
    "request_reason": "Property Maintenance",
    "date_created": "2023-08-01T21:46:21.000",
    "date_modified": "2023-08-01T21:46:21.000",
    "request_status": "Pending",
    "responsible_agency": "Department of Code Enforcement",
    "final_address": "3601 Huntlee Dr",
    "address_councildis": "C",
    "status": "Pending",
    "rowid": "1022625",
    "final_x": "3701639.74455",
    "final_y": "517862.75327",
    "longitude": "-90.00497663496695",
    "latitude": "29.917316164973077",
    "geocoded_column": {
      "latitude": "29.917316164973077",
      "longitude": "-90.00497663496695"
    }
  },
  {
    "service_request": "2023-1022624",
    "request_type": "Trash/Recycling",
    "request_reason": "MIssed Recycling Pick-Up",
    "date_created": "2023-08-01T21:40:05.000",
    "date_modified": "2023-08-01T21:40:05.000",
    "request_status": "Pending",
    "responsible_agency": "Department of Sanitation",
    "final_address": "1528 St Philip St",
    "address_councildis": "C",
    "status": "Assigned to Contractor",
    "contractor": "Richards Disposal",
    "rowid": "1022624",
    "final_x": "3680772.24552",
    "final_y": "535182.214022",
    "longitude": "-90.07024083428946",
    "latitude": "29.96558760095176",
    "geocoded_column": {
      "latitude": "29.96558760095176",
      "longitude": "-90.07024083428946"
    }
  },
  {
    "service_request": "2023-1022623",
    "request_type": "Abandoned Vehicles",
    "request_reason": "Abandoned/Junk Vehicles",
    "date_created": "2023-08-01T21:03:14.000",
    "date_modified": "2023-08-01T21:03:14.000",
    "request_status": "Pending",
    "responsible_agency": "Department of Public Works",
    "final_address": "4808 St Claude Ave",
    "address_councildis": "E",
    "status": "Pending",
    "rowid": "1022623",
    "final_x": "3695140.33008",
    "final_y": "534421.409861",
    "longitude": "-90.0248946657472",
    "latitude": "29.963052336513883",
    "geocoded_column": {
      "latitude": "29.963052336513883",
      "longitude": "-90.0248946657472"
    }
  },
  {
    "service_request": "2023-1022622",
    "request_type": "Traffic Signals/Signs/Striping/Streetlights",
    "request_reason": "Street Light Outage/Malfunction",
    "date_created": "2023-08-01T20:53:09.000",
    "date_modified": "2023-08-01T20:53:10.000",
    "request_status": "Pending",
    "responsible_agency": "Department of Public Works",
    "final_address": "2100 BLK Camp St",
    "address_councildis": "B",
    "status": "Assigned to Contractor",
    "contractor": "Legacy Professional Services",
    "rowid": "1022622",
    "final_x": "3678787.28707",
    "final_y": "522496.542065",
    "longitude": "-90.07694851011162",
    "latitude": "29.93076625657449",
    "geocoded_column": {
      "latitude": "29.93076625657449",
      "longitude": "-90.07694851011162"
    }
  },
  {
    "service_request": "2023-1022621",
    "request_type": "Roads/Drainage",
    "request_reason": "Pothole",
    "date_created": "2023-08-01T20:02:42.000",
    "date_modified": "2023-08-01T20:02:42.000",
    "request_status": "Pending",
    "responsible_agency": "Department of Public Works",
    "final_address": "1423 General Pershing St",
    "address_councildis": "B",
    "status": "Pending",
    "rowid": "1022621",
    "final_x": "3671330.69185",
    "final_y": "520571.244024",
    "longitude": "-90.1005533659415",
    "latitude": "29.925695010510914",
    "geocoded_column": {
      "latitude": "29.925695010510914",
      "longitude": "-90.1005533659415"
    }
  },
  {
    "service_request": "2023-1022620",
    "request_type": "Trash/Recycling",
    "request_reason": "Repair Trash Cart",
    "date_created": "2023-08-01T19:51:20.000",
    "date_modified": "2023-08-01T19:51:20.000",
    "request_status": "Pending",
    "responsible_agency": "Department of Sanitation",
    "final_address": "4538 S Johnson St",
    "address_councildis": "B",
    "status": "Assigned to Contractor",
    "contractor": "Richards Disposal",
    "rowid": "1022620",
    "final_x": "3669514.51406",
    "final_y": "527115.167615",
    "longitude": "-90.10606525405707",
    "latitude": "29.94374230001293",
    "geocoded_column": {
      "latitude": "29.94374230001293",
      "longitude": "-90.10606525405707"
    }
  },
  {
    "service_request": "2023-1022619",
    "request_type": "Trash/Recycling",
    "request_reason": "Replace Recycling Cart",
    "date_created": "2023-08-01T19:45:06.000",
    "date_modified": "2023-08-01T19:46:29.000",
    "request_status": "Pending",
    "responsible_agency": "Department of Sanitation",
    "final_address": "2519 Loyola Ave",
    "address_councildis": "B",
    "status": "Pending",
    "rowid": "1022619",
    "final_x": "3675325.86101",
    "final_y": "524742.52422",
    "longitude": "-90.08779868069543",
    "latitude": "29.937045881826396",
    "geocoded_column": {
      "latitude": "29.937045881826396",
      "longitude": "-90.08779868069543"
    }
  },
  {
    "service_request": "2023-1022618",
    "request_type": "Trash/Recycling",
    "request_reason": "Illegal Dumping",
    "date_created": "2023-08-01T19:35:47.000",
    "date_modified": "2023-08-01T19:35:47.000",
    "request_status": "Pending",
    "responsible_agency": "Department of Sanitation",
    "final_address": "1507 St Maurice Ave Apt A",
    "address_councildis": "E",
    "status": "Pending",
    "rowid": "1022618",
    "final_x": "3700459.57584",
    "final_y": "534626.999366",
    "longitude": "-90.00808973329123",
    "latitude": "29.963449546188684",
    "geocoded_column": {
      "latitude": "29.963449546188684",
      "longitude": "-90.00808973329123"
    }
  },
  {
    "service_request": "2023-1022617",
    "request_type": "Trash/Recycling",
    "request_reason": "Order Recycling Cart",
    "date_created": "2023-08-01T19:31:26.000",
    "date_modified": "2023-08-01T19:31:26.000",
    "request_status": "Pending",
    "responsible_agency": "Department of Sanitation",
    "final_address": "1344 Soldiers St",
    "address_councildis": "D",
    "status": "Pending",
    "rowid": "1022617",
    "final_x": "3677060.38101",
    "final_y": "554385.275352",
    "longitude": "-90.0813001315797",
    "latitude": "30.01850128267998",
    "geocoded_column": {
      "latitude": "30.01850128267998",
      "longitude": "-90.0813001315797"
    }
  },
  {
    "service_request": "2023-1022616",
    "request_type": "Trash/Recycling",
    "request_reason": "Request a Large Item Pick Up",
    "date_created": "2023-08-01T19:24:21.000",
    "date_modified": "2023-08-01T19:24:21.000",
    "request_status": "Pending",
    "responsible_agency": "Department of Sanitation",
    "final_address": "4518 Croyden Ave",
    "address_councildis": "C",
    "status": "Assigned to Contractor",
    "contractor": "Richards Disposal",
    "rowid": "1022616",
    "final_x": "3702259.59818",
    "final_y": "524132.619772",
    "longitude": "-90.00279031853512",
    "latitude": "29.934536355549838",
    "geocoded_column": {
      "latitude": "29.934536355549838",
      "longitude": "-90.00279031853512"
    }
  },
  {
    "service_request": "2023-1022615",
    "request_type": "Trash/Recycling",
    "request_reason": "Return Trash Cart",
    "date_created": "2023-08-01T19:21:33.000",
    "date_modified": "2023-08-01T19:21:34.000",
    "request_status": "Pending",
    "responsible_agency": "Department of Sanitation",
    "final_address": "1106 Thayer St",
    "address_councildis": "C",
    "status": "Assigned to Contractor",
    "contractor": "Richards Disposal",
    "rowid": "1022615",
    "final_x": "3689480.25404",
    "final_y": "527352.025215",
    "longitude": "-90.04301983519376",
    "latitude": "29.94379047175896",
    "geocoded_column": {
      "latitude": "29.94379047175896",
      "longitude": "-90.04301983519376"
    }
  },
  {
    "service_request": "2023-1022614",
    "request_type": "Trash/Recycling",
    "request_reason": "Missed Trash Pick-Up",
    "date_created": "2023-08-01T18:49:04.000",
    "date_modified": "2023-08-01T18:49:04.000",
    "request_status": "Pending",
    "responsible_agency": "Department of Sanitation",
    "final_address": "4538 S Johnson St",
    "address_councildis": "B",
    "status": "Assigned to Contractor",
    "contractor": "Richards Disposal",
    "rowid": "1022614",
    "final_x": "3669514.51406",
    "final_y": "527115.167615",
    "longitude": "-90.10606525405707",
    "latitude": "29.94374230001293",
    "geocoded_column": {
      "latitude": "29.94374230001293",
      "longitude": "-90.10606525405707"
    }
  },
  {
    "service_request": "2023-1022613",
    "request_type": "Trash/Recycling",
    "request_reason": "Order Recycling Cart",
    "date_created": "2023-08-01T18:47:49.000",
    "date_modified": "2023-08-01T18:47:49.000",
    "request_status": "Pending",
    "responsible_agency": "Department of Sanitation",
    "final_address": "425 S Lopez St",
    "address_councildis": "B",
    "status": "Pending",
    "rowid": "1022613",
    "final_x": "3672965.59745",
    "final_y": "535101.644678",
    "longitude": "-90.09489670713796",
    "latitude": "29.965600374802555",
    "geocoded_column": {
      "latitude": "29.965600374802555",
      "longitude": "-90.09489670713796"
    }
  },
  {
    "service_request": "2023-1022612",
    "request_type": "Trash/Recycling",
    "request_reason": "Request a Large Item Pick Up",
    "date_created": "2023-08-01T18:43:58.000",
    "date_modified": "2023-08-01T18:43:58.000",
    "request_status": "Pending",
    "responsible_agency": "Department of Sanitation",
    "final_address": "416 16Th St",
    "address_councildis": "A",
    "status": "Assigned to Contractor",
    "contractor": "IV Waste",
    "rowid": "1022612",
    "final_x": "3664667.79872",
    "final_y": "548367.42197",
    "longitude": "-90.12065756907766",
    "latitude": "30.00232078705233",
    "geocoded_column": {
      "latitude": "30.00232078705233",
      "longitude": "-90.12065756907766"
    }
  },
  {
    "service_request": "2023-1022611",
    "request_type": "Trash/Recycling",
    "request_reason": "MIssed Recycling Pick-Up",
    "date_created": "2023-08-01T18:36:16.000",
    "date_modified": "2023-08-01T18:36:16.000",
    "request_status": "Pending",
    "responsible_agency": "Department of Sanitation",
    "final_address": "1526 St Maurice Ave",
    "address_councildis": "E",
    "status": "Assigned to Contractor",
    "contractor": "Waste Pro",
    "rowid": "1022611",
    "final_x": "3700434.364",
    "final_y": "534795.62087",
    "longitude": "-90.00816319078218",
    "latitude": "29.963913996633142",
    "geocoded_column": {
      "latitude": "29.963913996633142",
      "longitude": "-90.00816319078218"
    }
  },
  {
    "service_request": "2023-1022610",
    "request_type": "Trash/Recycling",
    "request_reason": "Request a Large Item Pick Up",
    "date_created": "2023-08-01T18:29:07.000",
    "date_modified": "2023-08-01T18:29:08.000",
    "request_status": "Pending",
    "responsible_agency": "Department of Sanitation",
    "status": "Assigned to Contractor",
    "rowid": "1022610",
    "longitude": "0.0",
    "latitude": "0.0",
    "geocoded_column": {
      "latitude": "0.0",
      "longitude": "0.0"
    }
  },
  {
    "service_request": "2023-1022609",
    "request_type": "Roads/Drainage",
    "request_reason": "Pothole",
    "date_created": "2023-08-01T18:22:27.000",
    "date_modified": "2023-08-01T18:22:27.000",
    "request_status": "Pending",
    "responsible_agency": "Department of Public Works",
    "final_address": "2515 General Taylor St",
    "address_councildis": "B",
    "status": "Pending",
    "rowid": "1022609",
    "final_x": "3671917.47707",
    "final_y": "524364.17606",
    "longitude": "-90.0985720356201",
    "latitude": "29.936106980379066",
    "geocoded_column": {
      "latitude": "29.936106980379066",
      "longitude": "-90.0985720356201"
    }
  },
  {
    "service_request": "2023-1022608",
    "request_type": "Trash/Recycling",
    "request_reason": "MIssed Recycling Pick-Up",
    "date_created": "2023-08-01T18:21:16.000",
    "date_modified": "2023-08-01T18:21:17.000",
    "request_status": "Pending",
    "responsible_agency": "Department of Sanitation",
    "final_address": "2511 General Taylor St",
    "address_councildis": "B",
    "status": "Assigned to Contractor",
    "contractor": "Richards Disposal",
    "rowid": "1022608",
    "final_x": "3671902.00788",
    "final_y": "524317.486204",
    "longitude": "-90.09862246070571",
    "latitude": "29.935979056747314",
    "geocoded_column": {
      "latitude": "29.935979056747314",
      "longitude": "-90.09862246070571"
    }
  },
  {
    "service_request": "2023-1022607",
    "request_type": "Trash/Recycling",
    "request_reason": "Order Trash Cart",
    "date_created": "2023-08-01T18:20:22.000",
    "date_modified": "2023-08-01T18:20:23.000",
    "request_status": "Pending",
    "responsible_agency": "Department of Sanitation",
    "final_address": "2511 General Taylor St",
    "address_councildis": "B",
    "status": "Assigned to Contractor",
    "contractor": "Richards Disposal",
    "rowid": "1022607",
    "final_x": "3671902.00788",
    "final_y": "524317.486204",
    "longitude": "-90.09862246070571",
    "latitude": "29.935979056747314",
    "geocoded_column": {
      "latitude": "29.935979056747314",
      "longitude": "-90.09862246070571"
    }
  },
  {
    "service_request": "2023-1022606",
    "request_type": "Trash/Recycling",
    "request_reason": "Request a Large Item Pick Up",
    "date_created": "2023-08-01T18:13:42.000",
    "date_modified": "2023-08-01T18:13:42.000",
    "request_status": "Pending",
    "responsible_agency": "Department of Sanitation",
    "final_address": "4735 Sherwood Dr",
    "address_councildis": "E",
    "status": "Assigned to Contractor",
    "contractor": "Waste Pro",
    "rowid": "1022606",
    "final_x": "3718084.70431",
    "final_y": "556817.537562",
    "longitude": "-89.95158715701086",
    "latitude": "30.023892674773005",
    "geocoded_column": {
      "latitude": "30.023892674773005",
      "longitude": "-89.95158715701086"
    }
  },
  {
    "service_request": "2023-1022605",
    "request_type": "Trash/Recycling",
    "request_reason": "Request a Large Item Pick Up",
    "date_created": "2023-08-01T18:04:40.000",
    "date_modified": "2023-08-01T18:04:40.000",
    "request_status": "Pending",
    "responsible_agency": "Department of Sanitation",
    "final_address": "3200 Iberville St",
    "address_councildis": "B",
    "status": "Assigned to Contractor",
    "contractor": "Richards Disposal",
    "rowid": "1022605",
    "final_x": "3674080.80692",
    "final_y": "536566.012679",
    "longitude": "-90.09132478985647",
    "latitude": "29.96959370278572",
    "geocoded_column": {
      "latitude": "29.96959370278572",
      "longitude": "-90.09132478985647"
    }
  },
  {
    "service_request": "2023-1022604",
    "request_type": "Trash/Recycling",
    "request_reason": "Request a Large Item Pick Up",
    "date_created": "2023-08-01T18:00:05.000",
    "date_modified": "2023-08-01T18:00:06.000",
    "request_status": "Pending",
    "responsible_agency": "Department of Sanitation",
    "final_address": "23 Glacier Ct",
    "address_councildis": "C",
    "status": "Assigned to Contractor",
    "contractor": "Richards Disposal",
    "rowid": "1022604",
    "final_x": "3699893.88682",
    "final_y": "515851.10578",
    "longitude": "-90.0105605821803",
    "latitude": "29.91184035450374",
    "geocoded_column": {
      "latitude": "29.91184035450374",
      "longitude": "-90.0105605821803"
    }
  },
  {
    "service_request": "2023-1022603",
    "request_type": "Trash/Recycling",
    "request_reason": "Replace Trash Cart",
    "date_created": "2023-08-01T17:43:17.000",
    "date_modified": "2023-08-01T17:43:18.000",
    "request_status": "Pending",
    "responsible_agency": "Department of Sanitation",
    "final_address": "1836 St Bernard Ave",
    "address_councildis": "D",
    "status": "Assigned to Contractor",
    "contractor": "IV Waste",
    "rowid": "1022603",
    "final_x": "3681616.69327",
    "final_y": "538734.757961",
    "longitude": "-90.06745016358745",
    "latitude": "29.975330248679963",
    "geocoded_column": {
      "latitude": "29.975330248679963",
      "longitude": "-90.06745016358745"
    }
  },
  {
    "service_request": "2023-1022602",
    "request_type": "Property Maintenance",
    "request_reason": "Property Maintenance",
    "date_created": "2023-08-01T17:36:05.000",
    "date_modified": "2023-08-01T17:36:05.000",
    "request_status": "Pending",
    "responsible_agency": "Department of Code Enforcement",
    "final_address": "228 N Clark St",
    "address_councildis": "B",
    "status": "Pending",
    "rowid": "1022602",
    "final_x": "3673294.2674",
    "final_y": "537514.146376",
    "longitude": "-90.09377636186073",
    "latitude": "29.972224168538926",
    "geocoded_column": {
      "latitude": "29.972224168538926",
      "longitude": "-90.09377636186073"
    }
  },
  {
    "service_request": "2023-1022601",
    "request_type": "Trash/Recycling",
    "request_reason": "Dead Animal Pick Up",
    "date_created": "2023-08-01T17:34:19.000",
    "date_modified": "2023-08-01T17:34:19.000",
    "request_status": "Pending",
    "responsible_agency": "Department of Sanitation",
    "final_address": "2517 S Johnson St",
    "address_councildis": "B",
    "status": "Assigned to Contractor",
    "contractor": "Richards Disposal",
    "rowid": "1022601",
    "final_x": "3673024.90804",
    "final_y": "528321.641856",
    "longitude": "-90.09494081035159",
    "latitude": "29.9469558577926",
    "geocoded_column": {
      "latitude": "29.9469558577926",
      "longitude": "-90.09494081035159"
    }
  },
  {
    "service_request": "2023-1022600",
    "request_type": "Trash/Recycling",
    "request_reason": "MIssed Recycling Pick-Up",
    "date_created": "2023-08-01T17:32:04.000",
    "date_modified": "2023-08-01T17:32:04.000",
    "request_status": "Pending",
    "responsible_agency": "Department of Sanitation",
    "final_address": "10900 Harrow Rd",
    "address_councildis": "E",
    "status": "Assigned to Contractor",
    "contractor": "Waste Pro",
    "rowid": "1022600",
    "final_x": "3711588.40005",
    "final_y": "563676.325537",
    "longitude": "-89.9718564962651",
    "latitude": "30.04296541289566",
    "geocoded_column": {
      "latitude": "30.04296541289566",
      "longitude": "-89.9718564962651"
    }
  },
  {
    "service_request": "2023-1022599",
    "request_type": "Trash/Recycling",
    "request_reason": "Request a Large Item Pick Up",
    "date_created": "2023-08-01T17:30:50.000",
    "date_modified": "2023-08-01T17:30:51.000",
    "request_status": "Pending",
    "responsible_agency": "Department of Sanitation",
    "final_address": "58 Grand Canyon Dr",
    "address_councildis": "C",
    "status": "Assigned to Contractor",
    "contractor": "Richards Disposal",
    "rowid": "1022599",
    "final_x": "3699223.38295",
    "final_y": "516217.150452",
    "longitude": "-90.01266353699522",
    "latitude": "29.91286811994475",
    "geocoded_column": {
      "latitude": "29.91286811994475",
      "longitude": "-90.01266353699522"
    }
  },
  {
    "service_request": "2023-1022598",
    "request_type": "Roads/Drainage",
    "request_reason": "Ditch Issue",
    "date_created": "2023-08-01T17:30:09.000",
    "date_modified": "2023-08-01T17:30:09.000",
    "request_status": "Pending",
    "responsible_agency": "Department of Public Works",
    "final_address": "1656 Elizardi Blvd",
    "address_councildis": "C",
    "status": "Pending",
    "rowid": "1022598",
    "final_x": "3694735.35018",
    "final_y": "524777.41958",
    "longitude": "-90.02652086589939",
    "latitude": "29.936547430744703",
    "geocoded_column": {
      "latitude": "29.936547430744703",
      "longitude": "-90.02652086589939"
    }
  },
  {
    "service_request": "2023-1022597",
    "request_type": "Trash/Recycling",
    "request_reason": "Replace Trash Cart",
    "date_created": "2023-08-01T17:23:04.000",
    "date_modified": "2023-08-01T17:23:04.000",
    "request_status": "Pending",
    "responsible_agency": "Department of Sanitation",
    "final_address": "806 N Carrollton Ave",
    "address_councildis": "A",
    "status": "Assigned to Contractor",
    "contractor": "Richards Disposal",
    "rowid": "1022597",
    "final_x": "3672890.81153",
    "final_y": "540143.825995",
    "longitude": "-90.09496078975442",
    "latitude": "29.97946688840759",
    "geocoded_column": {
      "latitude": "29.97946688840759",
      "longitude": "-90.09496078975442"
    }
  },
  {
    "service_request": "2023-1022596",
    "request_type": "Traffic Signals/Signs/Striping/Streetlights",
    "request_reason": "Street Light Outage/Malfunction",
    "date_created": "2023-08-01T17:19:59.000",
    "date_modified": "2023-08-01T17:20:00.000",
    "request_status": "Pending",
    "responsible_agency": "Department of Public Works",
    "final_address": "1000 BLK Interstate 10",
    "address_councildis": "E",
    "status": "Assigned to Contractor",
    "contractor": "Legacy Professional Services",
    "rowid": "1022596",
    "final_x": "3707568.05333",
    "final_y": "560250.494116",
    "longitude": "-89.98468976004716",
    "latitude": "30.033676468787675",
    "geocoded_column": {
      "latitude": "30.033676468787675",
      "longitude": "-89.98468976004716"
    }
  },
  {
    "service_request": "2023-1022595",
    "request_type": "Trash/Recycling",
    "request_reason": "Missed Trash Pick-Up",
    "date_created": "2023-08-01T17:16:38.000",
    "date_modified": "2023-08-01T17:16:38.000",
    "request_status": "Pending",
    "responsible_agency": "Department of Sanitation",
    "final_address": "6930 Lake Barrington Dr",
    "address_councildis": "E",
    "status": "Assigned to Contractor",
    "contractor": "Waste Pro",
    "rowid": "1022595",
    "final_x": "3712849.36005",
    "final_y": "563685.828833",
    "longitude": "-89.96787103013503",
    "latitude": "30.04295028640755",
    "geocoded_column": {
      "latitude": "30.04295028640755",
      "longitude": "-89.96787103013503"
    }
  },
  {
    "service_request": "2023-1022594",
    "request_type": "Trash/Recycling",
    "request_reason": "Replace Trash Cart",
    "date_created": "2023-08-01T17:16:20.000",
    "date_modified": "2023-08-01T17:16:20.000",
    "request_status": "Pending",
    "responsible_agency": "Department of Sanitation",
    "final_address": "626 Webster St A",
    "address_councildis": "A",
    "status": "Assigned to Contractor",
    "contractor": "Richards Disposal",
    "rowid": "1022594",
    "final_x": "3663922.47047",
    "final_y": "518999.355447",
    "longitude": "-90.12399135405819",
    "latitude": "29.921589888027412",
    "geocoded_column": {
      "latitude": "29.921589888027412",
      "longitude": "-90.12399135405819"
    }
  },
  {
    "service_request": "2023-1022593",
    "request_type": "Abandoned Vehicles",
    "request_reason": "Abandoned/Junk Vehicles",
    "date_created": "2023-08-01T17:07:37.000",
    "date_modified": "2023-08-01T17:07:37.000",
    "request_status": "Pending",
    "responsible_agency": "Department of Public Works",
    "final_address": "3800 BLK Laurel St",
    "address_councildis": "B",
    "status": "Pending",
    "rowid": "1022593",
    "final_x": "3673424.06224",
    "final_y": "518298.276183",
    "longitude": "-90.09402282155273",
    "latitude": "29.919382982530728",
    "geocoded_column": {
      "latitude": "29.919382982530728",
      "longitude": "-90.09402282155273"
    }
  },
  {
    "service_request": "2023-1022592",
    "request_type": "Trash/Recycling",
    "request_reason": "Order Recycling Cart",
    "date_created": "2023-08-01T16:54:03.000",
    "date_modified": "2023-08-01T16:54:03.000",
    "request_status": "Pending",
    "responsible_agency": "Department of Sanitation",
    "final_address": "721 Leontine St",
    "address_councildis": "B",
    "status": "Pending",
    "rowid": "1022592",
    "final_x": "3667120.17652",
    "final_y": "518054.047542",
    "longitude": "-90.11392929787124",
    "latitude": "29.918897401620395",
    "geocoded_column": {
      "latitude": "29.918897401620395",
      "longitude": "-90.11392929787124"
    }
  },
  {
    "service_request": "2023-1022591",
    "request_type": "Trash/Recycling",
    "request_reason": "Order Trash Cart",
    "date_created": "2023-08-01T16:53:53.000",
    "date_modified": "2023-08-01T16:53:53.000",
    "request_status": "Pending",
    "responsible_agency": "Department of Sanitation",
    "final_address": "721 Leontine St",
    "address_councildis": "B",
    "status": "Assigned to Contractor",
    "contractor": "Richards Disposal",
    "rowid": "1022591",
    "final_x": "3667120.17652",
    "final_y": "518054.047542",
    "longitude": "-90.11392929787124",
    "latitude": "29.918897401620395",
    "geocoded_column": {
      "latitude": "29.918897401620395",
      "longitude": "-90.11392929787124"
    }
  },
  {
    "service_request": "2023-1022590",
    "request_type": "Property Maintenance",
    "request_reason": "Property Maintenance",
    "date_created": "2023-08-01T16:53:23.000",
    "date_modified": "2023-08-01T16:53:23.000",
    "request_status": "Pending",
    "responsible_agency": "Department of Code Enforcement",
    "final_address": "5518 Vermillion Blvd",
    "address_councildis": "D",
    "status": "Pending",
    "rowid": "1022590",
    "final_x": "3683128.4516",
    "final_y": "553151.458967",
    "longitude": "-90.0621705155091",
    "latitude": "30.014925029587822",
    "geocoded_column": {
      "latitude": "30.014925029587822",
      "longitude": "-90.0621705155091"
    }
  },
  {
    "service_request": "2023-1022589",
    "request_type": "Mosquito, Termite & Rodent Control",
    "request_reason": "Rodent Complaint (Rats)",
    "date_created": "2023-08-01T16:53:23.000",
    "date_modified": "2023-08-01T16:53:23.000",
    "request_status": "Pending",
    "responsible_agency": "Mosquito, Termite & Rodent Control Board",
    "final_address": "2320 Clouet St",
    "address_councildis": "D",
    "status": "Pending",
    "rowid": "1022589",
    "final_x": "3690113.30518",
    "final_y": "540722.123979",
    "longitude": "-90.04054486339376",
    "latitude": "29.98053396071247",
    "geocoded_column": {
      "latitude": "29.98053396071247",
      "longitude": "-90.04054486339376"
    }
  },
  {
    "service_request": "2023-1022588",
    "request_type": "Trash/Recycling",
    "request_reason": "Order Recycling Cart",
    "date_created": "2023-08-01T16:47:26.000",
    "date_modified": "2023-08-01T16:47:27.000",
    "request_status": "Pending",
    "responsible_agency": "Department of Sanitation",
    "final_address": "8417 Cohn St",
    "address_councildis": "A",
    "status": "Pending",
    "rowid": "1022588",
    "final_x": "3662745.69671",
    "final_y": "531033.122242",
    "longitude": "-90.12730613086165",
    "latitude": "29.954713026865324",
    "geocoded_column": {
      "latitude": "29.954713026865324",
      "longitude": "-90.12730613086165"
    }
  },
  {
    "service_request": "2023-1022587",
    "request_type": "Trash/Recycling",
    "request_reason": "Order Trash Cart",
    "date_created": "2023-08-01T16:46:10.000",
    "date_modified": "2023-08-01T16:46:11.000",
    "request_status": "Pending",
    "responsible_agency": "Department of Sanitation",
    "final_address": "8417 Cohn St",
    "address_councildis": "A",
    "status": "Assigned to Contractor",
    "contractor": "Richards Disposal",
    "rowid": "1022587",
    "final_x": "3662745.69671",
    "final_y": "531033.122242",
    "longitude": "-90.12730613086165",
    "latitude": "29.954713026865324",
    "geocoded_column": {
      "latitude": "29.954713026865324",
      "longitude": "-90.12730613086165"
    }
  },
  {
    "service_request": "2023-1022586",
    "request_type": "Trash/Recycling",
    "request_reason": "Replace Trash Cart",
    "date_created": "2023-08-01T16:44:57.000",
    "date_modified": "2023-08-01T16:44:57.000",
    "request_status": "Pending",
    "responsible_agency": "Department of Sanitation",
    "final_address": "2324 Louisa St Apt B",
    "address_councildis": "D",
    "status": "Assigned to Contractor",
    "contractor": "IV Waste",
    "rowid": "1022586",
    "final_x": "3690704.36988",
    "final_y": "540647.581067",
    "longitude": "-90.03868069227428",
    "latitude": "29.980310644583614",
    "geocoded_column": {
      "latitude": "29.980310644583614",
      "longitude": "-90.03868069227428"
    }
  },
  {
    "service_request": "2023-1022585",
    "request_type": "Abandoned Vehicles",
    "request_reason": "Abandoned/Junk Vehicles",
    "date_created": "2023-08-01T16:31:01.000",
    "date_modified": "2023-08-01T16:31:01.000",
    "request_status": "Pending",
    "responsible_agency": "Department of Public Works",
    "final_address": "3600 BLK Cadiz St",
    "address_councildis": "B",
    "status": "Pending",
    "rowid": "1022585",
    "final_x": "3669392.87738",
    "final_y": "527912.633923",
    "longitude": "-90.10642233520618",
    "latitude": "29.94593865485378",
    "geocoded_column": {
      "latitude": "29.94593865485378",
      "longitude": "-90.10642233520618"
    }
  },
  {
    "service_request": "2023-1022584",
    "request_type": "Abandoned Vehicles",
    "request_reason": "Abandoned/Junk Vehicles",
    "date_created": "2023-08-01T16:27:22.000",
    "date_modified": "2023-08-01T16:27:22.000",
    "request_status": "Pending",
    "responsible_agency": "Department of Public Works",
    "final_address": "6405 Ivory St Apt B",
    "address_councildis": "C",
    "status": "Pending",
    "rowid": "1022584",
    "final_x": "3707889.36664",
    "final_y": "518911.398135",
    "longitude": "-89.98521136007362",
    "latitude": "29.9199988776482",
    "geocoded_column": {
      "latitude": "29.9199988776482",
      "longitude": "-89.98521136007362"
    }
  },
  {
    "service_request": "2023-1022583",
    "request_type": "Trash/Recycling",
    "request_reason": "Order Trash Cart",
    "date_created": "2023-08-01T16:25:19.000",
    "date_modified": "2023-08-01T16:25:19.000",
    "request_status": "Pending",
    "responsible_agency": "Department of Sanitation",
    "final_address": "6405 Ivory St Apt B",
    "address_councildis": "C",
    "status": "Assigned to Contractor",
    "contractor": "Richards Disposal",
    "rowid": "1022583",
    "final_x": "3707889.36664",
    "final_y": "518911.398135",
    "longitude": "-89.98521136007362",
    "latitude": "29.9199988776482",
    "geocoded_column": {
      "latitude": "29.9199988776482",
      "longitude": "-89.98521136007362"
    }
  },
  {
    "service_request": "2023-1022582",
    "request_type": "Trash/Recycling",
    "request_reason": "Order Trash Cart",
    "date_created": "2023-08-01T16:24:51.000",
    "date_modified": "2023-08-01T16:24:52.000",
    "request_status": "Pending",
    "responsible_agency": "Department of Sanitation",
    "final_address": "6405 Ivory St Apt A",
    "address_councildis": "C",
    "status": "Assigned to Contractor",
    "contractor": "Richards Disposal",
    "rowid": "1022582",
    "final_x": "3707885.02641",
    "final_y": "518913.481463",
    "longitude": "-89.98522498259227",
    "latitude": "29.9200047464828",
    "geocoded_column": {
      "latitude": "29.9200047464828",
      "longitude": "-89.98522498259227"
    }
  },
  {
    "service_request": "2023-1022581",
    "request_type": "Trash/Recycling",
    "request_reason": "Replace Trash Cart",
    "date_created": "2023-08-01T16:21:40.000",
    "date_modified": "2023-08-01T16:21:50.000",
    "request_status": "Pending",
    "responsible_agency": "Department of Sanitation",
    "final_address": "7604 Lady Gray St",
    "address_councildis": "E",
    "status": "Assigned to Contractor",
    "contractor": "Waste Pro",
    "rowid": "1022581",
    "final_x": "3709999.84094",
    "final_y": "565146.710946",
    "longitude": "-89.97682193172858",
    "latitude": "30.047060186026336",
    "geocoded_column": {
      "latitude": "30.047060186026336",
      "longitude": "-89.97682193172858"
    }
  },
  {
    "service_request": "2023-1022580",
    "request_type": "Trash/Recycling",
    "request_reason": "Return Trash Cart",
    "date_created": "2023-08-01T16:14:31.000",
    "date_modified": "2023-08-01T16:14:31.000",
    "request_status": "Pending",
    "responsible_agency": "Department of Sanitation",
    "final_address": "7740 Shubrick Ave",
    "address_councildis": "E",
    "status": "Assigned to Contractor",
    "contractor": "Waste Pro",
    "rowid": "1022580",
    "final_x": "3706520.37047",
    "final_y": "564039.152033",
    "longitude": "-89.98785994587051",
    "latitude": "30.044127643556447",
    "geocoded_column": {
      "latitude": "30.044127643556447",
      "longitude": "-89.98785994587051"
    }
  },
  {
    "service_request": "2023-1022579",
    "request_type": "Abandoned Vehicles",
    "request_reason": "Abandoned/Junk Vehicles",
    "date_created": "2023-08-01T16:13:58.000",
    "date_modified": "2023-08-01T16:13:58.000",
    "request_status": "Pending",
    "responsible_agency": "Department of Public Works",
    "final_address": "2518 S Liberty St",
    "address_councildis": "B",
    "status": "Pending",
    "rowid": "1022579",
    "final_x": "3675215.28379",
    "final_y": "525009.162045",
    "longitude": "-90.08813863180194",
    "latitude": "29.937782353221593",
    "geocoded_column": {
      "latitude": "29.937782353221593",
      "longitude": "-90.08813863180194"
    }
  },
  {
    "service_request": "2023-1022578",
    "request_type": "Trash/Recycling",
    "request_reason": "Replace Trash Cart",
    "date_created": "2023-08-01T16:12:32.000",
    "date_modified": "2023-08-01T16:12:32.000",
    "request_status": "Pending",
    "responsible_agency": "Department of Sanitation",
    "final_address": "6101 Catina St",
    "address_councildis": "A",
    "status": "Assigned to Contractor",
    "contractor": "IV Waste",
    "rowid": "1022578",
    "final_x": "3666874.24282",
    "final_y": "548081.539218",
    "longitude": "-90.1136967299484",
    "latitude": "30.00147031558306",
    "geocoded_column": {
      "latitude": "30.00147031558306",
      "longitude": "-90.1136967299484"
    }
  },
  {
    "service_request": "2023-1022577",
    "request_type": "Trash/Recycling",
    "request_reason": "Repair Trash Cart",
    "date_created": "2023-08-01T16:10:14.000",
    "date_modified": "2023-08-01T16:10:15.000",
    "request_status": "Pending",
    "responsible_agency": "Department of Sanitation",
    "final_address": "2521 Eads St",
    "address_councildis": "D",
    "status": "Assigned to Contractor",
    "contractor": "IV Waste",
    "rowid": "1022577",
    "final_x": "3687897.2479",
    "final_y": "541957.741324",
    "longitude": "-90.04750031763015",
    "latitude": "29.984000031860795",
    "geocoded_column": {
      "latitude": "29.984000031860795",
      "longitude": "-90.04750031763015"
    }
  },
  {
    "service_request": "2023-1022576",
    "request_type": "Property Maintenance",
    "request_reason": "Property Maintenance",
    "date_created": "2023-08-01T16:09:55.000",
    "date_modified": "2023-08-01T16:09:55.000",
    "request_status": "Pending",
    "responsible_agency": "Department of Code Enforcement",
    "final_address": "4568 Laine Ave",
    "address_councildis": "E",
    "status": "Pending",
    "rowid": "1022576",
    "final_x": "3705738.45931",
    "final_y": "554317.086552",
    "longitude": "-89.99069114680827",
    "latitude": "30.017420989602584",
    "geocoded_column": {
      "latitude": "30.017420989602584",
      "longitude": "-89.99069114680827"
    }
  },
  {
    "service_request": "2023-1022575",
    "request_type": "Trash/Recycling",
    "request_reason": "Request a Large Item Pick Up",
    "date_created": "2023-08-01T16:09:54.000",
    "date_modified": "2023-08-01T16:09:55.000",
    "request_status": "Pending",
    "responsible_agency": "Department of Sanitation",
    "final_address": "4056 Clermont Dr",
    "address_councildis": "D",
    "status": "Assigned to Contractor",
    "contractor": "IV Waste",
    "rowid": "1022575",
    "final_x": "3684819.85653",
    "final_y": "547395.962769",
    "longitude": "-90.05702904519659",
    "latitude": "29.999047800128288",
    "geocoded_column": {
      "latitude": "29.999047800128288",
      "longitude": "-90.05702904519659"
    }
  },
  {
    "service_request": "2023-1022574",
    "request_type": "Trash/Recycling",
    "request_reason": "Replace Trash Cart",
    "date_created": "2023-08-01T16:09:31.000",
    "date_modified": "2023-08-01T16:09:32.000",
    "request_status": "Pending",
    "responsible_agency": "Department of Sanitation",
    "final_address": "3466 Laurel St",
    "address_councildis": "B",
    "status": "Assigned to Contractor",
    "contractor": "Richards Disposal",
    "rowid": "1022574",
    "final_x": "3674809.64865",
    "final_y": "518696.176503",
    "longitude": "-90.08963558315307",
    "latitude": "29.920435801171152",
    "geocoded_column": {
      "latitude": "29.920435801171152",
      "longitude": "-90.08963558315307"
    }
  },
  {
    "service_request": "2023-1022573",
    "request_type": "Trash/Recycling",
    "request_reason": "Missed Trash Pick-Up",
    "date_created": "2023-08-01T16:07:20.000",
    "date_modified": "2023-08-01T16:07:21.000",
    "request_status": "Pending",
    "responsible_agency": "Department of Sanitation",
    "final_address": "1415 Elmira Ave",
    "address_councildis": "C",
    "status": "Assigned to Contractor",
    "contractor": "Richards Disposal",
    "rowid": "1022573",
    "final_x": "3688001.52303",
    "final_y": "526312.47059",
    "longitude": "-90.04772540010323",
    "latitude": "29.94097775352619",
    "geocoded_column": {
      "latitude": "29.94097775352619",
      "longitude": "-90.04772540010323"
    }
  },
  {
    "service_request": "2023-1022572",
    "request_type": "Trash/Recycling",
    "request_reason": "Missed Trash Pick-Up",
    "date_created": "2023-08-01T16:02:57.000",
    "date_modified": "2023-08-01T16:02:57.000",
    "request_status": "Pending",
    "responsible_agency": "Department of Sanitation",
    "final_address": "7631 Berg Rd",
    "address_councildis": "E",
    "status": "Assigned to Contractor",
    "contractor": "Waste Pro",
    "rowid": "1022572",
    "final_x": "3711984.97317",
    "final_y": "566745.603875",
    "longitude": "-89.97048780352027",
    "latitude": "30.0513917251867",
    "geocoded_column": {
      "latitude": "30.0513917251867",
      "longitude": "-89.97048780352027"
    }
  },
  {
    "service_request": "2023-1022571",
    "request_type": "Traffic Signals/Signs/Striping/Streetlights",
    "request_reason": "Street Light Outage/Malfunction",
    "date_created": "2023-08-01T16:02:51.000",
    "date_modified": "2023-08-01T16:02:51.000",
    "request_status": "Pending",
    "responsible_agency": "Department of Public Works",
    "final_address": "4123 Eden St",
    "address_councildis": "B",
    "status": "Assigned to Contractor",
    "contractor": "Legacy Professional Services",
    "rowid": "1022571",
    "final_x": "3670602.5899",
    "final_y": "530277.157889",
    "longitude": "-90.10252266244221",
    "latitude": "29.95240464900401",
    "geocoded_column": {
      "latitude": "29.95240464900401",
      "longitude": "-90.10252266244221"
    }
  },
  {
    "service_request": "2023-1022570",
    "request_type": "Property Maintenance",
    "request_reason": "Property Maintenance",
    "date_created": "2023-08-01T16:01:23.000",
    "date_modified": "2023-08-01T16:01:23.000",
    "request_status": "Pending",
    "responsible_agency": "Department of Code Enforcement",
    "final_address": "LAFITTE ST & N CLAIBORNE AVE",
    "address_councildis": "D",
    "status": "Pending",
    "rowid": "1022570",
    "final_x": "3679542.3",
    "final_y": "534408.58",
    "longitude": "-90.07415179938862",
    "latitude": "29.963497593825874",
    "geocoded_column": {
      "latitude": "29.963497593825874",
      "longitude": "-90.07415179938862"
    }
  },
  {
    "service_request": "2023-1022569",
    "request_type": "Roads/Drainage",
    "request_reason": "Street Subsidence (Sinking)",
    "date_created": "2023-08-01T15:57:19.000",
    "date_modified": "2023-08-01T15:57:58.000",
    "request_status": "Pending",
    "responsible_agency": "Department of Public Works",
    "final_address": "1200 BLK Dublin St",
    "address_councildis": "A",
    "status": "Pending",
    "rowid": "1022569",
    "final_x": "3661820.47586",
    "final_y": "528738.125382",
    "longitude": "-90.13030372142637",
    "latitude": "29.948429267768727",
    "geocoded_column": {
      "latitude": "29.948429267768727",
      "longitude": "-90.13030372142637"
    }
  },
  {
    "service_request": "2023-1022568",
    "request_type": "Roads/Drainage",
    "request_reason": "Pothole",
    "date_created": "2023-08-01T15:56:12.000",
    "date_modified": "2023-08-01T15:56:12.000",
    "request_status": "Pending",
    "responsible_agency": "Department of Public Works",
    "final_address": "1315 Milan St",
    "address_councildis": "B",
    "status": "Pending",
    "rowid": "1022568",
    "final_x": "3671703.18324",
    "final_y": "520260.436728",
    "longitude": "-90.09938808639757",
    "latitude": "29.924829365152263",
    "geocoded_column": {
      "latitude": "29.924829365152263",
      "longitude": "-90.09938808639757"
    }
  },
  {
    "service_request": "2023-1022567",
    "request_type": "Trash/Recycling",
    "request_reason": "Replace Trash Cart",
    "date_created": "2023-08-01T15:53:00.000",
    "date_modified": "2023-08-01T15:53:00.000",
    "request_status": "Pending",
    "responsible_agency": "Department of Sanitation",
    "final_address": "7250 Briarheath Dr, New Orleans, Louisiana, 70128",
    "address_councildis": "E",
    "status": "Assigned to Contractor",
    "contractor": "Waste Pro",
    "rowid": "1022567",
    "final_x": "3714306.89573",
    "final_y": "566268.966947",
    "longitude": "-89.96316705179193",
    "latitude": "30.05000502869795",
    "geocoded_column": {
      "latitude": "30.05000502869795",
      "longitude": "-89.96316705179193"
    }
  },
  {
    "service_request": "2023-1022566",
    "request_type": "Roads/Drainage",
    "request_reason": "Debris in Roadway",
    "date_created": "2023-08-01T15:49:01.000",
    "date_modified": "2023-08-01T15:49:01.000",
    "request_status": "Pending",
    "responsible_agency": "Department of Public Works",
    "final_address": "2020 Calhoun St",
    "address_councildis": "A",
    "status": "Pending",
    "rowid": "1022566",
    "final_x": "3665531.88128",
    "final_y": "524629.439612",
    "longitude": "-90.11872273597085",
    "latitude": "29.93702403476182",
    "geocoded_column": {
      "latitude": "29.93702403476182",
      "longitude": "-90.11872273597085"
    }
  },
  {
    "service_request": "2023-1022565",
    "request_type": "Roads/Drainage",
    "request_reason": "Street Subsidence (Sinking)",
    "date_created": "2023-08-01T15:46:37.000",
    "date_modified": "2023-08-01T15:46:37.000",
    "request_status": "Pending",
    "responsible_agency": "Department of Public Works",
    "final_address": "S LOPEZ ST & FONTAINEBLEAU DR",
    "address_councildis": "A",
    "status": "Pending",
    "rowid": "1022565",
    "final_x": "3669257.0",
    "final_y": "529475.18",
    "longitude": "-90.10679853798263",
    "latitude": "29.950239146714456",
    "geocoded_column": {
      "latitude": "29.950239146714456",
      "longitude": "-90.10679853798263"
    }
  },
  {
    "service_request": "2023-1022564",
    "request_type": "Traffic Signals/Signs/Striping/Streetlights",
    "request_reason": "Street Light Outage/Malfunction",
    "date_created": "2023-08-01T15:43:37.000",
    "date_modified": "2023-08-01T15:43:37.000",
    "request_status": "Pending",
    "responsible_agency": "Department of Public Works",
    "final_address": "100 BLK Chartres St",
    "address_councildis": "C",
    "status": "Assigned to Contractor",
    "contractor": "Legacy Professional Services",
    "rowid": "1022564",
    "final_x": "3681615.32112",
    "final_y": "530643.96934",
    "longitude": "-90.06773673217515",
    "latitude": "29.953083393280075",
    "geocoded_column": {
      "latitude": "29.953083393280075",
      "longitude": "-90.06773673217515"
    }
  },
  {
    "service_request": "2023-1022563",
    "request_type": "Trash/Recycling",
    "request_reason": "Request a Large Item Pick Up",
    "date_created": "2023-08-01T15:42:19.000",
    "date_modified": "2023-08-01T15:42:19.000",
    "request_status": "Pending",
    "responsible_agency": "Department of Sanitation",
    "final_address": "800 N Rendon St",
    "address_councildis": "A",
    "status": "Assigned to Contractor",
    "contractor": "Richards Disposal",
    "rowid": "1022563",
    "final_x": "3675266.9147",
    "final_y": "538565.199561",
    "longitude": "-90.08751030988446",
    "latitude": "29.975055381610208",
    "geocoded_column": {
      "latitude": "29.975055381610208",
      "longitude": "-90.08751030988446"
    }
  },
  {
    "service_request": "2023-1022562",
    "request_type": "Abandoned Vehicles",
    "request_reason": "Abandoned/Junk Vehicles",
    "date_created": "2023-08-01T15:41:56.000",
    "date_modified": "2023-08-01T15:41:56.000",
    "request_status": "Pending",
    "responsible_agency": "Department of Public Works",
    "final_address": "3317 Magnolia St",
    "address_councildis": "B",
    "status": "Pending",
    "rowid": "1022562",
    "final_x": "3672862.22875",
    "final_y": "525328.819773",
    "longitude": "-90.09555652626878",
    "latitude": "29.938731409623806",
    "geocoded_column": {
      "latitude": "29.938731409623806",
      "longitude": "-90.09555652626878"
    }
  },
  {
    "service_request": "2023-1022561",
    "request_type": "Trash/Recycling",
    "request_reason": "Order Trash Cart",
    "date_created": "2023-08-01T15:35:32.000",
    "date_modified": "2023-08-01T15:35:32.000",
    "request_status": "Pending",
    "responsible_agency": "Department of Sanitation",
    "final_address": "825 Dearmas St",
    "address_councildis": "C",
    "status": "Assigned to Contractor",
    "contractor": "Richards Disposal",
    "rowid": "1022561",
    "final_x": "3687955.50191",
    "final_y": "527131.930943",
    "longitude": "-90.047841671711",
    "latitude": "29.94323241101653",
    "geocoded_column": {
      "latitude": "29.94323241101653",
      "longitude": "-90.047841671711"
    }
  },
  {
    "service_request": "2023-1022559",
    "request_type": "Trash/Recycling",
    "request_reason": "Replace Trash Cart",
    "date_created": "2023-08-01T15:35:14.000",
    "date_modified": "2023-08-01T15:35:14.000",
    "request_status": "Pending",
    "responsible_agency": "Department of Sanitation",
    "final_address": "521 N Hennessey St",
    "address_councildis": "A",
    "status": "Assigned to Contractor",
    "contractor": "Richards Disposal",
    "rowid": "1022559",
    "final_x": "3671288.80993",
    "final_y": "540324.223179",
    "longitude": "-90.10001442865405",
    "latitude": "29.980010428770342",
    "geocoded_column": {
      "latitude": "29.980010428770342",
      "longitude": "-90.10001442865405"
    }
  },
  {
    "service_request": "2023-1022560",
    "request_type": "Property Maintenance",
    "request_reason": "Property Maintenance",
    "date_created": "2023-08-01T15:35:14.000",
    "date_modified": "2023-08-01T15:35:14.000",
    "request_status": "Pending",
    "responsible_agency": "Department of Code Enforcement",
    "final_address": "9901 Chef Menteur Hwy",
    "address_councildis": "E",
    "status": "Pending",
    "rowid": "1022560",
    "final_x": "3712157.88626",
    "final_y": "554756.899864",
    "longitude": "-89.97039200370233",
    "latitude": "30.0184219152567",
    "geocoded_column": {
      "latitude": "30.0184219152567",
      "longitude": "-89.97039200370233"
    }
  },
  {
    "service_request": "2023-1022558",
    "request_type": "Traffic Signals/Signs/Striping/Streetlights",
    "request_reason": "Street Name Sign Damaged or Missing",
    "date_created": "2023-08-01T15:35:04.000",
    "date_modified": "2023-08-01T15:35:05.000",
    "request_status": "Pending",
    "responsible_agency": "Department of Public Works",
    "final_address": "MORRISON RD & GANNON RD",
    "address_councildis": "E",
    "status": "Pending",
    "rowid": "1022558",
    "final_x": "3716844.9",
    "final_y": "569274.68",
    "longitude": "-89.9550311752423",
    "latitude": "30.058185809886584",
    "geocoded_column": {
      "latitude": "30.058185809886584",
      "longitude": "-89.9550311752423"
    }
  },
  {
    "service_request": "2023-1022557",
    "request_type": "Trash/Recycling",
    "request_reason": "Illegal Dumping",
    "date_created": "2023-08-01T15:33:46.000",
    "date_modified": "2023-08-01T15:33:46.000",
    "request_status": "Pending",
    "responsible_agency": "Department of Sanitation",
    "final_address": "3800 BLK Mistletoe St",
    "address_councildis": "A",
    "status": "Pending",
    "rowid": "1022557",
    "final_x": "3665441.80983",
    "final_y": "537953.878932",
    "longitude": "-90.11856113099037",
    "latitude": "29.973664525422063",
    "geocoded_column": {
      "latitude": "29.973664525422063",
      "longitude": "-90.11856113099037"
    }
  },
  {
    "service_request": "2023-1022556",
    "request_type": "Trash/Recycling",
    "request_reason": "Replace Trash Cart",
    "date_created": "2023-08-01T15:33:30.000",
    "date_modified": "2023-08-01T15:33:30.000",
    "request_status": "Pending",
    "responsible_agency": "Department of Sanitation",
    "final_address": "529 S Telemachus St",
    "address_councildis": "B",
    "status": "Assigned to Contractor",
    "contractor": "Richards Disposal",
    "rowid": "1022556",
    "final_x": "3671137.9515",
    "final_y": "535931.251399",
    "longitude": "-90.10064016877203",
    "latitude": "29.967935704011474",
    "geocoded_column": {
      "latitude": "29.967935704011474",
      "longitude": "-90.10064016877203"
    }
  },
  {
    "service_request": "2023-1022555",
    "request_type": "Roads/Drainage",
    "request_reason": "Man hole cover issue",
    "date_created": "2023-08-01T15:31:23.000",
    "date_modified": "2023-08-01T15:31:23.000",
    "request_status": "Pending",
    "responsible_agency": "Department of Public Works",
    "final_address": "1300 BLK Esplanade Ave",
    "address_councildis": "C",
    "status": "Pending",
    "rowid": "1022555",
    "final_x": "3681953.09669",
    "final_y": "536003.751927",
    "longitude": "-90.06648307383387",
    "latitude": "29.967810702998598",
    "geocoded_column": {
      "latitude": "29.967810702998598",
      "longitude": "-90.06648307383387"
    }
  },
  {
    "service_request": "2023-1022553",
    "request_type": "Trash/Recycling",
    "request_reason": "Request a Large Item Pick Up",
    "date_created": "2023-08-01T15:25:23.000",
    "date_modified": "2023-08-01T15:25:23.000",
    "request_status": "Pending",
    "responsible_agency": "Department of Sanitation",
    "final_address": "2524 Acacia St",
    "address_councildis": "D",
    "status": "Assigned to Contractor",
    "contractor": "IV Waste",
    "rowid": "1022553",
    "final_x": "3686681.59458",
    "final_y": "546281.9428",
    "longitude": "-90.05118717200003",
    "latitude": "29.995927495472998",
    "geocoded_column": {
      "latitude": "29.995927495472998",
      "longitude": "-90.05118717200003"
    }
  },
  {
    "service_request": "2023-1022552",
    "request_type": "Parks & Parkways",
    "request_reason": "Request Tree Service (Right of Way/Public Property)",
    "date_created": "2023-08-01T15:23:33.000",
    "date_modified": "2023-08-01T15:23:34.000",
    "request_status": "Pending",
    "responsible_agency": "Department of Parks & Parkway",
    "final_address": "961 Harrison Ave",
    "address_councildis": "A",
    "status": "Pending",
    "rowid": "1022552",
    "final_x": "3670674.40462",
    "final_y": "549237.697107",
    "longitude": "-90.1016523657706",
    "latitude": "30.004537577948202",
    "geocoded_column": {
      "latitude": "30.004537577948202",
      "longitude": "-90.1016523657706"
    }
  },
  {
    "service_request": "2023-1022551",
    "request_type": "Trash/Recycling",
    "request_reason": "Request a Large Item Pick Up",
    "date_created": "2023-08-01T15:23:29.000",
    "date_modified": "2023-08-01T15:23:30.000",
    "request_status": "Pending",
    "responsible_agency": "Department of Sanitation",
    "final_address": "4708 Bonita Dr",
    "address_councildis": "E",
    "status": "Assigned to Contractor",
    "contractor": "Waste Pro",
    "rowid": "1022551",
    "final_x": "3704470.64369",
    "final_y": "555042.767897",
    "longitude": "-89.99467011904031",
    "latitude": "30.019457120811442",
    "geocoded_column": {
      "latitude": "30.019457120811442",
      "longitude": "-89.99467011904031"
    }
  },
  {
    "service_request": "2023-1022550",
    "request_type": "Trash/Recycling",
    "request_reason": "Request a Large Item Pick Up",
    "date_created": "2023-08-01T15:22:25.000",
    "date_modified": "2023-08-01T15:22:26.000",
    "request_status": "Pending",
    "responsible_agency": "Department of Sanitation",
    "final_address": "5317 Douglass St",
    "address_councildis": "E",
    "status": "Assigned to Contractor",
    "contractor": "Waste Pro",
    "rowid": "1022550",
    "final_x": "3696381.23191",
    "final_y": "531917.787075",
    "longitude": "-90.02106661305902",
    "latitude": "29.956129237803463",
    "geocoded_column": {
      "latitude": "29.956129237803463",
      "longitude": "-90.02106661305902"
    }
  },
  {
    "service_request": "2023-1022549",
    "request_type": "Trash/Recycling",
    "request_reason": "Repair Recycling Cart",
    "date_created": "2023-08-01T15:20:20.000",
    "date_modified": "2023-08-01T15:20:20.000",
    "request_status": "Pending",
    "responsible_agency": "Department of Sanitation",
    "final_address": "3401 Behrman Pl",
    "address_councildis": "C",
    "status": "Pending",
    "rowid": "1022549",
    "final_x": "3697588.23978",
    "final_y": "519017.249015",
    "longitude": "-90.01772302289186",
    "latitude": "29.92061916277215",
    "geocoded_column": {
      "latitude": "29.92061916277215",
      "longitude": "-90.01772302289186"
    }
  },
  {
    "service_request": "2023-1022548",
    "request_type": "Abandoned Vehicles",
    "request_reason": "Abandoned/Junk Vehicles",
    "date_created": "2023-08-01T15:18:52.000",
    "date_modified": "2023-08-01T15:18:52.000",
    "request_status": "Pending",
    "responsible_agency": "Department of Public Works",
    "final_address": "5462 St Claude Ave",
    "address_councildis": "E",
    "status": "Pending",
    "rowid": "1022548",
    "final_x": "3697645.60477",
    "final_y": "533817.825541",
    "longitude": "-90.01700525290389",
    "latitude": "29.961313794757302",
    "geocoded_column": {
      "latitude": "29.961313794757302",
      "longitude": "-90.01700525290389"
    }
  },
  {
    "service_request": "2023-1022547",
    "request_type": "Trash/Recycling",
    "request_reason": "Order Trash Cart",
    "date_created": "2023-08-01T15:17:23.000",
    "date_modified": "2023-08-01T15:17:23.000",
    "request_status": "Pending",
    "responsible_agency": "Department of Sanitation",
    "final_address": "11240 Fernley Dr",
    "address_councildis": "E",
    "status": "Assigned to Contractor",
    "contractor": "Waste Pro",
    "rowid": "1022547",
    "final_x": "3717473.71474",
    "final_y": "559816.092893",
    "longitude": "-89.95340363707427",
    "latitude": "30.032157745247478",
    "geocoded_column": {
      "latitude": "30.032157745247478",
      "longitude": "-89.95340363707427"
    }
  },
  {
    "service_request": "2023-1022546",
    "request_type": "Trash/Recycling",
    "request_reason": "Missed Trash Pick-Up",
    "date_created": "2023-08-01T15:14:57.000",
    "date_modified": "2023-08-01T15:14:57.000",
    "request_status": "Pending",
    "responsible_agency": "Department of Sanitation",
    "final_address": "2217 Jefferson Ave",
    "address_councildis": "B",
    "status": "Assigned to Contractor",
    "contractor": "Richards Disposal",
    "rowid": "1022546",
    "final_x": "3667925.57274",
    "final_y": "523775.560507",
    "longitude": "-90.11119444611904",
    "latitude": "29.934606154926794",
    "geocoded_column": {
      "latitude": "29.934606154926794",
      "longitude": "-90.11119444611904"
    }
  },
  {
    "service_request": "2023-1022545",
    "request_type": "Traffic Signals/Signs/Striping/Streetlights",
    "request_reason": "Traffic Signal Malfunctioning/Damaged",
    "date_created": "2023-08-01T15:13:41.000",
    "date_modified": "2023-08-01T15:13:41.000",
    "request_status": "Pending",
    "responsible_agency": "Department of Public Works",
    "final_address": "5723 Canal Blvd, New Orleans, Louisiana, 70124",
    "address_councildis": "A",
    "status": "Pending",
    "rowid": "1022545",
    "final_x": "3668490.42401",
    "final_y": "545613.681616",
    "longitude": "-90.1086743680221",
    "latitude": "29.99463715930169",
    "geocoded_column": {
      "latitude": "29.99463715930169",
      "longitude": "-90.1086743680221"
    }
  },
  {
    "service_request": "2023-1022544",
    "request_type": "Parks & Parkways",
    "request_reason": "Request Tree Service (Right of Way/Public Property)",
    "date_created": "2023-08-01T15:11:51.000",
    "date_modified": "2023-08-01T15:11:52.000",
    "request_status": "Pending",
    "responsible_agency": "Department of Parks & Parkway",
    "final_address": "5321 Berkley Dr",
    "address_councildis": "C",
    "status": "Pending",
    "rowid": "1022544",
    "final_x": "3703463.73329",
    "final_y": "518120.371702",
    "longitude": "-89.99920991377206",
    "latitude": "29.917966258587068",
    "geocoded_column": {
      "latitude": "29.917966258587068",
      "longitude": "-89.99920991377206"
    }
  },
  {
    "service_request": "2023-1022543",
    "request_type": "Trash/Recycling",
    "request_reason": "Request a Large Item Pick Up",
    "date_created": "2023-08-01T15:09:52.000",
    "date_modified": "2023-08-01T15:09:53.000",
    "request_status": "Pending",
    "responsible_agency": "Department of Sanitation",
    "final_address": "5414 Freret St",
    "address_councildis": "A",
    "status": "Assigned to Contractor",
    "contractor": "Richards Disposal",
    "rowid": "1022543",
    "final_x": "3667726.93799",
    "final_y": "523951.049404",
    "longitude": "-90.11181562795875",
    "latitude": "29.935094517232233",
    "geocoded_column": {
      "latitude": "29.935094517232233",
      "longitude": "-90.11181562795875"
    }
  },
  {
    "service_request": "2023-1022542",
    "request_type": "Trash/Recycling",
    "request_reason": "MIssed Recycling Pick-Up",
    "date_created": "2023-08-01T15:08:19.000",
    "date_modified": "2023-08-01T15:08:20.000",
    "request_status": "Pending",
    "responsible_agency": "Department of Sanitation",
    "final_address": "2615 Orleans Ave",
    "address_councildis": "D",
    "status": "Assigned to Contractor",
    "contractor": "Richards Disposal",
    "rowid": "1022542",
    "final_x": "3677143.9595",
    "final_y": "536815.478024",
    "longitude": "-90.08164247830935",
    "latitude": "29.970187996699345",
    "geocoded_column": {
      "latitude": "29.970187996699345",
      "longitude": "-90.08164247830935"
    }
  },
  {
    "service_request": "2023-1022541",
    "request_type": "Parks & Parkways",
    "request_reason": "Request Tree Service (Right of Way/Public Property)",
    "date_created": "2023-08-01T15:05:48.000",
    "date_modified": "2023-08-01T15:10:15.000",
    "request_status": "Pending",
    "responsible_agency": "Department of Parks & Parkway",
    "final_address": "CHEF MENTEUR HWY & WILSON AVE",
    "address_councildis": "E",
    "status": "Pending",
    "rowid": "1022541",
    "final_x": "3703246.7",
    "final_y": "552425.58",
    "longitude": "-89.99863366607299",
    "latitude": "30.012300115548967",
    "geocoded_column": {
      "latitude": "30.012300115548967",
      "longitude": "-89.99863366607299"
    }
  },
  {
    "service_request": "2023-1022540",
    "request_type": "Property Maintenance",
    "request_reason": "Property Maintenance",
    "date_created": "2023-08-01T14:57:22.000",
    "date_modified": "2023-08-01T14:57:22.000",
    "request_status": "Pending",
    "responsible_agency": "Department of Code Enforcement",
    "final_address": "MANDEVILLE ST & ABUNDANCE ST",
    "address_councildis": "D",
    "status": "Pending",
    "rowid": "1022540",
    "final_x": "3685183.3",
    "final_y": "543731.78",
    "longitude": "-90.05600995708967",
    "latitude": "29.988961471448945",
    "geocoded_column": {
      "latitude": "29.988961471448945",
      "longitude": "-90.05600995708967"
    }
  },
  {
    "service_request": "2023-1022539",
    "request_type": "Parks & Parkways",
    "request_reason": "Request Tree Service (Right of Way/Public Property)",
    "date_created": "2023-08-01T14:56:16.000",
    "date_modified": "2023-08-01T14:56:17.000",
    "request_status": "Pending",
    "responsible_agency": "Department of Parks & Parkway",
    "final_address": "2423 Terpsichore St",
    "address_councildis": "B",
    "status": "Pending",
    "rowid": "1022539",
    "final_x": "3676103.69985",
    "final_y": "527212.439423",
    "longitude": "-90.08525806355014",
    "latitude": "29.943814064443686",
    "geocoded_column": {
      "latitude": "29.943814064443686",
      "longitude": "-90.08525806355014"
    }
  },
  {
    "service_request": "2023-1022538",
    "request_type": "Trash/Recycling",
    "request_reason": "Request a Large Item Pick Up",
    "date_created": "2023-08-01T14:49:12.000",
    "date_modified": "2023-08-01T14:49:13.000",
    "request_status": "Pending",
    "responsible_agency": "Department of Sanitation",
    "final_address": "6654 Pontchartrain Blvd",
    "address_councildis": "A",
    "status": "Assigned to Contractor",
    "contractor": "IV Waste",
    "rowid": "1022538",
    "final_x": "3666259.21908",
    "final_y": "552430.581526",
    "longitude": "-90.11549363245261",
    "latitude": "30.01344665590437",
    "geocoded_column": {
      "latitude": "30.01344665590437",
      "longitude": "-90.11549363245261"
    }
  },
  {
    "service_request": "2023-1022537",
    "request_type": "Trash/Recycling",
    "request_reason": "Missed Trash Pick-Up",
    "date_created": "2023-08-01T14:48:09.000",
    "date_modified": "2023-08-01T14:48:09.000",
    "request_status": "Pending",
    "responsible_agency": "Department of Sanitation",
    "final_address": "4239 S Claiborne Ave",
    "address_councildis": "B",
    "status": "Assigned to Contractor",
    "contractor": "Richards Disposal",
    "rowid": "1022537",
    "final_x": "3670772.67252",
    "final_y": "526027.419902",
    "longitude": "-90.10212980214446",
    "latitude": "29.940714233918392",
    "geocoded_column": {
      "latitude": "29.940714233918392",
      "longitude": "-90.10212980214446"
    }
  },
  {
    "service_request": "2023-1022535",
    "request_type": "Trash/Recycling",
    "request_reason": "Request a Large Item Pick Up",
    "date_created": "2023-08-01T14:38:33.000",
    "date_modified": "2023-08-01T14:38:34.000",
    "request_status": "Pending",
    "responsible_agency": "Department of Sanitation",
    "final_address": "716 Congress St",
    "address_councildis": "C",
    "status": "Assigned to Contractor",
    "contractor": "IV Waste",
    "rowid": "1022535",
    "final_x": "3690352.57321",
    "final_y": "534232.948549",
    "longitude": "-90.04002048838528",
    "latitude": "29.96268359316891",
    "geocoded_column": {
      "latitude": "29.96268359316891",
      "longitude": "-90.04002048838528"
    }
  },
  {
    "service_request": "2023-1022534",
    "request_type": "Trash/Recycling",
    "request_reason": "Request a Large Item Pick Up",
    "date_created": "2023-08-01T14:28:01.000",
    "date_modified": "2023-08-01T14:28:01.000",
    "request_status": "Pending",
    "responsible_agency": "Department of Sanitation",
    "final_address": "5532 S Johnson St",
    "address_councildis": "A",
    "status": "Assigned to Contractor",
    "contractor": "Richards Disposal",
    "rowid": "1022534",
    "final_x": "3667974.27015",
    "final_y": "527049.952318",
    "longitude": "-90.1109304298455",
    "latitude": "29.94360825045984",
    "geocoded_column": {
      "latitude": "29.94360825045984",
      "longitude": "-90.1109304298455"
    }
  },
  {
    "service_request": "2023-1022533",
    "request_type": "Trash/Recycling",
    "request_reason": "Missed Trash Pick-Up",
    "date_created": "2023-08-01T14:25:51.000",
    "date_modified": "2023-08-01T14:25:52.000",
    "request_status": "Pending",
    "responsible_agency": "Department of Sanitation",
    "final_address": "4800 Eastview Dr",
    "address_councildis": "E",
    "status": "Assigned to Contractor",
    "contractor": "Waste Pro",
    "rowid": "1022533",
    "final_x": "3705016.74436",
    "final_y": "555688.461081",
    "longitude": "-89.99292077174705",
    "latitude": "30.021214973934423",
    "geocoded_column": {
      "latitude": "30.021214973934423",
      "longitude": "-89.99292077174705"
    }
  },
  {
    "service_request": "2023-1022532",
    "request_type": "Property Maintenance",
    "request_reason": "Property Maintenance",
    "date_created": "2023-08-01T14:19:02.000",
    "date_modified": "2023-08-01T14:19:03.000",
    "request_status": "Pending",
    "responsible_agency": "Department of Code Enforcement",
    "final_address": "850 Florida Blvd",
    "address_councildis": "A",
    "status": "Pending",
    "rowid": "1022532",
    "final_x": "3669253.43713",
    "final_y": "545170.289295",
    "longitude": "-90.10627909378437",
    "latitude": "29.9933955376943",
    "geocoded_column": {
      "latitude": "29.9933955376943",
      "longitude": "-90.10627909378437"
    }
  },
  {
    "service_request": "2023-1022530",
    "request_type": "Trash/Recycling",
    "request_reason": "Illegal Dumping",
    "date_created": "2023-08-01T14:16:58.000",
    "date_modified": "2023-08-01T14:16:58.000",
    "request_status": "Pending",
    "responsible_agency": "Department of Sanitation",
    "final_address": "850 Florida Blvd",
    "address_councildis": "A",
    "status": "Pending",
    "rowid": "1022530",
    "final_x": "3669253.43713",
    "final_y": "545170.289295",
    "longitude": "-90.10627909378437",
    "latitude": "29.9933955376943",
    "geocoded_column": {
      "latitude": "29.9933955376943",
      "longitude": "-90.10627909378437"
    }
  },
  {
    "service_request": "2023-1022529",
    "request_type": "Trash/Recycling",
    "request_reason": "Replace Trash Cart",
    "date_created": "2023-08-01T14:12:33.000",
    "date_modified": "2023-08-01T14:12:34.000",
    "request_status": "Pending",
    "responsible_agency": "Department of Sanitation",
    "final_address": "8710 Lomond Rd",
    "address_councildis": "E",
    "status": "Assigned to Contractor",
    "contractor": "Waste Pro",
    "rowid": "1022529",
    "final_x": "3704616.93188",
    "final_y": "562445.101791",
    "longitude": "-89.99393450367441",
    "latitude": "30.03980595386917",
    "geocoded_column": {
      "latitude": "30.03980595386917",
      "longitude": "-89.99393450367441"
    }
  },
  {
    "service_request": "2023-1022528",
    "request_type": "Trash/Recycling",
    "request_reason": "Request a Large Item Pick Up",
    "date_created": "2023-08-01T14:09:57.000",
    "date_modified": "2023-08-01T14:09:57.000",
    "request_status": "Pending",
    "responsible_agency": "Department of Sanitation",
    "final_address": "2227 Baronne St",
    "address_councildis": "B",
    "status": "Assigned to Contractor",
    "contractor": "Richards Disposal",
    "rowid": "1022528",
    "final_x": "3676786.18945",
    "final_y": "524378.920124",
    "longitude": "-90.08320086231508",
    "latitude": "29.936002361204412",
    "geocoded_column": {
      "latitude": "29.936002361204412",
      "longitude": "-90.08320086231508"
    }
  },
  {
    "service_request": "2023-1022527",
    "request_type": "Parks & Parkways",
    "request_reason": "Request Tree Service (Right of Way/Public Property)",
    "date_created": "2023-08-01T14:08:27.000",
    "date_modified": "2023-08-01T14:08:27.000",
    "request_status": "Pending",
    "responsible_agency": "Department of Parks & Parkway",
    "final_address": "131 N Alexander St",
    "address_councildis": "A",
    "status": "Pending",
    "rowid": "1022527",
    "final_x": "3670161.43854",
    "final_y": "539467.030922",
    "longitude": "-90.10360420170272",
    "latitude": "29.9776867578249",
    "geocoded_column": {
      "latitude": "29.9776867578249",
      "longitude": "-90.10360420170272"
    }
  },
  {
    "service_request": "2023-1022526",
    "request_type": "Trash/Recycling",
    "request_reason": "Illegal Dumping",
    "date_created": "2023-08-01T14:08:14.000",
    "date_modified": "2023-08-01T14:09:57.000",
    "case_close_date": "2023-08-01T09:09:57.000",
    "request_status": "Closed",
    "responsible_agency": "Department of Sanitation",
    "final_address": "ALMONASTER AV OVERPASS & I 510 N EXIT & ALMONASTER EXIT",
    "address_councildis": "E",
    "status": "Resolved",
    "rowid": "1022526",
    "final_x": "3722773.01",
    "final_y": "554556.52",
    "longitude": "-89.93686029915811",
    "latitude": "30.01751950166328",
    "geocoded_column": {
      "latitude": "30.01751950166328",
      "longitude": "-89.93686029915811"
    }
  },
  {
    "service_request": "2023-1022524",
    "request_type": "Property Maintenance",
    "request_reason": "Property Maintenance",
    "date_created": "2023-08-01T14:00:27.000",
    "date_modified": "2023-08-01T14:01:36.000",
    "request_status": "Pending",
    "responsible_agency": "Department of Code Enforcement",
    "final_address": "4701 Werner Dr",
    "address_councildis": "E",
    "status": "Pending",
    "rowid": "1022524",
    "final_x": "3704882.21431",
    "final_y": "555025.115801",
    "longitude": "-89.99337035642742",
    "latitude": "30.01939535688732",
    "geocoded_column": {
      "latitude": "30.01939535688732",
      "longitude": "-89.99337035642742"
    }
  },
  {
    "service_request": "2023-1022523",
    "request_type": "Trash/Recycling",
    "request_reason": "Return Recycling Cart",
    "date_created": "2023-08-01T13:59:41.000",
    "date_modified": "2023-08-01T13:59:42.000",
    "request_status": "Pending",
    "responsible_agency": "Department of Sanitation",
    "final_address": "5710 Laurel St",
    "address_councildis": "A",
    "status": "Pending",
    "rowid": "1022523",
    "final_x": "3665485.07034",
    "final_y": "517925.522294",
    "longitude": "-90.1190948017094",
    "latitude": "29.918591742739753",
    "geocoded_column": {
      "latitude": "29.918591742739753",
      "longitude": "-90.1190948017094"
    }
  },
  {
    "service_request": "2023-1022521",
    "request_type": "Trash/Recycling",
    "request_reason": "Replace Trash Cart",
    "date_created": "2023-08-01T13:56:12.000",
    "date_modified": "2023-08-01T13:56:12.000",
    "request_status": "Pending",
    "responsible_agency": "Department of Sanitation",
    "final_address": "6590 Coveview Ct",
    "address_councildis": "E",
    "status": "Assigned to Contractor",
    "contractor": "Waste Pro",
    "rowid": "1022521",
    "final_x": "3698996.56253",
    "final_y": "555670.157145",
    "longitude": "-90.01194341511936",
    "latitude": "30.02135691244433",
    "geocoded_column": {
      "latitude": "30.02135691244433",
      "longitude": "-90.01194341511936"
    }
  },
  {
    "service_request": "2023-1022520",
    "request_type": "Trash/Recycling",
    "request_reason": "Illegal Dumping",
    "date_created": "2023-08-01T13:54:07.000",
    "date_modified": "2023-08-01T13:55:02.000",
    "case_close_date": "2023-08-01T08:55:02.000",
    "request_status": "Closed",
    "responsible_agency": "Department of Sanitation",
    "final_address": "VESPASIAN ST & WESTBEND PKWY",
    "address_councildis": "C",
    "status": "Resolved",
    "rowid": "1022520",
    "final_x": "3696802.3",
    "final_y": "522590.98",
    "longitude": "-90.02007456922048",
    "latitude": "29.930470493482165",
    "geocoded_column": {
      "latitude": "29.930470493482165",
      "longitude": "-90.02007456922048"
    }
  },
  {
    "service_request": "2023-1022518",
    "request_type": "Traffic Signals/Signs/Striping/Streetlights",
    "request_reason": "Street Light Outage/Malfunction",
    "date_created": "2023-08-01T13:52:13.000",
    "date_modified": "2023-08-01T13:52:13.000",
    "request_status": "Pending",
    "responsible_agency": "Department of Public Works",
    "final_address": "5148 Baccich St",
    "address_councildis": "D",
    "status": "Assigned to Contractor",
    "contractor": "Legacy Professional Services",
    "rowid": "1022518",
    "final_x": "3687571.07119",
    "final_y": "552063.911894",
    "longitude": "-90.04817253868623",
    "latitude": "30.01179841059844",
    "geocoded_column": {
      "latitude": "30.01179841059844",
      "longitude": "-90.04817253868623"
    }
  },
  {
    "service_request": "2023-1022517",
    "request_type": "Trash/Recycling",
    "request_reason": "Illegal Dumping",
    "date_created": "2023-08-01T13:51:48.000",
    "date_modified": "2023-08-01T13:52:47.000",
    "case_close_date": "2023-08-01T08:52:47.000",
    "request_status": "Closed",
    "responsible_agency": "Department of Sanitation",
    "final_address": "REYNES ST & RANSOM ST",
    "address_councildis": "E",
    "status": "Resolved",
    "rowid": "1022517",
    "final_x": "3699331.0",
    "final_y": "553051.18",
    "longitude": "-90.01098219108034",
    "latitude": "30.01414511121033",
    "geocoded_column": {
      "latitude": "30.01414511121033",
      "longitude": "-90.01098219108034"
    }
  },
  {
    "service_request": "2023-1022516",
    "request_type": "Parks & Parkways",
    "request_reason": "Request Tree Service (Right of Way/Public Property)",
    "date_created": "2023-08-01T13:49:57.000",
    "date_modified": "2023-08-01T13:49:57.000",
    "request_status": "Pending",
    "responsible_agency": "Department of Parks & Parkway",
    "final_address": "133 N Alexander St",
    "address_councildis": "A",
    "status": "Pending",
    "rowid": "1022516",
    "final_x": "3670169.14356",
    "final_y": "539477.537802",
    "longitude": "-90.10357951040159",
    "latitude": "29.977715420814345",
    "geocoded_column": {
      "latitude": "29.977715420814345",
      "longitude": "-90.10357951040159"
    }
  },
  {
    "service_request": "2023-1022515",
    "request_type": "Trash/Recycling",
    "request_reason": "Return Trash Cart",
    "date_created": "2023-08-01T13:43:42.000",
    "date_modified": "2023-08-01T13:43:42.000",
    "request_status": "Pending",
    "responsible_agency": "Department of Sanitation",
    "final_address": "1327 Esplanade Ave",
    "address_councildis": "C",
    "status": "Assigned to Contractor",
    "contractor": "IV Waste",
    "rowid": "1022515",
    "final_x": "3682006.594",
    "final_y": "536079.828679",
    "longitude": "-90.0663114712774",
    "latitude": "29.968018261421562",
    "geocoded_column": {
      "latitude": "29.968018261421562",
      "longitude": "-90.0663114712774"
    }
  },
  {
    "service_request": "2023-1022514",
    "request_type": "Property Maintenance",
    "request_reason": "Property Maintenance",
    "date_created": "2023-08-01T13:43:39.000",
    "date_modified": "2023-08-01T13:43:39.000",
    "request_status": "Pending",
    "responsible_agency": "Department of Code Enforcement",
    "final_address": "2600 BLK Allen St",
    "address_councildis": "D",
    "status": "Pending",
    "rowid": "1022514",
    "final_x": "3682319.2413",
    "final_y": "541833.331803",
    "longitude": "-90.06512301872134",
    "latitude": "29.983828884461918",
    "geocoded_column": {
      "latitude": "29.983828884461918",
      "longitude": "-90.06512301872134"
    }
  },
  {
    "service_request": "2023-1022513",
    "request_type": "Trash/Recycling",
    "request_reason": "MIssed Recycling Pick-Up",
    "date_created": "2023-08-01T13:41:55.000",
    "date_modified": "2023-08-01T13:41:56.000",
    "request_status": "Pending",
    "responsible_agency": "Department of Sanitation",
    "final_address": "4500 Cerise Ave",
    "address_councildis": "E",
    "status": "Assigned to Contractor",
    "contractor": "Waste Pro",
    "rowid": "1022513",
    "final_x": "3708693.1516",
    "final_y": "554115.44732",
    "longitude": "-89.98136310307707",
    "latitude": "30.01677103210524",
    "geocoded_column": {
      "latitude": "30.01677103210524",
      "longitude": "-89.98136310307707"
    }
  },
  {
    "service_request": "2023-1022512",
    "request_type": "Abandoned Vehicles",
    "request_reason": "Abandoned/Junk Vehicles",
    "date_created": "2023-08-01T13:41:08.000",
    "date_modified": "2023-08-01T13:41:08.000",
    "request_status": "Pending",
    "responsible_agency": "Department of Public Works",
    "final_address": "8015 Lady Gray St",
    "address_councildis": "E",
    "status": "Inspected",
    "rowid": "1022512",
    "final_x": "3709210.75838",
    "final_y": "566611.687395",
    "longitude": "-89.97926111976932",
    "latitude": "30.051113943574737",
    "geocoded_column": {
      "latitude": "30.051113943574737",
      "longitude": "-89.97926111976932"
    }
  },
  {
    "service_request": "2023-1022511",
    "request_type": "Abandoned Vehicles",
    "request_reason": "Abandoned/Junk Vehicles",
    "date_created": "2023-08-01T13:37:30.000",
    "date_modified": "2023-08-01T13:37:30.000",
    "request_status": "Pending",
    "responsible_agency": "Department of Public Works",
    "final_address": "5119 Painters St",
    "address_councildis": "D",
    "status": "Pending",
    "rowid": "1022511",
    "final_x": "3686200.5981",
    "final_y": "551690.908245",
    "longitude": "-90.0525156057781",
    "latitude": "30.010814980641474",
    "geocoded_column": {
      "latitude": "30.010814980641474",
      "longitude": "-90.0525156057781"
    }
  },
  {
    "service_request": "2023-1022510",
    "request_type": "Trash/Recycling",
    "request_reason": "Request a Large Item Pick Up",
    "date_created": "2023-08-01T13:36:50.000",
    "date_modified": "2023-08-01T13:36:51.000",
    "request_status": "Pending",
    "responsible_agency": "Department of Sanitation",
    "final_address": "7709 Green St",
    "address_councildis": "A",
    "status": "Assigned to Contractor",
    "contractor": "Richards Disposal",
    "rowid": "1022510",
    "final_x": "3664184.98394",
    "final_y": "528781.347712",
    "longitude": "-90.12283650999898",
    "latitude": "29.948479642303386",
    "geocoded_column": {
      "latitude": "29.948479642303386",
      "longitude": "-90.12283650999898"
    }
  },
  {
    "service_request": "2023-1022509",
    "request_type": "Trash/Recycling",
    "request_reason": "Request a Large Item Pick Up",
    "date_created": "2023-08-01T13:35:29.000",
    "date_modified": "2023-08-01T13:35:29.000",
    "request_status": "Pending",
    "responsible_agency": "Department of Sanitation",
    "final_address": "1944 Jackson Ave",
    "address_councildis": "B",
    "status": "Assigned to Contractor",
    "contractor": "Richards Disposal",
    "rowid": "1022509",
    "final_x": "3676557.41205",
    "final_y": "525004.609085",
    "longitude": "-90.08390157949533",
    "latitude": "29.937729661835885",
    "geocoded_column": {
      "latitude": "29.937729661835885",
      "longitude": "-90.08390157949533"
    }
  },
  {
    "service_request": "2023-1022508",
    "request_type": "Parks & Parkways",
    "request_reason": "Request Grass Cutting Service (City Owned Property)",
    "date_created": "2023-08-01T13:32:58.000",
    "date_modified": "2023-08-01T13:32:59.000",
    "request_status": "Pending",
    "responsible_agency": "Department of Parks & Parkway",
    "final_address": "4401 St Roch Ave",
    "address_councildis": "D",
    "status": "Pending",
    "rowid": "1022508",
    "final_x": "3685536.98601",
    "final_y": "548927.187923",
    "longitude": "-90.0547096471598",
    "latitude": "30.00323613364496",
    "geocoded_column": {
      "latitude": "30.00323613364496",
      "longitude": "-90.0547096471598"
    }
  },
  {
    "service_request": "2023-1022507",
    "request_type": "Trash/Recycling",
    "request_reason": "Missed Trash Pick-Up",
    "date_created": "2023-08-01T13:32:31.000",
    "date_modified": "2023-08-01T13:32:32.000",
    "request_status": "Pending",
    "responsible_agency": "Department of Sanitation",
    "final_address": "622 Seguin St",
    "address_councildis": "C",
    "status": "Assigned to Contractor",
    "contractor": "Richards Disposal",
    "rowid": "1022507",
    "final_x": "3686828.55414",
    "final_y": "529548.859329",
    "longitude": "-90.05131434400475",
    "latitude": "29.949912857667282",
    "geocoded_column": {
      "latitude": "29.949912857667282",
      "longitude": "-90.05131434400475"
    }
  },
  {
    "service_request": "2023-1022506",
    "request_type": "Trash/Recycling",
    "request_reason": "Order Trash Cart",
    "date_created": "2023-08-01T13:30:21.000",
    "date_modified": "2023-08-01T13:30:21.000",
    "request_status": "Pending",
    "responsible_agency": "Department of Sanitation",
    "final_address": "1309 Flanders St",
    "address_councildis": "C",
    "status": "Assigned to Contractor",
    "contractor": "Richards Disposal",
    "rowid": "1022506",
    "final_x": "3696615.26205",
    "final_y": "526520.894398",
    "longitude": "-90.02052287726099",
    "latitude": "29.941282296810304",
    "geocoded_column": {
      "latitude": "29.941282296810304",
      "longitude": "-90.02052287726099"
    }
  },
  {
    "service_request": "2023-1022505",
    "request_type": "Trash/Recycling",
    "request_reason": "Repair Trash Cart",
    "date_created": "2023-08-01T13:27:54.000",
    "date_modified": "2023-08-01T13:27:54.000",
    "request_status": "Pending",
    "responsible_agency": "Department of Sanitation",
    "final_address": "721 Flood St",
    "address_councildis": "E",
    "status": "Assigned to Contractor",
    "contractor": "Waste Pro",
    "rowid": "1022505",
    "final_x": "3697380.84643",
    "final_y": "532499.95002",
    "longitude": "-90.0178890844462",
    "latitude": "29.95769846429614",
    "geocoded_column": {
      "latitude": "29.95769846429614",
      "longitude": "-90.0178890844462"
    }
  },
  {
    "service_request": "2023-1022504",
    "request_type": "Trash/Recycling",
    "request_reason": "Repair Trash Cart",
    "date_created": "2023-08-01T13:27:36.000",
    "date_modified": "2023-08-01T13:27:37.000",
    "request_status": "Pending",
    "responsible_agency": "Department of Sanitation",
    "final_address": "3831 State Street Dr",
    "address_councildis": "A",
    "status": "Assigned to Contractor",
    "contractor": "Richards Disposal",
    "rowid": "1022504",
    "final_x": "3668157.94701",
    "final_y": "529763.127745",
    "longitude": "-90.11025907549494",
    "latitude": "29.951063211835105",
    "geocoded_column": {
      "latitude": "29.951063211835105",
      "longitude": "-90.11025907549494"
    }
  },
  {
    "service_request": "2023-1022503",
    "request_type": "Trash/Recycling",
    "request_reason": "Repair Trash Cart",
    "date_created": "2023-08-01T13:18:37.000",
    "date_modified": "2023-08-01T13:18:37.000",
    "request_status": "Pending",
    "responsible_agency": "Department of Sanitation",
    "final_address": "5523 S Saratoga St",
    "address_councildis": "A",
    "status": "Assigned to Contractor",
    "contractor": "Richards Disposal",
    "rowid": "1022503",
    "final_x": "3667099.70234",
    "final_y": "522769.430458",
    "longitude": "-90.11383551627426",
    "latitude": "29.931863813202106",
    "geocoded_column": {
      "latitude": "29.931863813202106",
      "longitude": "-90.11383551627426"
    }
  },
  {
    "service_request": "2023-1022502",
    "request_type": "Property Maintenance",
    "request_reason": "Property Maintenance",
    "date_created": "2023-08-01T13:12:03.000",
    "date_modified": "2023-08-01T13:12:03.000",
    "request_status": "Pending",
    "responsible_agency": "Department of Code Enforcement",
    "final_address": "2514 Willow St",
    "address_councildis": "B",
    "status": "Pending",
    "rowid": "1022502",
    "final_x": "3674092.15368",
    "final_y": "526755.155518",
    "longitude": "-90.09162471399719",
    "latitude": "29.942616776373942",
    "geocoded_column": {
      "latitude": "29.942616776373942",
      "longitude": "-90.09162471399719"
    }
  },
  {
    "service_request": "2023-1022500",
    "request_type": "Abandoned Vehicles",
    "request_reason": "Abandoned/Junk Vehicles",
    "date_created": "2023-08-01T13:06:19.000",
    "date_modified": "2023-08-01T13:18:34.000",
    "request_status": "Pending",
    "responsible_agency": "Department of Public Works",
    "final_address": "7404 Pitt St",
    "address_councildis": "A",
    "status": "Pending",
    "rowid": "1022500",
    "final_x": "3661298.64768",
    "final_y": "523372.183355",
    "longitude": "-90.13212897059842",
    "latitude": "29.9336896835083",
    "geocoded_column": {
      "latitude": "29.9336896835083",
      "longitude": "-90.13212897059842"
    }
  },
  {
    "service_request": "2023-1022499",
    "request_type": "Property Maintenance",
    "request_reason": "Property Maintenance",
    "date_created": "2023-08-01T13:02:36.000",
    "date_modified": "2023-08-01T13:02:36.000",
    "request_status": "Pending",
    "responsible_agency": "Department of Code Enforcement",
    "final_address": "6031 Stratford Pl",
    "address_councildis": "C",
    "status": "Pending",
    "rowid": "1022499",
    "final_x": "3706159.43204",
    "final_y": "516117.492212",
    "longitude": "-89.99077521263614",
    "latitude": "29.912372454315825",
    "geocoded_column": {
      "latitude": "29.912372454315825",
      "longitude": "-89.99077521263614"
    }
  },
  {
    "service_request": "2023-1022498",
    "request_type": "Trash/Recycling",
    "request_reason": "Order Trash Cart",
    "date_created": "2023-08-01T13:00:47.000",
    "date_modified": "2023-08-01T13:00:47.000",
    "request_status": "Pending",
    "responsible_agency": "Department of Sanitation",
    "final_address": "2809 Prytania St",
    "address_councildis": "B",
    "status": "Assigned to Contractor",
    "contractor": "Richards Disposal",
    "rowid": "1022498",
    "final_x": "3676056.74702",
    "final_y": "522040.482746",
    "longitude": "-90.08558412209834",
    "latitude": "29.929594283621046",
    "geocoded_column": {
      "latitude": "29.929594283621046",
      "longitude": "-90.08558412209834"
    }
  },
  {
    "service_request": "2023-1022497",
    "request_type": "Trash/Recycling",
    "request_reason": "Order Recycling Cart",
    "date_created": "2023-08-01T12:59:57.000",
    "date_modified": "2023-08-01T12:59:57.000",
    "request_status": "Pending",
    "responsible_agency": "Department of Sanitation",
    "final_address": "4121 Orleans Ave",
    "address_councildis": "A",
    "status": "Pending",
    "rowid": "1022497",
    "final_x": "3672581.77979",
    "final_y": "540340.183243",
    "longitude": "-90.0959301397744",
    "latitude": "29.980015983721113",
    "geocoded_column": {
      "latitude": "29.980015983721113",
      "longitude": "-90.0959301397744"
    }
  },
  {
    "service_request": "2023-1022496",
    "request_type": "Trash/Recycling",
    "request_reason": "Request a Large Item Pick Up",
    "date_created": "2023-08-01T12:59:49.000",
    "date_modified": "2023-08-01T14:59:39.000",
    "case_close_date": "2023-08-01T09:59:39.000",
    "request_status": "Closed",
    "responsible_agency": "Department of Sanitation",
    "final_address": "42 Crane St",
    "address_councildis": "D",
    "status": "Assigned to Contractor",
    "contractor": "IV Waste",
    "contractor_action": "Completed",
    "rowid": "1022496",
    "final_x": "3673229.33729",
    "final_y": "554999.568793",
    "longitude": "-90.0933838485865",
    "latitude": "30.020304915430234",
    "geocoded_column": {
      "latitude": "30.020304915430234",
      "longitude": "-90.0933838485865"
    }
  },
  {
    "service_request": "2023-1022495",
    "request_type": "Trash/Recycling",
    "request_reason": "Request a Large Item Pick Up",
    "date_created": "2023-08-01T12:59:47.000",
    "date_modified": "2023-08-01T12:59:47.000",
    "request_status": "Pending",
    "responsible_agency": "Department of Sanitation",
    "final_address": "1427 Marais St",
    "address_councildis": "C",
    "status": "Assigned to Contractor",
    "contractor": "IV Waste",
    "rowid": "1022495",
    "final_x": "3682294.15464",
    "final_y": "536087.347655",
    "longitude": "-90.06540308247219",
    "latitude": "29.96803018973088",
    "geocoded_column": {
      "latitude": "29.96803018973088",
      "longitude": "-90.06540308247219"
    }
  },
  {
    "service_request": "2023-1022494",
    "request_type": "Roads/Drainage",
    "request_reason": "Pothole",
    "date_created": "2023-08-01T12:58:34.000",
    "date_modified": "2023-08-01T12:58:34.000",
    "request_status": "Pending",
    "responsible_agency": "Department of Public Works",
    "final_address": "1632 Constantinople St",
    "address_councildis": "B",
    "status": "Pending",
    "rowid": "1022494",
    "final_x": "3672200.93537",
    "final_y": "521269.735481",
    "longitude": "-90.09778248928455",
    "latitude": "29.927589864883775",
    "geocoded_column": {
      "latitude": "29.927589864883775",
      "longitude": "-90.09778248928455"
    }
  },
  {
    "service_request": "2023-1022493",
    "request_type": "Trash/Recycling",
    "request_reason": "Request a Large Item Pick Up",
    "date_created": "2023-08-01T12:56:49.000",
    "date_modified": "2023-08-01T12:56:50.000",
    "request_status": "Pending",
    "responsible_agency": "Department of Sanitation",
    "final_address": "6242 Wainwright Dr",
    "address_councildis": "D",
    "status": "Assigned to Contractor",
    "contractor": "IV Waste",
    "rowid": "1022493",
    "final_x": "3681278.50172",
    "final_y": "556146.621786",
    "longitude": "-90.06791095924277",
    "latitude": "30.023216934756977",
    "geocoded_column": {
      "latitude": "30.023216934756977",
      "longitude": "-90.06791095924277"
    }
  },
  {
    "service_request": "2023-1022492",
    "request_type": "Roads/Drainage",
    "request_reason": "Pothole",
    "date_created": "2023-08-01T12:56:26.000",
    "date_modified": "2023-08-01T12:56:26.000",
    "request_status": "Pending",
    "responsible_agency": "Department of Public Works",
    "final_address": "6028 Loyola Ave",
    "address_councildis": "A",
    "status": "Pending",
    "rowid": "1022492",
    "final_x": "3666161.66023",
    "final_y": "523315.940923",
    "longitude": "-90.11677850820664",
    "latitude": "29.933393961034778",
    "geocoded_column": {
      "latitude": "29.933393961034778",
      "longitude": "-90.11677850820664"
    }
  },
  {
    "service_request": "2023-1022491",
    "request_type": "Trash/Recycling",
    "request_reason": "Return Recycling Cart",
    "date_created": "2023-08-01T12:55:43.000",
    "date_modified": "2023-08-01T12:55:43.000",
    "request_status": "Pending",
    "responsible_agency": "Department of Sanitation",
    "final_address": "1418 Dearmas St",
    "address_councildis": "C",
    "status": "Pending",
    "rowid": "1022491",
    "final_x": "3689873.46396",
    "final_y": "527133.411391",
    "longitude": "-90.04178614945064",
    "latitude": "29.943177177392194",
    "geocoded_column": {
      "latitude": "29.943177177392194",
      "longitude": "-90.04178614945064"
    }
  },
  {
    "service_request": "2023-1022490",
    "request_type": "Trash/Recycling",
    "request_reason": "Replace Trash Cart",
    "date_created": "2023-08-01T12:53:36.000",
    "date_modified": "2023-08-01T12:53:36.000",
    "request_status": "Pending",
    "responsible_agency": "Department of Sanitation",
    "final_address": "4505 Patterson St",
    "address_councildis": "C",
    "status": "Assigned to Contractor",
    "contractor": "Richards Disposal",
    "rowid": "1022490",
    "final_x": "3700462.91088",
    "final_y": "525614.158397",
    "longitude": "-90.0084082995761",
    "latitude": "29.938667314876675",
    "geocoded_column": {
      "latitude": "29.938667314876675",
      "longitude": "-90.0084082995761"
    }
  },