[
  {
    "service_request": "2023-1011992",
    "request_type": "Traffic Signals/Signs/Striping/Streetlights",
    "request_reason": "Street Light Outage/Malfunction",
    "date_created": "2023-06-27T01:38:23.000",
    "date_modified": "2023-06-27T01:38:23.000",
    "request_status": "Pending",
    "responsible_agency": "Department of Public Works",
    "final_address": "3850 Red Cypress Dr",
    "address_councildis": "C",
    "status": "Assigned to Contractor",
    "contractor": "Legacy Professional Services",
    "rowid": "1011992",
    "final_x": "3704011.10673",
    "final_y": "512300.505521",
    "longitude": "-89.99769629761947",
    "latitude": "29.901946080681725",
    "geocoded_column": {
      "latitude": "29.901946080681725",
      "longitude": "-89.99769629761947"
    }
  },
  {
    "service_request": "2023-1011991",
    "request_type": "Trash/Recycling",
    "request_reason": "Request a Large Item Pick Up",
    "date_created": "2023-06-27T00:56:47.000",
    "date_modified": "2023-06-27T00:56:48.000",
    "request_status": "Pending",
    "responsible_agency": "Department of Sanitation",
    "final_address": "1807 N Dupre St",
    "address_councildis": "D",
    "status": "Assigned to Contractor",
    "contractor": "IV Waste",
    "rowid": "1011991",
    "final_x": "3679433.1748",
    "final_y": "541876.478604",
    "longitude": "-90.07423726741092",
    "latitude": "29.984035039116502",
    "geocoded_column": {
      "latitude": "29.984035039116502",
      "longitude": "-90.07423726741092"
    }
  },
  {
    "service_request": "2023-1011990",
    "request_type": "Roads/Drainage",
    "request_reason": "Debris in Roadway",
    "date_created": "2023-06-27T00:48:32.000",
    "date_modified": "2023-06-27T00:48:32.000",
    "request_status": "Pending",
    "responsible_agency": "Department of Public Works",
    "final_address": "4213 Chestnut St Apt A",
    "address_councildis": "B",
    "status": "Pending",
    "rowid": "1011990",
    "final_x": "3671600.24295",
    "final_y": "519623.001272",
    "longitude": "-90.09973469849344",
    "latitude": "29.923079668905835",
    "geocoded_column": {
      "latitude": "29.923079668905835",
      "longitude": "-90.09973469849344"
    }
  },
  {
    "service_request": "2023-1011989",
    "request_type": "Traffic Signals/Signs/Striping/Streetlights",
    "request_reason": "Street Name Sign Damaged or Missing",
    "date_created": "2023-06-27T00:14:14.000",
    "date_modified": "2023-06-27T00:14:14.000",
    "request_status": "Pending",
    "responsible_agency": "Department of Public Works",
    "final_address": "1301 Amelia St",
    "address_councildis": "B",
    "status": "Pending",
    "rowid": "1011989",
    "final_x": "3673505.03758",
    "final_y": "519903.41388",
    "longitude": "-90.09371240974926",
    "latitude": "29.923794189193448",
    "geocoded_column": {
      "latitude": "29.923794189193448",
      "longitude": "-90.09371240974926"
    }
  },
  {
    "service_request": "2023-1011988",
    "request_type": "Traffic Signals/Signs/Striping/Streetlights",
    "request_reason": "Street Light Outage/Malfunction",
    "date_created": "2023-06-26T23:04:13.000",
    "date_modified": "2023-06-26T23:04:14.000",
    "request_status": "Pending",
    "responsible_agency": "Department of Public Works",
    "final_address": "7227 Beryl St",
    "address_councildis": "D",
    "status": "Assigned to Contractor",
    "contractor": "Legacy Professional Services",
    "rowid": "1011988",
    "final_x": "3668651.70638",
    "final_y": "555568.976089",
    "longitude": "-90.10782855505282",
    "latitude": "30.022005994650225",
    "geocoded_column": {
      "latitude": "30.022005994650225",
      "longitude": "-90.10782855505282"
    }
  },
  {
    "service_request": "2023-1011987",
    "request_type": "Abandoned Vehicles",
    "request_reason": "Abandoned/Junk Vehicles",
    "date_created": "2023-06-26T22:59:18.000",
    "date_modified": "2023-06-26T22:59:18.000",
    "request_status": "Pending",
    "responsible_agency": "Department of Public Works",
    "final_address": "4601 Chestnut St",
    "address_councildis": "B",
    "status": "Pending",
    "rowid": "1011987",
    "final_x": "3670200.10318",
    "final_y": "519483.024055",
    "longitude": "-90.104159151869",
    "latitude": "29.922736149710044",
    "geocoded_column": {
      "latitude": "29.922736149710044",
      "longitude": "-90.104159151869"
    }
  },
  {
    "service_request": "2023-1011986",
    "request_type": "Property Maintenance",
    "request_reason": "Property Maintenance",
    "date_created": "2023-06-26T22:33:34.000",
    "date_modified": "2023-06-26T22:33:34.000",
    "request_status": "Pending",
    "responsible_agency": "Department of Code Enforcement",
    "final_address": "3324 Octavia St",
    "address_councildis": "A",
    "status": "Pending",
    "rowid": "1011986",
    "final_x": "3668388.43604",
    "final_y": "527935.548095",
    "longitude": "-90.10959293312362",
    "latitude": "29.94603119606775",
    "geocoded_column": {
      "latitude": "29.94603119606775",
      "longitude": "-90.10959293312362"
    }
  },
  {
    "service_request": "2023-1011985",
    "request_type": "Trash/Recycling",
    "request_reason": "Replace Trash Cart",
    "date_created": "2023-06-26T22:09:45.000",
    "date_modified": "2023-06-26T22:09:46.000",
    "request_status": "Pending",
    "responsible_agency": "Department of Sanitation",
    "final_address": "1642 Jo Ann Pl",
    "address_councildis": "C",
    "status": "Assigned to Contractor",
    "contractor": "Richards Disposal",
    "rowid": "1011985",
    "final_x": "3694997.01795",
    "final_y": "525070.082173",
    "longitude": "-90.02568422998213",
    "latitude": "29.937343943956822",
    "geocoded_column": {
      "latitude": "29.937343943956822",
      "longitude": "-90.02568422998213"
    }
  },
  {
    "service_request": "2023-1011984",
    "request_type": "Traffic Signals/Signs/Striping/Streetlights",
    "request_reason": "Street Light Outage/Malfunction",
    "date_created": "2023-06-26T22:09:32.000",
    "date_modified": "2023-06-26T22:09:33.000",
    "request_status": "Pending",
    "responsible_agency": "Department of Public Works",
    "final_address": "IBERVILLE ST & N SOLOMON ST",
    "address_councildis": "A",
    "status": "Assigned to Contractor",
    "contractor": "Legacy Professional Services",
    "rowid": "1011984",
    "final_x": "3670853.0",
    "final_y": "539076.08",
    "longitude": "-90.10143328344286",
    "latitude": "29.97659134938744",
    "geocoded_column": {
      "latitude": "29.97659134938744",
      "longitude": "-90.10143328344286"
    }
  },
  {
    "service_request": "2023-1011983",
    "request_type": "Trash/Recycling",
    "request_reason": "Replace Trash Cart",
    "date_created": "2023-06-26T22:08:19.000",
    "date_modified": "2023-06-26T22:08:19.000",
    "request_status": "Pending",
    "responsible_agency": "Department of Sanitation",
    "final_address": "5 Shepard Ct",
    "address_councildis": "C",
    "status": "Assigned to Contractor",
    "contractor": "Richards Disposal",
    "rowid": "1011983",
    "final_x": "3692494.99747",
    "final_y": "524480.917116",
    "longitude": "-90.03360433903109",
    "latitude": "29.935802216326646",
    "geocoded_column": {
      "latitude": "29.935802216326646",
      "longitude": "-90.03360433903109"
    }
  },
  {
    "service_request": "2023-1011982",
    "request_type": "Trash/Recycling",
    "request_reason": "Replace Trash Cart",
    "date_created": "2023-06-26T22:06:35.000",
    "date_modified": "2023-06-26T22:06:36.000",
    "request_status": "Pending",
    "responsible_agency": "Department of Sanitation",
    "final_address": "1642 Jo Ann Pl",
    "address_councildis": "C",
    "status": "Assigned to Contractor",
    "contractor": "Richards Disposal",
    "rowid": "1011982",
    "final_x": "3694997.01795",
    "final_y": "525070.082173",
    "longitude": "-90.02568422998213",
    "latitude": "29.937343943956822",
    "geocoded_column": {
      "latitude": "29.937343943956822",
      "longitude": "-90.02568422998213"
    }
  },
  {
    "service_request": "2023-1011981",
    "request_type": "Trash/Recycling",
    "request_reason": "Replace Trash Cart",
    "date_created": "2023-06-26T22:05:08.000",
    "date_modified": "2023-06-26T22:05:09.000",
    "request_status": "Pending",
    "responsible_agency": "Department of Sanitation",
    "final_address": "1642 Jo Ann Pl",
    "address_councildis": "C",
    "status": "Assigned to Contractor",
    "contractor": "Richards Disposal",
    "rowid": "1011981",
    "final_x": "3694997.01795",
    "final_y": "525070.082173",
    "longitude": "-90.02568422998213",
    "latitude": "29.937343943956822",
    "geocoded_column": {
      "latitude": "29.937343943956822",
      "longitude": "-90.02568422998213"
    }
  },
  {
    "service_request": "2023-1011980",
    "request_type": "Trash/Recycling",
    "request_reason": "Replace Trash Cart",
    "date_created": "2023-06-26T22:03:35.000",
    "date_modified": "2023-06-26T22:03:36.000",
    "request_status": "Pending",
    "responsible_agency": "Department of Sanitation",
    "final_address": "1642 Jo Ann Pl",
    "address_councildis": "C",
    "status": "Assigned to Contractor",
    "contractor": "Richards Disposal",
    "rowid": "1011980",
    "final_x": "3694997.01795",
    "final_y": "525070.082173",
    "longitude": "-90.02568422998213",
    "latitude": "29.937343943956822",
    "geocoded_column": {
      "latitude": "29.937343943956822",
      "longitude": "-90.02568422998213"
    }
  },
  {
    "service_request": "2023-1011979",
    "request_type": "Trash/Recycling",
    "request_reason": "Replace Trash Cart",
    "date_created": "2023-06-26T21:57:31.000",
    "date_modified": "2023-06-26T21:57:32.000",
    "request_status": "Pending",
    "responsible_agency": "Department of Sanitation",
    "final_address": "1640 Jo Ann Pl",
    "address_councildis": "C",
    "status": "Assigned to Contractor",
    "contractor": "Richards Disposal",
    "rowid": "1011979",
    "final_x": "3694997.01795",
    "final_y": "525087.353725",
    "longitude": "-90.0256836077083",
    "latitude": "29.93739143478769",
    "geocoded_column": {
      "latitude": "29.93739143478769",
      "longitude": "-90.0256836077083"
    }
  },
  {
    "service_request": "2023-1011978",
    "request_type": "Trash/Recycling",
    "request_reason": "Request a Large Item Pick Up",
    "date_created": "2023-06-26T21:52:10.000",
    "date_modified": "2023-06-26T21:52:10.000",
    "request_status": "Pending",
    "responsible_agency": "Department of Sanitation",
    "final_address": "7411 Farwood Dr, New Orleans, Louisiana, 70126",
    "address_councildis": "E",
    "status": "Assigned to Contractor",
    "contractor": "Waste Pro",
    "rowid": "1011978",
    "final_x": "3701538.31805",
    "final_y": "556971.87209",
    "longitude": "-90.00386450006715",
    "latitude": "30.02485528736384",
    "geocoded_column": {
      "latitude": "30.02485528736384",
      "longitude": "-90.00386450006715"
    }
  },
  {
    "service_request": "2023-1011977",
    "request_type": "Trash/Recycling",
    "request_reason": "Replace Trash Cart",
    "date_created": "2023-06-26T21:08:09.000",
    "date_modified": "2023-06-26T21:08:10.000",
    "request_status": "Pending",
    "responsible_agency": "Department of Sanitation",
    "final_address": "7739 Cohn St",
    "address_councildis": "A",
    "status": "Assigned to Contractor",
    "contractor": "Richards Disposal",
    "rowid": "1011977",
    "final_x": "3664514.04007",
    "final_y": "529434.569473",
    "longitude": "-90.12177572987618",
    "latitude": "29.950266228653692",
    "geocoded_column": {
      "latitude": "29.950266228653692",
      "longitude": "-90.12177572987618"
    }
  },
  {
    "service_request": "2023-1011976",
    "request_type": "Traffic Signals/Signs/Striping/Streetlights",
    "request_reason": "Street Light Outage/Malfunction",
    "date_created": "2023-06-26T21:02:29.000",
    "date_modified": "2023-06-26T21:02:30.000",
    "request_status": "Pending",
    "responsible_agency": "Department of Public Works",
    "final_address": "382 Broadway St",
    "address_councildis": "A",
    "status": "Assigned to Contractor",
    "contractor": "Legacy Professional Services",
    "rowid": "1011976",
    "final_x": "3661900.60922",
    "final_y": "523215.277307",
    "longitude": "-90.13023379931575",
    "latitude": "29.93324087581462",
    "geocoded_column": {
      "latitude": "29.93324087581462",
      "longitude": "-90.13023379931575"
    }
  },
  {
    "service_request": "2023-1011975",
    "request_type": "Property Maintenance",
    "request_reason": "Property Maintenance",
    "date_created": "2023-06-26T21:00:15.000",
    "date_modified": "2023-06-26T21:00:15.000",
    "request_status": "Pending",
    "responsible_agency": "Department of Code Enforcement",
    "final_address": "2007 Jourdan Ave",
    "address_councildis": "E",
    "status": "Pending",
    "rowid": "1011975",
    "final_x": "3696048.27158",
    "final_y": "537916.549065",
    "longitude": "-90.0219011887426",
    "latitude": "29.972634184960018",
    "geocoded_column": {
      "latitude": "29.972634184960018",
      "longitude": "-90.0219011887426"
    }
  },
  {
    "service_request": "2023-1011974",
    "request_type": "Property Maintenance",
    "request_reason": "Property Maintenance",
    "date_created": "2023-06-26T20:58:38.000",
    "date_modified": "2023-06-26T20:58:38.000",
    "request_status": "Pending",
    "responsible_agency": "Department of Code Enforcement",
    "final_address": "2005 Jourdan Ave",
    "address_councildis": "E",
    "status": "Pending",
    "rowid": "1011974",
    "final_x": "3696045.98186",
    "final_y": "537906.796937",
    "longitude": "-90.02190877255474",
    "latitude": "29.972607442158598",
    "geocoded_column": {
      "latitude": "29.972607442158598",
      "longitude": "-90.02190877255474"
    }
  },
  {
    "service_request": "2023-1011973",
    "request_type": "Property Maintenance",
    "request_reason": "Property Maintenance",
    "date_created": "2023-06-26T20:50:00.000",
    "date_modified": "2023-06-26T20:50:00.000",
    "request_status": "Pending",
    "responsible_agency": "Department of Code Enforcement",
    "final_address": "7117 Marshal Foch St",
    "address_councildis": "A",
    "status": "Pending",
    "rowid": "1011973",
    "final_x": "3670557.12961",
    "final_y": "554285.236184",
    "longitude": "-90.1018514810944",
    "latitude": "30.01841999523169",
    "geocoded_column": {
      "latitude": "30.01841999523169",
      "longitude": "-90.1018514810944"
    }
  },
  {
    "service_request": "2023-1011972",
    "request_type": "Traffic Signals/Signs/Striping/Streetlights",
    "request_reason": "Street Light Outage/Malfunction",
    "date_created": "2023-06-26T20:44:15.000",
    "date_modified": "2023-06-26T20:44:15.000",
    "request_status": "Pending",
    "responsible_agency": "Department of Public Works",
    "final_address": "4421 Macarthur Blvd",
    "address_councildis": "C",
    "status": "Assigned to Contractor",
    "contractor": "Legacy Professional Services",
    "rowid": "1011972",
    "final_x": "3700188.73085",
    "final_y": "520196.489976",
    "longitude": "-90.00947152453433",
    "latitude": "29.923779315865673",
    "geocoded_column": {
      "latitude": "29.923779315865673",
      "longitude": "-90.00947152453433"
    }
  },
  {
    "service_request": "2023-1011971",
    "request_type": "Traffic Signals/Signs/Striping/Streetlights",
    "request_reason": "Street Light Outage/Malfunction",
    "date_created": "2023-06-26T20:34:33.000",
    "date_modified": "2023-06-26T20:34:34.000",
    "request_status": "Pending",
    "responsible_agency": "Department of Public Works",
    "final_address": "6627 Foch Rd",
    "address_councildis": "D",
    "status": "Assigned to Contractor",
    "contractor": "Legacy Professional Services",
    "rowid": "1011971",
    "final_x": "3696951.49853",
    "final_y": "555761.709209",
    "longitude": "-90.01840190020457",
    "latitude": "30.02167333405786",
    "geocoded_column": {
      "latitude": "30.02167333405786",
      "longitude": "-90.01840190020457"
    }
  },
  {
    "service_request": "2023-1011970",
    "request_type": "Abandoned Vehicles",
    "request_reason": "Abandoned/Junk Vehicles",
    "date_created": "2023-06-26T20:17:54.000",
    "date_modified": "2023-06-26T20:17:54.000",
    "request_status": "Pending",
    "responsible_agency": "Department of Public Works",
    "final_address": "CHEF MENTEUR HWY & PARIS RD",
    "address_councildis": "E",
    "status": "Pending",
    "rowid": "1011970",
    "final_x": "3723840.87",
    "final_y": "558755.27",
    "longitude": "-89.93332424266957",
    "latitude": "30.02902853861728",
    "geocoded_column": {
      "latitude": "30.02902853861728",
      "longitude": "-89.93332424266957"
    }
  },
  {
    "service_request": "2023-1011969",
    "request_type": "Abandoned Vehicles",
    "request_reason": "Abandoned/Junk Vehicles",
    "date_created": "2023-06-26T20:12:38.000",
    "date_modified": "2023-06-26T20:12:39.000",
    "request_status": "Pending",
    "responsible_agency": "Department of Public Works",
    "final_address": "3700 BLK Marigny St",
    "address_councildis": "D",
    "status": "Pending",
    "rowid": "1011969",
    "final_x": "3684610.34957",
    "final_y": "546363.754829",
    "longitude": "-90.05772718089561",
    "latitude": "29.99621601337271",
    "geocoded_column": {
      "latitude": "29.99621601337271",
      "longitude": "-90.05772718089561"
    }
  },
  {
    "service_request": "2023-1011968",
    "request_type": "Trash/Recycling",
    "request_reason": "Order Recycling Cart",
    "date_created": "2023-06-26T20:10:18.000",
    "date_modified": "2023-06-26T20:10:18.000",
    "request_status": "Pending",
    "responsible_agency": "Department of Sanitation",
    "final_address": "7546 Briarheath Dr",
    "address_councildis": "E",
    "status": "Pending",
    "rowid": "1011968",
    "final_x": "3715009.49739",
    "final_y": "566762.307619",
    "longitude": "-89.96092773515736",
    "latitude": "30.05133839428181",
    "geocoded_column": {
      "latitude": "30.05133839428181",
      "longitude": "-89.96092773515736"
    }
  },
  {
    "service_request": "2023-1011967",
    "request_type": "Parks & Parkways",
    "request_reason": "Request Tree Service (Right of Way/Public Property)",
    "date_created": "2023-06-26T20:06:04.000",
    "date_modified": "2023-06-26T20:06:04.000",
    "request_status": "Pending",
    "responsible_agency": "Department of Parks & Parkway",
    "final_address": "1024 Cambronne St",
    "address_councildis": "A",
    "status": "Pending",
    "rowid": "1011967",
    "final_x": "3660796.35098",
    "final_y": "528750.413184",
    "longitude": "-90.13353692139019",
    "latitude": "29.94849258109609",
    "geocoded_column": {
      "latitude": "29.94849258109609",
      "longitude": "-90.13353692139019"
    }
  },
  {
    "service_request": "2023-1011966",
    "request_type": "Trash/Recycling",
    "request_reason": "Request a Large Item Pick Up",
    "date_created": "2023-06-26T19:47:19.000",
    "date_modified": "2023-06-26T19:47:19.000",
    "request_status": "Pending",
    "responsible_agency": "Department of Sanitation",
    "final_address": "10706 Hayne Blvd",
    "address_councildis": "E",
    "status": "Assigned to Contractor",
    "contractor": "Waste Pro",
    "rowid": "1011966",
    "final_x": "3708985.97412",
    "final_y": "566598.534243",
    "longitude": "-89.9799720726161",
    "latitude": "30.0510850797045",
    "geocoded_column": {
      "latitude": "30.0510850797045",
      "longitude": "-89.9799720726161"
    }
  },
  {
    "service_request": "2023-1011964",
    "request_type": "Roads/Drainage",
    "request_reason": "Catch Basin - Broken/Damage",
    "date_created": "2023-06-26T19:36:14.000",
    "date_modified": "2023-06-26T19:36:14.000",
    "request_status": "Pending",
    "responsible_agency": "Department of Public Works",
    "final_address": "1623 Charlton Dr",
    "address_councildis": "D",
    "status": "Pending",
    "rowid": "1011964",
    "final_x": "3680343.38914",
    "final_y": "550876.660309",
    "longitude": "-90.07104915377013",
    "latitude": "30.008754815293475",
    "geocoded_column": {
      "latitude": "30.008754815293475",
      "longitude": "-90.07104915377013"
    }
  },
  {
    "service_request": "2023-1011963",
    "request_type": "Trash/Recycling",
    "request_reason": "Start Trash Service",
    "date_created": "2023-06-26T19:32:46.000",
    "date_modified": "2023-06-26T19:32:47.000",
    "request_status": "Pending",
    "responsible_agency": "Department of Sanitation",
    "final_address": "1430 Urania St",
    "address_councildis": "B",
    "status": "Assigned to Contractor",
    "contractor": "Richards Disposal",
    "rowid": "1011963",
    "final_x": "3679124.03253",
    "final_y": "524044.04134",
    "longitude": "-90.07583183965485",
    "latitude": "29.93501121400894",
    "geocoded_column": {
      "latitude": "29.93501121400894",
      "longitude": "-90.07583183965485"
    }
  },
  {
    "service_request": "2023-1011959",
    "request_type": "Trash/Recycling",
    "request_reason": "Request a Large Item Pick Up",
    "date_created": "2023-06-26T19:06:51.000",
    "date_modified": "2023-06-26T19:06:51.000",
    "request_status": "Pending",
    "responsible_agency": "Department of Sanitation",
    "final_address": "128 S Scott St",
    "address_councildis": "A",
    "status": "Assigned to Contractor",
    "contractor": "Richards Disposal",
    "rowid": "1011959",
    "final_x": "3671627.00603",
    "final_y": "537557.52404",
    "longitude": "-90.09904039180304",
    "latitude": "29.972392930638364",
    "geocoded_column": {
      "latitude": "29.972392930638364",
      "longitude": "-90.09904039180304"
    }
  },
  {
    "service_request": "2023-1011958",
    "request_type": "Trash/Recycling",
    "request_reason": "Order Recycling Cart",
    "date_created": "2023-06-26T19:02:34.000",
    "date_modified": "2023-06-26T19:02:34.000",
    "request_status": "Pending",
    "responsible_agency": "Department of Sanitation",
    "final_address": "2529 Palmyra St",
    "address_councildis": "B",
    "status": "Pending",
    "rowid": "1011958",
    "final_x": "3675494.80097",
    "final_y": "534089.912389",
    "longitude": "-90.08694432925597",
    "latitude": "29.9627430455754",
    "geocoded_column": {
      "latitude": "29.9627430455754",
      "longitude": "-90.08694432925597"
    }
  },
  {
    "service_request": "2023-1011957",
    "request_type": "Trash/Recycling",
    "request_reason": "Request a Large Item Pick Up",
    "date_created": "2023-06-26T18:50:28.000",
    "date_modified": "2023-06-26T18:50:28.000",
    "request_status": "Pending",
    "responsible_agency": "Department of Sanitation",
    "final_address": "3014 Louisiana Avenue Prkwy",
    "address_councildis": "B",
    "status": "Assigned to Contractor",
    "contractor": "Richards Disposal",
    "rowid": "1011957",
    "final_x": "3672084.70689",
    "final_y": "526323.937982",
    "longitude": "-90.09797738183488",
    "latitude": "29.94149073253838",
    "geocoded_column": {
      "latitude": "29.94149073253838",
      "longitude": "-90.09797738183488"
    }
  },
  {
    "service_request": "2023-1011956",
    "request_type": "Trash/Recycling",
    "request_reason": "Missed Trash Pick-Up",
    "date_created": "2023-06-26T18:35:43.000",
    "date_modified": "2023-06-26T18:35:44.000",
    "request_status": "Pending",
    "responsible_agency": "Department of Sanitation",
    "final_address": "11211 N Idlewood Ct, New Orleans, Louisiana, 70128",
    "address_councildis": "E",
    "status": "Assigned to Contractor",
    "contractor": "Waste Pro",
    "rowid": "1011956",
    "final_x": "3716025.86207",
    "final_y": "560277.469149",
    "longitude": "-89.9579613954362",
    "latitude": "30.03347420878148",
    "geocoded_column": {
      "latitude": "30.03347420878148",
      "longitude": "-89.9579613954362"
    }
  },
  {
    "service_request": "2023-1011955",
    "request_type": "Trash/Recycling",
    "request_reason": "Request a Large Item Pick Up",
    "date_created": "2023-06-26T18:13:21.000",
    "date_modified": "2023-06-26T18:13:22.000",
    "request_status": "Pending",
    "responsible_agency": "Department of Sanitation",
    "final_address": "3540 Plymouth Pl",
    "address_councildis": "C",
    "status": "Assigned to Contractor",
    "contractor": "Richards Disposal",
    "rowid": "1011955",
    "final_x": "3702833.85188",
    "final_y": "517884.095478",
    "longitude": "-90.00120676054706",
    "latitude": "29.91733673070638",
    "geocoded_column": {
      "latitude": "29.91733673070638",
      "longitude": "-90.00120676054706"
    }
  },
  {
    "service_request": "2023-1011954",
    "request_type": "Trash/Recycling",
    "request_reason": "Request a Large Item Pick Up",
    "date_created": "2023-06-26T18:08:06.000",
    "date_modified": "2023-06-26T18:08:07.000",
    "request_status": "Pending",
    "responsible_agency": "Department of Sanitation",
    "final_address": "931 Sister St",
    "address_councildis": "E",
    "status": "Assigned to Contractor",
    "contractor": "Waste Pro",
    "rowid": "1011954",
    "final_x": "3694566.51888",
    "final_y": "533978.403845",
    "longitude": "-90.02672263593091",
    "latitude": "29.961852230577342",
    "geocoded_column": {
      "latitude": "29.961852230577342",
      "longitude": "-90.02672263593091"
    }
  },
  {
    "service_request": "2023-1011953",
    "request_type": "Traffic Signals/Signs/Striping/Streetlights",
    "request_reason": "Street Light Outage/Malfunction",
    "date_created": "2023-06-26T18:07:41.000",
    "date_modified": "2023-06-26T18:07:41.000",
    "request_status": "Pending",
    "responsible_agency": "Department of Public Works",
    "final_address": "6304 Beauregard Ave",
    "address_councildis": "D",
    "status": "Assigned to Contractor",
    "contractor": "Legacy Professional Services",
    "rowid": "1011953",
    "final_x": "3676206.44437",
    "final_y": "555634.552025",
    "longitude": "-90.08395522256227",
    "latitude": "30.02196197080906",
    "geocoded_column": {
      "latitude": "30.02196197080906",
      "longitude": "-90.08395522256227"
    }
  },
  {
    "service_request": "2023-1011952",
    "request_type": "Trash/Recycling",
    "request_reason": "Request a Large Item Pick Up",
    "date_created": "2023-06-26T18:01:13.000",
    "date_modified": "2023-06-26T18:01:14.000",
    "request_status": "Pending",
    "responsible_agency": "Department of Sanitation",
    "final_address": "2001 Tennessee St",
    "address_councildis": "E",
    "status": "Assigned to Contractor",
    "contractor": "Waste Pro",
    "rowid": "1011952",
    "final_x": "3696683.03882",
    "final_y": "537724.025032",
    "longitude": "-90.01990345847176",
    "latitude": "29.9720848213998",
    "geocoded_column": {
      "latitude": "29.9720848213998",
      "longitude": "-90.01990345847176"
    }
  },
  {
    "service_request": "2023-1011951",
    "request_type": "Traffic Signals/Signs/Striping/Streetlights",
    "request_reason": "Traffic Signal Malfunctioning/Damaged",
    "date_created": "2023-06-26T18:00:37.000",
    "date_modified": "2023-06-26T18:00:37.000",
    "request_status": "Pending",
    "responsible_agency": "Department of Public Works",
    "final_address": "SERE ST & ST BERNARD AVE",
    "address_councildis": "D",
    "status": "Pending",
    "rowid": "1011951",
    "final_x": "3678317.6",
    "final_y": "545392.98",
    "longitude": "-90.0776391407676",
    "latitude": "29.993737847360475",
    "geocoded_column": {
      "latitude": "29.993737847360475",
      "longitude": "-90.0776391407676"
    }
  },
  {
    "service_request": "2023-1011950",
    "request_type": "Trash/Recycling",
    "request_reason": "MIssed Recycling Pick-Up",
    "date_created": "2023-06-26T18:00:23.000",
    "date_modified": "2023-06-26T18:00:24.000",
    "request_status": "Pending",
    "responsible_agency": "Department of Sanitation",
    "final_address": "2034 Evergreen Ave",
    "address_councildis": "C",
    "status": "Assigned to Contractor",
    "contractor": "Richards Disposal",
    "rowid": "1011950",
    "final_x": "3688191.09532",
    "final_y": "524319.756412",
    "longitude": "-90.04719750437253",
    "latitude": "29.935492613753908",
    "geocoded_column": {
      "latitude": "29.935492613753908",
      "longitude": "-90.04719750437253"
    }
  },
  {
    "service_request": "2023-1011949",
    "request_type": "Trash/Recycling",
    "request_reason": "Request a Large Item Pick Up",
    "date_created": "2023-06-26T17:55:08.000",
    "date_modified": "2023-06-26T17:55:08.000",
    "request_status": "Pending",
    "responsible_agency": "Department of Sanitation",
    "final_address": "3425 Cleveland Ave",
    "address_councildis": "B",
    "status": "Assigned to Contractor",
    "contractor": "Richards Disposal",
    "rowid": "1011949",
    "final_x": "3672680.69486",
    "final_y": "536652.150151",
    "longitude": "-90.09574353475398",
    "latitude": "29.96987220688831",
    "geocoded_column": {
      "latitude": "29.96987220688831",
      "longitude": "-90.09574353475398"
    }
  },
  {
    "service_request": "2023-1011948",
    "request_type": "Trash/Recycling",
    "request_reason": "Request a Large Item Pick Up",
    "date_created": "2023-06-26T17:40:54.000",
    "date_modified": "2023-06-26T17:40:55.000",
    "request_status": "Pending",
    "responsible_agency": "Department of Sanitation",
    "final_address": "1220 Park Island Dr",
    "address_councildis": "D",
    "status": "Assigned to Contractor",
    "contractor": "IV Waste",
    "rowid": "1011948",
    "final_x": "3676743.5444",
    "final_y": "547813.499218",
    "longitude": "-90.08252788578244",
    "latitude": "30.000440760175863",
    "geocoded_column": {
      "latitude": "30.000440760175863",
      "longitude": "-90.08252788578244"
    }
  },
  {
    "service_request": "2023-1011947",
    "request_type": "Traffic Signals/Signs/Striping/Streetlights",
    "request_reason": "Additional signage",
    "date_created": "2023-06-26T17:36:55.000",
    "date_modified": "2023-06-26T17:36:55.000",
    "request_status": "Pending",
    "responsible_agency": "Department of Public Works",
    "final_address": "6037 Milne Blvd",
    "address_councildis": "A",
    "status": "Pending",
    "rowid": "1011947",
    "final_x": "3667129.38932",
    "final_y": "547740.333906",
    "longitude": "-90.11290217563912",
    "latitude": "30.000524648956397",
    "geocoded_column": {
      "latitude": "30.000524648956397",
      "longitude": "-90.11290217563912"
    }
  },
  {
    "service_request": "2023-1011946",
    "request_type": "Trash/Recycling",
    "request_reason": "Repair Trash Cart",
    "date_created": "2023-06-26T17:29:16.000",
    "date_modified": "2023-06-26T17:29:17.000",
    "request_status": "Pending",
    "responsible_agency": "Department of Sanitation",
    "final_address": "3118 Hollygrove St",
    "address_councildis": "A",
    "status": "Assigned to Contractor",
    "contractor": "Richards Disposal",
    "rowid": "1011946",
    "final_x": "3664259.89108",
    "final_y": "535673.215495",
    "longitude": "-90.12237002300922",
    "latitude": "29.967427856363646",
    "geocoded_column": {
      "latitude": "29.967427856363646",
      "longitude": "-90.12237002300922"
    }
  },
  {
    "service_request": "2023-1011945",
    "request_type": "Abandoned Vehicles",
    "request_reason": "Abandoned/Junk Vehicles",
    "date_created": "2023-06-26T17:25:15.000",
    "date_modified": "2023-06-26T17:25:15.000",
    "request_status": "Pending",
    "responsible_agency": "Department of Public Works",
    "final_address": "2930 Banks St",
    "address_councildis": "B",
    "status": "Pending",
    "rowid": "1011945",
    "final_x": "3673634.63054",
    "final_y": "534802.977478",
    "longitude": "-90.09279413538277",
    "latitude": "29.964759240743557",
    "geocoded_column": {
      "latitude": "29.964759240743557",
      "longitude": "-90.09279413538277"
    }
  },
  {
    "service_request": "2023-1011944",
    "request_type": "Trash/Recycling",
    "request_reason": "Request a Large Item Pick Up",
    "date_created": "2023-06-26T17:22:54.000",
    "date_modified": "2023-06-26T17:22:54.000",
    "request_status": "Pending",
    "responsible_agency": "Department of Sanitation",
    "final_address": "4738 W Adams Ct",
    "address_councildis": "E",
    "status": "Assigned to Contractor",
    "contractor": "Waste Pro",
    "rowid": "1011944",
    "final_x": "3718460.2949",
    "final_y": "557025.97385",
    "longitude": "-89.95039242961158",
    "latitude": "30.024453332370257",
    "geocoded_column": {
      "latitude": "30.024453332370257",
      "longitude": "-89.95039242961158"
    }
  },
  {
    "service_request": "2023-1011943",
    "request_type": "Property Maintenance",
    "request_reason": "Property Maintenance",
    "date_created": "2023-06-26T17:19:51.000",
    "date_modified": "2023-06-26T17:19:51.000",
    "request_status": "Pending",
    "responsible_agency": "Department of Code Enforcement",
    "final_address": "1720 N Rocheblave St",
    "address_councildis": "D",
    "status": "Pending",
    "rowid": "1011943",
    "final_x": "3680519.186",
    "final_y": "540207.411531",
    "longitude": "-90.07086513953482",
    "latitude": "29.97941282874564",
    "geocoded_column": {
      "latitude": "29.97941282874564",
      "longitude": "-90.07086513953482"
    }
  },
  {
    "service_request": "2023-1011942",
    "request_type": "Property Maintenance",
    "request_reason": "Property Maintenance",
    "date_created": "2023-06-26T17:13:44.000",
    "date_modified": "2023-06-26T17:13:44.000",
    "request_status": "Pending",
    "responsible_agency": "Department of Code Enforcement",
    "final_address": "2220 N Prieur St",
    "address_councildis": "D",
    "status": "Pending",
    "rowid": "1011942",
    "final_x": "3685024.96495",
    "final_y": "539241.423114",
    "longitude": "-90.0566681198015",
    "latitude": "29.976619426606014",
    "geocoded_column": {
      "latitude": "29.976619426606014",
      "longitude": "-90.0566681198015"
    }
  },
  {
    "service_request": "2023-1011941",
    "request_type": "Trash/Recycling",
    "request_reason": "Repair Recycling Cart",
    "date_created": "2023-06-26T17:03:54.000",
    "date_modified": "2023-06-26T17:03:54.000",
    "request_status": "Pending",
    "responsible_agency": "Department of Sanitation",
    "final_address": "1341 Lesseps St",
    "address_councildis": "D",
    "status": "Pending",
    "rowid": "1011941",
    "final_x": "3692995.62339",
    "final_y": "536115.477639",
    "longitude": "-90.0316065867266",
    "latitude": "29.967777591488588",
    "geocoded_column": {
      "latitude": "29.967777591488588",
      "longitude": "-90.0316065867266"
    }
  },
  {
    "service_request": "2023-1011940",
    "request_type": "Health Related Request",
    "request_reason": "Noise Ordinance Complaint",
    "date_created": "2023-06-26T17:03:08.000",
    "date_modified": "2023-06-26T17:03:08.000",
    "request_status": "Pending",
    "responsible_agency": "Health Department",
    "final_address": "900 BLK Saint Charles Ave",
    "address_councildis": "B",
    "status": "Pending",
    "rowid": "1011940",
    "final_x": "3680227.92264",
    "final_y": "527351.790885",
    "longitude": "-90.07223193905851",
    "latitude": "29.944073069655897",
    "geocoded_column": {
      "latitude": "29.944073069655897",
      "longitude": "-90.07223193905851"
    }
  },
  {
    "service_request": "2023-1011939",
    "request_type": "Trash/Recycling",
    "request_reason": "Request a Large Item Pick Up",
    "date_created": "2023-06-26T16:59:27.000",
    "date_modified": "2023-06-26T16:59:28.000",
    "request_status": "Pending",
    "responsible_agency": "Department of Sanitation",
    "final_address": "12 St Claude Ct",
    "address_councildis": "E",
    "status": "Assigned to Contractor",
    "contractor": "Waste Pro",
    "rowid": "1011939",
    "final_x": "3697458.3217",
    "final_y": "533720.603781",
    "longitude": "-90.01760018182156",
    "latitude": "29.9610523839369",
    "geocoded_column": {
      "latitude": "29.9610523839369",
      "longitude": "-90.01760018182156"
    }
  },
  {
    "service_request": "2023-1011938",
    "request_type": "Traffic Signals/Signs/Striping/Streetlights",
    "request_reason": "Traffic Signal Malfunctioning/Damaged",
    "date_created": "2023-06-26T16:56:38.000",
    "date_modified": "2023-06-26T16:56:39.000",
    "request_status": "Pending",
    "responsible_agency": "Department of Public Works",
    "final_address": "S CLAIBORNE AVE & GRAVIER ST & S CLAIBORNE AV OVERPASS",
    "address_councildis": "B",
    "status": "Pending",
    "rowid": "1011938",
    "final_x": "3677541.3",
    "final_y": "531544.08",
    "longitude": "-90.08056964561153",
    "latitude": "29.955681496604203",
    "geocoded_column": {
      "latitude": "29.955681496604203",
      "longitude": "-90.08056964561153"
    }
  },
  {
    "service_request": "2023-1011937",
    "request_type": "Traffic Signals/Signs/Striping/Streetlights",
    "request_reason": "Street Light Outage/Malfunction",
    "date_created": "2023-06-26T16:55:14.000",
    "date_modified": "2023-06-26T16:57:04.000",
    "request_status": "Pending",
    "responsible_agency": "Department of Public Works",
    "final_address": "1401 Caton St",
    "address_councildis": "D",
    "status": "Assigned to Contractor",
    "contractor": "Legacy Professional Services",
    "rowid": "1011937",
    "final_x": "3678107.86914",
    "final_y": "546815.545617",
    "longitude": "-90.07825242855733",
    "latitude": "29.997655719650655",
    "geocoded_column": {
      "latitude": "29.997655719650655",
      "longitude": "-90.07825242855733"
    }
  },
  {
    "service_request": "2023-1011936",
    "request_type": "Abandoned Vehicles",
    "request_reason": "Abandoned/Junk Vehicles",
    "date_created": "2023-06-26T16:55:03.000",
    "date_modified": "2023-06-26T16:55:03.000",
    "request_status": "Pending",
    "responsible_agency": "Department of Public Works",
    "final_address": "903 Spain St",
    "address_councildis": "C",
    "status": "Pending",
    "rowid": "1011936",
    "final_x": "3686213.4598",
    "final_y": "535739.175239",
    "longitude": "-90.05303808556421",
    "latitude": "29.966953004494602",
    "geocoded_column": {
      "latitude": "29.966953004494602",
      "longitude": "-90.05303808556421"
    }
  },
  {
    "service_request": "2023-1011935",
    "request_type": "Trash/Recycling",
    "request_reason": "MIssed Recycling Pick-Up",
    "date_created": "2023-06-26T16:53:41.000",
    "date_modified": "2023-06-26T16:53:41.000",
    "request_status": "Pending",
    "responsible_agency": "Department of Sanitation",
    "final_address": "9554 Stroelitz St",
    "address_councildis": "A",
    "status": "Assigned to Contractor",
    "contractor": "Richards Disposal",
    "rowid": "1011935",
    "final_x": "3663967.11987",
    "final_y": "538532.916233",
    "longitude": "-90.12319922646519",
    "latitude": "29.97529959156627",
    "geocoded_column": {
      "latitude": "29.97529959156627",
      "longitude": "-90.12319922646519"
    }
  },
  {
    "service_request": "2023-1011934",
    "request_type": "Property Maintenance",
    "request_reason": "Property Maintenance",
    "date_created": "2023-06-26T16:52:24.000",
    "date_modified": "2023-06-26T16:52:24.000",
    "request_status": "Pending",
    "responsible_agency": "Department of Code Enforcement",
    "final_address": "3905 N Claiborne Ave",
    "address_councildis": "D",
    "status": "Pending",
    "rowid": "1011934",
    "final_x": "3692040.54461",
    "final_y": "537273.137608",
    "longitude": "-90.03458130289519",
    "latitude": "29.970990546790084",
    "geocoded_column": {
      "latitude": "29.970990546790084",
      "longitude": "-90.03458130289519"
    }
  },
  {
    "service_request": "2023-1011933",
    "request_type": "Trash/Recycling",
    "request_reason": "Request a Large Item Pick Up",
    "date_created": "2023-06-26T16:51:31.000",
    "date_modified": "2023-06-26T16:51:32.000",
    "request_status": "Pending",
    "responsible_agency": "Department of Sanitation",
    "final_address": "5711 Rosemary Pl",
    "address_councildis": "A",
    "status": "Assigned to Contractor",
    "contractor": "IV Waste",
    "rowid": "1011933",
    "final_x": "3667348.96077",
    "final_y": "545681.534416",
    "longitude": "-90.11227784079877",
    "latitude": "29.994857227037343",
    "geocoded_column": {
      "latitude": "29.994857227037343",
      "longitude": "-90.11227784079877"
    }
  },
  {
    "service_request": "2023-1011932",
    "request_type": "Traffic Signals/Signs/Striping/Streetlights",
    "request_reason": "Street Light Outage/Malfunction",
    "date_created": "2023-06-26T16:47:43.000",
    "date_modified": "2023-06-26T16:47:43.000",
    "request_status": "Pending",
    "responsible_agency": "Department of Public Works",
    "final_address": "5423 Seminary Pl",
    "address_councildis": "D",
    "status": "Assigned to Contractor",
    "contractor": "Legacy Professional Services",
    "rowid": "1011932",
    "final_x": "3688754.94915",
    "final_y": "553247.344599",
    "longitude": "-90.04439011996148",
    "latitude": "30.015015850618077",
    "geocoded_column": {
      "latitude": "30.015015850618077",
      "longitude": "-90.04439011996148"
    }
  },
  {
    "service_request": "2023-1011931",
    "request_type": "Trash/Recycling",
    "request_reason": "Repair Recycling Cart",
    "date_created": "2023-06-26T16:46:52.000",
    "date_modified": "2023-06-26T16:46:53.000",
    "request_status": "Pending",
    "responsible_agency": "Department of Sanitation",
    "final_address": "5645 Durham Dr",
    "address_councildis": "C",
    "status": "Pending",
    "rowid": "1011931",
    "final_x": "3704953.95793",
    "final_y": "518747.247479",
    "longitude": "-89.99448300774937",
    "latitude": "29.9196421567047",
    "geocoded_column": {
      "latitude": "29.9196421567047",
      "longitude": "-89.99448300774937"
    }
  },
  {
    "service_request": "2023-1011930",
    "request_type": "Property Maintenance",
    "request_reason": "Property Maintenance",
    "date_created": "2023-06-26T16:46:35.000",
    "date_modified": "2023-06-26T16:46:35.000",
    "request_status": "Pending",
    "responsible_agency": "Department of Code Enforcement",
    "final_address": "5904 Annunciation St",
    "address_councildis": "A",
    "status": "Pending",
    "rowid": "1011930",
    "final_x": "3664847.81332",
    "final_y": "517637.226678",
    "longitude": "-90.12111592177729",
    "latitude": "29.91781757278294",
    "geocoded_column": {
      "latitude": "29.91781757278294",
      "longitude": "-90.12111592177729"
    }
  },
  {
    "service_request": "2023-1011929",
    "request_type": "Trash/Recycling",
    "request_reason": "Request a Large Item Pick Up",
    "date_created": "2023-06-26T16:46:01.000",
    "date_modified": "2023-06-26T16:46:02.000",
    "request_status": "Pending",
    "responsible_agency": "Department of Sanitation",
    "final_address": "2321 Loyola Ave",
    "address_councildis": "B",
    "status": "Assigned to Contractor",
    "contractor": "Richards Disposal",
    "rowid": "1011929",
    "final_x": "3675839.81461",
    "final_y": "525079.171325",
    "longitude": "-90.08616453062989",
    "latitude": "29.937956179474632",
    "geocoded_column": {
      "latitude": "29.937956179474632",
      "longitude": "-90.08616453062989"
    }
  },
  {
    "service_request": "2023-1011928",
    "request_type": "Traffic Signals/Signs/Striping/Streetlights",
    "request_reason": "Traffic Signal Malfunctioning/Damaged",
    "date_created": "2023-06-26T16:45:11.000",
    "date_modified": "2023-06-26T16:45:12.000",
    "request_status": "Pending",
    "responsible_agency": "Department of Public Works",
    "final_address": "GRAVIER ST & S CLAIBORNE AVE & S CLAIBORNE AV OVERPASS",
    "address_councildis": "B",
    "status": "Pending",
    "rowid": "1011928",
    "final_x": "3677409.4",
    "final_y": "531610.08",
    "longitude": "-90.0809838615513",
    "latitude": "29.955866939021757",
    "geocoded_column": {
      "latitude": "29.955866939021757",
      "longitude": "-90.0809838615513"
    }
  },
  {
    "service_request": "2023-1011927",
    "request_type": "Traffic Signals/Signs/Striping/Streetlights",
    "request_reason": "Street Light Outage/Malfunction",
    "date_created": "2023-06-26T16:42:45.000",
    "date_modified": "2023-06-26T16:42:46.000",
    "request_status": "Pending",
    "responsible_agency": "Department of Public Works",
    "final_address": "4600 Eastview Dr",
    "address_councildis": "E",
    "status": "Assigned to Contractor",
    "contractor": "Legacy Professional Services",
    "rowid": "1011927",
    "final_x": "3705113.65822",
    "final_y": "554413.861656",
    "longitude": "-89.99266167504331",
    "latitude": "30.017707199484384",
    "geocoded_column": {
      "latitude": "30.017707199484384",
      "longitude": "-89.99266167504331"
    }
  },
  {
    "service_request": "2023-1011926",
    "request_type": "Trash/Recycling",
    "request_reason": "Repair Trash Cart",
    "date_created": "2023-06-26T16:39:09.000",
    "date_modified": "2023-06-26T16:39:10.000",
    "request_status": "Pending",
    "responsible_agency": "Department of Sanitation",
    "final_address": "8235 Hickory St",
    "address_councildis": "A",
    "status": "Assigned to Contractor",
    "contractor": "Richards Disposal",
    "rowid": "1011926",
    "final_x": "3662949.97389",
    "final_y": "530382.590082",
    "longitude": "-90.1266827305072",
    "latitude": "29.95291836016481",
    "geocoded_column": {
      "latitude": "29.95291836016481",
      "longitude": "-90.1266827305072"
    }
  },
  {
    "service_request": "2023-1011925",
    "request_type": "Roads/Drainage",
    "request_reason": "Pothole",
    "date_created": "2023-06-26T16:30:36.000",
    "date_modified": "2023-06-26T16:30:36.000",
    "request_status": "Pending",
    "responsible_agency": "Department of Public Works",
    "final_address": "6200 BLK Willow St",
    "address_councildis": "A",
    "status": "Pending",
    "rowid": "1011925",
    "final_x": "3666316.11057",
    "final_y": "525965.418657",
    "longitude": "-90.11620206923287",
    "latitude": "29.940674667913406",
    "geocoded_column": {
      "latitude": "29.940674667913406",
      "longitude": "-90.11620206923287"
    }
  },
  {
    "service_request": "2023-1011924",
    "request_type": "Parks & Parkways",
    "request_reason": "Request Tree Service (Right of Way/Public Property)",
    "date_created": "2023-06-26T16:29:05.000",
    "date_modified": "2023-06-26T16:30:07.000",
    "request_status": "Pending",
    "responsible_agency": "Department of Parks & Parkway",
    "final_address": "2520 Napoleon Ave",
    "address_councildis": "B",
    "status": "Pending",
    "rowid": "1011924",
    "final_x": "3670421.06318",
    "final_y": "524212.243964",
    "longitude": "-90.10330141537374",
    "latitude": "29.935733470881406",
    "geocoded_column": {
      "latitude": "29.935733470881406",
      "longitude": "-90.10330141537374"
    }
  },
  {
    "service_request": "2023-1011923",
    "request_type": "Property Maintenance",
    "request_reason": "Property Maintenance",
    "date_created": "2023-06-26T16:28:36.000",
    "date_modified": "2023-06-26T16:28:37.000",
    "request_status": "Pending",
    "responsible_agency": "Department of Code Enforcement",
    "final_address": "5915 Carlisle Ct",
    "address_councildis": "C",
    "status": "Pending",
    "rowid": "1011923",
    "final_x": "3705606.38155",
    "final_y": "516416.502453",
    "longitude": "-89.9925097347289",
    "latitude": "29.91321243577632",
    "geocoded_column": {
      "latitude": "29.91321243577632",
      "longitude": "-89.9925097347289"
    }
  },
  {
    "service_request": "2023-1011922",
    "request_type": "Trash/Recycling",
    "request_reason": "Request a Large Item Pick Up",
    "date_created": "2023-06-26T16:28:31.000",
    "date_modified": "2023-06-26T16:28:31.000",
    "request_status": "Pending",
    "responsible_agency": "Department of Sanitation",
    "final_address": "927 Milan St",
    "address_councildis": "B",
    "status": "Assigned to Contractor",
    "contractor": "Richards Disposal",
    "rowid": "1011922",
    "final_x": "3671817.38779",
    "final_y": "519097.054455",
    "longitude": "-90.09906713774141",
    "latitude": "29.921627052992818",
    "geocoded_column": {
      "latitude": "29.921627052992818",
      "longitude": "-90.09906713774141"
    }
  },
  {
    "service_request": "2023-1011921",
    "request_type": "Trash/Recycling",
    "request_reason": "Order Recycling Cart",
    "date_created": "2023-06-26T16:26:27.000",
    "date_modified": "2023-06-26T16:26:28.000",
    "request_status": "Pending",
    "responsible_agency": "Department of Sanitation",
    "final_address": "1465 Pressburg St",
    "address_councildis": "D",
    "status": "Pending",
    "rowid": "1011921",
    "final_x": "3678008.33102",
    "final_y": "554084.452056",
    "longitude": "-90.07831536527378",
    "latitude": "30.01764561255869",
    "geocoded_column": {
      "latitude": "30.01764561255869",
      "longitude": "-90.07831536527378"
    }
  },
  {
    "service_request": "2023-1011920",
    "request_type": "Trash/Recycling",
    "request_reason": "Order Recycling Cart",
    "date_created": "2023-06-26T16:25:57.000",
    "date_modified": "2023-06-26T16:25:57.000",
    "request_status": "Pending",
    "responsible_agency": "Department of Sanitation",
    "final_address": "2606 S Galvez St",
    "address_councildis": "B",
    "status": "Pending",
    "rowid": "1011920",
    "final_x": "3672719.67118",
    "final_y": "528388.258816",
    "longitude": "-90.0959022863726",
    "latitude": "29.947148099932548",
    "geocoded_column": {
      "latitude": "29.947148099932548",
      "longitude": "-90.0959022863726"
    }
  },
  {
    "service_request": "2023-1011919",
    "request_type": "Abandoned Vehicles",
    "request_reason": "Abandoned/Junk Vehicles",
    "date_created": "2023-06-26T16:22:15.000",
    "date_modified": "2023-06-26T16:24:48.000",
    "request_status": "Pending",
    "responsible_agency": "Department of Public Works",
    "final_address": "444 Common St",
    "address_councildis": "B",
    "status": "Pending",
    "rowid": "1011919",
    "final_x": "3681787.72476",
    "final_y": "529872.271553",
    "longitude": "-90.06721928166316",
    "latitude": "29.950956248100372",
    "geocoded_column": {
      "latitude": "29.950956248100372",
      "longitude": "-90.06721928166316"
    }
  },
  {
    "service_request": "2023-1011918",
    "request_type": "Trash/Recycling",
    "request_reason": "Dead Animal Pick Up",
    "date_created": "2023-06-26T16:22:02.000",
    "date_modified": "2023-06-26T16:22:03.000",
    "request_status": "Pending",
    "responsible_agency": "Department of Sanitation",
    "final_address": "6641 Morrison Rd",
    "address_councildis": "E",
    "status": "Assigned to Contractor",
    "contractor": "Waste Pro",
    "rowid": "1011918",
    "final_x": "3698174.01207",
    "final_y": "558606.440668",
    "longitude": "-90.01443564252658",
    "latitude": "30.029456626398463",
    "geocoded_column": {
      "latitude": "30.029456626398463",
      "longitude": "-90.01443564252658"
    }
  },
  {
    "service_request": "2023-1011917",
    "request_type": "Property Maintenance",
    "request_reason": "Property Maintenance",
    "date_created": "2023-06-26T16:21:49.000",
    "date_modified": "2023-06-26T16:21:49.000",
    "request_status": "Pending",
    "responsible_agency": "Department of Code Enforcement",
    "final_address": "1000 BLK Alabo St",
    "address_councildis": "E",
    "status": "Pending",
    "rowid": "1011917",
    "final_x": "3698845.48908",
    "final_y": "533323.290425",
    "longitude": "-90.0132342439612",
    "latitude": "29.959916043027782",
    "geocoded_column": {
      "latitude": "29.959916043027782",
      "longitude": "-90.0132342439612"
    }
  },
  {
    "service_request": "2023-1011916",
    "request_type": "Trash/Recycling",
    "request_reason": "Illegal Dumping",
    "date_created": "2023-06-26T16:19:12.000",
    "date_modified": "2023-06-26T16:19:12.000",
    "request_status": "Pending",
    "responsible_agency": "Department of Sanitation",
    "final_address": "1000 BLK Alabo St",
    "address_councildis": "E",
    "status": "Pending",
    "rowid": "1011916",
    "final_x": "3698845.48908",
    "final_y": "533323.290425",
    "longitude": "-90.0132342439612",
    "latitude": "29.959916043027782",
    "geocoded_column": {
      "latitude": "29.959916043027782",
      "longitude": "-90.0132342439612"
    }
  },
  {
    "service_request": "2023-1011915",
    "request_type": "Trash/Recycling",
    "request_reason": "Order Trash Cart",
    "date_created": "2023-06-26T16:17:55.000",
    "date_modified": "2023-06-26T16:17:56.000",
    "request_status": "Pending",
    "responsible_agency": "Department of Sanitation",
    "final_address": "5147 Macarthur Blvd",
    "address_councildis": "C",
    "status": "Assigned to Contractor",
    "contractor": "Richards Disposal",
    "rowid": "1011915",
    "final_x": "3703037.99434",
    "final_y": "519871.2622",
    "longitude": "-90.00048944332634",
    "latitude": "29.922794227162672",
    "geocoded_column": {
      "latitude": "29.922794227162672",
      "longitude": "-90.00048944332634"
    }
  },
  {
    "service_request": "2023-1011914",
    "request_type": "Property Maintenance",
    "request_reason": "Property Maintenance",
    "date_created": "2023-06-26T16:16:35.000",
    "date_modified": "2023-06-26T16:16:35.000",
    "request_status": "Pending",
    "responsible_agency": "Department of Code Enforcement",
    "final_address": "923 Nunez St",
    "address_councildis": "C",
    "status": "Pending",
    "rowid": "1011914",
    "final_x": "3686903.88738",
    "final_y": "528062.896063",
    "longitude": "-90.05112898502138",
    "latitude": "29.945824647201132",
    "geocoded_column": {
      "latitude": "29.945824647201132",
      "longitude": "-90.05112898502138"
    }
  },
  {
    "service_request": "2023-1011913",
    "request_type": "Property Maintenance",
    "request_reason": "Property Maintenance",
    "date_created": "2023-06-26T16:16:34.000",
    "date_modified": "2023-06-26T16:16:34.000",
    "request_status": "Pending",
    "responsible_agency": "Department of Code Enforcement",
    "final_address": "5439 Eads St",
    "address_councildis": "D",
    "status": "Pending",
    "rowid": "1011913",
    "final_x": "3686979.73724",
    "final_y": "553245.430935",
    "longitude": "-90.04999899954123",
    "latitude": "30.015065377210814",
    "geocoded_column": {
      "latitude": "30.015065377210814",
      "longitude": "-90.04999899954123"
    }
  },
  {
    "service_request": "2023-1011912",
    "request_type": "Trash/Recycling",
    "request_reason": "Request a Large Item Pick Up",
    "date_created": "2023-06-26T16:16:10.000",
    "date_modified": "2023-06-26T16:16:10.000",
    "request_status": "Pending",
    "responsible_agency": "Department of Sanitation",
    "final_address": "3240 Gentilly Blvd",
    "address_councildis": "D",
    "status": "Assigned to Contractor",
    "contractor": "IV Waste",
    "rowid": "1011912",
    "final_x": "3684493.03714",
    "final_y": "547848.420434",
    "longitude": "-90.05804556410455",
    "latitude": "30.000301901612037",
    "geocoded_column": {
      "latitude": "30.000301901612037",
      "longitude": "-90.05804556410455"
    }
  },
  {
    "service_request": "2023-1011911",
    "request_type": "Trash/Recycling",
    "request_reason": "Replace Trash Cart",
    "date_created": "2023-06-26T16:16:09.000",
    "date_modified": "2023-06-26T16:16:10.000",
    "request_status": "Pending",
    "responsible_agency": "Department of Sanitation",
    "final_address": "7192 E Tamaron Blvd",
    "address_councildis": "E",
    "status": "Assigned to Contractor",
    "contractor": "Waste Pro",
    "rowid": "1011911",
    "final_x": "3718176.38924",
    "final_y": "569398.620518",
    "longitude": "-89.95081780625046",
    "latitude": "30.058482489511718",
    "geocoded_column": {
      "latitude": "30.058482489511718",
      "longitude": "-89.95081780625046"
    }
  },
  {
    "service_request": "2023-1011910",
    "request_type": "Trash/Recycling",
    "request_reason": "Missed Trash Pick-Up",
    "date_created": "2023-06-26T16:12:42.000",
    "date_modified": "2023-06-26T16:12:42.000",
    "request_status": "Pending",
    "responsible_agency": "Department of Sanitation",
    "final_address": "134 N Alexander St",
    "address_councildis": "A",
    "status": "Assigned to Contractor",
    "contractor": "Richards Disposal",
    "rowid": "1011910",
    "final_x": "3670253.93831",
    "final_y": "539432.27457",
    "longitude": "-90.10331323336244",
    "latitude": "29.97758845966334",
    "geocoded_column": {
      "latitude": "29.97758845966334",
      "longitude": "-90.10331323336244"
    }
  },
  {
    "service_request": "2023-1011909",
    "request_type": "Abandoned Vehicles",
    "request_reason": "Abandoned/Junk Vehicles",
    "date_created": "2023-06-26T16:11:55.000",
    "date_modified": "2023-06-26T16:11:55.000",
    "request_status": "Pending",
    "responsible_agency": "Department of Public Works",
    "final_address": "5600 BLK S Robertson St",
    "address_councildis": "A",
    "status": "Pending",
    "rowid": "1011909",
    "final_x": "3667041.35551",
    "final_y": "524528.522909",
    "longitude": "-90.11396061516822",
    "latitude": "29.936702463172825",
    "geocoded_column": {
      "latitude": "29.936702463172825",
      "longitude": "-90.11396061516822"
    }
  },
  {
    "service_request": "2023-1011908",
    "request_type": "Trash/Recycling",
    "request_reason": "Request a Large Item Pick Up",
    "date_created": "2023-06-26T16:07:33.000",
    "date_modified": "2023-06-26T16:07:33.000",
    "request_status": "Pending",
    "responsible_agency": "Department of Sanitation",
    "final_address": "7541 Pineridge st New Orleans La 70128",
    "address_councildis": "E",
    "status": "Assigned to Contractor",
    "contractor": "Waste Pro",
    "rowid": "1011908",
    "final_x": "3719328.38207",
    "final_y": "571740.584744",
    "longitude": "-89.94708695820057",
    "latitude": "30.064883644627454",
    "geocoded_column": {
      "latitude": "30.064883644627454",
      "longitude": "-89.94708695820057"
    }
  },
  {
    "service_request": "2023-1011907",
    "request_type": "Trash/Recycling",
    "request_reason": "Order Recycling Cart",
    "date_created": "2023-06-26T16:06:32.000",
    "date_modified": "2023-06-26T16:06:33.000",
    "request_status": "Pending",
    "responsible_agency": "Department of Sanitation",
    "final_address": "621 Broadway St Apt A",
    "address_councildis": "A",
    "status": "Pending",
    "rowid": "1011907",
    "final_x": "3663154.01709",
    "final_y": "524830.9159",
    "longitude": "-90.12622312016731",
    "latitude": "29.93764712408867",
    "geocoded_column": {
      "latitude": "29.93764712408867",
      "longitude": "-90.12622312016731"
    }
  },
  {
    "service_request": "2023-1011906",
    "request_type": "Trash/Recycling",
    "request_reason": "Order Trash Cart",
    "date_created": "2023-06-26T16:05:52.000",
    "date_modified": "2023-06-26T16:05:52.000",
    "request_status": "Pending",
    "responsible_agency": "Department of Sanitation",
    "final_address": "621 Broadway St Apt A",
    "address_councildis": "A",
    "status": "Assigned to Contractor",
    "contractor": "Richards Disposal",
    "rowid": "1011906",
    "final_x": "3663154.01709",
    "final_y": "524830.9159",
    "longitude": "-90.12622312016731",
    "latitude": "29.93764712408867",
    "geocoded_column": {
      "latitude": "29.93764712408867",
      "longitude": "-90.12622312016731"
    }
  },
  {
    "service_request": "2023-1011905",
    "request_type": "Trash/Recycling",
    "request_reason": "Request a Large Item Pick Up",
    "date_created": "2023-06-26T16:04:38.000",
    "date_modified": "2023-06-26T16:04:39.000",
    "request_status": "Pending",
    "responsible_agency": "Department of Sanitation",
    "final_address": "7541 Pineridge St",
    "address_councildis": "E",
    "status": "Assigned to Contractor",
    "contractor": "Waste Pro",
    "rowid": "1011905",
    "final_x": "3719328.38207",
    "final_y": "571740.584744",
    "longitude": "-89.94708695820057",
    "latitude": "30.064883644627454",
    "geocoded_column": {
      "latitude": "30.064883644627454",
      "longitude": "-89.94708695820057"
    }
  },
  {
    "service_request": "2023-1011904",
    "request_type": "Trash/Recycling",
    "request_reason": "Request a Large Item Pick Up",
    "date_created": "2023-06-26T16:03:09.000",
    "date_modified": "2023-06-26T16:03:09.000",
    "request_status": "Pending",
    "responsible_agency": "Department of Sanitation",
    "final_address": "7541 Pineridge St",
    "address_councildis": "E",
    "status": "Assigned to Contractor",
    "contractor": "Waste Pro",
    "rowid": "1011904",
    "final_x": "3719328.38207",
    "final_y": "571740.584744",
    "longitude": "-89.94708695820057",
    "latitude": "30.064883644627454",
    "geocoded_column": {
      "latitude": "30.064883644627454",
      "longitude": "-89.94708695820057"
    }
  },
  {
    "service_request": "2023-1011903",
    "request_type": "Traffic Signals/Signs/Striping/Streetlights",
    "request_reason": "Street Light Outage/Malfunction",
    "date_created": "2023-06-26T16:02:33.000",
    "date_modified": "2023-06-26T16:02:35.000",
    "request_status": "Pending",
    "responsible_agency": "Department of Public Works",
    "final_address": "3046 Law St",
    "address_councildis": "D",
    "status": "Assigned to Contractor",
    "contractor": "Legacy Professional Services",
    "rowid": "1011903",
    "final_x": "3690256.04905",
    "final_y": "541659.392268",
    "longitude": "-90.04006060618379",
    "latitude": "29.983106684938733",
    "geocoded_column": {
      "latitude": "29.983106684938733",
      "longitude": "-90.04006060618379"
    }
  },
  {
    "service_request": "2023-1011902",
    "request_type": "Traffic Signals/Signs/Striping/Streetlights",
    "request_reason": "Street Light Outage/Malfunction",
    "date_created": "2023-06-26T16:01:41.000",
    "date_modified": "2023-06-26T16:01:41.000",
    "request_status": "Pending",
    "responsible_agency": "Department of Public Works",
    "final_address": "736 Toledano St",
    "address_councildis": "B",
    "status": "Assigned to Contractor",
    "contractor": "Legacy Professional Services",
    "rowid": "1011902",
    "final_x": "3675873.25339",
    "final_y": "518611.022775",
    "longitude": "-90.08628120381886",
    "latitude": "29.920169869607697",
    "geocoded_column": {
      "latitude": "29.920169869607697",
      "longitude": "-90.08628120381886"
    }
  },
  {
    "service_request": "2023-1011901",
    "request_type": "Trash/Recycling",
    "request_reason": "Request a Large Item Pick Up",
    "date_created": "2023-06-26T16:01:34.000",
    "date_modified": "2023-06-26T16:01:35.000",
    "request_status": "Pending",
    "responsible_agency": "Department of Sanitation",
    "final_address": "7541 Pineridge St",
    "address_councildis": "E",
    "status": "Assigned to Contractor",
    "contractor": "Waste Pro",
    "rowid": "1011901",
    "final_x": "3719328.38207",
    "final_y": "571740.584744",
    "longitude": "-89.94708695820057",
    "latitude": "30.064883644627454",
    "geocoded_column": {
      "latitude": "30.064883644627454",
      "longitude": "-89.94708695820057"
    }
  },
  {
    "service_request": "2023-1011900",
    "request_type": "Trash/Recycling",
    "request_reason": "Request a Large Item Pick Up",
    "date_created": "2023-06-26T15:58:15.000",
    "date_modified": "2023-06-26T15:58:16.000",
    "request_status": "Pending",
    "responsible_agency": "Department of Sanitation",
    "final_address": "2504 Marengo St",
    "address_councildis": "B",
    "status": "Assigned to Contractor",
    "contractor": "Richards Disposal",
    "rowid": "1011900",
    "final_x": "3671582.50318",
    "final_y": "524211.073084",
    "longitude": "-90.09963476361426",
    "latitude": "29.935695917941676",
    "geocoded_column": {
      "latitude": "29.935695917941676",
      "longitude": "-90.09963476361426"
    }
  },
  {
    "service_request": "2023-1011899",
    "request_type": "Mosquito, Termite & Rodent Control",
    "request_reason": "Rodent Complaint (Rats)",
    "date_created": "2023-06-26T15:51:43.000",
    "date_modified": "2023-06-26T15:51:44.000",
    "request_status": "Pending",
    "responsible_agency": "Mosquito, Termite & Rodent Control Board",
    "final_address": "2331 Laharpe St",
    "address_councildis": "D",
    "status": "Pending",
    "rowid": "1011899",
    "final_x": "3679808.34299",
    "final_y": "539183.620042",
    "longitude": "-90.0731458257035",
    "latitude": "29.976619272913673",
    "geocoded_column": {
      "latitude": "29.976619272913673",
      "longitude": "-90.0731458257035"
    }
  },
  {
    "service_request": "2023-1011898",
    "request_type": "Trash/Recycling",
    "request_reason": "Replace Trash Cart",
    "date_created": "2023-06-26T15:51:00.000",
    "date_modified": "2023-06-26T15:51:00.000",
    "request_status": "Pending",
    "responsible_agency": "Department of Sanitation",
    "final_address": "8704 Marks St",
    "address_councildis": "A",
    "status": "Assigned to Contractor",
    "contractor": "Richards Disposal",
    "rowid": "1011898",
    "final_x": "3667200.41549",
    "final_y": "537420.307656",
    "longitude": "-90.11302500303374",
    "latitude": "29.97214600083811",
    "geocoded_column": {
      "latitude": "29.97214600083811",
      "longitude": "-90.11302500303374"
    }
  },
  {
    "service_request": "2023-1011897",
    "request_type": "Trash/Recycling",
    "request_reason": "Request a Large Item Pick Up",
    "date_created": "2023-06-26T15:49:41.000",
    "date_modified": "2023-06-26T16:10:03.000",
    "case_close_date": "2023-06-26T11:10:03.000",
    "request_status": "Closed",
    "responsible_agency": "Department of Sanitation",
    "final_address": "1112 Sena Drive",
    "status": "Resolved",
    "rowid": "1011897",
    "longitude": "0.0",
    "latitude": "0.0",
    "geocoded_column": {
      "latitude": "0.0",
      "longitude": "0.0"
    }
  },
  {
    "service_request": "2023-1011894",
    "request_type": "Parks & Parkways",
    "request_reason": "Request Tree Service (Right of Way/Public Property)",
    "date_created": "2023-06-26T15:48:25.000",
    "date_modified": "2023-06-26T15:48:25.000",
    "request_status": "Pending",
    "responsible_agency": "Department of Parks & Parkway",
    "final_address": "13201 Dwyer Blvd",
    "address_councildis": "E",
    "status": "Pending",
    "rowid": "1011894",
    "final_x": "3724308.96147",
    "final_y": "561511.896223",
    "longitude": "-89.9317385590107",
    "latitude": "30.03659239920915",
    "geocoded_column": {
      "latitude": "30.03659239920915",
      "longitude": "-89.9317385590107"
    }
  },
  {
    "service_request": "2023-1011892",
    "request_type": "Trash/Recycling",
    "request_reason": "Replace Trash Cart",
    "date_created": "2023-06-26T15:45:22.000",
    "date_modified": "2023-06-26T15:45:22.000",
    "request_status": "Pending",
    "responsible_agency": "Department of Sanitation",
    "final_address": "2011 Fourth St",
    "address_councildis": "B",
    "status": "Assigned to Contractor",
    "contractor": "Richards Disposal",
    "rowid": "1011892",
    "final_x": "3675393.37851",
    "final_y": "523959.971132",
    "longitude": "-90.087612383095",
    "latitude": "29.93489209827825",
    "geocoded_column": {
      "latitude": "29.93489209827825",
      "longitude": "-90.087612383095"
    }
  },
  {
    "service_request": "2023-1011891",
    "request_type": "Traffic Signals/Signs/Striping/Streetlights",
    "request_reason": "Request for Stop Sign",
    "date_created": "2023-06-26T15:44:40.000",
    "date_modified": "2023-06-26T15:44:40.000",
    "request_status": "Pending",
    "responsible_agency": "Department of Public Works",
    "final_address": "WASHINGTON AVE & DANNEEL ST",
    "address_councildis": "B",
    "status": "Pending",
    "rowid": "1011891",
    "final_x": "3675129.8",
    "final_y": "523731.88",
    "longitude": "-90.08845232155372",
    "latitude": "29.934272798679995",
    "geocoded_column": {
      "latitude": "29.934272798679995",
      "longitude": "-90.08845232155372"
    }
  },
  {
    "service_request": "2023-1011890",
    "request_type": "Trash/Recycling",
    "request_reason": "Order Trash Cart",
    "date_created": "2023-06-26T15:43:39.000",
    "date_modified": "2023-06-26T15:43:40.000",
    "request_status": "Pending",
    "responsible_agency": "Department of Sanitation",
    "final_address": "8500 Fordham Ct",
    "address_councildis": "E",
    "status": "Assigned to Contractor",
    "contractor": "Waste Pro",
    "rowid": "1011890",
    "final_x": "3704731.0003",
    "final_y": "560149.821725",
    "longitude": "-89.99365882349478",
    "latitude": "30.03349116895051",
    "geocoded_column": {
      "latitude": "30.03349116895051",
      "longitude": "-89.99365882349478"
    }
  },
  {
    "service_request": "2023-1011889",
    "request_type": "Trash/Recycling",
    "request_reason": "Missed Trash Pick-Up",
    "date_created": "2023-06-26T15:43:03.000",
    "date_modified": "2023-06-26T15:43:04.000",
    "request_status": "Pending",
    "responsible_agency": "Department of Sanitation",
    "final_address": "4800 Downman Rd",
    "address_councildis": "D",
    "status": "Assigned to Contractor",
    "contractor": "Waste Pro",
    "rowid": "1011889",
    "final_x": "3695838.15715",
    "final_y": "554414.495704",
    "longitude": "-90.02196846370057",
    "latitude": "30.018004089082055",
    "geocoded_column": {
      "latitude": "30.018004089082055",
      "longitude": "-90.02196846370057"
    }
  },
  {
    "service_request": "2023-1011888",
    "request_type": "Trash/Recycling",
    "request_reason": "Missed Trash Pick-Up",
    "date_created": "2023-06-26T15:42:05.000",
    "date_modified": "2023-06-26T17:11:49.000",
    "case_close_date": "2023-06-26T12:11:49.000",
    "request_status": "Closed",
    "responsible_agency": "Department of Sanitation",
    "final_address": "8500 Fordham Ct",
    "address_councildis": "E",
    "status": "Invalid Request",
    "contractor": "Waste Pro",
    "contractor_action": "Invalid Pick-Up",
    "rowid": "1011888",
    "final_x": "3704731.0003",
    "final_y": "560149.821725",
    "longitude": "-89.99365882349478",
    "latitude": "30.03349116895051",
    "geocoded_column": {
      "latitude": "30.03349116895051",
      "longitude": "-89.99365882349478"
    }
  },
  {
    "service_request": "2023-1011887",
    "request_type": "Trash/Recycling",
    "request_reason": "Replace Trash Cart",
    "date_created": "2023-06-26T15:39:15.000",
    "date_modified": "2023-06-26T15:39:15.000",
    "request_status": "Pending",
    "responsible_agency": "Department of Sanitation",
    "final_address": "7141 Queensway Dr",
    "address_councildis": "E",
    "status": "Assigned to Contractor",
    "contractor": "Waste Pro",
    "rowid": "1011887",
    "final_x": "3718907.35154",
    "final_y": "569957.86071",
    "longitude": "-89.94848597118778",
    "latitude": "30.059995897032973",
    "geocoded_column": {
      "latitude": "30.059995897032973",
      "longitude": "-89.94848597118778"
    }
  },
  {
    "service_request": "2023-1011886",
    "request_type": "Trash/Recycling",
    "request_reason": "Replace Trash Cart",
    "date_created": "2023-06-26T15:37:03.000",
    "date_modified": "2023-06-26T16:07:17.000",
    "request_status": "Pending",
    "responsible_agency": "Department of Sanitation",
    "final_address": "4220 Fields Street, 70131",
    "address_councildis": "C",
    "status": "Assigned to Contractor",
    "contractor": "Richards Disposal",
    "rowid": "1011886",
    "final_x": "3708084.13707",
    "final_y": "514988.456627",
    "longitude": "-89.98474230808606",
    "latitude": "29.909205847657677",
    "geocoded_column": {
      "latitude": "29.909205847657677",
      "longitude": "-89.98474230808606"
    }
  },
  {
    "service_request": "2023-1011885",
    "request_type": "Trash/Recycling",
    "request_reason": "Request a Large Item Pick Up",
    "date_created": "2023-06-26T15:36:35.000",
    "date_modified": "2023-06-26T16:01:00.000",
    "request_status": "Pending",
    "responsible_agency": "Department of Sanitation",
    "final_address": "3019 Cadiz Street 70125",
    "address_councildis": "B",
    "status": "Assigned to Contractor",
    "contractor": "Richards Disposal",
    "rowid": "1011885",
    "final_x": "3669624.25998",
    "final_y": "526023.47603",
    "longitude": "-90.10575568214868",
    "latitude": "29.940737269623835",
    "geocoded_column": {
      "latitude": "29.940737269623835",
      "longitude": "-90.10575568214868"
    }
  },
  {
    "service_request": "2023-1011884",
    "request_type": "Trash/Recycling",
    "request_reason": "Request a Large Item Pick Up",
    "date_created": "2023-06-26T15:35:54.000",
    "date_modified": "2023-06-26T15:35:54.000",
    "request_status": "Pending",
    "responsible_agency": "Department of Sanitation",
    "final_address": "7230 Salem Dr",
    "address_councildis": "E",
    "status": "Assigned to Contractor",
    "contractor": "Waste Pro",
    "rowid": "1011884",
    "final_x": "3706267.00651",
    "final_y": "561589.842527",
    "longitude": "-89.98875151758051",
    "latitude": "30.03740119073727",
    "geocoded_column": {
      "latitude": "30.03740119073727",
      "longitude": "-89.98875151758051"
    }
  },
  {
    "service_request": "2023-1011883",
    "request_type": "Trash/Recycling",
    "request_reason": "Request a Large Item Pick Up",
    "date_created": "2023-06-26T15:35:30.000",
    "date_modified": "2023-06-26T15:35:30.000",
    "request_status": "Pending",
    "responsible_agency": "Department of Sanitation",
    "final_address": "6239 Warrington Dr",
    "address_councildis": "D",
    "status": "Assigned to Contractor",
    "contractor": "IV Waste",
    "rowid": "1011883",
    "final_x": "3680862.65013",
    "final_y": "556057.222297",
    "longitude": "-90.06922807622949",
    "latitude": "30.022983740073325",
    "geocoded_column": {
      "latitude": "30.022983740073325",
      "longitude": "-90.06922807622949"
    }
  },
  {
    "service_request": "2023-1011882",
    "request_type": "Traffic Signals/Signs/Striping/Streetlights",
    "request_reason": "Street Light Outage/Malfunction",
    "date_created": "2023-06-26T15:34:37.000",
    "date_modified": "2023-06-26T16:07:52.000",
    "request_status": "Pending",
    "responsible_agency": "Department of Public Works",
    "final_address": "4220 Fields Street, 70131",
    "address_councildis": "C",
    "status": "Assigned to Contractor",
    "contractor": "Legacy Professional Services",
    "rowid": "1011882",
    "final_x": "3708084.13707",
    "final_y": "514988.456627",
    "longitude": "-89.98474230808606",
    "latitude": "29.909205847657677",
    "geocoded_column": {
      "latitude": "29.909205847657677",
      "longitude": "-89.98474230808606"
    }
  },
  {
    "service_request": "2023-1011881",
    "request_type": "Roads/Drainage",
    "request_reason": "WaterMain Break",
    "date_created": "2023-06-26T15:32:25.000",
    "date_modified": "2023-06-26T15:32:25.000",
    "request_status": "Pending",
    "responsible_agency": "Department of Public Works",
    "final_address": "6336 Debore Dr",
    "address_councildis": "D",
    "status": "Pending",
    "rowid": "1011881",
    "final_x": "3690726.15708",
    "final_y": "556879.226266",
    "longitude": "-90.03803234493898",
    "latitude": "30.024941051782903",
    "geocoded_column": {
      "latitude": "30.024941051782903",
      "longitude": "-90.03803234493898"
    }
  },
  {
    "service_request": "2023-1011880",
    "request_type": "Traffic Signals/Signs/Striping/Streetlights",
    "request_reason": "Street Light Outage/Malfunction",
    "date_created": "2023-06-26T15:27:01.000",
    "date_modified": "2023-06-26T15:27:02.000",
    "request_status": "Pending",
    "responsible_agency": "Department of Public Works",
    "final_address": "1525 Gardena Dr",
    "address_councildis": "D",
    "status": "Assigned to Contractor",
    "contractor": "Legacy Professional Services",
    "rowid": "1011880",
    "final_x": "3678974.58734",
    "final_y": "551632.667285",
    "longitude": "-90.07534742279147",
    "latitude": "30.01087495395369",
    "geocoded_column": {
      "latitude": "30.01087495395369",
      "longitude": "-90.07534742279147"
    }
  },
  {
    "service_request": "2023-1011879",
    "request_type": "Trash/Recycling",
    "request_reason": "Request a Large Item Pick Up",
    "date_created": "2023-06-26T15:26:32.000",
    "date_modified": "2023-06-26T15:26:33.000",
    "request_status": "Pending",
    "responsible_agency": "Department of Sanitation",
    "final_address": "3228 Somerset Dr",
    "address_councildis": "C",
    "status": "Assigned to Contractor",
    "contractor": "Richards Disposal",
    "rowid": "1011879",
    "final_x": "3702608.50986",
    "final_y": "519247.930551",
    "longitude": "-90.00186801011367",
    "latitude": "29.921094009790863",
    "geocoded_column": {
      "latitude": "29.921094009790863",
      "longitude": "-90.00186801011367"
    }
  },
  {
    "service_request": "2023-1011878",
    "request_type": "Traffic Signals/Signs/Striping/Streetlights",
    "request_reason": "Street Light Outage/Malfunction",
    "date_created": "2023-06-26T15:24:24.000",
    "date_modified": "2023-06-26T15:24:25.000",
    "request_status": "Pending",
    "responsible_agency": "Department of Public Works",
    "final_address": "1329 Andry St",
    "address_councildis": "E",
    "status": "Assigned to Contractor",
    "contractor": "Legacy Professional Services",
    "rowid": "1011878",
    "final_x": "3697509.65975",
    "final_y": "534889.751302",
    "longitude": "-90.0173956665821",
    "latitude": "29.964265502952077",
    "geocoded_column": {
      "latitude": "29.964265502952077",
      "longitude": "-90.0173956665821"
    }
  },
  {
    "service_request": "2023-1011877",
    "request_type": "Trash/Recycling",
    "request_reason": "Replace Trash Cart",
    "date_created": "2023-06-26T15:17:38.000",
    "date_modified": "2023-06-26T15:17:38.000",
    "request_status": "Pending",
    "responsible_agency": "Department of Sanitation",
    "final_address": "1016 Martinique Aly",
    "address_councildis": "C",
    "status": "Assigned to Contractor",
    "contractor": "IV Waste",
    "rowid": "1011877",
    "final_x": "3689313.23439",
    "final_y": "535610.61831",
    "longitude": "-90.04325359095574",
    "latitude": "29.96650391932519",
    "geocoded_column": {
      "latitude": "29.96650391932519",
      "longitude": "-90.04325359095574"
    }
  },
  {
    "service_request": "2023-1011876",
    "request_type": "Trash/Recycling",
    "request_reason": "Request a Large Item Pick Up",
    "date_created": "2023-06-26T15:17:37.000",
    "date_modified": "2023-06-26T15:17:38.000",
    "request_status": "Pending",
    "responsible_agency": "Department of Sanitation",
    "final_address": "6121 Louisville St",
    "address_councildis": "A",
    "status": "Assigned to Contractor",
    "contractor": "IV Waste",
    "rowid": "1011876",
    "final_x": "3667899.2793",
    "final_y": "548193.848274",
    "longitude": "-90.1104547446347",
    "latitude": "30.00174908665504",
    "geocoded_column": {
      "latitude": "30.00174908665504",
      "longitude": "-90.1104547446347"
    }
  },
  {
    "service_request": "2023-1011875",
    "request_type": "Trash/Recycling",
    "request_reason": "Order Recycling Cart",
    "date_created": "2023-06-26T15:16:05.000",
    "date_modified": "2023-06-26T15:16:06.000",
    "request_status": "Pending",
    "responsible_agency": "Department of Sanitation",
    "final_address": "4735 Annette St",
    "address_councildis": "D",
    "status": "Pending",
    "rowid": "1011875",
    "final_x": "3682116.87599",
    "final_y": "549999.397524",
    "longitude": "-90.06547680252771",
    "latitude": "30.00628881969331",
    "geocoded_column": {
      "latitude": "30.00628881969331",
      "longitude": "-90.06547680252771"
    }
  },
  {
    "service_request": "2023-1011873",
    "request_type": "Trash/Recycling",
    "request_reason": "Request a Large Item Pick Up",
    "date_created": "2023-06-26T15:13:09.000",
    "date_modified": "2023-06-26T15:13:10.000",
    "request_status": "Pending",
    "responsible_agency": "Department of Sanitation",
    "final_address": "4082 Fairmont Dr",
    "address_councildis": "D",
    "status": "Assigned to Contractor",
    "contractor": "IV Waste",
    "rowid": "1011873",
    "final_x": "3684501.00418",
    "final_y": "547444.288465",
    "longitude": "-90.05803460496125",
    "latitude": "29.999190440121257",
    "geocoded_column": {
      "latitude": "29.999190440121257",
      "longitude": "-90.05803460496125"
    }
  },
  {
    "service_request": "2023-1011872",
    "request_type": "Roads/Drainage",
    "request_reason": "Damaged Sidewalk",
    "date_created": "2023-06-26T15:12:57.000",
    "date_modified": "2023-06-26T15:12:57.000",
    "request_status": "Pending",
    "responsible_agency": "Department of Public Works",
    "final_address": "6331 Eads St",
    "address_councildis": "D",
    "status": "Pending",
    "rowid": "1011872",
    "final_x": "3686713.23983",
    "final_y": "556663.768602",
    "longitude": "-90.05072010812444",
    "latitude": "30.02447274580986",
    "geocoded_column": {
      "latitude": "30.02447274580986",
      "longitude": "-90.05072010812444"
    }
  },
  {
    "service_request": "2023-1011869",
    "request_type": "Parks & Parkways",
    "request_reason": "Request Tree Service (Right of Way/Public Property)",
    "date_created": "2023-06-26T15:11:54.000",
    "date_modified": "2023-06-26T15:13:42.000",
    "request_status": "Pending",
    "responsible_agency": "Department of Parks & Parkway",
    "final_address": "6331 Eads St",
    "address_councildis": "D",
    "status": "Pending",
    "rowid": "1011869",
    "final_x": "3686713.23983",
    "final_y": "556663.768602",
    "longitude": "-90.05072010812444",
    "latitude": "30.02447274580986",
    "geocoded_column": {
      "latitude": "30.02447274580986",
      "longitude": "-90.05072010812444"
    }
  },
  {
    "service_request": "2023-1011868",
    "request_type": "Trash/Recycling",
    "request_reason": "Request a Large Item Pick Up",
    "date_created": "2023-06-26T15:09:44.000",
    "date_modified": "2023-06-26T15:09:45.000",
    "request_status": "Pending",
    "responsible_agency": "Department of Sanitation",
    "final_address": "2231 Barracks St",
    "address_councildis": "D",
    "status": "Assigned to Contractor",
    "contractor": "Richards Disposal",
    "rowid": "1011868",
    "final_x": "3679550.27637",
    "final_y": "537595.173192",
    "longitude": "-90.0740160159794",
    "latitude": "29.97225939342101",
    "geocoded_column": {
      "latitude": "29.97225939342101",
      "longitude": "-90.0740160159794"
    }
  },
  {
    "service_request": "2023-1011867",
    "request_type": "Trash/Recycling",
    "request_reason": "Replace Trash Cart",
    "date_created": "2023-06-26T15:04:48.000",
    "date_modified": "2023-06-26T15:04:49.000",
    "request_status": "Pending",
    "responsible_agency": "Department of Sanitation",
    "final_address": "3353 Plymouth Pl",
    "address_councildis": "C",
    "status": "Assigned to Contractor",
    "contractor": "Richards Disposal",
    "rowid": "1011867",
    "final_x": "3702730.05246",
    "final_y": "518723.736631",
    "longitude": "-90.00150358958703",
    "latitude": "29.919648773041402",
    "geocoded_column": {
      "latitude": "29.919648773041402",
      "longitude": "-90.00150358958703"
    }
  },
  {
    "service_request": "2023-1011866",
    "request_type": "Trash/Recycling",
    "request_reason": "Request a Large Item Pick Up",
    "date_created": "2023-06-26T14:59:48.000",
    "date_modified": "2023-06-26T15:03:53.000",
    "request_status": "Pending",
    "responsible_agency": "Department of Sanitation",
    "final_address": "2037 South Carrollton Avenue",
    "address_councildis": "A",
    "status": "Assigned to Contractor",
    "contractor": "Richards Disposal",
    "rowid": "1011866",
    "final_x": "3664176.72896",
    "final_y": "530557.27021",
    "longitude": "-90.12280333548216",
    "latitude": "29.953363095061384",
    "geocoded_column": {
      "latitude": "29.953363095061384",
      "longitude": "-90.12280333548216"
    }
  },
  {
    "service_request": "2023-1011865",
    "request_type": "Trash/Recycling",
    "request_reason": "Request a Large Item Pick Up",
    "date_created": "2023-06-26T14:58:59.000",
    "date_modified": "2023-06-26T14:59:00.000",
    "request_status": "Pending",
    "responsible_agency": "Department of Sanitation",
    "final_address": "4010 Camp St",
    "address_councildis": "B",
    "status": "Assigned to Contractor",
    "contractor": "Richards Disposal",
    "rowid": "1011865",
    "final_x": "3672386.17243",
    "final_y": "519222.928119",
    "longitude": "-90.09726744016734",
    "latitude": "29.921956306471923",
    "geocoded_column": {
      "latitude": "29.921956306471923",
      "longitude": "-90.09726744016734"
    }
  },
  {
    "service_request": "2023-1011864",
    "request_type": "Trash/Recycling",
    "request_reason": "Request a Large Item Pick Up",
    "date_created": "2023-06-26T14:57:28.000",
    "date_modified": "2023-06-26T14:57:28.000",
    "request_status": "Pending",
    "responsible_agency": "Department of Sanitation",
    "final_address": "109 Ringold St",
    "address_councildis": "A",
    "status": "Assigned to Contractor",
    "contractor": "IV Waste",
    "rowid": "1011864",
    "final_x": "3666712.4793",
    "final_y": "548588.528851",
    "longitude": "-90.11419071731365",
    "latitude": "30.002869095189688",
    "geocoded_column": {
      "latitude": "30.002869095189688",
      "longitude": "-90.11419071731365"
    }
  },
  {
    "service_request": "2023-1011863",
    "request_type": "Roads/Drainage",
    "request_reason": "Damaged Sidewalk",
    "date_created": "2023-06-26T14:56:32.000",
    "date_modified": "2023-06-26T14:56:33.000",
    "request_status": "Pending",
    "responsible_agency": "Department of Public Works",
    "final_address": "7621 Sandy Cove Dr",
    "address_councildis": "E",
    "status": "Pending",
    "rowid": "1011863",
    "final_x": "3715686.46437",
    "final_y": "569359.79799",
    "longitude": "-89.95868959566553",
    "latitude": "30.058458112815085",
    "geocoded_column": {
      "latitude": "30.058458112815085",
      "longitude": "-89.95868959566553"
    }
  },
  {
    "service_request": "2023-1011862",
    "request_type": "Trash/Recycling",
    "request_reason": "Replace Trash Cart",
    "date_created": "2023-06-26T14:55:41.000",
    "date_modified": "2023-06-26T14:55:53.000",
    "request_status": "Pending",
    "responsible_agency": "Department of Sanitation",
    "final_address": "1015 Felicity St",
    "address_councildis": "B",
    "status": "Assigned to Contractor",
    "contractor": "Richards Disposal",
    "rowid": "1011862",
    "final_x": "3680221.83464",
    "final_y": "522857.046907",
    "longitude": "-90.07240732540173",
    "latitude": "29.931714197528695",
    "geocoded_column": {
      "latitude": "29.931714197528695",
      "longitude": "-90.07240732540173"
    }
  },
  {
    "service_request": "2023-1011861",
    "request_type": "Trash/Recycling",
    "request_reason": "Request a Large Item Pick Up",
    "date_created": "2023-06-26T14:54:39.000",
    "date_modified": "2023-06-26T14:54:40.000",
    "request_status": "Pending",
    "responsible_agency": "Department of Sanitation",
    "final_address": "2331 Adams St",
    "address_councildis": "A",
    "status": "Assigned to Contractor",
    "contractor": "Richards Disposal",
    "rowid": "1011861",
    "final_x": "3665903.76493",
    "final_y": "530434.990274",
    "longitude": "-90.11735417016658",
    "latitude": "29.95297658331077",
    "geocoded_column": {
      "latitude": "29.95297658331077",
      "longitude": "-90.11735417016658"
    }
  },
  {
    "service_request": "2023-1011860",
    "request_type": "Trash/Recycling",
    "request_reason": "Return Trash Cart",
    "date_created": "2023-06-26T14:52:32.000",
    "date_modified": "2023-06-26T14:53:46.000",
    "request_status": "Pending",
    "responsible_agency": "Department of Sanitation",
    "final_address": "1316 Jefferson Ave",
    "address_councildis": "A",
    "status": "Assigned to Contractor",
    "contractor": "Richards Disposal",
    "rowid": "1011860",
    "final_x": "3666983.81402",
    "final_y": "520214.006328",
    "longitude": "-90.114287190637",
    "latitude": "29.924840597977575",
    "geocoded_column": {
      "latitude": "29.924840597977575",
      "longitude": "-90.114287190637"
    }
  },
  {
    "service_request": "2023-1011859",
    "request_type": "Property Maintenance",
    "request_reason": "Property Maintenance",
    "date_created": "2023-06-26T14:51:05.000",
    "date_modified": "2023-06-26T14:51:05.000",
    "request_status": "Pending",
    "responsible_agency": "Department of Code Enforcement",
    "final_address": "3353 Plymouth Pl",
    "address_councildis": "C",
    "status": "Pending",
    "rowid": "1011859",
    "final_x": "3702730.05246",
    "final_y": "518723.736631",
    "longitude": "-90.00150358958703",
    "latitude": "29.919648773041402",
    "geocoded_column": {
      "latitude": "29.919648773041402",
      "longitude": "-90.00150358958703"
    }
  },
  {
    "service_request": "2023-1011858",
    "request_type": "Abandoned Vehicles",
    "request_reason": "Abandoned/Junk Vehicles",
    "date_created": "2023-06-26T14:50:00.000",
    "date_modified": "2023-06-26T14:53:22.000",
    "request_status": "Pending",
    "responsible_agency": "Department of Public Works",
    "final_address": "410 Basin St",
    "address_councildis": "C",
    "status": "Pending",
    "rowid": "1011858",
    "final_x": "3680642.45506",
    "final_y": "532670.5545",
    "longitude": "-90.07073810624992",
    "latitude": "29.95868532691261",
    "geocoded_column": {
      "latitude": "29.95868532691261",
      "longitude": "-90.07073810624992"
    }
  },
  {
    "service_request": "2023-1011857",
    "request_type": "Trash/Recycling",
    "request_reason": "Replace Trash Cart",
    "date_created": "2023-06-26T14:49:57.000",
    "date_modified": "2023-06-26T14:49:57.000",
    "request_status": "Pending",
    "responsible_agency": "Department of Sanitation",
    "final_address": "4900 BLK Saint Charles Ave",
    "address_councildis": "B",
    "status": "Assigned to Contractor",
    "contractor": "Richards Disposal",
    "rowid": "1011857",
    "final_x": "3668882.66581",
    "final_y": "520738.863166",
    "longitude": "-90.10827540979768",
    "latitude": "29.926228102988336",
    "geocoded_column": {
      "latitude": "29.926228102988336",
      "longitude": "-90.10827540979768"
    }
  },
  {
    "service_request": "2023-1011856",
    "request_type": "Trash/Recycling",
    "request_reason": "Replace Trash Cart",
    "date_created": "2023-06-26T14:49:21.000",
    "date_modified": "2023-06-26T14:49:22.000",
    "request_status": "Pending",
    "responsible_agency": "Department of Sanitation",
    "final_address": "4900 BLK Saint Charles Ave",
    "address_councildis": "B",
    "status": "Assigned to Contractor",
    "contractor": "Richards Disposal",
    "rowid": "1011856",
    "final_x": "3668882.66581",
    "final_y": "520738.863166",
    "longitude": "-90.10827540979768",
    "latitude": "29.926228102988336",
    "geocoded_column": {
      "latitude": "29.926228102988336",
      "longitude": "-90.10827540979768"
    }
  },
  {
    "service_request": "2023-1011855",
    "request_type": "Traffic Signals/Signs/Striping/Streetlights",
    "request_reason": "Traffic Signal Malfunctioning/Damaged",
    "date_created": "2023-06-26T14:48:19.000",
    "date_modified": "2023-06-26T14:48:20.000",
    "request_status": "Pending",
    "responsible_agency": "Department of Public Works",
    "final_address": "DESAIX BLVD & GENTILLY BLVD & ST BERNARD AVE",
    "address_councildis": "D",
    "status": "Pending",
    "rowid": "1011855",
    "final_x": "3679279.3",
    "final_y": "543593.28",
    "longitude": "-90.07466372214104",
    "latitude": "29.988760291299116",
    "geocoded_column": {
      "latitude": "29.988760291299116",
      "longitude": "-90.07466372214104"
    }
  },
  {
    "service_request": "2023-1011854",
    "request_type": "Trash/Recycling",
    "request_reason": "Request a Large Item Pick Up",
    "date_created": "2023-06-26T14:47:19.000",
    "date_modified": "2023-06-26T14:47:20.000",
    "request_status": "Pending",
    "responsible_agency": "Department of Sanitation",
    "final_address": "1440 St Mary St",
    "address_councildis": "B",
    "status": "Assigned to Contractor",
    "contractor": "Richards Disposal",
    "rowid": "1011854",
    "final_x": "3678814.44699",
    "final_y": "523797.697083",
    "longitude": "-90.07681772705281",
    "latitude": "29.934343186855966",
    "geocoded_column": {
      "latitude": "29.934343186855966",
      "longitude": "-90.07681772705281"
    }
  },
  {
    "service_request": "2023-1011853",
    "request_type": "Trash/Recycling",
    "request_reason": "Order Recycling Cart",
    "date_created": "2023-06-26T14:45:43.000",
    "date_modified": "2023-06-26T14:45:43.000",
    "request_status": "Pending",
    "responsible_agency": "Department of Sanitation",
    "final_address": "617 David St",
    "address_councildis": "A",
    "status": "Pending",
    "rowid": "1011853",
    "final_x": "3672047.77876",
    "final_y": "540096.798859",
    "longitude": "-90.09762503075697",
    "latitude": "29.97936260530238",
    "geocoded_column": {
      "latitude": "29.97936260530238",
      "longitude": "-90.09762503075697"
    }
  },
  {
    "service_request": "2023-1011852",
    "request_type": "Trash/Recycling",
    "request_reason": "Order Trash Cart",
    "date_created": "2023-06-26T14:44:44.000",
    "date_modified": "2023-06-26T14:44:45.000",
    "request_status": "Pending",
    "responsible_agency": "Department of Sanitation",
    "final_address": "617 David St",
    "address_councildis": "A",
    "status": "Assigned to Contractor",
    "contractor": "Richards Disposal",
    "rowid": "1011852",
    "final_x": "3672047.77876",
    "final_y": "540096.798859",
    "longitude": "-90.09762503075697",
    "latitude": "29.97936260530238",
    "geocoded_column": {
      "latitude": "29.97936260530238",
      "longitude": "-90.09762503075697"
    }
  },
  {
    "service_request": "2023-1011850",
    "request_type": "Parks & Parkways",
    "request_reason": "Request Tree Service (Right of Way/Public Property)",
    "date_created": "2023-06-26T14:44:06.000",
    "date_modified": "2023-06-26T14:44:06.000",
    "request_status": "Pending",
    "responsible_agency": "Department of Parks & Parkway",
    "final_address": "1513 Gardena Dr",
    "address_councildis": "D",
    "status": "Pending",
    "rowid": "1011850",
    "final_x": "3678792.95016",
    "final_y": "551618.064725",
    "longitude": "-90.07592179239859",
    "latitude": "30.010840284087493",
    "geocoded_column": {
      "latitude": "30.010840284087493",
      "longitude": "-90.07592179239859"
    }
  },
  {
    "service_request": "2023-1011849",
    "request_type": "Traffic Signals/Signs/Striping/Streetlights",
    "request_reason": "Street Light Outage/Malfunction",
    "date_created": "2023-06-26T14:43:10.000",
    "date_modified": "2023-06-26T14:43:11.000",
    "request_status": "Pending",
    "responsible_agency": "Department of Public Works",
    "final_address": "2760 Edna St",
    "address_councildis": "D",
    "status": "Assigned to Contractor",
    "contractor": "Legacy Professional Services",
    "rowid": "1011849",
    "final_x": "3689890.08713",
    "final_y": "545281.476751",
    "longitude": "-90.04108747671226",
    "latitude": "29.993077468814278",
    "geocoded_column": {
      "latitude": "29.993077468814278",
      "longitude": "-90.04108747671226"
    }
  },
  {
    "service_request": "2023-1011848",
    "request_type": "Trash/Recycling",
    "request_reason": "Missed Trash Pick-Up",
    "date_created": "2023-06-26T14:37:34.000",
    "date_modified": "2023-06-26T14:37:35.000",
    "request_status": "Pending",
    "responsible_agency": "Department of Sanitation",
    "final_address": "7100 BLK E Tamaron Blvd",
    "address_councildis": "E",
    "status": "Assigned to Contractor",
    "contractor": "Waste Pro",
    "rowid": "1011848",
    "final_x": "3718187.04095",
    "final_y": "569464.833299",
    "longitude": "-89.9507816123845",
    "latitude": "30.058664193786715",
    "geocoded_column": {
      "latitude": "30.058664193786715",
      "longitude": "-89.9507816123845"
    }
  },
  {
    "service_request": "2023-1011847",
    "request_type": "Trash/Recycling",
    "request_reason": "Request a Large Item Pick Up",
    "date_created": "2023-06-26T14:34:39.000",
    "date_modified": "2023-06-26T15:38:08.000",
    "case_close_date": "2023-06-26T10:38:08.000",
    "request_status": "Closed",
    "responsible_agency": "Department of Sanitation",
    "final_address": "6229 Pasteur Blvd",
    "address_councildis": "D",
    "status": "Duplicate Request",
    "contractor": "IV Waste",
    "contractor_action": "duplicate",
    "rowid": "1011847",
    "final_x": "3682791.77244",
    "final_y": "556086.493658",
    "longitude": "-90.06313146175685",
    "latitude": "30.02300556587181",
    "geocoded_column": {
      "latitude": "30.02300556587181",
      "longitude": "-90.06313146175685"
    }
  },
  {
    "service_request": "2023-1011846",
    "request_type": "Trash/Recycling",
    "request_reason": "Replace Trash Cart",
    "date_created": "2023-06-26T14:33:14.000",
    "date_modified": "2023-06-26T14:33:14.000",
    "request_status": "Pending",
    "responsible_agency": "Department of Sanitation",
    "final_address": "2114 Calhoun St",
    "address_councildis": "A",
    "status": "Assigned to Contractor",
    "contractor": "Richards Disposal",
    "rowid": "1011846",
    "final_x": "3665635.8313",
    "final_y": "524853.447484",
    "longitude": "-90.11838706008044",
    "latitude": "29.937636954653435",
    "geocoded_column": {
      "latitude": "29.937636954653435",
      "longitude": "-90.11838706008044"
    }
  },