[
  {
    "service_request": "2025-1202608",
    "request_type": "Trash/Recycling",
    "request_reason": "Order Trash Cart",
    "date_created": "2025-06-19T23:47:16.000",
    "date_modified": "2025-06-19T23:47:18.000",
    "request_status": "Pending",
    "responsible_agency": "Department of Sanitation",
    "final_address": "2641 Robert St",
    "address_councildis": "B",
    "status": "Assigned to Contractor",
    "contractor": "IV Waste",
    "rowid": "1202608",
    "final_x": "3668896.31412",
    "final_y": "525277.147901",
    "longitude": "-90.10807913618761",
    "latitude": "29.938706532029034",
    "geocoded_column": {
      "latitude": "29.938706532029034",
      "longitude": "-90.10807913618761"
    }
  },
  {
    "service_request": "2025-1202606",
    "request_type": "Streetlights",
    "request_reason": "New Streetlight Request",
    "date_created": "2025-06-19T22:06:30.000",
    "date_modified": "2025-06-19T22:06:31.000",
    "request_status": "Pending",
    "responsible_agency": "Department of Public Works",
    "final_address": "3000 Tulane Ave",
    "address_councildis": "B",
    "status": "Pending",
    "contractor": "Legacy Professional Services",
    "rowid": "1202606",
    "final_x": "3673072.76308",
    "final_y": "534288.514373",
    "longitude": "-90.09458604216714",
    "latitude": "29.96336135408323",
    "geocoded_column": {
      "latitude": "29.96336135408323",
      "longitude": "-90.09458604216714"
    }
  },
  {
    "service_request": "2025-1202605",
    "request_type": "General Services",
    "request_reason": "General Service Request",
    "date_created": "2025-06-19T22:00:03.000",
    "date_modified": "2025-06-19T22:00:04.000",
    "request_status": "Pending",
    "responsible_agency": "Orleans Parish Communication District",
    "final_address": "3000 Tulane",
    "address_councildis": "B",
    "status": "Pending",
    "rowid": "1202605",
    "final_x": "3673072.76308",
    "final_y": "534288.514373",
    "longitude": "-90.09458604216714",
    "latitude": "29.96336135408323",
    "geocoded_column": {
      "latitude": "29.96336135408323",
      "longitude": "-90.09458604216714"
    }
  },
  {
    "service_request": "2025-1202604",
    "request_type": "Streetlights",
    "request_reason": "Streetlight Outage/Malfunction",
    "date_created": "2025-06-19T21:55:40.000",
    "date_modified": "2025-06-19T21:55:42.000",
    "request_status": "Pending",
    "responsible_agency": "Department of Public Works",
    "final_address": "905 Harrison Ave",
    "address_councildis": "A",
    "status": "Pending",
    "contractor": "Legacy Professional Services",
    "rowid": "1202604",
    "final_x": "3670113.47521",
    "final_y": "549288.768147",
    "longitude": "-90.10342272271762",
    "latitude": "30.004694572556534",
    "geocoded_column": {
      "latitude": "30.004694572556534",
      "longitude": "-90.10342272271762"
    }
  },
  {
    "service_request": "2025-1202603",
    "request_type": "Streetlights",
    "request_reason": "Streetlight Outage/Malfunction",
    "date_created": "2025-06-19T21:52:23.000",
    "date_modified": "2025-06-19T21:52:24.000",
    "request_status": "Pending",
    "responsible_agency": "Department of Public Works",
    "final_address": "6325 General Haig St",
    "address_councildis": "A",
    "status": "Pending",
    "contractor": "Legacy Professional Services",
    "rowid": "1202603",
    "final_x": "3670801.5787",
    "final_y": "549307.423379",
    "longitude": "-90.10124822878299",
    "latitude": "30.00472554137156",
    "geocoded_column": {
      "latitude": "30.00472554137156",
      "longitude": "-90.10124822878299"
    }
  },
  {
    "service_request": "2025-1202602",
    "request_type": "Trash/Recycling",
    "request_reason": "Dead Animal Pick Up",
    "date_created": "2025-06-19T21:18:42.000",
    "date_modified": "2025-06-19T21:18:46.000",
    "request_status": "Pending",
    "responsible_agency": "Department of Sanitation",
    "final_address": "1823 Murl St",
    "address_councildis": "C",
    "status": "Assigned to Contractor",
    "contractor": "Richards Disposal",
    "rowid": "1202602",
    "final_x": "3695298.31818",
    "final_y": "524542.925244",
    "longitude": "-90.02475201647124",
    "latitude": "29.93588498549612",
    "geocoded_column": {
      "latitude": "29.93588498549612",
      "longitude": "-90.02475201647124"
    }
  },
  {
    "service_request": "2025-1202601",
    "request_type": "Trash/Recycling",
    "request_reason": "Request a Large Item Pick Up",
    "date_created": "2025-06-19T21:16:11.000",
    "date_modified": "2025-06-19T21:16:13.000",
    "request_status": "Pending",
    "responsible_agency": "Department of Sanitation",
    "final_address": "1823 Murl St",
    "address_councildis": "C",
    "status": "Assigned to Contractor",
    "contractor": "Richards Disposal",
    "rowid": "1202601",
    "final_x": "3695298.31818",
    "final_y": "524542.925244",
    "longitude": "-90.02475201647124",
    "latitude": "29.93588498549612",
    "geocoded_column": {
      "latitude": "29.93588498549612",
      "longitude": "-90.02475201647124"
    }
  },
  {
    "service_request": "2025-1202600",
    "request_type": "Streetlights",
    "request_reason": "Streetlight Outage/Malfunction",
    "date_created": "2025-06-19T21:10:48.000",
    "date_modified": "2025-06-19T21:10:51.000",
    "request_status": "Pending",
    "responsible_agency": "Department of Public Works",
    "final_address": "1820 Mirabeau Ave",
    "address_councildis": "D",
    "status": "Pending",
    "contractor": "Legacy Professional Services",
    "rowid": "1202600",
    "final_x": "3681319.83976",
    "final_y": "550382.083348",
    "longitude": "-90.06798148494505",
    "latitude": "30.007365293321634",
    "geocoded_column": {
      "latitude": "30.007365293321634",
      "longitude": "-90.06798148494505"
    }
  },
  {
    "service_request": "2025-1202599",
    "request_type": "General Services",
    "request_reason": "General Service Request",
    "date_created": "2025-06-19T21:06:24.000",
    "date_modified": "2025-06-19T21:06:26.000",
    "request_status": "Pending",
    "responsible_agency": "Orleans Parish Communication District",
    "final_address": "3500 Garden Oaks Dr, New Orleans, Louisiana, 70114",
    "address_councildis": "C",
    "status": "Pending",
    "rowid": "1202599",
    "final_x": "3696387.36522",
    "final_y": "518384.165366",
    "longitude": "-90.02153648523758",
    "latitude": "29.918916254902577",
    "geocoded_column": {
      "latitude": "29.918916254902577",
      "longitude": "-90.02153648523758"
    }
  },
  {
    "service_request": "2025-1202598",
    "request_type": "Abandoned Vehicles",
    "request_reason": "Abandoned/Junk Vehicles",
    "date_created": "2025-06-19T20:58:15.000",
    "date_modified": "2025-06-19T20:58:18.000",
    "request_status": "Pending",
    "responsible_agency": "Department of Public Works",
    "final_address": "626 S Solomon St",
    "address_councildis": "A",
    "status": "Pending",
    "rowid": "1202598",
    "final_x": "3669294.27367",
    "final_y": "536963.585736",
    "longitude": "-90.10642767450895",
    "latitude": "29.97082868685423",
    "geocoded_column": {
      "latitude": "29.97082868685423",
      "longitude": "-90.10642767450895"
    }
  },
  {
    "service_request": "2025-1202597",
    "request_type": "Utility Poles",
    "request_reason": "Wires Sagging/Hanging Low",
    "date_created": "2025-06-19T20:56:14.000",
    "date_modified": "2025-06-19T20:56:16.000",
    "request_status": "Pending",
    "responsible_agency": "Utility Company Collective",
    "final_address": "626 S Solomon St",
    "address_councildis": "A",
    "status": "Pending",
    "rowid": "1202597",
    "final_x": "3669294.27367",
    "final_y": "536963.585736",
    "longitude": "-90.10642767450895",
    "latitude": "29.97082868685423",
    "geocoded_column": {
      "latitude": "29.97082868685423",
      "longitude": "-90.10642767450895"
    }
  },
  {
    "service_request": "2025-1202596",
    "request_type": "Graffiti Removal",
    "request_reason": "Graffiti Removal",
    "date_created": "2025-06-19T20:50:50.000",
    "date_modified": "2025-06-19T20:50:52.000",
    "request_status": "Pending",
    "responsible_agency": "Department of Code Enforcement",
    "final_address": "1307 Decatur St",
    "address_councildis": "C",
    "status": "Pending",
    "rowid": "1202596",
    "final_x": "3684510.95458",
    "final_y": "533812.426309",
    "longitude": "-90.05848229009565",
    "latitude": "29.96170730608297",
    "geocoded_column": {
      "latitude": "29.96170730608297",
      "longitude": "-90.05848229009565"
    }
  },
  {
    "service_request": "2025-1202595",
    "request_type": "Streetlights",
    "request_reason": "Streetlight Outage/Malfunction",
    "date_created": "2025-06-19T20:47:57.000",
    "date_modified": "2025-06-19T20:48:00.000",
    "request_status": "Pending",
    "responsible_agency": "Department of Public Works",
    "final_address": "1223 Harmony St",
    "address_councildis": "B",
    "status": "Pending",
    "contractor": "Legacy Professional Services",
    "rowid": "1202595",
    "final_x": "3675579.97224",
    "final_y": "520538.09868",
    "longitude": "-90.0871407974461",
    "latitude": "29.925477480980614",
    "geocoded_column": {
      "latitude": "29.925477480980614",
      "longitude": "-90.0871407974461"
    }
  },
  {
    "service_request": "2025-1202594",
    "request_type": "Streetlights",
    "request_reason": "Streetlight Outage/Malfunction",
    "date_created": "2025-06-19T20:45:44.000",
    "date_modified": "2025-06-19T20:45:46.000",
    "request_status": "Pending",
    "responsible_agency": "Department of Public Works",
    "final_address": "1223 Harmony St",
    "address_councildis": "B",
    "status": "Pending",
    "contractor": "Legacy Professional Services",
    "rowid": "1202594",
    "final_x": "3675579.97224",
    "final_y": "520538.09868",
    "longitude": "-90.0871407974461",
    "latitude": "29.925477480980614",
    "geocoded_column": {
      "latitude": "29.925477480980614",
      "longitude": "-90.0871407974461"
    }
  },
  {
    "service_request": "2025-1202593",
    "request_type": "Abandoned Vehicles",
    "request_reason": "Abandoned/Junk Vehicles",
    "date_created": "2025-06-19T20:40:14.000",
    "date_modified": "2025-06-19T20:40:16.000",
    "request_status": "Pending",
    "responsible_agency": "Department of Public Works",
    "final_address": "1223 Harmony St",
    "address_councildis": "B",
    "status": "Pending",
    "rowid": "1202593",
    "final_x": "3675579.97224",
    "final_y": "520538.09868",
    "longitude": "-90.0871407974461",
    "latitude": "29.925477480980614",
    "geocoded_column": {
      "latitude": "29.925477480980614",
      "longitude": "-90.0871407974461"
    }
  },
  {
    "service_request": "2025-1202592",
    "request_type": "Streetlights",
    "request_reason": "Streetlight Outage/Malfunction",
    "date_created": "2025-06-19T20:21:07.000",
    "date_modified": "2025-06-19T20:21:08.000",
    "request_status": "Pending",
    "responsible_agency": "Department of Public Works",
    "final_address": "705 Lang St",
    "address_councildis": "C",
    "status": "Pending",
    "contractor": "Legacy Professional Services",
    "rowid": "1202592",
    "final_x": "3701981.40932",
    "final_y": "520034.293368",
    "longitude": "-90.00381867065475",
    "latitude": "29.92327625842414",
    "geocoded_column": {
      "latitude": "29.92327625842414",
      "longitude": "-90.00381867065475"
    }
  },
  {
    "service_request": "2025-1202591",
    "request_type": "Trash/Recycling",
    "request_reason": "Damaged Caused By Contractor",
    "date_created": "2025-06-19T20:19:47.000",
    "date_modified": "2025-06-19T20:19:48.000",
    "request_status": "Pending",
    "responsible_agency": "Department of Sanitation",
    "final_address": "801 Aline St",
    "address_councildis": "B",
    "status": "Assigned to Contractor",
    "contractor": "IV Waste",
    "rowid": "1202591",
    "final_x": "3674834.86094",
    "final_y": "518431.249078",
    "longitude": "-90.0895650768861",
    "latitude": "29.91970658317703",
    "geocoded_column": {
      "latitude": "29.91970658317703",
      "longitude": "-90.0895650768861"
    }
  },
  {
    "service_request": "2025-1202590",
    "request_type": "General Services",
    "request_reason": "General Service Request",
    "date_created": "2025-06-19T19:58:44.000",
    "date_modified": "2025-06-19T19:58:45.000",
    "request_status": "Pending",
    "responsible_agency": "Orleans Parish Communication District",
    "final_address": "203 Fairfax Pl",
    "address_councildis": "C",
    "status": "Pending",
    "rowid": "1202590",
    "final_x": "3706132.38078",
    "final_y": "517360.447861",
    "longitude": "-89.9908146283407",
    "latitude": "29.91579102482397",
    "geocoded_column": {
      "latitude": "29.91579102482397",
      "longitude": "-89.9908146283407"
    }
  },
  {
    "service_request": "2025-1202589",
    "request_type": "Drainage",
    "request_reason": "Catch Basin Clogged",
    "date_created": "2025-06-19T19:47:05.000",
    "date_modified": "2025-06-19T19:47:07.000",
    "request_status": "Pending",
    "responsible_agency": "Sewerage & Water Board",
    "final_address": "5700 Campus Blvd",
    "address_councildis": "D",
    "status": "Pending",
    "rowid": "1202589",
    "final_x": "3688816.27164",
    "final_y": "554389.254616",
    "longitude": "-90.04415577851262",
    "latitude": "30.018153783504978",
    "geocoded_column": {
      "latitude": "30.018153783504978",
      "longitude": "-90.04415577851262"
    }
  },
  {
    "service_request": "2025-1202588",
    "request_type": "Trash/Recycling",
    "request_reason": "Change Size of Trash Cart",
    "date_created": "2025-06-19T19:33:59.000",
    "date_modified": "2025-06-19T19:34:01.000",
    "request_status": "Pending",
    "responsible_agency": "Department of Sanitation",
    "final_address": "2631 S Robertson St",
    "address_councildis": "B",
    "status": "Assigned to Contractor",
    "contractor": "IV Waste",
    "rowid": "1202588",
    "final_x": "3674208.15208",
    "final_y": "525774.870397",
    "longitude": "-90.0912920278753",
    "latitude": "29.93991785655873",
    "geocoded_column": {
      "latitude": "29.93991785655873",
      "longitude": "-90.0912920278753"
    }
  },
  {
    "service_request": "2025-1202587",
    "request_type": "Trash/Recycling",
    "request_reason": "Repair Trash Cart",
    "date_created": "2025-06-19T19:31:15.000",
    "date_modified": "2025-06-19T19:31:17.000",
    "request_status": "Pending",
    "responsible_agency": "Department of Sanitation",
    "final_address": "5224 Perrier St",
    "address_councildis": "B",
    "status": "Assigned to Contractor",
    "contractor": "IV Waste",
    "rowid": "1202587",
    "final_x": "3667848.89805",
    "final_y": "519875.169784",
    "longitude": "-90.11156780107153",
    "latitude": "29.92388356959225",
    "geocoded_column": {
      "latitude": "29.92388356959225",
      "longitude": "-90.11156780107153"
    }
  },
  {
    "service_request": "2025-1202586",
    "request_type": "Drainage",
    "request_reason": "Street Flooding",
    "date_created": "2025-06-19T19:29:41.000",
    "date_modified": "2025-06-19T19:29:43.000",
    "request_status": "Pending",
    "responsible_agency": "Sewerage & Water Board",
    "final_address": "1531 Dumaine St",
    "address_councildis": "C",
    "status": "Pending",
    "rowid": "1202586",
    "final_x": "3680573.16418",
    "final_y": "534949.946566",
    "longitude": "-90.07087760619324",
    "latitude": "29.96495497761198",
    "geocoded_column": {
      "latitude": "29.96495497761198",
      "longitude": "-90.07087760619324"
    }
  },
  {
    "service_request": "2025-1202585",
    "request_type": "Trash/Recycling",
    "request_reason": "Repair Recycling Cart",
    "date_created": "2025-06-19T19:27:26.000",
    "date_modified": "2025-06-19T19:27:28.000",
    "request_status": "Pending",
    "responsible_agency": "Department of Sanitation",
    "final_address": "520 Bellecastle St",
    "address_councildis": "B",
    "status": "Pending",
    "rowid": "1202585",
    "final_x": "3667609.11175",
    "final_y": "517385.746741",
    "longitude": "-90.11240845424493",
    "latitude": "29.917045467854788",
    "geocoded_column": {
      "latitude": "29.917045467854788",
      "longitude": "-90.11240845424493"
    }
  },
  {
    "service_request": "2025-1202584",
    "request_type": "Street and Traffic Signs",
    "request_reason": "Additional Signage Request",
    "date_created": "2025-06-19T19:23:44.000",
    "date_modified": "2025-06-19T19:23:46.000",
    "request_status": "Pending",
    "responsible_agency": "Department of Public Works",
    "final_address": "1210 Camp St Apt D",
    "address_councildis": "B",
    "status": "Pending",
    "rowid": "1202584",
    "final_x": "3680255.31144",
    "final_y": "525591.371325",
    "longitude": "-90.0722066385527",
    "latitude": "29.939231672880496",
    "geocoded_column": {
      "latitude": "29.939231672880496",
      "longitude": "-90.0722066385527"
    }
  },
  {
    "service_request": "2025-1202583",
    "request_type": "Trash/Recycling",
    "request_reason": "Request a Large Item Pick Up",
    "date_created": "2025-06-19T19:01:30.000",
    "date_modified": "2025-06-19T19:01:33.000",
    "request_status": "Pending",
    "responsible_agency": "Department of Sanitation",
    "final_address": "3411 Coliseum St",
    "address_councildis": "B",
    "status": "Assigned to Contractor",
    "contractor": "IV Waste",
    "rowid": "1202583",
    "final_x": "3674419.98766",
    "final_y": "520548.178488",
    "longitude": "-90.09080216983864",
    "latitude": "29.925539835465116",
    "geocoded_column": {
      "latitude": "29.925539835465116",
      "longitude": "-90.09080216983864"
    }
  },
  {
    "service_request": "2025-1202582",
    "request_type": "Roads and Streets",
    "request_reason": "Sidewalk Damaged or Missing",
    "date_created": "2025-06-19T18:54:52.000",
    "date_modified": "2025-06-19T18:54:55.000",
    "request_status": "Pending",
    "responsible_agency": "Department of Public Works",
    "final_address": "1000 BLK Poland Ave",
    "address_councildis": "C",
    "status": "Pending",
    "rowid": "1202582",
    "final_x": "3692940.15936",
    "final_y": "534719.354562",
    "longitude": "-90.03183182244169",
    "latitude": "29.963940478024863",
    "geocoded_column": {
      "latitude": "29.963940478024863",
      "longitude": "-90.03183182244169"
    }
  },
  {
    "service_request": "2025-1202581",
    "request_type": "Abandoned Vehicles",
    "request_reason": "Abandoned/Junk Vehicles",
    "date_created": "2025-06-19T18:12:14.000",
    "date_modified": "2025-06-19T18:12:16.000",
    "request_status": "Pending",
    "responsible_agency": "Department of Public Works",
    "final_address": "1732 Monroe St",
    "address_councildis": "A",
    "status": "Pending",
    "rowid": "1202581",
    "final_x": "3661723.38989",
    "final_y": "531326.244226",
    "longitude": "-90.1305244831993",
    "latitude": "29.95554856466004",
    "geocoded_column": {
      "latitude": "29.95554856466004",
      "longitude": "-90.1305244831993"
    }
  },
  {
    "service_request": "2025-1202580",
    "request_type": "Trash/Recycling",
    "request_reason": "Order Trash Cart",
    "date_created": "2025-06-19T18:09:06.000",
    "date_modified": "2025-06-19T18:09:08.000",
    "request_status": "Pending",
    "responsible_agency": "Department of Sanitation",
    "final_address": "2711 Valence St",
    "address_councildis": "B",
    "status": "Assigned to Contractor",
    "contractor": "IV Waste",
    "rowid": "1202580",
    "final_x": "3669391.6402",
    "final_y": "524736.29926",
    "longitude": "-90.10653361493469",
    "latitude": "29.9372047996219",
    "geocoded_column": {
      "latitude": "29.9372047996219",
      "longitude": "-90.10653361493469"
    }
  },
  {
    "service_request": "2025-1202579",
    "request_type": "Trash/Recycling",
    "request_reason": "Request a Large Item Pick Up",
    "date_created": "2025-06-19T17:57:28.000",
    "date_modified": "2025-06-19T17:57:30.000",
    "request_status": "Pending",
    "responsible_agency": "Department of Sanitation",
    "final_address": "8934 Birch St",
    "address_councildis": "A",
    "status": "Assigned to Contractor",
    "contractor": "IV Waste",
    "rowid": "1202579",
    "final_x": "3660548.46605",
    "final_y": "531506.868867",
    "longitude": "-90.13422852339902",
    "latitude": "29.95607908463736",
    "geocoded_column": {
      "latitude": "29.95607908463736",
      "longitude": "-90.13422852339902"
    }
  },
  {
    "service_request": "2025-1202578",
    "request_type": "Roads and Streets",
    "request_reason": "Pothole",
    "date_created": "2025-06-19T17:54:51.000",
    "date_modified": "2025-06-19T17:54:52.000",
    "request_status": "Pending",
    "responsible_agency": "Department of Public Works",
    "final_address": "41 Winners Cir",
    "address_councildis": "E",
    "status": "Pending",
    "rowid": "1202578",
    "final_x": "3715781.78943",
    "final_y": "570200.939879",
    "longitude": "-89.95835638172908",
    "latitude": "30.060767760390632",
    "geocoded_column": {
      "latitude": "30.060767760390632",
      "longitude": "-89.95835638172908"
    }
  },
  {
    "service_request": "2025-1202577",
    "request_type": "Utility Poles",
    "request_reason": "Wires Sagging/Hanging Low",
    "date_created": "2025-06-19T17:52:04.000",
    "date_modified": "2025-06-19T17:52:06.000",
    "request_status": "Pending",
    "responsible_agency": "Utility Company Collective",
    "final_address": "5804 Camp St",
    "address_councildis": "A",
    "status": "Pending",
    "rowid": "1202577",
    "final_x": "3665477.24186",
    "final_y": "519325.768695",
    "longitude": "-90.11907267457083",
    "latitude": "29.92244221008488",
    "geocoded_column": {
      "latitude": "29.92244221008488",
      "longitude": "-90.11907267457083"
    }
  },
  {
    "service_request": "2025-1202576",
    "request_type": "Traffic Signals",
    "request_reason": "Traffic Signal Malfunctioning or Damaged",
    "date_created": "2025-06-19T17:49:41.000",
    "date_modified": "2025-06-19T17:49:43.000",
    "request_status": "Pending",
    "responsible_agency": "Department of Public Works",
    "final_address": "41 Winners Cir",
    "address_councildis": "E",
    "status": "Pending",
    "rowid": "1202576",
    "final_x": "3715781.78943",
    "final_y": "570200.939879",
    "longitude": "-89.95835638172908",
    "latitude": "30.060767760390632",
    "geocoded_column": {
      "latitude": "30.060767760390632",
      "longitude": "-89.95835638172908"
    }
  },
  {
    "service_request": "2025-1202575",
    "request_type": "Street and Traffic Signs",
    "request_reason": "Additional Signage Request",
    "date_created": "2025-06-19T17:46:32.000",
    "date_modified": "2025-06-19T17:46:35.000",
    "request_status": "Pending",
    "responsible_agency": "Department of Public Works",
    "final_address": "1001 Ursulines Ave",
    "address_councildis": "C",
    "status": "Pending",
    "rowid": "1202575",
    "final_x": "3682572.91676",
    "final_y": "534338.045893",
    "longitude": "-90.06458391169286",
    "latitude": "29.963211726819726",
    "geocoded_column": {
      "latitude": "29.963211726819726",
      "longitude": "-90.06458391169286"
    }
  },
  {
    "service_request": "2025-1202574",
    "request_type": "Trash/Recycling",
    "request_reason": "Order Recycling Cart",
    "date_created": "2025-06-19T17:37:39.000",
    "date_modified": "2025-06-19T17:37:40.000",
    "request_status": "Pending",
    "responsible_agency": "Department of Sanitation",
    "final_address": "1001 Ursulines Ave",
    "address_councildis": "C",
    "status": "Pending",
    "rowid": "1202574",
    "final_x": "3682572.91676",
    "final_y": "534338.045893",
    "longitude": "-90.06458391169286",
    "latitude": "29.963211726819726",
    "geocoded_column": {
      "latitude": "29.963211726819726",
      "longitude": "-90.06458391169286"
    }
  },
  {
    "service_request": "2025-1202573",
    "request_type": "Streetlights",
    "request_reason": "Streetlight Outage/Malfunction",
    "date_created": "2025-06-19T17:34:34.000",
    "date_modified": "2025-06-19T17:34:36.000",
    "request_status": "Pending",
    "responsible_agency": "Department of Public Works",
    "final_address": "7001 Bullard Ave",
    "address_councildis": "E",
    "status": "Pending",
    "contractor": "Legacy Professional Services",
    "rowid": "1202573",
    "final_x": "3714772.26917",
    "final_y": "565501.191074",
    "longitude": "-89.96172524141116",
    "latitude": "30.047878648707098",
    "geocoded_column": {
      "latitude": "30.047878648707098",
      "longitude": "-89.96172524141116"
    }
  },
  {
    "service_request": "2025-1202572",
    "request_type": "Trash/Recycling",
    "request_reason": "Request a Large Item Pick Up",
    "date_created": "2025-06-19T17:09:04.000",
    "date_modified": "2025-06-19T17:09:06.000",
    "request_status": "Pending",
    "responsible_agency": "Department of Sanitation",
    "final_address": "4524 Rosemont Pl",
    "address_councildis": "E",
    "status": "Assigned to Contractor",
    "contractor": "Waste Pro",
    "rowid": "1202572",
    "final_x": "3702746.81994",
    "final_y": "553713.533783",
    "longitude": "-90.00016565014923",
    "latitude": "30.015857498261596",
    "geocoded_column": {
      "latitude": "30.015857498261596",
      "longitude": "-90.00016565014923"
    }
  },
  {
    "service_request": "2025-1202571",
    "request_type": "Trash/Recycling",
    "request_reason": "Replace Trash Cart",
    "date_created": "2025-06-19T17:02:34.000",
    "date_modified": "2025-06-19T17:02:36.000",
    "request_status": "Pending",
    "responsible_agency": "Department of Sanitation",
    "final_address": "7 Richmond Pl",
    "address_councildis": "A",
    "status": "Assigned to Contractor",
    "contractor": "IV Waste",
    "rowid": "1202571",
    "final_x": "3666562.78925",
    "final_y": "523565.468667",
    "longitude": "-90.11550379053458",
    "latitude": "29.934068366285565",
    "geocoded_column": {
      "latitude": "29.934068366285565",
      "longitude": "-90.11550379053458"
    }
  },
  {
    "service_request": "2025-1202570",
    "request_type": "Trash/Recycling",
    "request_reason": "Request a Large Item Pick Up",
    "date_created": "2025-06-19T16:53:59.000",
    "date_modified": "2025-06-19T16:54:01.000",
    "request_status": "Pending",
    "responsible_agency": "Department of Sanitation",
    "final_address": "4524 Rosemont Pl",
    "address_councildis": "E",
    "status": "Assigned to Contractor",
    "contractor": "Waste Pro",
    "rowid": "1202570",
    "final_x": "3702746.81994",
    "final_y": "553713.533783",
    "longitude": "-90.00016565014923",
    "latitude": "30.015857498261596",
    "geocoded_column": {
      "latitude": "30.015857498261596",
      "longitude": "-90.00016565014923"
    }
  },
  {
    "service_request": "2025-1202569",
    "request_type": "Roads and Streets",
    "request_reason": "Debris in Driving Lanes",
    "date_created": "2025-06-19T16:52:44.000",
    "date_modified": "2025-06-19T16:52:45.000",
    "request_status": "Pending",
    "responsible_agency": "Department of Public Works",
    "final_address": "7630 Trapier Ave",
    "address_councildis": "E",
    "status": "Pending",
    "rowid": "1202569",
    "final_x": "3706493.61732",
    "final_y": "563566.445088",
    "longitude": "-89.9879620381731",
    "latitude": "30.042828751178533",
    "geocoded_column": {
      "latitude": "30.042828751178533",
      "longitude": "-89.9879620381731"
    }
  },
  {
    "service_request": "2025-1202568",
    "request_type": "Parks & Parkways",
    "request_reason": "Request Tree Service (Right of Way/Public Property)",
    "date_created": "2025-06-19T16:52:43.000",
    "date_modified": "2025-06-19T16:52:44.000",
    "request_status": "Pending",
    "responsible_agency": "Department of Parks & Parkway",
    "final_address": "4426 S Miro St",
    "address_councildis": "B",
    "status": "Pending",
    "rowid": "1202568",
    "final_x": "3669814.1682",
    "final_y": "527749.063487",
    "longitude": "-90.10509770999467",
    "latitude": "29.945476479009404",
    "geocoded_column": {
      "latitude": "29.945476479009404",
      "longitude": "-90.10509770999467"
    }
  },
  {
    "service_request": "2025-1202567",
    "request_type": "Streetlights",
    "request_reason": "New Streetlight Request",
    "date_created": "2025-06-19T16:33:30.000",
    "date_modified": "2025-06-19T16:33:32.000",
    "request_status": "Pending",
    "responsible_agency": "Department of Public Works",
    "final_address": "4413 Elba St",
    "address_councildis": "B",
    "status": "Pending",
    "contractor": "Legacy Professional Services",
    "rowid": "1202567",
    "final_x": "3669733.89722",
    "final_y": "530470.213122",
    "longitude": "-90.10525907063196",
    "latitude": "29.952961116360285",
    "geocoded_column": {
      "latitude": "29.952961116360285",
      "longitude": "-90.10525907063196"
    }
  },
  {
    "service_request": "2025-1202566",
    "request_type": "Streetlights",
    "request_reason": "Streetlight Outage/Malfunction",
    "date_created": "2025-06-19T16:32:19.000",
    "date_modified": "2025-06-19T16:32:21.000",
    "request_status": "Pending",
    "responsible_agency": "Department of Public Works",
    "final_address": "7000 Cove Dr",
    "address_councildis": "E",
    "status": "Pending",
    "contractor": "Legacy Professional Services",
    "rowid": "1202566",
    "final_x": "3700346.33834",
    "final_y": "558144.995931",
    "longitude": "-90.00758804699463",
    "latitude": "30.028118900315583",
    "geocoded_column": {
      "latitude": "30.028118900315583",
      "longitude": "-90.00758804699463"
    }
  },
  {
    "service_request": "2025-1202565",
    "request_type": "Trash/Recycling",
    "request_reason": "Repair Trash Cart",
    "date_created": "2025-06-19T16:31:17.000",
    "date_modified": "2025-06-19T16:31:20.000",
    "request_status": "Pending",
    "responsible_agency": "Department of Sanitation",
    "final_address": "4417 Elba St A",
    "address_councildis": "B",
    "status": "Assigned to Contractor",
    "contractor": "IV Waste",
    "rowid": "1202565",
    "final_x": "3669702.08826",
    "final_y": "530480.82733",
    "longitude": "-90.10535915043391",
    "latitude": "29.952991239319147",
    "geocoded_column": {
      "latitude": "29.952991239319147",
      "longitude": "-90.10535915043391"
    }
  },
  {
    "service_request": "2025-1202564",
    "request_type": "Streetlights",
    "request_reason": "Streetlight Outage/Malfunction",
    "date_created": "2025-06-19T16:30:06.000",
    "date_modified": "2025-06-19T16:30:08.000",
    "request_status": "Pending",
    "responsible_agency": "Department of Public Works",
    "final_address": "7000 Cove Dr",
    "address_councildis": "E",
    "status": "Pending",
    "contractor": "Legacy Professional Services",
    "rowid": "1202564",
    "final_x": "3700346.33834",
    "final_y": "558144.995931",
    "longitude": "-90.00758804699463",
    "latitude": "30.028118900315583",
    "geocoded_column": {
      "latitude": "30.028118900315583",
      "longitude": "-90.00758804699463"
    }
  },
  {
    "service_request": "2025-1202563",
    "request_type": "Trash/Recycling",
    "request_reason": "Order Recycling Cart",
    "date_created": "2025-06-19T16:19:08.000",
    "date_modified": "2025-06-19T16:19:10.000",
    "request_status": "Pending",
    "responsible_agency": "Department of Sanitation",
    "final_address": "2738 St Charles Ave",
    "address_councildis": "B",
    "status": "Pending",
    "rowid": "1202563",
    "final_x": "3676043.54907",
    "final_y": "522483.959162",
    "longitude": "-90.08561054115155",
    "latitude": "29.930814094749167",
    "geocoded_column": {
      "latitude": "29.930814094749167",
      "longitude": "-90.08561054115155"
    }
  },
  {
    "service_request": "2025-1202562",
    "request_type": "Drainage",
    "request_reason": "Catch Basin Clogged",
    "date_created": "2025-06-19T15:54:58.000",
    "date_modified": "2025-06-19T15:55:00.000",
    "request_status": "Pending",
    "responsible_agency": "Sewerage & Water Board",
    "final_address": "1000 BLK General Pershing St",
    "address_councildis": "B",
    "status": "Pending",
    "rowid": "1202562",
    "final_x": "3671398.65881",
    "final_y": "519374.784529",
    "longitude": "-90.10037945434505",
    "latitude": "29.92240311785097",
    "geocoded_column": {
      "latitude": "29.92240311785097",
      "longitude": "-90.10037945434505"
    }
  },
  {
    "service_request": "2025-1202561",
    "request_type": "Trash/Recycling",
    "request_reason": "Illegal Dumping",
    "date_created": "2025-06-19T15:37:25.000",
    "date_modified": "2025-06-19T15:37:26.000",
    "request_status": "Pending",
    "responsible_agency": "Department of Sanitation",
    "final_address": "4545 Macarthur Blvd",
    "address_councildis": "C",
    "status": "Pending",
    "rowid": "1202561",
    "final_x": "3700533.72804",
    "final_y": "520144.550136",
    "longitude": "-90.00838439679019",
    "latitude": "29.92362553454826",
    "geocoded_column": {
      "latitude": "29.92362553454826",
      "longitude": "-90.00838439679019"
    }
  },
  {
    "service_request": "2025-1202560",
    "request_type": "Trash/Recycling",
    "request_reason": "Order Trash Cart",
    "date_created": "2025-06-19T15:36:32.000",
    "date_modified": "2025-06-19T15:36:35.000",
    "request_status": "Pending",
    "responsible_agency": "Department of Sanitation",
    "final_address": "1710 Pace Blvd",
    "address_councildis": "C",
    "status": "Assigned to Contractor",
    "contractor": "Richards Disposal",
    "rowid": "1202560",
    "final_x": "3694427.99722",
    "final_y": "524484.875836",
    "longitude": "-90.02750171235266",
    "latitude": "29.93575267059061",
    "geocoded_column": {
      "latitude": "29.93575267059061",
      "longitude": "-90.02750171235266"
    }
  },
  {
    "service_request": "2025-1202559",
    "request_type": "Abandoned Vehicles",
    "request_reason": "Abandoned/Junk Vehicles",
    "date_created": "2025-06-19T15:32:01.000",
    "date_modified": "2025-06-19T15:32:04.000",
    "request_status": "Pending",
    "responsible_agency": "Department of Public Works",
    "final_address": "1701 Kabel Dr",
    "address_councildis": "C",
    "status": "Pending",
    "rowid": "1202559",
    "final_x": "3700634.0289",
    "final_y": "521572.573625",
    "longitude": "-90.00801564803969",
    "latitude": "29.92754891794067",
    "geocoded_column": {
      "latitude": "29.92754891794067",
      "longitude": "-90.00801564803969"
    }
  },
  {
    "service_request": "2025-1202558",
    "request_type": "Property Maintenance",
    "request_reason": "Property Maintenance",
    "date_created": "2025-06-19T15:26:20.000",
    "date_modified": "2025-06-19T15:26:22.000",
    "request_status": "Pending",
    "responsible_agency": "Department of Code Enforcement",
    "final_address": "4645 Western St",
    "address_councildis": "D",
    "status": "Pending",
    "rowid": "1202558",
    "final_x": "3684205.31426",
    "final_y": "549792.92994",
    "longitude": "-90.05888617333001",
    "latitude": "30.005657403722303",
    "geocoded_column": {
      "latitude": "30.005657403722303",
      "longitude": "-90.05888617333001"
    }
  },
  {
    "service_request": "2025-1202557",
    "request_type": "Trash/Recycling",
    "request_reason": "Replace Trash Cart",
    "date_created": "2025-06-19T15:19:41.000",
    "date_modified": "2025-06-19T15:19:43.000",
    "request_status": "Pending",
    "responsible_agency": "Department of Sanitation",
    "final_address": "3708 Louisiana Avenue Prkwy",
    "address_councildis": "B",
    "status": "Assigned to Contractor",
    "contractor": "IV Waste",
    "rowid": "1202557",
    "final_x": "3671300.28142",
    "final_y": "528587.63296",
    "longitude": "-90.1003770702651",
    "latitude": "29.947738385363863",
    "geocoded_column": {
      "latitude": "29.947738385363863",
      "longitude": "-90.1003770702651"
    }
  },
  {
    "service_request": "2025-1202556",
    "request_type": "Trash/Recycling",
    "request_reason": "Request a Large Item Pick Up",
    "date_created": "2025-06-19T15:05:17.000",
    "date_modified": "2025-06-19T15:05:19.000",
    "request_status": "Pending",
    "responsible_agency": "Department of Sanitation",
    "final_address": "2123 Jourdan Ave",
    "address_councildis": "E",
    "status": "Assigned to Contractor",
    "contractor": "Waste Pro",
    "rowid": "1202556",
    "final_x": "3696187.49142",
    "final_y": "538419.213961",
    "longitude": "-90.02144333384123",
    "latitude": "29.974011951176685",
    "geocoded_column": {
      "latitude": "29.974011951176685",
      "longitude": "-90.02144333384123"
    }
  },
  {
    "service_request": "2025-1202555",
    "request_type": "General Services",
    "request_reason": "General Service Request",
    "date_created": "2025-06-19T15:04:04.000",
    "date_modified": "2025-06-19T15:04:12.000",
    "request_status": "Pending",
    "responsible_agency": "Orleans Parish Communication District",
    "final_address": "7163 Parkside Ct",
    "address_councildis": "E",
    "status": "Pending",
    "rowid": "1202555",
    "final_x": "3704475.22775",
    "final_y": "560478.020702",
    "longitude": "-89.99445496774877",
    "latitude": "30.034401807621112",
    "geocoded_column": {
      "latitude": "30.034401807621112",
      "longitude": "-89.99445496774877"
    }
  },
  {
    "service_request": "2025-1202554",
    "request_type": "Drainage",
    "request_reason": "Street Flooding",
    "date_created": "2025-06-19T14:58:23.000",
    "date_modified": "2025-06-19T14:58:25.000",
    "request_status": "Pending",
    "responsible_agency": "Sewerage & Water Board",
    "final_address": "2305 Abundance St",
    "address_councildis": "D",
    "status": "Pending",
    "rowid": "1202554",
    "final_x": "3685246.21052",
    "final_y": "543785.489678",
    "longitude": "-90.05580935055347",
    "latitude": "29.989107225505535",
    "geocoded_column": {
      "latitude": "29.989107225505535",
      "longitude": "-90.05580935055347"
    }
  },
  {
    "service_request": "2025-1202553",
    "request_type": "Roads and Streets",
    "request_reason": "Pothole",
    "date_created": "2025-06-19T14:55:30.000",
    "date_modified": "2025-06-19T14:55:32.000",
    "request_status": "Pending",
    "responsible_agency": "Department of Public Works",
    "final_address": "2305 Abundance St",
    "address_councildis": "D",
    "status": "Pending",
    "rowid": "1202553",
    "final_x": "3685246.21052",
    "final_y": "543785.489678",
    "longitude": "-90.05580935055347",
    "latitude": "29.989107225505535",
    "geocoded_column": {
      "latitude": "29.989107225505535",
      "longitude": "-90.05580935055347"
    }
  },
  {
    "service_request": "2025-1202552",
    "request_type": "Street and Traffic Signs",
    "request_reason": "Traffic or Parking Sign Damaged or Missing",
    "date_created": "2025-06-19T14:54:59.000",
    "date_modified": "2025-06-19T14:55:00.000",
    "request_status": "Pending",
    "responsible_agency": "Department of Public Works",
    "final_address": "0 General De Gaulle Dr",
    "address_councildis": "C",
    "status": "Pending",
    "rowid": "1202552",
    "final_x": "3697018.31735",
    "final_y": "519731.228088",
    "longitude": "-90.01949615286618",
    "latitude": "29.922600343135908",
    "geocoded_column": {
      "latitude": "29.922600343135908",
      "longitude": "-90.01949615286618"
    }
  },
  {
    "service_request": "2025-1202551",
    "request_type": "Traffic Signals",
    "request_reason": "Traffic Signal Malfunctioning or Damaged",
    "date_created": "2025-06-19T14:54:06.000",
    "date_modified": "2025-06-19T14:54:08.000",
    "request_status": "Pending",
    "responsible_agency": "Department of Public Works",
    "final_address": "200 BLK Woodland Dr",
    "address_councildis": "C",
    "status": "Pending",
    "rowid": "1202551",
    "final_x": "3705598.7095",
    "final_y": "521136.880414",
    "longitude": "-89.99235958845453",
    "latitude": "29.926192085627264",
    "geocoded_column": {
      "latitude": "29.926192085627264",
      "longitude": "-89.99235958845453"
    }
  },
  {
    "service_request": "2025-1202550",
    "request_type": "Drainage",
    "request_reason": "Catch Basin Clogged",
    "date_created": "2025-06-19T14:52:16.000",
    "date_modified": "2025-06-19T14:52:19.000",
    "request_status": "Pending",
    "responsible_agency": "Sewerage & Water Board",
    "final_address": "800 BLK Germain St",
    "address_councildis": "A",
    "status": "Pending",
    "rowid": "1202550",
    "final_x": "3669483.13869",
    "final_y": "547847.456586",
    "longitude": "-90.10546287967034",
    "latitude": "30.000750056250038",
    "geocoded_column": {
      "latitude": "30.000750056250038",
      "longitude": "-90.10546287967034"
    }
  },
  {
    "service_request": "2025-1202549",
    "request_type": "Abandoned Vehicles",
    "request_reason": "Abandoned/Junk Vehicles",
    "date_created": "2025-06-19T14:49:10.000",
    "date_modified": "2025-06-19T14:49:11.000",
    "request_status": "Pending",
    "responsible_agency": "Department of Public Works",
    "final_address": "519 N Gayoso St",
    "address_councildis": "A",
    "status": "Pending",
    "rowid": "1202549",
    "final_x": "3675368.1108",
    "final_y": "537296.403272",
    "longitude": "-90.08723428412092",
    "latitude": "29.971563598679754",
    "geocoded_column": {
      "latitude": "29.971563598679754",
      "longitude": "-90.08723428412092"
    }
  },
  {
    "service_request": "2025-1202548",
    "request_type": "Trash/Recycling",
    "request_reason": "Request a Large Item Pick Up",
    "date_created": "2025-06-19T14:48:29.000",
    "date_modified": "2025-06-19T14:48:31.000",
    "request_status": "Pending",
    "responsible_agency": "Department of Sanitation",
    "final_address": "841 Roosevelt Pl",
    "address_councildis": "A",
    "status": "Assigned to Contractor",
    "contractor": "IV Waste",
    "rowid": "1202548",
    "final_x": "3673543.79899",
    "final_y": "539966.044555",
    "longitude": "-90.09290447015837",
    "latitude": "29.97895862920938",
    "geocoded_column": {
      "latitude": "29.97895862920938",
      "longitude": "-90.09290447015837"
    }
  },
  {
    "service_request": "2025-1202547",
    "request_type": "Trash/Recycling",
    "request_reason": "Request a Large Item Pick Up",
    "date_created": "2025-06-19T14:46:16.000",
    "date_modified": "2025-06-19T14:46:19.000",
    "request_status": "Pending",
    "responsible_agency": "Department of Sanitation",
    "final_address": "13852 Linden St",
    "address_councildis": "E",
    "status": "Assigned to Contractor",
    "contractor": "Waste Pro",
    "rowid": "1202547",
    "final_x": "3717944.58361",
    "final_y": "571981.303976",
    "longitude": "-89.95145205951381",
    "latitude": "30.065591481175172",
    "geocoded_column": {
      "latitude": "30.065591481175172",
      "longitude": "-89.95145205951381"
    }
  },
  {
    "service_request": "2025-1202546",
    "request_type": "Trash/Recycling",
    "request_reason": "Replace Trash Cart",
    "date_created": "2025-06-19T14:45:53.000",
    "date_modified": "2025-06-19T14:45:55.000",
    "request_status": "Pending",
    "responsible_agency": "Department of Sanitation",
    "final_address": "733 Alvar St",
    "address_councildis": "C",
    "status": "Assigned to Contractor",
    "contractor": "IV Waste",
    "rowid": "1202546",
    "final_x": "3691216.5432",
    "final_y": "534133.657413",
    "longitude": "-90.03729574230461",
    "latitude": "29.962383735326956",
    "geocoded_column": {
      "latitude": "29.962383735326956",
      "longitude": "-90.03729574230461"
    }
  },
  {
    "service_request": "2025-1202545",
    "request_type": "Trash/Recycling",
    "request_reason": "Request a Large Item Pick Up",
    "date_created": "2025-06-19T14:42:03.000",
    "date_modified": "2025-06-19T14:42:05.000",
    "request_status": "Pending",
    "responsible_agency": "Department of Sanitation",
    "final_address": "3700 Huntlee Dr",
    "address_councildis": "C",
    "status": "Assigned to Contractor",
    "contractor": "Richards Disposal",
    "rowid": "1202545",
    "final_x": "3701756.4762",
    "final_y": "517518.791926",
    "longitude": "-90.0046207715978",
    "latitude": "29.916366667484276",
    "geocoded_column": {
      "latitude": "29.916366667484276",
      "longitude": "-90.0046207715978"
    }
  },
  {
    "service_request": "2025-1202544",
    "request_type": "Abandoned Vehicles",
    "request_reason": "Abandoned/Junk Vehicles",
    "date_created": "2025-06-19T14:38:52.000",
    "date_modified": "2025-06-19T14:38:53.000",
    "request_status": "Pending",
    "responsible_agency": "Department of Public Works",
    "final_address": "1842 Broadway St",
    "address_councildis": "A",
    "status": "Pending",
    "rowid": "1202544",
    "final_x": "3665485.36692",
    "final_y": "528563.683264",
    "longitude": "-90.11873792568811",
    "latitude": "29.94784329749813",
    "geocoded_column": {
      "latitude": "29.94784329749813",
      "longitude": "-90.11873792568811"
    }
  },
  {
    "service_request": "2025-1202543",
    "request_type": "General Services",
    "request_reason": "General Service Request",
    "date_created": "2025-06-19T14:36:51.000",
    "date_modified": "2025-06-19T14:36:52.000",
    "request_status": "Pending",
    "responsible_agency": "Orleans Parish Communication District",
    "final_address": "5516 Dauphine St",
    "address_councildis": "E",
    "status": "Pending",
    "rowid": "1202543",
    "final_x": "3697555.75952",
    "final_y": "532620.609668",
    "longitude": "-90.01733238695968",
    "latitude": "29.958024713093863",
    "geocoded_column": {
      "latitude": "29.958024713093863",
      "longitude": "-90.01733238695968"
    }
  },
  {
    "service_request": "2025-1202542",
    "request_type": "General Services",
    "request_reason": "Abandoned/Junk Vehicles",
    "date_created": "2025-06-19T14:31:10.000",
    "date_modified": "2025-06-19T14:31:12.000",
    "request_status": "Pending",
    "responsible_agency": "Department of Public Works",
    "final_address": "1842 Broadway St",
    "address_councildis": "A",
    "status": "Pending",
    "rowid": "1202542",
    "final_x": "3665485.36692",
    "final_y": "528563.683264",
    "longitude": "-90.11873792568811",
    "latitude": "29.94784329749813",
    "geocoded_column": {
      "latitude": "29.94784329749813",
      "longitude": "-90.11873792568811"
    }
  },
  {
    "service_request": "2025-1202541",
    "request_type": "Trash/Recycling",
    "request_reason": "MIssed Recycling Pick-Up",
    "date_created": "2025-06-19T14:29:28.000",
    "date_modified": "2025-06-19T14:29:30.000",
    "request_status": "Pending",
    "responsible_agency": "Department of Sanitation",
    "final_address": "5516 Dauphine St",
    "address_councildis": "E",
    "status": "Assigned to Contractor",
    "contractor": "Waste Pro",
    "rowid": "1202541",
    "final_x": "3697555.75952",
    "final_y": "532620.609668",
    "longitude": "-90.01733238695968",
    "latitude": "29.958024713093863",
    "geocoded_column": {
      "latitude": "29.958024713093863",
      "longitude": "-90.01733238695968"
    }
  },
  {
    "service_request": "2025-1202540",
    "request_type": "Trash/Recycling",
    "request_reason": "MIssed Recycling Pick-Up",
    "date_created": "2025-06-19T14:28:11.000",
    "date_modified": "2025-06-19T14:28:13.000",
    "request_status": "Pending",
    "responsible_agency": "Department of Sanitation",
    "final_address": "5516 Dauphine St",
    "address_councildis": "E",
    "status": "Assigned to Contractor",
    "contractor": "Waste Pro",
    "rowid": "1202540",
    "final_x": "3697555.75952",
    "final_y": "532620.609668",
    "longitude": "-90.01733238695968",
    "latitude": "29.958024713093863",
    "geocoded_column": {
      "latitude": "29.958024713093863",
      "longitude": "-90.01733238695968"
    }
  },
  {
    "service_request": "2025-1202539",
    "request_type": "Trash/Recycling",
    "request_reason": "MIssed Recycling Pick-Up",
    "date_created": "2025-06-19T14:27:19.000",
    "date_modified": "2025-06-19T14:27:22.000",
    "request_status": "Pending",
    "responsible_agency": "Department of Sanitation",
    "final_address": "5516 Dauphine St",
    "address_councildis": "E",
    "status": "Assigned to Contractor",
    "contractor": "Waste Pro",
    "rowid": "1202539",
    "final_x": "3697555.75952",
    "final_y": "532620.609668",
    "longitude": "-90.01733238695968",
    "latitude": "29.958024713093863",
    "geocoded_column": {
      "latitude": "29.958024713093863",
      "longitude": "-90.01733238695968"
    }
  },
  {
    "service_request": "2025-1202538",
    "request_type": "General Services",
    "request_reason": "General Service Request",
    "date_created": "2025-06-19T14:25:16.000",
    "date_modified": "2025-06-19T14:25:18.000",
    "request_status": "Pending",
    "responsible_agency": "Orleans Parish Communication District",
    "final_address": "New Orleans,LA",
    "status": "Pending",
    "rowid": "1202538",
    "longitude": "0.0",
    "latitude": "0.0",
    "geocoded_column": {
      "latitude": "0.0",
      "longitude": "0.0"
    }
  },
  {
    "service_request": "2025-1202537",
    "request_type": "Drainage",
    "request_reason": "Catch Basin Clogged",
    "date_created": "2025-06-19T14:20:18.000",
    "date_modified": "2025-06-19T14:20:20.000",
    "request_status": "Pending",
    "responsible_agency": "Sewerage & Water Board",
    "final_address": "800 Germain St",
    "address_councildis": "A",
    "status": "Pending",
    "rowid": "1202537",
    "final_x": "3669334.23956",
    "final_y": "547813.218706",
    "longitude": "-90.10593442278575",
    "latitude": "30.000660300430518",
    "geocoded_column": {
      "latitude": "30.000660300430518",
      "longitude": "-90.10593442278575"
    }
  },
  {
    "service_request": "2025-1202536",
    "request_type": "Streetlights",
    "request_reason": "Streetlight Outage/Malfunction",
    "date_created": "2025-06-19T14:14:31.000",
    "date_modified": "2025-06-19T14:14:32.000",
    "request_status": "Pending",
    "responsible_agency": "Department of Public Works",
    "final_address": "1300 BLK Magazine St",
    "address_councildis": "B",
    "status": "Pending",
    "contractor": "Legacy Professional Services",
    "rowid": "1202536",
    "final_x": "3680499.17899",
    "final_y": "525061.394875",
    "longitude": "-90.0714551448706",
    "latitude": "29.937767031050225",
    "geocoded_column": {
      "latitude": "29.937767031050225",
      "longitude": "-90.0714551448706"
    }
  },
  {
    "service_request": "2025-1202535",
    "request_type": "Drainage",
    "request_reason": "Catch Basin Clogged",
    "date_created": "2025-06-19T14:13:16.000",
    "date_modified": "2025-06-19T14:13:18.000",
    "request_status": "Pending",
    "responsible_agency": "Sewerage & Water Board",
    "final_address": "800 Germain St",
    "address_councildis": "A",
    "status": "Pending",
    "rowid": "1202535",
    "final_x": "3669334.23956",
    "final_y": "547813.218706",
    "longitude": "-90.10593442278575",
    "latitude": "30.000660300430518",
    "geocoded_column": {
      "latitude": "30.000660300430518",
      "longitude": "-90.10593442278575"
    }
  },
  {
    "service_request": "2025-1202534",
    "request_type": "Streetlights",
    "request_reason": "Streetlight Outage/Malfunction",
    "date_created": "2025-06-19T14:09:15.000",
    "date_modified": "2025-06-19T14:09:17.000",
    "request_status": "Pending",
    "responsible_agency": "Department of Public Works",
    "final_address": "15 Stilt St",
    "address_councildis": "D",
    "status": "Pending",
    "contractor": "Legacy Professional Services",
    "rowid": "1202534",
    "final_x": "3672848.60507",
    "final_y": "557236.927323",
    "longitude": "-90.09451041705806",
    "latitude": "30.026468169295587",
    "geocoded_column": {
      "latitude": "30.026468169295587",
      "longitude": "-90.09451041705806"
    }
  },
  {
    "service_request": "2025-1202533",
    "request_type": "Streetlights",
    "request_reason": "Streetlight Outage/Malfunction",
    "date_created": "2025-06-19T14:07:01.000",
    "date_modified": "2025-06-19T14:07:04.000",
    "request_status": "Pending",
    "responsible_agency": "Department of Public Works",
    "final_address": "15 Stilt St",
    "address_councildis": "D",
    "status": "Pending",
    "contractor": "Legacy Professional Services",
    "rowid": "1202533",
    "final_x": "3672848.60507",
    "final_y": "557236.927323",
    "longitude": "-90.09451041705806",
    "latitude": "30.026468169295587",
    "geocoded_column": {
      "latitude": "30.026468169295587",
      "longitude": "-90.09451041705806"
    }
  },
  {
    "service_request": "2025-1202532",
    "request_type": "Trash/Recycling",
    "request_reason": "Missed Trash Pick-Up",
    "date_created": "2025-06-19T14:05:49.000",
    "date_modified": "2025-06-19T17:21:30.000",
    "case_close_date": "2025-06-19T12:21:25.000",
    "request_status": "Closed",
    "responsible_agency": "Department of Sanitation",
    "final_address": "2646 Allen Toussaint Blvd",
    "address_councildis": "D",
    "status": "Invalid Request",
    "contractor": "IV Waste",
    "contractor_action": "Invalid Request",
    "rowid": "1202532",
    "final_x": "3686839.07932",
    "final_y": "555926.612249",
    "longitude": "-90.05034855913685",
    "latitude": "30.022441966007037",
    "geocoded_column": {
      "latitude": "30.022441966007037",
      "longitude": "-90.05034855913685"
    }
  },
  {
    "service_request": "2025-1202531",
    "request_type": "Streetlights",
    "request_reason": "Streetlight Outage/Malfunction",
    "date_created": "2025-06-19T14:04:32.000",
    "date_modified": "2025-06-19T14:04:34.000",
    "request_status": "Pending",
    "responsible_agency": "Department of Public Works",
    "final_address": "15 Stilt St",
    "address_councildis": "D",
    "status": "Pending",
    "contractor": "Legacy Professional Services",
    "rowid": "1202531",
    "final_x": "3672848.60507",
    "final_y": "557236.927323",
    "longitude": "-90.09451041705806",
    "latitude": "30.026468169295587",
    "geocoded_column": {
      "latitude": "30.026468169295587",
      "longitude": "-90.09451041705806"
    }
  },
  {
    "service_request": "2025-1202530",
    "request_type": "Traffic Signals",
    "request_reason": "Traffic Signal Malfunctioning or Damaged",
    "date_created": "2025-06-19T13:58:47.000",
    "date_modified": "2025-06-19T13:58:49.000",
    "request_status": "Pending",
    "responsible_agency": "Department of Public Works",
    "final_address": "2549 Esplanade Ave",
    "address_councildis": "D",
    "status": "Pending",
    "rowid": "1202530",
    "final_x": "3678324.98766",
    "final_y": "538921.00961",
    "longitude": "-90.07783980834142",
    "latitude": "29.97594195876407",
    "geocoded_column": {
      "latitude": "29.97594195876407",
      "longitude": "-90.07783980834142"
    }
  },
  {
    "service_request": "2025-1202529",
    "request_type": "Trash/Recycling",
    "request_reason": "Request a Large Item Pick Up",
    "date_created": "2025-06-19T13:52:17.000",
    "date_modified": "2025-06-19T13:52:19.000",
    "request_status": "Pending",
    "responsible_agency": "Department of Sanitation",
    "final_address": "2640 St Ann St",
    "address_councildis": "D",
    "status": "Assigned to Contractor",
    "contractor": "IV Waste",
    "rowid": "1202529",
    "final_x": "3677054.55278",
    "final_y": "537067.887688",
    "longitude": "-90.08191612845049",
    "latitude": "29.97088472231868",
    "geocoded_column": {
      "latitude": "29.97088472231868",
      "longitude": "-90.08191612845049"
    }
  },
  {
    "service_request": "2025-1202528",
    "request_type": "Trash/Recycling",
    "request_reason": "Request a Large Item Pick Up",
    "date_created": "2025-06-19T13:41:12.000",
    "date_modified": "2025-06-19T13:50:54.000",
    "request_status": "Pending",
    "responsible_agency": "Department of Sanitation",
    "final_address": "3016 Carondelet St",
    "address_councildis": "B",
    "status": "Assigned to Contractor",
    "contractor": "IV Waste",
    "rowid": "1202528",
    "final_x": "3674919.28501",
    "final_y": "522296.511226",
    "longitude": "-90.0891661142654",
    "latitude": "29.930332288110137",
    "geocoded_column": {
      "latitude": "29.930332288110137",
      "longitude": "-90.0891661142654"
    }
  },
  {
    "service_request": "2025-1202527",
    "request_type": "Roads and Streets",
    "request_reason": "Pothole",
    "date_created": "2025-06-19T13:40:49.000",
    "date_modified": "2025-06-19T14:49:57.000",
    "case_close_date": "2025-06-19T09:49:56.000",
    "request_status": "Closed",
    "responsible_agency": "Department of Public Works",
    "final_address": "4236 Mithra St",
    "address_councildis": "D",
    "status": "Duplicate Request",
    "rowid": "1202527",
    "final_x": "3689643.43862",
    "final_y": "553041.555927",
    "longitude": "-90.0415902547092",
    "latitude": "30.014422496726098",
    "geocoded_column": {
      "latitude": "30.014422496726098",
      "longitude": "-90.0415902547092"
    }
  },
  {
    "service_request": "2025-1202526",
    "request_type": "Roads and Streets",
    "request_reason": "Pothole",
    "date_created": "2025-06-19T13:36:14.000",
    "date_modified": "2025-06-19T13:36:16.000",
    "request_status": "Pending",
    "responsible_agency": "Department of Public Works",
    "final_address": "11120 Winchester Park Dr",
    "address_councildis": "E",
    "status": "Pending",
    "rowid": "1202526",
    "final_x": "3715044.51826",
    "final_y": "561186.714142",
    "longitude": "-89.96102810195885",
    "latitude": "30.0360066194624",
    "geocoded_column": {
      "latitude": "30.0360066194624",
      "longitude": "-89.96102810195885"
    }
  },
  {
    "service_request": "2025-1202525",
    "request_type": "Trash/Recycling",
    "request_reason": "Request a Large Item Pick Up",
    "date_created": "2025-06-19T13:35:11.000",
    "date_modified": "2025-06-19T13:35:12.000",
    "request_status": "Pending",
    "responsible_agency": "Department of Sanitation",
    "final_address": "5411 Mckenna St",
    "address_councildis": "A",
    "status": "Assigned to Contractor",
    "contractor": "IV Waste",
    "rowid": "1202525",
    "final_x": "3668863.69914",
    "final_y": "529055.638528",
    "longitude": "-90.10805454419828",
    "latitude": "29.949097114830185",
    "geocoded_column": {
      "latitude": "29.949097114830185",
      "longitude": "-90.10805454419828"
    }
  },
  {
    "service_request": "2025-1202524",
    "request_type": "Abandoned Vehicles",
    "request_reason": "Abandoned/Junk Vehicles",
    "date_created": "2025-06-19T13:30:38.000",
    "date_modified": "2025-06-19T13:30:40.000",
    "request_status": "Pending",
    "responsible_agency": "Department of Public Works",
    "final_address": "814 Alvar St",
    "address_councildis": "C",
    "status": "Pending",
    "rowid": "1202524",
    "final_x": "3691206.5702",
    "final_y": "534371.339205",
    "longitude": "-90.03731874616955",
    "latitude": "29.96303758720966",
    "geocoded_column": {
      "latitude": "29.96303758720966",
      "longitude": "-90.03731874616955"
    }
  },
  {
    "service_request": "2025-1202523",
    "request_type": "Streetlights",
    "request_reason": "Streetlight Outage/Malfunction",
    "date_created": "2025-06-19T13:26:58.000",
    "date_modified": "2025-06-19T13:26:59.000",
    "request_status": "Pending",
    "responsible_agency": "Department of Public Works",
    "final_address": "4713 Bright Dr",
    "address_councildis": "E",
    "status": "Pending",
    "contractor": "Legacy Professional Services",
    "rowid": "1202523",
    "final_x": "3715915.48204",
    "final_y": "556782.904602",
    "longitude": "-89.95844271092068",
    "latitude": "30.023869194760447",
    "geocoded_column": {
      "latitude": "30.023869194760447",
      "longitude": "-89.95844271092068"
    }
  },
  {
    "service_request": "2025-1202522",
    "request_type": "Parks & Parkways",
    "request_reason": "Request Tree Service (Right of Way/Public Property)",
    "date_created": "2025-06-19T13:25:29.000",
    "date_modified": "2025-06-19T13:25:32.000",
    "request_status": "Pending",
    "responsible_agency": "Department of Parks & Parkway",
    "final_address": "2200 Frenchmen St",
    "address_councildis": "D",
    "status": "Pending",
    "rowid": "1202522",
    "final_x": "3684164.19349",
    "final_y": "540396.970763",
    "longitude": "-90.05934612014134",
    "latitude": "29.97982312034755",
    "geocoded_column": {
      "latitude": "29.97982312034755",
      "longitude": "-90.05934612014134"
    }
  },
  {
    "service_request": "2025-1202521",
    "request_type": "Trash/Recycling",
    "request_reason": "Request a Large Item Pick Up",
    "date_created": "2025-06-19T13:23:44.000",
    "date_modified": "2025-06-19T13:23:46.000",
    "request_status": "Pending",
    "responsible_agency": "Department of Sanitation",
    "final_address": "2639 Valentine Ct",
    "address_councildis": "C",
    "status": "Assigned to Contractor",
    "contractor": "Richards Disposal",
    "rowid": "1202521",
    "final_x": "3699033.38084",
    "final_y": "521171.126713",
    "longitude": "-90.01308307377346",
    "latitude": "29.926495886125274",
    "geocoded_column": {
      "latitude": "29.926495886125274",
      "longitude": "-90.01308307377346"
    }
  },
  {
    "service_request": "2025-1202520",
    "request_type": "Streetlights",
    "request_reason": "Streetlight Outage/Malfunction",
    "date_created": "2025-06-19T13:14:46.000",
    "date_modified": "2025-06-19T13:14:48.000",
    "request_status": "Pending",
    "responsible_agency": "Department of Public Works",
    "final_address": "5318 General Diaz St",
    "address_councildis": "A",
    "status": "Pending",
    "contractor": "Legacy Professional Services",
    "rowid": "1202520",
    "final_x": "3668940.6233",
    "final_y": "542682.180429",
    "longitude": "-90.10735131803906",
    "latitude": "29.98656329757556",
    "geocoded_column": {
      "latitude": "29.98656329757556",
      "longitude": "-90.10735131803906"
    }
  },
  {
    "service_request": "2025-1202519",
    "request_type": "Roads and Streets",
    "request_reason": "Debris in Driving Lanes",
    "date_created": "2025-06-19T13:07:38.000",
    "date_modified": "2025-06-19T13:07:39.000",
    "request_status": "Pending",
    "responsible_agency": "Department of Public Works",
    "final_address": "5318 General Diaz St",
    "address_councildis": "A",
    "status": "Pending",
    "rowid": "1202519",
    "final_x": "3668940.6233",
    "final_y": "542682.180429",
    "longitude": "-90.10735131803906",
    "latitude": "29.98656329757556",
    "geocoded_column": {
      "latitude": "29.98656329757556",
      "longitude": "-90.10735131803906"
    }
  },
  {
    "service_request": "2025-1202518",
    "request_type": "General Services",
    "request_reason": "General Service Request",
    "date_created": "2025-06-19T13:06:02.000",
    "date_modified": "2025-06-19T13:06:04.000",
    "request_status": "Pending",
    "responsible_agency": "Orleans Parish Communication District",
    "final_address": "3020 Milan St",
    "address_councildis": "B",
    "status": "Pending",
    "rowid": "1202518",
    "final_x": "3671020.56494",
    "final_y": "526192.116094",
    "longitude": "-90.10134157045746",
    "latitude": "29.941159768580846",
    "geocoded_column": {
      "latitude": "29.941159768580846",
      "longitude": "-90.10134157045746"
    }
  },
  {
    "service_request": "2025-1202517",
    "request_type": "Trash/Recycling",
    "request_reason": "Request a Large Item Pick Up",
    "date_created": "2025-06-19T13:05:37.000",
    "date_modified": "2025-06-19T13:05:38.000",
    "request_status": "Pending",
    "responsible_agency": "Department of Sanitation",
    "final_address": "3310 Magazine St",
    "address_councildis": "B",
    "status": "Assigned to Contractor",
    "contractor": "IV Waste",
    "rowid": "1202517",
    "final_x": "3675311.25057",
    "final_y": "519705.878392",
    "longitude": "-90.08801762084411",
    "latitude": "29.923197176868143",
    "geocoded_column": {
      "latitude": "29.923197176868143",
      "longitude": "-90.08801762084411"
    }
  },
  {
    "service_request": "2025-1202516",
    "request_type": "Abandoned Vehicles",
    "request_reason": "Abandoned/Junk Vehicles",
    "date_created": "2025-06-19T12:57:47.000",
    "date_modified": "2025-06-19T12:57:48.000",
    "request_status": "Pending",
    "responsible_agency": "Department of Public Works",
    "final_address": "5045 General Meyer Ave",
    "address_councildis": "C",
    "status": "Pending",
    "rowid": "1202516",
    "final_x": "3702889.06295",
    "final_y": "522734.95193",
    "longitude": "-90.00085443846639",
    "latitude": "29.93067314347511",
    "geocoded_column": {
      "latitude": "29.93067314347511",
      "longitude": "-90.00085443846639"
    }
  },
  {
    "service_request": "2025-1202515",
    "request_type": "Trash/Recycling",
    "request_reason": "Damaged Caused By Contractor",
    "date_created": "2025-06-19T12:57:21.000",
    "date_modified": "2025-06-19T12:57:22.000",
    "request_status": "Pending",
    "responsible_agency": "Department of Sanitation",
    "final_address": "5119 Magazine St",
    "address_councildis": "B",
    "status": "Assigned to Contractor",
    "contractor": "IV Waste",
    "rowid": "1202515",
    "final_x": "3668168.20225",
    "final_y": "518689.752119",
    "longitude": "-90.11059979983213",
    "latitude": "29.920614679954635",
    "geocoded_column": {
      "latitude": "29.920614679954635",
      "longitude": "-90.11059979983213"
    }
  },
  {
    "service_request": "2025-1202514",
    "request_type": "Roads and Streets",
    "request_reason": "Abandoned Service Cut",
    "date_created": "2025-06-19T12:54:51.000",
    "date_modified": "2025-06-19T12:54:54.000",
    "request_status": "Pending",
    "responsible_agency": "Department of Public Works",
    "final_address": "1915 N Tonti St",
    "address_councildis": "D",
    "status": "Pending",
    "rowid": "1202514",
    "final_x": "3682191.50703",
    "final_y": "540565.172747",
    "longitude": "-90.0655707890297",
    "latitude": "29.980345777822365",
    "geocoded_column": {
      "latitude": "29.980345777822365",
      "longitude": "-90.0655707890297"
    }
  },
  {
    "service_request": "2025-1202513",
    "request_type": "Abandoned Vehicles",
    "request_reason": "Abandoned/Junk Vehicles",
    "date_created": "2025-06-19T12:52:38.000",
    "date_modified": "2025-06-19T12:52:39.000",
    "request_status": "Pending",
    "responsible_agency": "Department of Public Works",
    "final_address": "2301 Holiday Dr",
    "address_councildis": "C",
    "status": "Pending",
    "rowid": "1202513",
    "final_x": "3698796.48458",
    "final_y": "522931.851963",
    "longitude": "-90.01376687700736",
    "latitude": "29.931344778137085",
    "geocoded_column": {
      "latitude": "29.931344778137085",
      "longitude": "-90.01376687700736"
    }
  },
  {
    "service_request": "2025-1202511",
    "request_type": "Trash/Recycling",
    "request_reason": "Missed Trash Pick-Up",
    "date_created": "2025-06-19T12:36:02.000",
    "date_modified": "2025-06-19T13:58:42.000",
    "case_close_date": "2025-06-19T08:58:40.000",
    "request_status": "Closed",
    "responsible_agency": "Department of Sanitation",
    "final_address": "1002 Webster St",
    "address_councildis": "A",
    "status": "Invalid Request",
    "contractor": "IV Waste",
    "contractor_action": "Invalid",
    "rowid": "1202511",
    "final_x": "3664323.47533",
    "final_y": "520121.80012",
    "longitude": "-90.12268811496875",
    "latitude": "29.92466461597678",
    "geocoded_column": {
      "latitude": "29.92466461597678",
      "longitude": "-90.12268811496875"
    }
  },
  {
    "service_request": "2025-1202510",
    "request_type": "Trash/Recycling",
    "request_reason": "Request a Large Item Pick Up",
    "date_created": "2025-06-19T12:25:34.000",
    "date_modified": "2025-06-19T12:25:38.000",
    "request_status": "Pending",
    "responsible_agency": "Department of Sanitation",
    "final_address": "3301 Plymouth Pl",
    "address_councildis": "C",
    "status": "Assigned to Contractor",
    "contractor": "Richards Disposal",
    "rowid": "1202510",
    "final_x": "3702746.85482",
    "final_y": "519120.117495",
    "longitude": "-90.00143600986202",
    "latitude": "29.92073814692604",
    "geocoded_column": {
      "latitude": "29.92073814692604",
      "longitude": "-90.00143600986202"
    }
  },
  {
    "service_request": "2025-1202509",
    "request_type": "Property Maintenance",
    "request_reason": "Property Maintenance",
    "date_created": "2025-06-19T12:22:45.000",
    "date_modified": "2025-06-19T12:22:47.000",
    "request_status": "Pending",
    "responsible_agency": "Department of Code Enforcement",
    "final_address": "4645 Francis Dr",
    "address_councildis": "D",
    "status": "Pending",
    "rowid": "1202509",
    "final_x": "3698333.42704",
    "final_y": "553869.777687",
    "longitude": "-90.01410422369199",
    "latitude": "30.016427562756732",
    "geocoded_column": {
      "latitude": "30.016427562756732",
      "longitude": "-90.01410422369199"
    }
  },
  {
    "service_request": "2025-1202508",
    "request_type": "Trash/Recycling",
    "request_reason": "Damaged Caused By Contractor",
    "date_created": "2025-06-19T12:21:53.000",
    "date_modified": "2025-06-19T12:21:56.000",
    "request_status": "Pending",
    "responsible_agency": "Department of Sanitation",
    "final_address": "3600 Simms St",
    "address_councildis": "C",
    "status": "Assigned to Contractor",
    "contractor": "Richards Disposal",
    "rowid": "1202508",
    "final_x": "3714016.54687",
    "final_y": "516828.794101",
    "longitude": "-89.96594947042061",
    "latitude": "29.914072811125607",
    "geocoded_column": {
      "latitude": "29.914072811125607",
      "longitude": "-89.96594947042061"
    }
  },
  {
    "service_request": "2025-1202507",
    "request_type": "Property Maintenance",
    "request_reason": "Property Maintenance",
    "date_created": "2025-06-19T12:15:47.000",
    "date_modified": "2025-06-19T12:15:49.000",
    "request_status": "Pending",
    "responsible_agency": "Department of Code Enforcement",
    "final_address": "4659 Francis Dr",
    "address_councildis": "D",
    "status": "Pending",
    "rowid": "1202507",
    "final_x": "3698314.39671",
    "final_y": "553985.476888",
    "longitude": "-90.01416014240242",
    "latitude": "30.016746294204232",
    "geocoded_column": {
      "latitude": "30.016746294204232",
      "longitude": "-90.01416014240242"
    }
  },
  {
    "service_request": "2025-1202506",
    "request_type": "Abandoned Vehicles",
    "request_reason": "Abandoned/Junk Vehicles",
    "date_created": "2025-06-19T12:14:55.000",
    "date_modified": "2025-06-19T12:14:57.000",
    "request_status": "Pending",
    "responsible_agency": "Department of Public Works",
    "final_address": "2607 N Rampart St",
    "address_councildis": "C",
    "status": "Pending",
    "rowid": "1202506",
    "final_x": "3687089.45257",
    "final_y": "536042.885063",
    "longitude": "-90.05026096506194",
    "latitude": "29.967761158450713",
    "geocoded_column": {
      "latitude": "29.967761158450713",
      "longitude": "-90.05026096506194"
    }
  },
  {
    "service_request": "2025-1202505",
    "request_type": "Safety & Permits",
    "request_reason": "Licenses & Permits",
    "date_created": "2025-06-19T12:12:23.000",
    "date_modified": "2025-06-19T12:12:26.000",
    "request_status": "Pending",
    "responsible_agency": "Safety and Permits",
    "final_address": "3040 Bruxelles St",
    "address_councildis": "D",
    "status": "Pending",
    "rowid": "1202505",
    "final_x": "3680209.71771",
    "final_y": "543673.879566",
    "longitude": "-90.071722016211",
    "latitude": "29.988953776619294",
    "geocoded_column": {
      "latitude": "29.988953776619294",
      "longitude": "-90.071722016211"
    }
  },
  {
    "service_request": "2025-1202504",
    "request_type": "Trash/Recycling",
    "request_reason": "Start Trash Service",
    "date_created": "2025-06-19T12:08:06.000",
    "date_modified": "2025-06-19T14:23:10.000",
    "case_close_date": "2025-06-19T09:23:09.000",
    "request_status": "Closed",
    "responsible_agency": "Department of Sanitation",
    "final_address": "1807 Jena St",
    "address_councildis": "B",
    "status": "Invalid Request",
    "contractor": "IV Waste",
    "contractor_action": "Invalid",
    "rowid": "1202504",
    "final_x": "3670403.79175",
    "final_y": "521631.027449",
    "longitude": "-90.10344340853035",
    "latitude": "29.92863646440958",
    "geocoded_column": {
      "latitude": "29.92863646440958",
      "longitude": "-90.10344340853035"
    }
  },
  {
    "service_request": "2025-1202503",
    "request_type": "Roads and Streets",
    "request_reason": "Pothole",
    "date_created": "2025-06-19T11:55:53.000",
    "date_modified": "2025-06-19T11:55:54.000",
    "request_status": "Pending",
    "responsible_agency": "Department of Public Works",
    "final_address": "4238 Pitt St",
    "address_councildis": "B",
    "status": "Pending",
    "rowid": "1202503",
    "final_x": "3671359.82235",
    "final_y": "520581.152504",
    "longitude": "-90.10046107301793",
    "latitude": "29.92572139386237",
    "geocoded_column": {
      "latitude": "29.92572139386237",
      "longitude": "-90.10046107301793"
    }
  },
  {
    "service_request": "2025-1202502",
    "request_type": "Roads and Streets",
    "request_reason": "Pothole",
    "date_created": "2025-06-19T11:50:09.000",
    "date_modified": "2025-06-19T11:50:11.000",
    "request_status": "Pending",
    "responsible_agency": "Department of Public Works",
    "final_address": "2241 Joliet St",
    "address_councildis": "A",
    "status": "Pending",
    "rowid": "1202502",
    "final_x": "3663520.44333",
    "final_y": "532148.882435",
    "longitude": "-90.124822609427",
    "latitude": "29.95775856049855",
    "geocoded_column": {
      "latitude": "29.95775856049855",
      "longitude": "-90.124822609427"
    }
  },
  {
    "service_request": "2025-1202501",
    "request_type": "Trash/Recycling",
    "request_reason": "Request a Large Item Pick Up",
    "date_created": "2025-06-19T11:43:44.000",
    "date_modified": "2025-06-19T11:58:02.000",
    "request_status": "Pending",
    "responsible_agency": "Department of Sanitation",
    "final_address": "1551 N Miro St",
    "address_councildis": "D",
    "status": "Assigned to Contractor",
    "contractor": "IV Waste",
    "rowid": "1202501",
    "final_x": "3680265.13307",
    "final_y": "538860.517193",
    "longitude": "-90.07171437788986",
    "latitude": "29.975717030448344",
    "geocoded_column": {
      "latitude": "29.975717030448344",
      "longitude": "-90.07171437788986"
    }
  },
  {
    "service_request": "2025-1202500",
    "request_type": "Trash/Recycling",
    "request_reason": "Request a Large Item Pick Up",
    "date_created": "2025-06-19T11:26:50.000",
    "date_modified": "2025-06-19T11:26:52.000",
    "request_status": "Pending",
    "responsible_agency": "Department of Sanitation",
    "final_address": "1580 N Miro St",
    "address_councildis": "D",
    "status": "Assigned to Contractor",
    "contractor": "IV Waste",
    "rowid": "1202500",
    "final_x": "3680483.16987",
    "final_y": "539010.153994",
    "longitude": "-90.071020550592",
    "latitude": "29.976121877006044",
    "geocoded_column": {
      "latitude": "29.976121877006044",
      "longitude": "-90.071020550592"
    }
  },
  {
    "service_request": "2025-1202499",
    "request_type": "Trash/Recycling",
    "request_reason": "Return Trash Cart",
    "date_created": "2025-06-19T11:21:34.000",
    "date_modified": "2025-06-19T11:21:35.000",
    "request_status": "Pending",
    "responsible_agency": "Department of Sanitation",
    "final_address": "1010 Harmony St",
    "address_councildis": "B",
    "status": "Assigned to Contractor",
    "contractor": "IV Waste",
    "rowid": "1202499",
    "final_x": "3675886.1076",
    "final_y": "519734.86892",
    "longitude": "-90.086202018809",
    "latitude": "29.923259700004266",
    "geocoded_column": {
      "latitude": "29.923259700004266",
      "longitude": "-90.086202018809"
    }
  },
  {
    "service_request": "2025-1202498",
    "request_type": "Property Maintenance",
    "request_reason": "Property Maintenance",
    "date_created": "2025-06-19T11:16:43.000",
    "date_modified": "2025-06-19T11:16:45.000",
    "request_status": "Pending",
    "responsible_agency": "Department of Code Enforcement",
    "final_address": "4501 Lennox Blvd",
    "address_councildis": "C",
    "status": "Pending",
    "rowid": "1202498",
    "final_x": "3700703.76669",
    "final_y": "514548.270899",
    "longitude": "-90.00805196877866",
    "latitude": "29.908232267688284",
    "geocoded_column": {
      "latitude": "29.908232267688284",
      "longitude": "-90.00805196877866"
    }
  },
  {
    "service_request": "2025-1202497",
    "request_type": "Trash/Recycling",
    "request_reason": "Request a Large Item Pick Up",
    "date_created": "2025-06-19T11:16:00.000",
    "date_modified": "2025-06-19T11:16:03.000",
    "request_status": "Pending",
    "responsible_agency": "Department of Sanitation",
    "final_address": "6417 Paris Ave",
    "address_councildis": "D",
    "status": "Assigned to Contractor",
    "contractor": "IV Waste",
    "rowid": "1202497",
    "final_x": "3678240.21749",
    "final_y": "557151.449307",
    "longitude": "-90.0774764854986",
    "latitude": "30.02607175409425",
    "geocoded_column": {
      "latitude": "30.02607175409425",
      "longitude": "-90.0774764854986"
    }
  },
  {
    "service_request": "2025-1202496",
    "request_type": "Property Maintenance",
    "request_reason": "Property Maintenance",
    "date_created": "2025-06-19T11:14:02.000",
    "date_modified": "2025-06-19T11:14:03.000",
    "request_status": "Pending",
    "responsible_agency": "Department of Code Enforcement",
    "final_address": "4757 Mandeville St",
    "address_councildis": "D",
    "status": "Pending",
    "rowid": "1202496",
    "final_x": "3684771.56021",
    "final_y": "550578.416596",
    "longitude": "-90.05706963652352",
    "latitude": "30.007799877834394",
    "geocoded_column": {
      "latitude": "30.007799877834394",
      "longitude": "-90.05706963652352"
    }
  },
  {
    "service_request": "2025-1202495",
    "request_type": "Trash/Recycling",
    "request_reason": "Missed Trash Pick-Up",
    "date_created": "2025-06-19T11:13:42.000",
    "date_modified": "2025-06-19T12:05:05.000",
    "case_close_date": "2025-06-19T07:05:04.000",
    "request_status": "Closed",
    "responsible_agency": "Department of Sanitation",
    "final_address": "3723 General Taylor St",
    "address_councildis": "B",
    "status": "Invalid Request",
    "contractor": "IV Waste",
    "contractor_action": "Invalid",
    "rowid": "1202495",
    "final_x": "3670942.98343",
    "final_y": "528438.939904",
    "longitude": "-90.10151025087941",
    "latitude": "29.947340094742106",
    "geocoded_column": {
      "latitude": "29.947340094742106",
      "longitude": "-90.10151025087941"
    }
  },
  {
    "service_request": "2025-1202494",
    "request_type": "General Services",
    "request_reason": "General Service Request",
    "date_created": "2025-06-19T11:12:02.000",
    "date_modified": "2025-06-19T11:12:03.000",
    "request_status": "Pending",
    "responsible_agency": "Orleans Parish Communication District",
    "final_address": "6417 Paris Ave",
    "address_councildis": "D",
    "status": "Pending",
    "rowid": "1202494",
    "final_x": "3678240.21749",
    "final_y": "557151.449307",
    "longitude": "-90.0774764854986",
    "latitude": "30.02607175409425",
    "geocoded_column": {
      "latitude": "30.02607175409425",
      "longitude": "-90.0774764854986"
    }
  },
  {
    "service_request": "2025-1202493",
    "request_type": "Trash/Recycling",
    "request_reason": "Repair Recycling Cart",
    "date_created": "2025-06-19T11:11:53.000",
    "date_modified": "2025-06-19T11:11:56.000",
    "request_status": "Pending",
    "responsible_agency": "Department of Sanitation",
    "final_address": "2005 Clouet St",
    "address_councildis": "D",
    "status": "Pending",
    "rowid": "1202493",
    "final_x": "3689941.03683",
    "final_y": "539429.81889",
    "longitude": "-90.04113498955452",
    "latitude": "29.976985924079482",
    "geocoded_column": {
      "latitude": "29.976985924079482",
      "longitude": "-90.04113498955452"
    }
  },
  {
    "service_request": "2025-1202492",
    "request_type": "Trash/Recycling",
    "request_reason": "Repair Recycling Cart",
    "date_created": "2025-06-19T11:08:01.000",
    "date_modified": "2025-06-19T11:08:02.000",
    "request_status": "Pending",
    "responsible_agency": "Department of Sanitation",
    "final_address": "711 Bartholomew St",
    "address_councildis": "C",
    "status": "Pending",
    "rowid": "1202492",
    "final_x": "3691477.37852",
    "final_y": "533892.782725",
    "longitude": "-90.03648067348398",
    "latitude": "29.961713299484526",
    "geocoded_column": {
      "latitude": "29.961713299484526",
      "longitude": "-90.03648067348398"
    }
  },
  {
    "service_request": "2025-1202491",
    "request_type": "Roads and Streets",
    "request_reason": "Street Flooding",
    "date_created": "2025-06-19T11:07:54.000",
    "date_modified": "2025-06-19T11:07:56.000",
    "request_status": "Pending",
    "responsible_agency": "Sewerage & Water Board",
    "final_address": "2522 Eagle St New Orleans LA 70118",
    "address_councildis": "A",
    "status": "Pending",
    "rowid": "1202491",
    "final_x": "3663386.46067",
    "final_y": "533673.168645",
    "longitude": "-90.12519494044874",
    "latitude": "29.96195373563238",
    "geocoded_column": {
      "latitude": "29.96195373563238",
      "longitude": "-90.12519494044874"
    }
  },
  {
    "service_request": "2025-1202490",
    "request_type": "General Services",
    "request_reason": "General Service Request",
    "date_created": "2025-06-19T11:07:46.000",
    "date_modified": "2025-06-19T11:07:48.000",
    "request_status": "Pending",
    "responsible_agency": "Orleans Parish Communication District",
    "final_address": "5628 Peoples Ave",
    "address_councildis": "D",
    "status": "Pending",
    "rowid": "1202490",
    "final_x": "3687843.98601",
    "final_y": "553975.466072",
    "longitude": "-90.04724250155728",
    "latitude": "30.017046060807132",
    "geocoded_column": {
      "latitude": "30.017046060807132",
      "longitude": "-90.04724250155728"
    }
  },
  {
    "service_request": "2025-1202489",
    "request_type": "Abandoned Vehicles",
    "request_reason": "Abandoned/Junk Vehicles",
    "date_created": "2025-06-19T11:05:03.000",
    "date_modified": "2025-06-19T11:05:05.000",
    "request_status": "Pending",
    "responsible_agency": "Department of Public Works",
    "final_address": "1013 Louisa St",
    "address_councildis": "C",
    "status": "Pending",
    "rowid": "1202489",
    "final_x": "3689515.10927",
    "final_y": "535544.27559",
    "longitude": "-90.04261843445731",
    "latitude": "29.966315248915592",
    "geocoded_column": {
      "latitude": "29.966315248915592",
      "longitude": "-90.04261843445731"
    }
  },
  {
    "service_request": "2025-1202488",
    "request_type": "Roads and Streets",
    "request_reason": "Pothole",
    "date_created": "2025-06-19T10:56:48.000",
    "date_modified": "2025-06-19T10:56:49.000",
    "request_status": "Pending",
    "responsible_agency": "Department of Public Works",
    "final_address": "4200 BLK Mithra St",
    "address_councildis": "D",
    "status": "Pending",
    "rowid": "1202488",
    "final_x": "3689513.60125",
    "final_y": "553099.432303",
    "longitude": "-90.04199841450406",
    "latitude": "30.014585659348835",
    "geocoded_column": {
      "latitude": "30.014585659348835",
      "longitude": "-90.04199841450406"
    }
  },
  {
    "service_request": "2025-1202487",
    "request_type": "Trash/Recycling",
    "request_reason": "Request a Large Item Pick Up",
    "date_created": "2025-06-19T10:54:23.000",
    "date_modified": "2025-06-19T10:54:25.000",
    "request_status": "Pending",
    "responsible_agency": "Department of Sanitation",
    "final_address": "3661 Plymouth Pl",
    "address_councildis": "C",
    "status": "Assigned to Contractor",
    "contractor": "Richards Disposal",
    "rowid": "1202487",
    "final_x": "3702688.25585",
    "final_y": "517129.575989",
    "longitude": "-90.00169399889872",
    "latitude": "29.915266714296404",
    "geocoded_column": {
      "latitude": "29.915266714296404",
      "longitude": "-90.00169399889872"
    }
  },
  {
    "service_request": "2025-1202486",
    "request_type": "Abandoned Vehicles",
    "request_reason": "Abandoned/Junk Vehicles",
    "date_created": "2025-06-19T10:51:43.000",
    "date_modified": "2025-06-19T10:51:45.000",
    "request_status": "Pending",
    "responsible_agency": "Department of Public Works",
    "final_address": "7515 Jeannette St",
    "address_councildis": "A",
    "status": "Pending",
    "rowid": "1202486",
    "final_x": "3664187.73037",
    "final_y": "527843.761727",
    "longitude": "-90.12285911174077",
    "latitude": "29.945901502739765",
    "geocoded_column": {
      "latitude": "29.945901502739765",
      "longitude": "-90.12285911174077"
    }
  },
  {
    "service_request": "2025-1202485",
    "request_type": "Health Related Request",
    "request_reason": "Homeless Encampment Complaint",
    "date_created": "2025-06-19T10:51:34.000",
    "date_modified": "2025-06-19T10:51:36.000",
    "request_status": "Pending",
    "responsible_agency": "Health Department",
    "final_address": "1007 Music St",
    "address_councildis": "C",
    "status": "Pending",
    "rowid": "1202485",
    "final_x": "3686933.96649",
    "final_y": "536149.756935",
    "longitude": "-90.05074821548432",
    "latitude": "29.968059805308027",
    "geocoded_column": {
      "latitude": "29.968059805308027",
      "longitude": "-90.05074821548432"
    }
  },
  {
    "service_request": "2025-1202484",
    "request_type": "Trash/Recycling",
    "request_reason": "Replace Trash Cart",
    "date_created": "2025-06-19T10:50:00.000",
    "date_modified": "2025-06-19T10:50:03.000",
    "request_status": "Pending",
    "responsible_agency": "Department of Sanitation",
    "final_address": "6220 York St",
    "address_councildis": "A",
    "status": "Assigned to Contractor",
    "contractor": "IV Waste",
    "rowid": "1202484",
    "final_x": "3667701.74561",
    "final_y": "529000.160384",
    "longitude": "-90.11172521990024",
    "latitude": "29.948978681704354",
    "geocoded_column": {
      "latitude": "29.948978681704354",
      "longitude": "-90.11172521990024"
    }
  },
  {
    "service_request": "2025-1202483",
    "request_type": "Trash/Recycling",
    "request_reason": "Missed Trash Pick-Up",
    "date_created": "2025-06-19T10:44:13.000",
    "date_modified": "2025-06-19T11:18:24.000",
    "case_close_date": "2025-06-19T06:18:23.000",
    "request_status": "Closed",
    "responsible_agency": "Department of Sanitation",
    "final_address": "1417 Burdette St",
    "address_councildis": "A",
    "status": "Invalid Request",
    "contractor": "IV Waste",
    "contractor_action": "Invalid",
    "rowid": "1202483",
    "final_x": "3663403.81632",
    "final_y": "528225.928896",
    "longitude": "-90.12532148264792",
    "latitude": "29.946975087472104",
    "geocoded_column": {
      "latitude": "29.946975087472104",
      "longitude": "-90.12532148264792"
    }
  },
  {
    "service_request": "2025-1202482",
    "request_type": "Trash/Recycling",
    "request_reason": "Replace Trash Cart",
    "date_created": "2025-06-19T10:43:14.000",
    "date_modified": "2025-06-19T10:43:17.000",
    "request_status": "Pending",
    "responsible_agency": "Department of Sanitation",
    "final_address": "18 Pinewood Ct",
    "address_councildis": "C",
    "status": "Assigned to Contractor",
    "contractor": "Richards Disposal",
    "rowid": "1202482",
    "final_x": "3695976.1855",
    "final_y": "522936.375419",
    "longitude": "-90.02267000183505",
    "latitude": "29.931446221156612",
    "geocoded_column": {
      "latitude": "29.931446221156612",
      "longitude": "-90.02267000183505"
    }
  },
  {
    "service_request": "2025-1202481",
    "request_type": "Streetlights",
    "request_reason": "Streetlight Outage/Malfunction",
    "date_created": "2025-06-19T10:40:27.000",
    "date_modified": "2025-06-19T10:40:29.000",
    "request_status": "Pending",
    "responsible_agency": "Department of Public Works",
    "final_address": "2925 St Ann St",
    "address_councildis": "A",
    "status": "Pending",
    "contractor": "Legacy Professional Services",
    "rowid": "1202481",
    "final_x": "3676071.67643",
    "final_y": "537925.587081",
    "longitude": "-90.08499066926001",
    "latitude": "29.97327258239066",
    "geocoded_column": {
      "latitude": "29.97327258239066",
      "longitude": "-90.08499066926001"
    }
  },
  {
    "service_request": "2025-1202480",
    "request_type": "Property Maintenance",
    "request_reason": "Property Maintenance",
    "date_created": "2025-06-19T10:37:38.000",
    "date_modified": "2025-06-19T10:37:40.000",
    "request_status": "Pending",
    "responsible_agency": "Department of Code Enforcement",
    "final_address": "4760 Spain St",
    "address_councildis": "D",
    "status": "Pending",
    "rowid": "1202480",
    "final_x": "3684890.85173",
    "final_y": "550588.885716",
    "longitude": "-90.0566923914802",
    "latitude": "30.00782501013563",
    "geocoded_column": {
      "latitude": "30.00782501013563",
      "longitude": "-90.0566923914802"
    }
  },
  {
    "service_request": "2025-1202479",
    "request_type": "Property Maintenance",
    "request_reason": "Property Maintenance",
    "date_created": "2025-06-19T10:36:26.000",
    "date_modified": "2025-06-19T10:36:28.000",
    "request_status": "Pending",
    "responsible_agency": "Department of Code Enforcement",
    "final_address": "4600 Rosemont Pl",
    "address_councildis": "E",
    "status": "Pending",
    "rowid": "1202479",
    "final_x": "3702712.61604",
    "final_y": "554094.696856",
    "longitude": "-90.00025970745185",
    "latitude": "30.016906645215958",
    "geocoded_column": {
      "latitude": "30.016906645215958",
      "longitude": "-90.00025970745185"
    }
  },
  {
    "service_request": "2025-1202478",
    "request_type": "Property Maintenance",
    "request_reason": "Property Maintenance",
    "date_created": "2025-06-19T10:35:24.000",
    "date_modified": "2025-06-19T10:35:26.000",
    "request_status": "Pending",
    "responsible_agency": "Department of Code Enforcement",
    "final_address": "1627 Horace St",
    "address_councildis": "C",
    "status": "Pending",
    "rowid": "1202478",
    "final_x": "3696274.78672",
    "final_y": "525228.263037",
    "longitude": "-90.02164453467113",
    "latitude": "29.9377387291066",
    "geocoded_column": {
      "latitude": "29.9377387291066",
      "longitude": "-90.02164453467113"
    }
  },
  {
    "service_request": "2025-1202477",
    "request_type": "General Services",
    "request_reason": "General Service Request",
    "date_created": "2025-06-19T10:34:37.000",
    "date_modified": "2025-06-19T10:34:39.000",
    "request_status": "Pending",
    "responsible_agency": "Orleans Parish Communication District",
    "final_address": "4959 De Montluzin St",
    "address_councildis": "D",
    "status": "Pending",
    "rowid": "1202477",
    "final_x": "3687130.47215",
    "final_y": "551427.541269",
    "longitude": "-90.04958709918846",
    "latitude": "30.01006220506922",
    "geocoded_column": {
      "latitude": "30.01006220506922",
      "longitude": "-90.04958709918846"
    }
  },
  {
    "service_request": "2025-1202476",
    "request_type": "Property Maintenance",
    "request_reason": "Property Maintenance",
    "date_created": "2025-06-19T10:30:52.000",
    "date_modified": "2025-06-19T10:30:54.000",
    "request_status": "Pending",
    "responsible_agency": "Department of Code Enforcement",
    "final_address": "13018 Calais St",
    "address_councildis": "E",
    "status": "Pending",
    "rowid": "1202476",
    "final_x": "3723986.96243",
    "final_y": "560346.631325",
    "longitude": "-89.93280113818356",
    "latitude": "30.03339922413933",
    "geocoded_column": {
      "latitude": "30.03339922413933",
      "longitude": "-89.93280113818356"
    }
  },
  {
    "service_request": "2025-1202475",
    "request_type": "Trash/Recycling",
    "request_reason": "Request a Large Item Pick Up",
    "date_created": "2025-06-19T10:28:31.000",
    "date_modified": "2025-06-19T14:13:39.000",
    "request_status": "Pending",
    "responsible_agency": "Department of Sanitation",
    "final_address": "1927 Montegut St",
    "address_councildis": "D",
    "status": "Assigned to Contractor",
    "contractor": "IV Waste",
    "rowid": "1202475",
    "final_x": "3689282.67203",
    "final_y": "539351.79617",
    "longitude": "-90.04321708434199",
    "latitude": "29.97679178779378",
    "geocoded_column": {
      "latitude": "29.97679178779378",
      "longitude": "-90.04321708434199"
    }
  },
  {
    "service_request": "2025-1202474",
    "request_type": "Trash/Recycling",
    "request_reason": "Request a Large Item Pick Up",
    "date_created": "2025-06-19T10:21:30.000",
    "date_modified": "2025-06-19T10:21:31.000",
    "request_status": "Pending",
    "responsible_agency": "Department of Sanitation",
    "final_address": "11120 N Parkwood Ct",
    "address_councildis": "E",
    "status": "Assigned to Contractor",
    "contractor": "Waste Pro",
    "rowid": "1202474",
    "final_x": "3716295.00396",
    "final_y": "558938.282972",
    "longitude": "-89.95716171413511",
    "latitude": "30.029783098424755",
    "geocoded_column": {
      "latitude": "30.029783098424755",
      "longitude": "-89.95716171413511"
    }
  },
  {
    "service_request": "2025-1202473",
    "request_type": "Trash/Recycling",
    "request_reason": "Damaged Caused By Contractor",
    "date_created": "2025-06-19T10:20:17.000",
    "date_modified": "2025-06-19T14:19:06.000",
    "case_close_date": "2025-06-19T09:19:05.000",
    "request_status": "Closed",
    "responsible_agency": "Department of Sanitation",
    "final_address": "3140 Laurel St",
    "address_councildis": "B",
    "status": "Invalid Request",
    "contractor": "IV Waste",
    "contractor_action": "Invalid",
    "rowid": "1202473",
    "final_x": "3676219.84981",
    "final_y": "519362.989047",
    "longitude": "-90.0851613076406",
    "latitude": "29.922227158052625",
    "geocoded_column": {
      "latitude": "29.922227158052625",
      "longitude": "-90.0851613076406"
    }
  },
  {
    "service_request": "2025-1202472",
    "request_type": "Trash/Recycling",
    "request_reason": "Request a Large Item Pick Up",
    "date_created": "2025-06-19T10:20:06.000",
    "date_modified": "2025-06-19T10:20:08.000",
    "request_status": "Pending",
    "responsible_agency": "Department of Sanitation",
    "final_address": "7020 Wayside Dr",
    "address_councildis": "E",
    "status": "Assigned to Contractor",
    "contractor": "Waste Pro",
    "rowid": "1202472",
    "final_x": "3717596.48389",
    "final_y": "567743.523748",
    "longitude": "-89.95271384293704",
    "latitude": "30.053950883776757",
    "geocoded_column": {
      "latitude": "30.053950883776757",
      "longitude": "-89.95271384293704"
    }
  },
  {
    "service_request": "2025-1202471",
    "request_type": "Roads and Streets",
    "request_reason": "Curb Damage",
    "date_created": "2025-06-19T10:17:45.000",
    "date_modified": "2025-06-19T10:17:47.000",
    "request_status": "Pending",
    "responsible_agency": "Department of Public Works",
    "final_address": "6343 Catina St",
    "address_councildis": "A",
    "status": "Pending",
    "rowid": "1202471",
    "final_x": "3667017.76122",
    "final_y": "549832.248084",
    "longitude": "-90.1131844467084",
    "latitude": "30.006279956816567",
    "geocoded_column": {
      "latitude": "30.006279956816567",
      "longitude": "-90.1131844467084"
    }
  },
  {
    "service_request": "2025-1202470",
    "request_type": "Abandoned Vehicles",
    "request_reason": "Abandoned/Junk Vehicles",
    "date_created": "2025-06-19T10:14:19.000",
    "date_modified": "2025-06-19T10:14:22.000",
    "request_status": "Pending",
    "responsible_agency": "Department of Public Works",
    "final_address": "1663 N Villere St",
    "address_councildis": "C",
    "status": "Pending",
    "rowid": "1202470",
    "final_x": "3683017.88424",
    "final_y": "537282.116296",
    "longitude": "-90.0630756924655",
    "latitude": "29.971293349975696",
    "geocoded_column": {
      "latitude": "29.971293349975696",
      "longitude": "-90.0630756924655"
    }
  },
  {
    "service_request": "2025-1202469",
    "request_type": "Property Maintenance",
    "request_reason": "Property Maintenance",
    "date_created": "2025-06-19T10:05:27.000",
    "date_modified": "2025-06-19T10:05:28.000",
    "request_status": "Pending",
    "responsible_agency": "Department of Code Enforcement",
    "final_address": "9224 Fig St",
    "address_councildis": "A",
    "status": "Pending",
    "rowid": "1202469",
    "final_x": "3663264.43008",
    "final_y": "535857.116487",
    "longitude": "-90.12550759931962",
    "latitude": "29.967962413526852",
    "geocoded_column": {
      "latitude": "29.967962413526852",
      "longitude": "-90.12550759931962"
    }
  },
  {
    "service_request": "2025-1202468",
    "request_type": "Abandoned Vehicles",
    "request_reason": "Abandoned/Junk Vehicles",
    "date_created": "2025-06-19T10:05:03.000",
    "date_modified": "2025-06-19T10:05:05.000",
    "request_status": "Pending",
    "responsible_agency": "Department of Public Works",
    "final_address": "4100 BLK Woodland Dr",
    "address_councildis": "C",
    "status": "Pending",
    "rowid": "1202468",
    "final_x": "3705416.05501",
    "final_y": "516036.65341",
    "longitude": "-89.99312448082893",
    "latitude": "29.912174104112104",
    "geocoded_column": {
      "latitude": "29.912174104112104",
      "longitude": "-89.99312448082893"
    }
  },