[
  {
    "service_request": "2022-883338",
    "request_type": "Roads/Drainage",
    "request_reason": "Damaged Sidewalk",
    "date_created": "2022-05-15T23:19:20.000",
    "date_modified": "2022-05-15T23:19:20.000",
    "request_status": "Pending",
    "responsible_agency": "Department of Public Works",
    "final_address": "444 Canal St",
    "address_councildis": "B",
    "status": "Pending",
    "rowid": "883338",
    "final_x": "3681797.5956",
    "final_y": "530089.871233",
    "longitude": "-90.06718052242917",
    "latitude": "29.95155427382639",
    "geocoded_column": {
      "latitude": "29.95155427382639",
      "longitude": "-90.06718052242917"
    }
  },
  {
    "service_request": "2022-883337",
    "request_type": "Roads/Drainage",
    "request_reason": "Street Flooding / Drainage",
    "date_created": "2022-05-15T23:16:45.000",
    "date_modified": "2022-05-15T23:16:45.000",
    "request_status": "Pending",
    "responsible_agency": "Department of Public Works",
    "final_address": "300 Baronne St Apt B",
    "address_councildis": "B",
    "status": "Pending",
    "rowid": "883337",
    "final_x": "3680181.06306",
    "final_y": "530323.366338",
    "longitude": "-90.07227663300252",
    "latitude": "29.952245324108155",
    "geocoded_column": {
      "latitude": "29.952245324108155",
      "longitude": "-90.07227663300252"
    }
  },
  {
    "service_request": "2022-883336",
    "request_type": "Trash/Recycling",
    "request_reason": "Request a Large Item Pick Up",
    "date_created": "2022-05-15T23:11:45.000",
    "date_modified": "2022-05-15T23:11:46.000",
    "request_status": "Pending",
    "responsible_agency": "Department of Sanitation",
    "final_address": "4651 Spain St",
    "address_councildis": "D",
    "status": "Assigned to Contractor",
    "contractor": "Metro Disposal",
    "rowid": "883336",
    "final_x": "3685119.12021",
    "final_y": "549967.539796",
    "longitude": "-90.05599310792047",
    "latitude": "30.00610953936148",
    "geocoded_column": {
      "latitude": "30.00610953936148",
      "longitude": "-90.05599310792047"
    }
  },
  {
    "service_request": "2022-883335",
    "request_type": "Trash/Recycling",
    "request_reason": "Request a Large Item Pick Up",
    "date_created": "2022-05-15T22:49:27.000",
    "date_modified": "2022-05-15T22:49:28.000",
    "request_status": "Pending",
    "responsible_agency": "Department of Sanitation",
    "final_address": "1927 Eagle St",
    "address_councildis": "A",
    "status": "Assigned to Contractor",
    "contractor": "Richards Disposal",
    "rowid": "883335",
    "final_x": "3661976.58035",
    "final_y": "532015.767555",
    "longitude": "-90.12970212357634",
    "latitude": "29.95743722028468",
    "geocoded_column": {
      "latitude": "29.95743722028468",
      "longitude": "-90.12970212357634"
    }
  },
  {
    "service_request": "2022-883334",
    "request_type": "Property Maintenance",
    "request_reason": "Property Maintenance",
    "date_created": "2022-05-15T22:27:09.000",
    "date_modified": "2022-05-15T22:27:09.000",
    "request_status": "Pending",
    "responsible_agency": "Department of Code Enforcement",
    "final_address": "4 W Blue Ridge Ct",
    "address_councildis": "E",
    "status": "Pending",
    "rowid": "883334",
    "final_x": "3714043.35755",
    "final_y": "567246.29322",
    "longitude": "-89.96396307460523",
    "latitude": "30.052700939401802",
    "geocoded_column": {
      "latitude": "30.052700939401802",
      "longitude": "-89.96396307460523"
    }
  },
  {
    "service_request": "2022-883333",
    "request_type": "Trash/Recycling",
    "request_reason": "Replace Trash Cart",
    "date_created": "2022-05-15T22:21:24.000",
    "date_modified": "2022-05-15T22:21:25.000",
    "request_status": "Pending",
    "responsible_agency": "Department of Sanitation",
    "final_address": "6110 Lafaye St",
    "address_councildis": "D",
    "status": "Assigned to Contractor",
    "contractor": "Metro Disposal",
    "rowid": "883333",
    "final_x": "3687040.72073",
    "final_y": "555730.210329",
    "longitude": "-90.0497183742899",
    "latitude": "30.021895724083542",
    "geocoded_column": {
      "latitude": "30.021895724083542",
      "longitude": "-90.0497183742899"
    }
  },
  {
    "service_request": "2022-883330",
    "request_type": "Mosquito, Termite & Rodent Control",
    "request_reason": "Non-Rodent Complaint (Mice, Possums, Snakes)",
    "date_created": "2022-05-15T22:03:13.000",
    "date_modified": "2022-05-15T22:03:13.000",
    "request_status": "Pending",
    "responsible_agency": "Mosquito, Termite & Rodent Control Board",
    "final_address": "708 Caffin Ave",
    "address_councildis": "E",
    "status": "Pending",
    "rowid": "883330",
    "final_x": "3697596.5592",
    "final_y": "532395.349315",
    "longitude": "-90.0172117238689",
    "latitude": "29.957404038279638",
    "geocoded_column": {
      "latitude": "29.957404038279638",
      "longitude": "-90.0172117238689"
    }
  },
  {
    "service_request": "2022-883329",
    "request_type": "Trash/Recycling",
    "request_reason": "Illegal Dumping",
    "date_created": "2022-05-15T21:58:06.000",
    "date_modified": "2022-05-15T21:58:06.000",
    "request_status": "Pending",
    "responsible_agency": "Department of Sanitation",
    "final_address": "708 Caffin Ave",
    "address_councildis": "E",
    "status": "Pending",
    "rowid": "883329",
    "final_x": "3697596.5592",
    "final_y": "532395.349315",
    "longitude": "-90.0172117238689",
    "latitude": "29.957404038279638",
    "geocoded_column": {
      "latitude": "29.957404038279638",
      "longitude": "-90.0172117238689"
    }
  },
  {
    "service_request": "2022-883328",
    "request_type": "Traffic Signals/Signs/Striping/Streetlights",
    "request_reason": "Street Light Outage/Malfunction",
    "date_created": "2022-05-15T21:58:05.000",
    "date_modified": "2022-05-15T21:58:05.000",
    "request_status": "Pending",
    "responsible_agency": "Department of Public Works",
    "final_address": "1409 Madrid St",
    "address_councildis": "D",
    "status": "Pending",
    "contractor": "Royal Engineering",
    "rowid": "883328",
    "final_x": "3677552.87426",
    "final_y": "554635.844888",
    "longitude": "-90.07973537039825",
    "latitude": "30.019175452277228",
    "geocoded_column": {
      "latitude": "30.019175452277228",
      "longitude": "-90.07973537039825"
    }
  },
  {
    "service_request": "2022-883327",
    "request_type": "Property Maintenance",
    "request_reason": "Property Maintenance",
    "date_created": "2022-05-15T21:53:15.000",
    "date_modified": "2022-05-15T21:53:15.000",
    "request_status": "Pending",
    "responsible_agency": "Department of Code Enforcement",
    "final_address": "708 Caffin Ave",
    "address_councildis": "E",
    "status": "Pending",
    "rowid": "883327",
    "final_x": "3697596.5592",
    "final_y": "532395.349315",
    "longitude": "-90.0172117238689",
    "latitude": "29.957404038279638",
    "geocoded_column": {
      "latitude": "29.957404038279638",
      "longitude": "-90.0172117238689"
    }
  },
  {
    "service_request": "2022-883326",
    "request_type": "Property Maintenance",
    "request_reason": "Property Maintenance",
    "date_created": "2022-05-15T21:52:12.000",
    "date_modified": "2022-05-15T21:52:12.000",
    "request_status": "Pending",
    "responsible_agency": "Department of Code Enforcement",
    "final_address": "2725 Dreux Ave",
    "address_councildis": "D",
    "status": "Pending",
    "rowid": "883326",
    "final_x": "3687530.48764",
    "final_y": "552342.826134",
    "longitude": "-90.04829087633311",
    "latitude": "30.01256657384575",
    "geocoded_column": {
      "latitude": "30.01256657384575",
      "longitude": "-90.04829087633311"
    }
  },
  {
    "service_request": "2022-883325",
    "request_type": "Traffic Signals/Signs/Striping/Streetlights",
    "request_reason": "Street Light Outage/Malfunction",
    "date_created": "2022-05-15T21:49:08.000",
    "date_modified": "2022-05-15T21:49:09.000",
    "request_status": "Pending",
    "responsible_agency": "Department of Public Works",
    "final_address": "708 Caffin Ave",
    "address_councildis": "E",
    "status": "Pending",
    "contractor": "Royal Engineering",
    "rowid": "883325",
    "final_x": "3697596.5592",
    "final_y": "532395.349315",
    "longitude": "-90.0172117238689",
    "latitude": "29.957404038279638",
    "geocoded_column": {
      "latitude": "29.957404038279638",
      "longitude": "-90.0172117238689"
    }
  },
  {
    "service_request": "2022-883324",
    "request_type": "Traffic Signals/Signs/Striping/Streetlights",
    "request_reason": "Street Light Outage/Malfunction",
    "date_created": "2022-05-15T21:48:36.000",
    "date_modified": "2022-05-15T21:48:37.000",
    "request_status": "Pending",
    "responsible_agency": "Department of Public Works",
    "final_address": "7230 Bullard Ave",
    "address_councildis": "E",
    "status": "Pending",
    "contractor": "Royal Engineering",
    "rowid": "883324",
    "final_x": "3714102.16594",
    "final_y": "565854.336227",
    "longitude": "-89.96382978333621",
    "latitude": "30.0488716928273",
    "geocoded_column": {
      "latitude": "30.0488716928273",
      "longitude": "-89.96382978333621"
    }
  },
  {
    "service_request": "2022-883323",
    "request_type": "Property Maintenance",
    "request_reason": "Property Maintenance",
    "date_created": "2022-05-15T21:47:34.000",
    "date_modified": "2022-05-15T21:47:34.000",
    "request_status": "Pending",
    "responsible_agency": "Department of Code Enforcement",
    "final_address": "4967 N Rampart St",
    "address_councildis": "E",
    "status": "Pending",
    "rowid": "883323",
    "final_x": "3695802.50192",
    "final_y": "533895.995461",
    "longitude": "-90.02282259427349",
    "latitude": "29.961586825108164",
    "geocoded_column": {
      "latitude": "29.961586825108164",
      "longitude": "-90.02282259427349"
    }
  },
  {
    "service_request": "2022-883321",
    "request_type": "Traffic Signals/Signs/Striping/Streetlights",
    "request_reason": "Street Light Outage/Malfunction",
    "date_created": "2022-05-15T21:45:32.000",
    "date_modified": "2022-05-15T21:45:33.000",
    "request_status": "Pending",
    "responsible_agency": "Department of Public Works",
    "final_address": "7230 Bullard Ave",
    "address_councildis": "E",
    "status": "Pending",
    "contractor": "Royal Engineering",
    "rowid": "883321",
    "final_x": "3714102.16594",
    "final_y": "565854.336227",
    "longitude": "-89.96382978333621",
    "latitude": "30.0488716928273",
    "geocoded_column": {
      "latitude": "30.0488716928273",
      "longitude": "-89.96382978333621"
    }
  },
  {
    "service_request": "2022-883320",
    "request_type": "Abandoned Vehicles",
    "request_reason": "Abandoned/Junk Vehicles",
    "date_created": "2022-05-15T21:44:41.000",
    "date_modified": "2022-05-15T21:44:41.000",
    "request_status": "Pending",
    "responsible_agency": "Department of Public Works",
    "final_address": "708 Caffin Ave",
    "address_councildis": "E",
    "status": "Pending",
    "rowid": "883320",
    "final_x": "3697596.5592",
    "final_y": "532395.349315",
    "longitude": "-90.0172117238689",
    "latitude": "29.957404038279638",
    "geocoded_column": {
      "latitude": "29.957404038279638",
      "longitude": "-90.0172117238689"
    }
  },
  {
    "service_request": "2022-883319",
    "request_type": "Trash/Recycling",
    "request_reason": "Replace Trash Cart",
    "date_created": "2022-05-15T21:20:32.000",
    "date_modified": "2022-05-15T21:20:32.000",
    "request_status": "Pending",
    "responsible_agency": "Department of Sanitation",
    "final_address": "2955 Maurepas St",
    "address_councildis": "A",
    "status": "Assigned to Contractor",
    "contractor": "Metro Disposal",
    "rowid": "883319",
    "final_x": "3677325.39803",
    "final_y": "540747.878411",
    "longitude": "-90.08093373756589",
    "latitude": "29.980995296011066",
    "geocoded_column": {
      "latitude": "29.980995296011066",
      "longitude": "-90.08093373756589"
    }
  },
  {
    "service_request": "2022-883318",
    "request_type": "Property Maintenance",
    "request_reason": "Property Maintenance",
    "date_created": "2022-05-15T21:13:21.000",
    "date_modified": "2022-05-15T21:13:21.000",
    "request_status": "Pending",
    "responsible_agency": "Department of Code Enforcement",
    "final_address": "2440 Touro St",
    "address_councildis": "D",
    "status": "Pending",
    "rowid": "883318",
    "final_x": "3683782.93193",
    "final_y": "541326.687628",
    "longitude": "-90.06051768049412",
    "latitude": "29.982391165590165",
    "geocoded_column": {
      "latitude": "29.982391165590165",
      "longitude": "-90.06051768049412"
    }
  },
  {
    "service_request": "2022-883317",
    "request_type": "Trash/Recycling",
    "request_reason": "Request a Large Item Pick Up",
    "date_created": "2022-05-15T21:06:09.000",
    "date_modified": "2022-05-15T21:06:09.000",
    "request_status": "Pending",
    "responsible_agency": "Department of Sanitation",
    "final_address": "8008 Sheephead St",
    "address_councildis": "E",
    "status": "Assigned to Contractor",
    "contractor": "Metro Disposal",
    "rowid": "883317",
    "final_x": "3699169.25412",
    "final_y": "561382.11011",
    "longitude": "-90.01118950929984",
    "latitude": "30.037057108387494",
    "geocoded_column": {
      "latitude": "30.037057108387494",
      "longitude": "-90.01118950929984"
    }
  },
  {
    "service_request": "2022-883316",
    "request_type": "Traffic Signals/Signs/Striping/Streetlights",
    "request_reason": "Street Light Outage/Malfunction",
    "date_created": "2022-05-15T20:58:07.000",
    "date_modified": "2022-05-15T20:58:08.000",
    "request_status": "Pending",
    "responsible_agency": "Department of Public Works",
    "final_address": "1461 Magazine St",
    "address_councildis": "B",
    "status": "Pending",
    "contractor": "Royal Engineering",
    "rowid": "883316",
    "final_x": "3680202.78491",
    "final_y": "524023.150652",
    "longitude": "-90.0724269539209",
    "latitude": "29.934921174757065",
    "geocoded_column": {
      "latitude": "29.934921174757065",
      "longitude": "-90.0724269539209"
    }
  },
  {
    "service_request": "2022-883315",
    "request_type": "Trash/Recycling",
    "request_reason": "Request a Large Item Pick Up",
    "date_created": "2022-05-15T20:56:17.000",
    "date_modified": "2022-05-15T20:56:18.000",
    "request_status": "Pending",
    "responsible_agency": "Department of Sanitation",
    "final_address": "4034 Baudin St",
    "address_councildis": "A",
    "status": "Assigned to Contractor",
    "contractor": "Richards Disposal",
    "rowid": "883315",
    "final_x": "3670267.73454",
    "final_y": "536906.386888",
    "longitude": "-90.10335529410388",
    "latitude": "29.970642712774605",
    "geocoded_column": {
      "latitude": "29.970642712774605",
      "longitude": "-90.10335529410388"
    }
  },
  {
    "service_request": "2022-883314",
    "request_type": "Traffic Signals/Signs/Striping/Streetlights",
    "request_reason": "Street Light Outage/Malfunction",
    "date_created": "2022-05-15T20:39:36.000",
    "date_modified": "2022-05-15T20:39:37.000",
    "request_status": "Pending",
    "responsible_agency": "Department of Public Works",
    "final_address": "821 N Hennessey St",
    "address_councildis": "A",
    "status": "Pending",
    "contractor": "Royal Engineering",
    "rowid": "883314",
    "final_x": "3671891.44449",
    "final_y": "541207.147212",
    "longitude": "-90.09808099152934",
    "latitude": "29.982420319359605",
    "geocoded_column": {
      "latitude": "29.982420319359605",
      "longitude": "-90.09808099152934"
    }
  },
  {
    "service_request": "2022-883313",
    "request_type": "Property Maintenance",
    "request_reason": "Property Maintenance",
    "date_created": "2022-05-15T20:38:33.000",
    "date_modified": "2022-05-15T20:38:33.000",
    "request_status": "Pending",
    "responsible_agency": "Department of Code Enforcement",
    "final_address": "2509 Memorial Park Dr",
    "address_councildis": "C",
    "status": "Pending",
    "rowid": "883313",
    "final_x": "3692667.34697",
    "final_y": "521156.961721",
    "longitude": "-90.03317930093436",
    "latitude": "29.92665709085535",
    "geocoded_column": {
      "latitude": "29.92665709085535",
      "longitude": "-90.03317930093436"
    }
  },
  {
    "service_request": "2022-883311",
    "request_type": "Trash/Recycling",
    "request_reason": "Missed Trash Pick-Up",
    "date_created": "2022-05-15T20:19:23.000",
    "date_modified": "2022-05-15T20:19:24.000",
    "request_status": "Pending",
    "responsible_agency": "Department of Sanitation",
    "final_address": "8332 Willow St",
    "address_councildis": "A",
    "status": "Assigned to Contractor",
    "contractor": "Richards Disposal",
    "rowid": "883311",
    "final_x": "3661662.63046",
    "final_y": "529541.233025",
    "longitude": "-90.13077549500203",
    "latitude": "29.950642112195084",
    "geocoded_column": {
      "latitude": "29.950642112195084",
      "longitude": "-90.13077549500203"
    }
  },
  {
    "service_request": "2022-883310",
    "request_type": "Trash/Recycling",
    "request_reason": "Repair Recycling Cart",
    "date_created": "2022-05-15T20:09:05.000",
    "date_modified": "2022-05-15T20:09:05.000",
    "request_status": "Pending",
    "responsible_agency": "Department of Sanitation",
    "final_address": "23 Eugenie Ct",
    "address_councildis": "C",
    "status": "Pending",
    "rowid": "883310",
    "final_x": "3700056.87005",
    "final_y": "511777.589488",
    "longitude": "-90.01019463259988",
    "latitude": "29.900634383369695",
    "geocoded_column": {
      "latitude": "29.900634383369695",
      "longitude": "-90.01019463259988"
    }
  },
  {
    "service_request": "2022-883309",
    "request_type": "Trash/Recycling",
    "request_reason": "Order Trash Cart",
    "date_created": "2022-05-15T20:08:55.000",
    "date_modified": "2022-05-15T20:08:55.000",
    "request_status": "Pending",
    "responsible_agency": "Department of Sanitation",
    "final_address": "1305 N Dorgenois St",
    "address_councildis": "D",
    "status": "Assigned to Contractor",
    "contractor": "Richards Disposal",
    "rowid": "883309",
    "final_x": "3678486.67784",
    "final_y": "538469.484361",
    "longitude": "-90.07734477554322",
    "latitude": "29.974695547430247",
    "geocoded_column": {
      "latitude": "29.974695547430247",
      "longitude": "-90.07734477554322"
    }
  },
  {
    "service_request": "2022-883308",
    "request_type": "Trash/Recycling",
    "request_reason": "Order Recycling Cart",
    "date_created": "2022-05-15T20:08:49.000",
    "date_modified": "2022-05-15T20:08:49.000",
    "request_status": "Pending",
    "responsible_agency": "Department of Sanitation",
    "final_address": "1305 N Dorgenois St",
    "address_councildis": "D",
    "status": "Pending",
    "rowid": "883308",
    "final_x": "3678486.67784",
    "final_y": "538469.484361",
    "longitude": "-90.07734477554322",
    "latitude": "29.974695547430247",
    "geocoded_column": {
      "latitude": "29.974695547430247",
      "longitude": "-90.07734477554322"
    }
  },
  {
    "service_request": "2022-883307",
    "request_type": "Trash/Recycling",
    "request_reason": "Replace Trash Cart",
    "date_created": "2022-05-15T20:06:25.000",
    "date_modified": "2022-05-15T20:06:25.000",
    "request_status": "Pending",
    "responsible_agency": "Department of Sanitation",
    "final_address": "2031 Chippewa St",
    "address_councildis": "B",
    "status": "Assigned to Contractor",
    "contractor": "Richards Disposal",
    "rowid": "883307",
    "final_x": "3680278.67509",
    "final_y": "521416.205817",
    "longitude": "-90.07227794589106",
    "latitude": "29.927750637775947",
    "geocoded_column": {
      "latitude": "29.927750637775947",
      "longitude": "-90.07227794589106"
    }
  },
  {
    "service_request": "2022-883306",
    "request_type": "Safety & Permits",
    "request_reason": "Safety & Permits Request (Cyber Incident Back Up)",
    "date_created": "2022-05-15T20:05:53.000",
    "date_modified": "2022-05-15T20:05:54.000",
    "request_status": "Pending",
    "responsible_agency": "Safety and Permits",
    "final_address": "6000 Chef Menteur Hwy",
    "address_councildis": "E",
    "status": "Pending",
    "rowid": "883306",
    "final_x": "3696741.35837",
    "final_y": "551496.105173",
    "longitude": "-90.01922045878081",
    "latitude": "30.009951159081027",
    "geocoded_column": {
      "latitude": "30.009951159081027",
      "longitude": "-90.01922045878081"
    }
  },
  {
    "service_request": "2022-883305",
    "request_type": "Property Maintenance",
    "request_reason": "Property Maintenance",
    "date_created": "2022-05-15T20:02:30.000",
    "date_modified": "2022-05-15T20:02:30.000",
    "request_status": "Pending",
    "responsible_agency": "Department of Code Enforcement",
    "final_address": "1625 Jackson Ave",
    "address_councildis": "B",
    "status": "Pending",
    "rowid": "883305",
    "final_x": "3677498.05851",
    "final_y": "523936.191356",
    "longitude": "-90.08096875043478",
    "latitude": "29.934763627559978",
    "geocoded_column": {
      "latitude": "29.934763627559978",
      "longitude": "-90.08096875043478"
    }
  },
  {
    "service_request": "2022-883304",
    "request_type": "Parks & Parkways",
    "request_reason": "Request Tree Service (Right of Way/Public Property)",
    "date_created": "2022-05-15T19:58:54.000",
    "date_modified": "2022-05-15T19:58:54.000",
    "request_status": "Pending",
    "responsible_agency": "Department of Parks & Parkway",
    "final_address": "11230 Lake Forest Blvd",
    "address_councildis": "E",
    "status": "Pending",
    "rowid": "883304",
    "final_x": "3716133.68543",
    "final_y": "561500.474783",
    "longitude": "-89.95757426272733",
    "latitude": "30.03683342288048",
    "geocoded_column": {
      "latitude": "30.03683342288048",
      "longitude": "-89.95757426272733"
    }
  },
  {
    "service_request": "2022-883303",
    "request_type": "Traffic Signals/Signs/Striping/Streetlights",
    "request_reason": "Street Light Outage/Malfunction",
    "date_created": "2022-05-15T19:57:46.000",
    "date_modified": "2022-05-15T19:57:47.000",
    "request_status": "Pending",
    "responsible_agency": "Department of Public Works",
    "final_address": "2031 Chippewa St",
    "address_councildis": "B",
    "status": "Pending",
    "contractor": "Royal Engineering",
    "rowid": "883303",
    "final_x": "3680278.67509",
    "final_y": "521416.205817",
    "longitude": "-90.07227794589106",
    "latitude": "29.927750637775947",
    "geocoded_column": {
      "latitude": "29.927750637775947",
      "longitude": "-90.07227794589106"
    }
  },
  {
    "service_request": "2022-883302",
    "request_type": "Property Maintenance",
    "request_reason": "Property Maintenance",
    "date_created": "2022-05-15T19:57:42.000",
    "date_modified": "2022-05-15T19:57:42.000",
    "request_status": "Pending",
    "responsible_agency": "Department of Code Enforcement",
    "final_address": "1217 Gallier St",
    "address_councildis": "C",
    "status": "Pending",
    "rowid": "883302",
    "final_x": "3690622.44016",
    "final_y": "536136.615495",
    "longitude": "-90.0391003868989",
    "latitude": "29.967909631647036",
    "geocoded_column": {
      "latitude": "29.967909631647036",
      "longitude": "-90.0391003868989"
    }
  },
  {
    "service_request": "2022-883301",
    "request_type": "Trash/Recycling",
    "request_reason": "Repair Trash Cart",
    "date_created": "2022-05-15T19:44:38.000",
    "date_modified": "2022-05-15T19:44:39.000",
    "request_status": "Pending",
    "responsible_agency": "Department of Sanitation",
    "final_address": "1314 State St",
    "address_councildis": "A",
    "status": "Assigned to Contractor",
    "contractor": "Richards Disposal",
    "rowid": "883301",
    "final_x": "3665164.36352",
    "final_y": "521007.745337",
    "longitude": "-90.12000408831273",
    "latitude": "29.927076230323696",
    "geocoded_column": {
      "latitude": "29.927076230323696",
      "longitude": "-90.12000408831273"
    }
  },
  {
    "service_request": "2022-883300",
    "request_type": "Trash/Recycling",
    "request_reason": "Replace Trash Cart",
    "date_created": "2022-05-15T19:14:31.000",
    "date_modified": "2022-05-15T19:14:32.000",
    "request_status": "Pending",
    "responsible_agency": "Department of Sanitation",
    "final_address": "8616 Cohn St",
    "address_councildis": "A",
    "status": "Assigned to Contractor",
    "contractor": "Richards Disposal",
    "rowid": "883300",
    "final_x": "3662176.48563",
    "final_y": "531451.799683",
    "longitude": "-90.12908959536696",
    "latitude": "29.955880715747547",
    "geocoded_column": {
      "latitude": "29.955880715747547",
      "longitude": "-90.12908959536696"
    }
  },
  {
    "service_request": "2022-883299",
    "request_type": "Trash/Recycling",
    "request_reason": "Missed Trash Pick-Up",
    "date_created": "2022-05-15T19:12:46.000",
    "date_modified": "2022-05-15T19:12:47.000",
    "request_status": "Pending",
    "responsible_agency": "Department of Sanitation",
    "final_address": "2419 Upperline St",
    "address_councildis": "B",
    "status": "Assigned to Contractor",
    "contractor": "Richards Disposal",
    "rowid": "883299",
    "final_x": "3669201.66599",
    "final_y": "523696.901307",
    "longitude": "-90.10716849173167",
    "latitude": "29.9343523808598",
    "geocoded_column": {
      "latitude": "29.9343523808598",
      "longitude": "-90.10716849173167"
    }
  },
  {
    "service_request": "2022-883298",
    "request_type": "Abandoned Vehicles",
    "request_reason": "Abandoned/Junk Vehicles",
    "date_created": "2022-05-15T18:46:25.000",
    "date_modified": "2022-05-15T18:46:25.000",
    "request_status": "Pending",
    "responsible_agency": "Department of Public Works",
    "final_address": "744 Seventh St",
    "address_councildis": "B",
    "status": "Pending",
    "rowid": "883298",
    "final_x": "3676966.07016",
    "final_y": "519405.504887",
    "longitude": "-90.0828043314808",
    "latitude": "29.922321690690197",
    "geocoded_column": {
      "latitude": "29.922321690690197",
      "longitude": "-90.0828043314808"
    }
  },
  {
    "service_request": "2022-883297",
    "request_type": "Trash/Recycling",
    "request_reason": "Illegal Dumping",
    "date_created": "2022-05-15T18:43:28.000",
    "date_modified": "2022-05-15T18:43:28.000",
    "request_status": "Pending",
    "responsible_agency": "Department of Sanitation",
    "final_address": "625 Seventh St",
    "address_councildis": "B",
    "status": "Pending",
    "rowid": "883297",
    "final_x": "3677262.93064",
    "final_y": "519084.471991",
    "longitude": "-90.08187833167301",
    "latitude": "29.9214300421523",
    "geocoded_column": {
      "latitude": "29.9214300421523",
      "longitude": "-90.08187833167301"
    }
  },
  {
    "service_request": "2022-883296",
    "request_type": "Safety & Permits",
    "request_reason": "Licenses & Permits",
    "date_created": "2022-05-15T18:24:27.000",
    "date_modified": "2022-05-15T18:24:27.000",
    "request_status": "Pending",
    "responsible_agency": "Safety and Permits",
    "final_address": "700 Frenchmen St",
    "address_councildis": "C",
    "status": "Pending",
    "rowid": "883296",
    "final_x": "3684674.15349",
    "final_y": "534862.19559",
    "longitude": "-90.05793003716528",
    "latitude": "29.964588816083072",
    "geocoded_column": {
      "latitude": "29.964588816083072",
      "longitude": "-90.05793003716528"
    }
  },
  {
    "service_request": "2022-883295",
    "request_type": "Trash/Recycling",
    "request_reason": "Request a Large Item Pick Up",
    "date_created": "2022-05-15T18:21:14.000",
    "date_modified": "2022-05-15T18:21:15.000",
    "request_status": "Pending",
    "responsible_agency": "Department of Sanitation",
    "final_address": "720 Marengo St",
    "address_councildis": "B",
    "status": "Assigned to Contractor",
    "contractor": "Richards Disposal",
    "rowid": "883295",
    "final_x": "3672168.87751",
    "final_y": "518326.283126",
    "longitude": "-90.09798386448773",
    "latitude": "29.91949726196619",
    "geocoded_column": {
      "latitude": "29.91949726196619",
      "longitude": "-90.09798386448773"
    }
  },
  {
    "service_request": "2022-883294",
    "request_type": "Trash/Recycling",
    "request_reason": "Illegal Dumping",
    "date_created": "2022-05-15T18:18:39.000",
    "date_modified": "2022-05-15T18:18:39.000",
    "request_status": "Pending",
    "responsible_agency": "Department of Sanitation",
    "final_address": "1900 Newton St",
    "address_councildis": "C",
    "status": "Pending",
    "rowid": "883294",
    "final_x": "3691168.78825",
    "final_y": "527850.126335",
    "longitude": "-90.03767091444506",
    "latitude": "29.9451076879333",
    "geocoded_column": {
      "latitude": "29.9451076879333",
      "longitude": "-90.03767091444506"
    }
  },
  {
    "service_request": "2022-883292",
    "request_type": "Traffic Signals/Signs/Striping/Streetlights",
    "request_reason": "Traffic Signal Malfunctioning/Damaged",
    "date_created": "2022-05-15T18:14:21.000",
    "date_modified": "2022-05-15T18:14:21.000",
    "request_status": "Pending",
    "responsible_agency": "Department of Public Works",
    "final_address": "Earhart Blvd & Monroe St, New Orleans, Louisiana, 70118",
    "address_councildis": "A",
    "status": "Pending",
    "rowid": "883292",
    "final_x": "3664688.0",
    "final_y": "534533.98",
    "longitude": "-90.12105610501568",
    "latitude": "29.964282886404717",
    "geocoded_column": {
      "latitude": "29.964282886404717",
      "longitude": "-90.12105610501568"
    }
  },
  {
    "service_request": "2022-883291",
    "request_type": "Abandoned Vehicles",
    "request_reason": "Abandoned/Junk Vehicles",
    "date_created": "2022-05-15T17:51:14.000",
    "date_modified": "2022-05-15T17:51:14.000",
    "request_status": "Pending",
    "responsible_agency": "Department of Public Works",
    "final_address": "3503 Danneel St",
    "address_councildis": "B",
    "status": "Pending",
    "rowid": "883291",
    "final_x": "3673211.51278",
    "final_y": "522730.341562",
    "longitude": "-90.09454248799527",
    "latitude": "29.931576058634487",
    "geocoded_column": {
      "latitude": "29.931576058634487",
      "longitude": "-90.09454248799527"
    }
  },
  {
    "service_request": "2022-883290",
    "request_type": "Trash/Recycling",
    "request_reason": "Illegal Dumping",
    "date_created": "2022-05-15T17:30:45.000",
    "date_modified": "2022-05-15T17:30:45.000",
    "request_status": "Pending",
    "responsible_agency": "Department of Sanitation",
    "final_address": "1724 N Derbigny St, New Orleans, Louisiana, 70116",
    "address_councildis": "D",
    "status": "Pending",
    "rowid": "883290",
    "final_x": "3682814.1732",
    "final_y": "538254.800713",
    "longitude": "-90.06368500183227",
    "latitude": "29.973974102704698",
    "geocoded_column": {
      "latitude": "29.973974102704698",
      "longitude": "-90.06368500183227"
    }
  },
  {
    "service_request": "2022-883289",
    "request_type": "Trash/Recycling",
    "request_reason": "MIssed Recycling Pick-Up",
    "date_created": "2022-05-15T17:25:23.000",
    "date_modified": "2022-05-15T17:25:24.000",
    "request_status": "Pending",
    "responsible_agency": "Department of Sanitation",
    "final_address": "2409 Philip St",
    "address_councildis": "B",
    "status": "Assigned to Contractor",
    "contractor": "Richards Disposal",
    "rowid": "883289",
    "final_x": "3675487.51752",
    "final_y": "525916.990333",
    "longitude": "-90.08724799901273",
    "latitude": "29.94027044594723",
    "geocoded_column": {
      "latitude": "29.94027044594723",
      "longitude": "-90.08724799901273"
    }
  },
  {
    "service_request": "2022-883288",
    "request_type": "Trash/Recycling",
    "request_reason": "Illegal Dumping",
    "date_created": "2022-05-15T17:08:10.000",
    "date_modified": "2022-05-15T17:08:10.000",
    "request_status": "Pending",
    "responsible_agency": "Department of Sanitation",
    "final_address": "3730 Banks St",
    "address_councildis": "B",
    "status": "Pending",
    "rowid": "883288",
    "final_x": "3671364.53793",
    "final_y": "536539.479175",
    "longitude": "-90.09990392320927",
    "latitude": "29.96960142156067",
    "geocoded_column": {
      "latitude": "29.96960142156067",
      "longitude": "-90.09990392320927"
    }
  },
  {
    "service_request": "2022-883287",
    "request_type": "Trash/Recycling",
    "request_reason": "Illegal Dumping",
    "date_created": "2022-05-15T17:01:15.000",
    "date_modified": "2022-05-15T17:01:15.000",
    "request_status": "Pending",
    "responsible_agency": "Department of Sanitation",
    "final_address": "3718 Banks St",
    "address_councildis": "B",
    "status": "Pending",
    "rowid": "883287",
    "final_x": "3671429.07547",
    "final_y": "536485.880263",
    "longitude": "-90.09970193000524",
    "latitude": "29.969452132204186",
    "geocoded_column": {
      "latitude": "29.969452132204186",
      "longitude": "-90.09970193000524"
    }
  },
  {
    "service_request": "2022-883286",
    "request_type": "Trash/Recycling",
    "request_reason": "Missed Trash Pick-Up",
    "date_created": "2022-05-15T16:41:50.000",
    "date_modified": "2022-05-15T16:41:51.000",
    "request_status": "Pending",
    "responsible_agency": "Department of Sanitation",
    "final_address": "8223 Plum St",
    "address_councildis": "A",
    "status": "Assigned to Contractor",
    "contractor": "Richards Disposal",
    "rowid": "883286",
    "final_x": "3661824.85741",
    "final_y": "529024.229056",
    "longitude": "-90.13028040243043",
    "latitude": "29.94921583468819",
    "geocoded_column": {
      "latitude": "29.94921583468819",
      "longitude": "-90.13028040243043"
    }
  },
  {
    "service_request": "2022-883285",
    "request_type": "Property Maintenance",
    "request_reason": "Property Maintenance",
    "date_created": "2022-05-15T16:23:55.000",
    "date_modified": "2022-05-15T16:25:50.000",
    "request_status": "Pending",
    "responsible_agency": "Department of Code Enforcement",
    "final_address": "330 Elmira Ave",
    "address_councildis": "C",
    "status": "Pending",
    "rowid": "883285",
    "final_x": "3688276.94774",
    "final_y": "530492.830914",
    "longitude": "-90.04670763950404",
    "latitude": "29.95246381703838",
    "geocoded_column": {
      "latitude": "29.95246381703838",
      "longitude": "-90.04670763950404"
    }
  },
  {
    "service_request": "2022-883284",
    "request_type": "Trash/Recycling",
    "request_reason": "Replace Trash Cart",
    "date_created": "2022-05-15T16:21:42.000",
    "date_modified": "2022-05-15T16:21:43.000",
    "request_status": "Pending",
    "responsible_agency": "Department of Sanitation",
    "final_address": "2617 N Galvez St",
    "address_councildis": "D",
    "status": "Assigned to Contractor",
    "contractor": "Metro Disposal",
    "rowid": "883284",
    "final_x": "3687815.81225",
    "final_y": "540264.756299",
    "longitude": "-90.04781752678855",
    "latitude": "29.97934743611536",
    "geocoded_column": {
      "latitude": "29.97934743611536",
      "longitude": "-90.04781752678855"
    }
  },
  {
    "service_request": "2022-883283",
    "request_type": "Roads/Drainage",
    "request_reason": "Catch Basin - Clogged",
    "date_created": "2022-05-15T16:08:24.000",
    "date_modified": "2022-05-15T16:08:24.000",
    "request_status": "Pending",
    "responsible_agency": "Department of Public Works",
    "final_address": "2232 Bartholomew St",
    "address_councildis": "D",
    "status": "Pending",
    "rowid": "883283",
    "final_x": "3692831.3743",
    "final_y": "539761.37377",
    "longitude": "-90.03199452453386",
    "latitude": "29.977807639558044",
    "geocoded_column": {
      "latitude": "29.977807639558044",
      "longitude": "-90.03199452453386"
    }
  },
  {
    "service_request": "2022-883282",
    "request_type": "Trash/Recycling",
    "request_reason": "Missed Trash Pick-Up",
    "date_created": "2022-05-15T16:07:58.000",
    "date_modified": "2022-05-15T16:07:58.000",
    "request_status": "Pending",
    "responsible_agency": "Department of Sanitation",
    "final_address": "2800 BLK Mistletoe St",
    "address_councildis": "A",
    "status": "Assigned to Contractor",
    "contractor": "Richards Disposal",
    "rowid": "883282",
    "final_x": "3663079.76435",
    "final_y": "535364.741066",
    "longitude": "-90.12610716527223",
    "latitude": "29.96661389398621",
    "geocoded_column": {
      "latitude": "29.96661389398621",
      "longitude": "-90.12610716527223"
    }
  },
  {
    "service_request": "2022-883281",
    "request_type": "Trash/Recycling",
    "request_reason": "Replace Trash Cart",
    "date_created": "2022-05-15T15:45:04.000",
    "date_modified": "2022-05-15T15:45:05.000",
    "request_status": "Pending",
    "responsible_agency": "Department of Sanitation",
    "final_address": "2429 St Ann St",
    "address_councildis": "D",
    "status": "Assigned to Contractor",
    "contractor": "Richards Disposal",
    "rowid": "883281",
    "final_x": "3677881.01173",
    "final_y": "536605.244487",
    "longitude": "-90.07932205532843",
    "latitude": "29.96958776713474",
    "geocoded_column": {
      "latitude": "29.96958776713474",
      "longitude": "-90.07932205532843"
    }
  },
  {
    "service_request": "2022-883280",
    "request_type": "Trash/Recycling",
    "request_reason": "Request a Large Item Pick Up",
    "date_created": "2022-05-15T15:38:41.000",
    "date_modified": "2022-05-15T15:38:41.000",
    "request_status": "Pending",
    "responsible_agency": "Department of Sanitation",
    "final_address": "422 Eliza St, New Orleans, Louisiana, 70114",
    "address_councildis": "C",
    "status": "Assigned to Contractor",
    "contractor": "Richards Disposal",
    "rowid": "883280",
    "final_x": "3690049.49628",
    "final_y": "529874.296257",
    "longitude": "-90.04113278328676",
    "latitude": "29.95070821350268",
    "geocoded_column": {
      "latitude": "29.95070821350268",
      "longitude": "-90.04113278328676"
    }
  },
  {
    "service_request": "2022-883279",
    "request_type": "Trash/Recycling",
    "request_reason": "Order Trash Cart",
    "date_created": "2022-05-15T15:27:54.000",
    "date_modified": "2022-05-15T15:27:54.000",
    "request_status": "Pending",
    "responsible_agency": "Department of Sanitation",
    "final_address": "2523 Banks St",
    "address_councildis": "B",
    "status": "Assigned to Contractor",
    "contractor": "Richards Disposal",
    "rowid": "883279",
    "final_x": "3675269.12277",
    "final_y": "533729.759813",
    "longitude": "-90.08766935630571",
    "latitude": "29.961759495172977",
    "geocoded_column": {
      "latitude": "29.961759495172977",
      "longitude": "-90.08766935630571"
    }
  },
  {
    "service_request": "2022-883278",
    "request_type": "Trash/Recycling",
    "request_reason": "Request a Large Item Pick Up",
    "date_created": "2022-05-15T15:24:50.000",
    "date_modified": "2022-05-15T15:24:51.000",
    "request_status": "Pending",
    "responsible_agency": "Department of Sanitation",
    "final_address": "617 Napoleon Ave",
    "address_councildis": "B",
    "status": "Assigned to Contractor",
    "contractor": "Richards Disposal",
    "rowid": "883278",
    "final_x": "3671232.00148",
    "final_y": "517919.29759",
    "longitude": "-90.10095493866949",
    "latitude": "29.918405921020227",
    "geocoded_column": {
      "latitude": "29.918405921020227",
      "longitude": "-90.10095493866949"
    }
  },
  {
    "service_request": "2022-883276",
    "request_type": "Trash/Recycling",
    "request_reason": "Request a Large Item Pick Up",
    "date_created": "2022-05-15T15:17:25.000",
    "date_modified": "2022-05-15T15:17:26.000",
    "request_status": "Pending",
    "responsible_agency": "Department of Sanitation",
    "final_address": "3610 Cambronne St",
    "address_councildis": "A",
    "status": "Assigned to Contractor",
    "contractor": "Richards Disposal",
    "rowid": "883276",
    "final_x": "3667029.35201",
    "final_y": "535594.083846",
    "longitude": "-90.11362664528637",
    "latitude": "29.9671295011784",
    "geocoded_column": {
      "latitude": "29.9671295011784",
      "longitude": "-90.11362664528637"
    }
  },
  {
    "service_request": "2022-883275",
    "request_type": "Trash/Recycling",
    "request_reason": "Return Recycling Cart",
    "date_created": "2022-05-15T15:11:45.000",
    "date_modified": "2022-05-15T15:11:45.000",
    "request_status": "Pending",
    "responsible_agency": "Department of Sanitation",
    "final_address": "833 Crystal St",
    "address_councildis": "D",
    "status": "Pending",
    "rowid": "883275",
    "final_x": "3670572.42727",
    "final_y": "556367.026266",
    "longitude": "-90.10173244594579",
    "latitude": "30.02414372250415",
    "geocoded_column": {
      "latitude": "30.02414372250415",
      "longitude": "-90.10173244594579"
    }
  },
  {
    "service_request": "2022-883274",
    "request_type": "Traffic Signals/Signs/Striping/Streetlights",
    "request_reason": "Street Light Outage/Malfunction",
    "date_created": "2022-05-15T14:55:47.000",
    "date_modified": "2022-05-15T14:55:47.000",
    "request_status": "Pending",
    "responsible_agency": "Department of Public Works",
    "final_address": "600 Magazine St",
    "address_councildis": "B",
    "status": "Pending",
    "contractor": "Royal Engineering",
    "rowid": "883274",
    "final_x": "3681429.39132",
    "final_y": "528653.479296",
    "longitude": "-90.0683932007068",
    "latitude": "29.947615862034493",
    "geocoded_column": {
      "latitude": "29.947615862034493",
      "longitude": "-90.0683932007068"
    }
  },
  {
    "service_request": "2022-883273",
    "request_type": "Roads/Drainage",
    "request_reason": "Pothole",
    "date_created": "2022-05-15T14:52:25.000",
    "date_modified": "2022-05-15T14:52:25.000",
    "request_status": "Pending",
    "responsible_agency": "Department of Public Works",
    "final_address": "935 Julia St",
    "address_councildis": "B",
    "status": "Pending",
    "rowid": "883273",
    "final_x": "3679335.04591",
    "final_y": "528332.74464",
    "longitude": "-90.0750169878554",
    "latitude": "29.946797355918203",
    "geocoded_column": {
      "latitude": "29.946797355918203",
      "longitude": "-90.0750169878554"
    }
  },
  {
    "service_request": "2022-883272",
    "request_type": "Roads/Drainage",
    "request_reason": "Pothole",
    "date_created": "2022-05-15T14:50:55.000",
    "date_modified": "2022-05-15T14:50:55.000",
    "request_status": "Pending",
    "responsible_agency": "Department of Public Works",
    "final_address": "900 Perdido St",
    "address_councildis": "B",
    "status": "Pending",
    "rowid": "883272",
    "final_x": "3679904.90651",
    "final_y": "529938.874689",
    "longitude": "-90.07316195918962",
    "latitude": "29.951196455396516",
    "geocoded_column": {
      "latitude": "29.951196455396516",
      "longitude": "-90.07316195918962"
    }
  },
  {
    "service_request": "2022-883271",
    "request_type": "Roads/Drainage",
    "request_reason": "Pothole",
    "date_created": "2022-05-15T14:48:24.000",
    "date_modified": "2022-05-15T14:48:24.000",
    "request_status": "Pending",
    "responsible_agency": "Department of Public Works",
    "final_address": "935 Gravier St",
    "address_councildis": "B",
    "status": "Pending",
    "rowid": "883271",
    "final_x": "3679898.29691",
    "final_y": "530533.113026",
    "longitude": "-90.07316219376503",
    "latitude": "29.952830610787032",
    "geocoded_column": {
      "latitude": "29.952830610787032",
      "longitude": "-90.07316219376503"
    }
  },
  {
    "service_request": "2022-883270",
    "request_type": "Trash/Recycling",
    "request_reason": "Missed Trash Pick-Up",
    "date_created": "2022-05-15T14:35:01.000",
    "date_modified": "2022-05-15T14:35:02.000",
    "request_status": "Pending",
    "responsible_agency": "Department of Sanitation",
    "final_address": "1538 Dublin St",
    "address_councildis": "A",
    "status": "Assigned to Contractor",
    "contractor": "Richards Disposal",
    "rowid": "883270",
    "final_x": "3662591.93472",
    "final_y": "529647.607489",
    "longitude": "-90.12783768142836",
    "latitude": "29.95090775740007",
    "geocoded_column": {
      "latitude": "29.95090775740007",
      "longitude": "-90.12783768142836"
    }
  },
  {
    "service_request": "2022-883269",
    "request_type": "Trash/Recycling",
    "request_reason": "Start Trash Service",
    "date_created": "2022-05-15T14:14:52.000",
    "date_modified": "2022-05-15T14:14:52.000",
    "request_status": "Pending",
    "responsible_agency": "Department of Sanitation",
    "final_address": "7941 Branch Dr",
    "address_councildis": "E",
    "status": "Assigned to Contractor",
    "contractor": "Metro Disposal",
    "rowid": "883269",
    "final_x": "3714056.4053",
    "final_y": "569721.352358",
    "longitude": "-89.96382833528885",
    "latitude": "30.059505907742814",
    "geocoded_column": {
      "latitude": "30.059505907742814",
      "longitude": "-89.96382833528885"
    }
  },
  {
    "service_request": "2022-883268",
    "request_type": "Trash/Recycling",
    "request_reason": "Replace Trash Cart",
    "date_created": "2022-05-15T13:57:39.000",
    "date_modified": "2022-05-15T13:57:40.000",
    "request_status": "Pending",
    "responsible_agency": "Department of Sanitation",
    "final_address": "1439 Louisiana Ave",
    "address_councildis": "B",
    "status": "Assigned to Contractor",
    "contractor": "Richards Disposal",
    "rowid": "883268",
    "final_x": "3674567.20648",
    "final_y": "520902.567993",
    "longitude": "-90.0903253090172",
    "latitude": "29.926509901896985",
    "geocoded_column": {
      "latitude": "29.926509901896985",
      "longitude": "-90.0903253090172"
    }
  },
  {
    "service_request": "2022-883267",
    "request_type": "Trash/Recycling",
    "request_reason": "Repair Recycling Cart",
    "date_created": "2022-05-15T13:49:16.000",
    "date_modified": "2022-05-15T13:49:16.000",
    "request_status": "Pending",
    "responsible_agency": "Department of Sanitation",
    "final_address": "1439 Louisiana Ave",
    "address_councildis": "B",
    "status": "Pending",
    "rowid": "883267",
    "final_x": "3674567.20648",
    "final_y": "520902.567993",
    "longitude": "-90.0903253090172",
    "latitude": "29.926509901896985",
    "geocoded_column": {
      "latitude": "29.926509901896985",
      "longitude": "-90.0903253090172"
    }
  },
  {
    "service_request": "2022-883265",
    "request_type": "Parks & Parkways",
    "request_reason": "Request Tree Service (Right of Way/Public Property)",
    "date_created": "2022-05-15T13:47:13.000",
    "date_modified": "2022-05-15T13:47:13.000",
    "request_status": "Pending",
    "responsible_agency": "Department of Parks & Parkway",
    "final_address": "1901 Octavia St",
    "address_councildis": "A",
    "status": "Pending",
    "rowid": "883265",
    "final_x": "3667364.293",
    "final_y": "522718.911802",
    "longitude": "-90.11300192759991",
    "latitude": "29.931717157280673",
    "geocoded_column": {
      "latitude": "29.931717157280673",
      "longitude": "-90.11300192759991"
    }
  },
  {
    "service_request": "2022-883264",
    "request_type": "Traffic Signals/Signs/Striping/Streetlights",
    "request_reason": "Traffic Sign Missing/Damaged",
    "date_created": "2022-05-15T13:17:37.000",
    "date_modified": "2022-05-15T13:19:22.000",
    "request_status": "Pending",
    "responsible_agency": "Department of Public Works",
    "final_address": "New Orleans,LA",
    "address_councildis": "B",
    "rowid": "883264",
    "final_x": "3668962.6",
    "final_y": "517534.48",
    "longitude": "-90.10813123889612",
    "latitude": "29.9174147128145",
    "geocoded_column": {
      "latitude": "29.9174147128145",
      "longitude": "-90.10813123889612"
    }
  },
  {
    "service_request": "2022-883263",
    "request_type": "COVID-19",
    "request_reason": "COVID-19 Business Non-Compliance",
    "date_created": "2022-05-15T13:15:02.000",
    "date_modified": "2022-05-15T13:15:04.000",
    "request_status": "Pending",
    "responsible_agency": "Safety and Permits",
    "final_address": "Annunciation St & Upperline St, New Orleans, Louisiana, 70115",
    "address_councildis": "B",
    "status": "Pending",
    "rowid": "883263",
    "final_x": "3668962.6",
    "final_y": "517534.48",
    "longitude": "-90.10813123889612",
    "latitude": "29.9174147128145",
    "geocoded_column": {
      "latitude": "29.9174147128145",
      "longitude": "-90.10813123889612"
    }
  },
  {
    "service_request": "2022-883262",
    "request_type": "Trash/Recycling",
    "request_reason": "Dead Animal Pick Up",
    "date_created": "2022-05-15T13:13:29.000",
    "date_modified": "2022-05-15T13:13:29.000",
    "request_status": "Pending",
    "responsible_agency": "Department of Sanitation",
    "final_address": "3043 Behrman Hwy",
    "address_councildis": "C",
    "status": "Assigned to Contractor",
    "contractor": "Richards Disposal",
    "rowid": "883262",
    "final_x": "3694209.80701",
    "final_y": "519341.903863",
    "longitude": "-90.02837544991966",
    "latitude": "29.921618081235724",
    "geocoded_column": {
      "latitude": "29.921618081235724",
      "longitude": "-90.02837544991966"
    }
  },
  {
    "service_request": "2022-883261",
    "request_type": "Trash/Recycling",
    "request_reason": "Request a Large Item Pick Up",
    "date_created": "2022-05-15T12:43:31.000",
    "date_modified": "2022-05-15T12:43:31.000",
    "request_status": "Pending",
    "responsible_agency": "Department of Sanitation",
    "final_address": "4624 Orleans Ave, New Orleans, Louisiana, 70119",
    "address_councildis": "A",
    "status": "Assigned to Contractor",
    "contractor": "Richards Disposal",
    "rowid": "883261",
    "final_x": "3670614.66977",
    "final_y": "541567.741452",
    "longitude": "-90.10210144659506",
    "latitude": "29.983449615146696",
    "geocoded_column": {
      "latitude": "29.983449615146696",
      "longitude": "-90.10210144659506"
    }
  },
  {
    "service_request": "2022-883260",
    "request_type": "Abandoned Vehicles",
    "request_reason": "Abandoned/Junk Vehicles",
    "date_created": "2022-05-15T12:17:48.000",
    "date_modified": "2022-05-15T12:17:48.000",
    "request_status": "Pending",
    "responsible_agency": "Department of Public Works",
    "final_address": "1101 Ninth St",
    "address_councildis": "B",
    "status": "Pending",
    "rowid": "883260",
    "final_x": "3675846.90817",
    "final_y": "520122.703608",
    "longitude": "-90.0863124331371",
    "latitude": "29.924327293337363",
    "geocoded_column": {
      "latitude": "29.924327293337363",
      "longitude": "-90.0863124331371"
    }
  },
  {
    "service_request": "2022-883259",
    "request_type": "Traffic Signals/Signs/Striping/Streetlights",
    "request_reason": "Traffic Signal Malfunctioning/Damaged",
    "date_created": "2022-05-15T12:16:40.000",
    "date_modified": "2022-05-15T12:16:40.000",
    "request_status": "Pending",
    "responsible_agency": "Department of Public Works",
    "final_address": "5961 Magazine St",
    "address_councildis": "A",
    "status": "Pending",
    "rowid": "883259",
    "final_x": "3664757.69831",
    "final_y": "519229.135159",
    "longitude": "-90.1213472178742",
    "latitude": "29.922197445052415",
    "geocoded_column": {
      "latitude": "29.922197445052415",
      "longitude": "-90.1213472178742"
    }
  },
  {
    "service_request": "2022-883258",
    "request_type": "Trash/Recycling",
    "request_reason": "Missed Trash Pick-Up",
    "date_created": "2022-05-15T12:15:40.000",
    "date_modified": "2022-05-15T12:15:40.000",
    "request_status": "Pending",
    "responsible_agency": "Department of Sanitation",
    "final_address": "8131 Birch St",
    "address_councildis": "A",
    "status": "Assigned to Contractor",
    "contractor": "Richards Disposal",
    "rowid": "883258",
    "final_x": "3662743.81965",
    "final_y": "529617.950401",
    "longitude": "-90.1273590887875",
    "latitude": "29.950821815320584",
    "geocoded_column": {
      "latitude": "29.950821815320584",
      "longitude": "-90.1273590887875"
    }
  },
  {
    "service_request": "2022-883257",
    "request_type": "Trash/Recycling",
    "request_reason": "Order Recycling Cart",
    "date_created": "2022-05-15T12:12:34.000",
    "date_modified": "2022-05-15T12:12:34.000",
    "request_status": "Pending",
    "responsible_agency": "Department of Sanitation",
    "final_address": "8420 Hickory St",
    "address_councildis": "A",
    "status": "Pending",
    "rowid": "883257",
    "final_x": "3662435.63501",
    "final_y": "530734.153858",
    "longitude": "-90.1282951192448",
    "latitude": "29.953899930237977",
    "geocoded_column": {
      "latitude": "29.953899930237977",
      "longitude": "-90.1282951192448"
    }
  },
  {
    "service_request": "2022-883256",
    "request_type": "Abandoned Vehicles",
    "request_reason": "Abandoned/Junk Vehicles",
    "date_created": "2022-05-15T12:11:56.000",
    "date_modified": "2022-05-15T12:11:56.000",
    "request_status": "Pending",
    "responsible_agency": "Department of Public Works",
    "final_address": "7518 Garfield St",
    "address_councildis": "A",
    "status": "Pending",
    "rowid": "883256",
    "final_x": "3660853.52038",
    "final_y": "524242.056892",
    "longitude": "-90.13350546748408",
    "latitude": "29.936094385558107",
    "geocoded_column": {
      "latitude": "29.936094385558107",
      "longitude": "-90.13350546748408"
    }
  },
  {
    "service_request": "2022-883255",
    "request_type": "Abandoned Vehicles",
    "request_reason": "Abandoned/Junk Vehicles",
    "date_created": "2022-05-15T12:10:35.000",
    "date_modified": "2022-05-15T12:10:35.000",
    "request_status": "Pending",
    "responsible_agency": "Department of Public Works",
    "final_address": "2003 S Lopez St",
    "address_councildis": "B",
    "status": "Pending",
    "rowid": "883255",
    "final_x": "3669358.26266",
    "final_y": "529766.953921",
    "longitude": "-90.10646893873235",
    "latitude": "29.95103844865991",
    "geocoded_column": {
      "latitude": "29.95103844865991",
      "longitude": "-90.10646893873235"
    }
  },
  {
    "service_request": "2022-883254",
    "request_type": "Abandoned Vehicles",
    "request_reason": "Abandoned/Junk Vehicles",
    "date_created": "2022-05-15T12:09:40.000",
    "date_modified": "2022-05-15T12:09:40.000",
    "request_status": "Pending",
    "responsible_agency": "Department of Public Works",
    "final_address": "1916 S Lopez St",
    "address_councildis": "B",
    "status": "Pending",
    "rowid": "883254",
    "final_x": "3669591.81038",
    "final_y": "529896.087553",
    "longitude": "-90.10572714159562",
    "latitude": "29.951386645895244",
    "geocoded_column": {
      "latitude": "29.951386645895244",
      "longitude": "-90.10572714159562"
    }
  },
  {
    "service_request": "2022-883253",
    "request_type": "Abandoned Vehicles",
    "request_reason": "Abandoned/Junk Vehicles",
    "date_created": "2022-05-15T12:07:49.000",
    "date_modified": "2022-05-15T12:07:49.000",
    "request_status": "Pending",
    "responsible_agency": "Department of Public Works",
    "final_address": "1822 S Lopez St",
    "address_councildis": "B",
    "status": "Pending",
    "rowid": "883253",
    "final_x": "3669778.12769",
    "final_y": "530161.311361",
    "longitude": "-90.10512986475561",
    "latitude": "29.95211043437856",
    "geocoded_column": {
      "latitude": "29.95211043437856",
      "longitude": "-90.10512986475561"
    }
  },
  {
    "service_request": "2022-883252",
    "request_type": "Trash/Recycling",
    "request_reason": "Request a Large Item Pick Up",
    "date_created": "2022-05-15T12:02:24.000",
    "date_modified": "2022-05-15T13:02:29.000",
    "request_status": "Pending",
    "responsible_agency": "Department of Sanitation",
    "final_address": "138 N Alexander St, New Orleans, Louisiana, 70119",
    "address_councildis": "A",
    "status": "Assigned to Contractor",
    "contractor": "Richards Disposal",
    "rowid": "883252",
    "final_x": "3670266.36001",
    "final_y": "539447.457034",
    "longitude": "-90.10327348655824",
    "latitude": "29.977629839647882",
    "geocoded_column": {
      "latitude": "29.977629839647882",
      "longitude": "-90.10327348655824"
    }
  },
  {
    "service_request": "2022-883251",
    "request_type": "Trash/Recycling",
    "request_reason": "Request a Large Item Pick Up",
    "date_created": "2022-05-15T11:49:55.000",
    "date_modified": "2022-05-15T11:49:56.000",
    "request_status": "Pending",
    "responsible_agency": "Department of Sanitation",
    "final_address": "2842 Baronne St",
    "address_councildis": "B",
    "status": "Assigned to Contractor",
    "contractor": "Richards Disposal",
    "rowid": "883251",
    "final_x": "3675234.28149",
    "final_y": "522924.098555",
    "longitude": "-90.08815018873362",
    "latitude": "29.932048541034376",
    "geocoded_column": {
      "latitude": "29.932048541034376",
      "longitude": "-90.08815018873362"
    }
  },
  {
    "service_request": "2022-883249",
    "request_type": "Trash/Recycling",
    "request_reason": "MIssed Recycling Pick-Up",
    "date_created": "2022-05-15T11:44:27.000",
    "date_modified": "2022-05-15T11:44:27.000",
    "request_status": "Pending",
    "responsible_agency": "Department of Sanitation",
    "final_address": "1728 S Rendon St",
    "address_councildis": "B",
    "status": "Assigned to Contractor",
    "contractor": "Richards Disposal",
    "rowid": "883249",
    "final_x": "3669580.17735",
    "final_y": "530560.783554",
    "longitude": "-90.10574138784025",
    "latitude": "29.953214684543667",
    "geocoded_column": {
      "latitude": "29.953214684543667",
      "longitude": "-90.10574138784025"
    }
  },
  {
    "service_request": "2022-883247",
    "request_type": "Trash/Recycling",
    "request_reason": "Replace Trash Cart",
    "date_created": "2022-05-15T10:56:00.000",
    "date_modified": "2022-05-15T10:56:01.000",
    "request_status": "Pending",
    "responsible_agency": "Department of Sanitation",
    "final_address": "3339 Dumaine St",
    "address_councildis": "A",
    "status": "Assigned to Contractor",
    "contractor": "Richards Disposal",
    "rowid": "883247",
    "final_x": "3674905.21563",
    "final_y": "539297.11169",
    "longitude": "-90.08862754051601",
    "latitude": "29.977078698228713",
    "geocoded_column": {
      "latitude": "29.977078698228713",
      "longitude": "-90.08862754051601"
    }
  },
  {
    "service_request": "2022-883246",
    "request_type": "Trash/Recycling",
    "request_reason": "Replace Trash Cart",
    "date_created": "2022-05-15T10:55:36.000",
    "date_modified": "2022-05-15T10:55:37.000",
    "request_status": "Pending",
    "responsible_agency": "Department of Sanitation",
    "final_address": "1826 Cambronne St",
    "address_councildis": "A",
    "status": "Assigned to Contractor",
    "contractor": "Richards Disposal",
    "rowid": "883246",
    "final_x": "3662684.14131",
    "final_y": "530830.335618",
    "longitude": "-90.12750723852172",
    "latitude": "29.95415721054013",
    "geocoded_column": {
      "latitude": "29.95415721054013",
      "longitude": "-90.12750723852172"
    }
  },
  {
    "service_request": "2022-883245",
    "request_type": "Property Maintenance",
    "request_reason": "Property Maintenance",
    "date_created": "2022-05-15T10:53:04.000",
    "date_modified": "2022-05-15T10:53:05.000",
    "request_status": "Pending",
    "responsible_agency": "Department of Code Enforcement",
    "final_address": "330 Elmira Ave",
    "address_councildis": "C",
    "status": "Pending",
    "rowid": "883245",
    "final_x": "3688276.94774",
    "final_y": "530492.830914",
    "longitude": "-90.04670763950404",
    "latitude": "29.95246381703838",
    "geocoded_column": {
      "latitude": "29.95246381703838",
      "longitude": "-90.04670763950404"
    }
  },
  {
    "service_request": "2022-883244",
    "request_type": "Trash/Recycling",
    "request_reason": "Illegal Dumping",
    "date_created": "2022-05-15T10:37:37.000",
    "date_modified": "2022-05-15T10:37:37.000",
    "request_status": "Pending",
    "responsible_agency": "Department of Sanitation",
    "final_address": "839 Opelousas Ave",
    "address_councildis": "C",
    "status": "Pending",
    "rowid": "883244",
    "final_x": "3688143.25788",
    "final_y": "529033.011008",
    "longitude": "-90.04718150876602",
    "latitude": "29.948453939676035",
    "geocoded_column": {
      "latitude": "29.948453939676035",
      "longitude": "-90.04718150876602"
    }
  },
  {
    "service_request": "2022-883243",
    "request_type": "Property Maintenance",
    "request_reason": "Property Maintenance",
    "date_created": "2022-05-15T10:04:19.000",
    "date_modified": "2022-05-15T10:04:20.000",
    "request_status": "Pending",
    "responsible_agency": "Department of Code Enforcement",
    "final_address": "6115 S Hermes St",
    "address_councildis": "D",
    "status": "Pending",
    "rowid": "883243",
    "final_x": "3696545.24067",
    "final_y": "555078.383897",
    "longitude": "-90.01971031337534",
    "latitude": "30.019807261011994",
    "geocoded_column": {
      "latitude": "30.019807261011994",
      "longitude": "-90.01971031337534"
    }
  },
  {
    "service_request": "2022-883242",
    "request_type": "Trash/Recycling",
    "request_reason": "Missed Trash Pick-Up",
    "date_created": "2022-05-15T09:56:17.000",
    "date_modified": "2022-05-15T09:56:18.000",
    "request_status": "Pending",
    "responsible_agency": "Department of Sanitation",
    "final_address": "2719 Eagle St",
    "address_councildis": "A",
    "status": "Assigned to Contractor",
    "contractor": "Richards Disposal",
    "rowid": "883242",
    "final_x": "3663906.07335",
    "final_y": "534132.162565",
    "longitude": "-90.12353877376006",
    "latitude": "29.96320074399675",
    "geocoded_column": {
      "latitude": "29.96320074399675",
      "longitude": "-90.12353877376006"
    }
  },
  {
    "service_request": "2022-883241",
    "request_type": "Trash/Recycling",
    "request_reason": "Missed Trash Pick-Up",
    "date_created": "2022-05-15T09:48:39.000",
    "date_modified": "2022-05-15T09:48:40.000",
    "request_status": "Pending",
    "responsible_agency": "Department of Sanitation",
    "final_address": "221 S Solomon St",
    "address_councildis": "A",
    "status": "Assigned to Contractor",
    "contractor": "Richards Disposal",
    "rowid": "883241",
    "final_x": "3670188.28474",
    "final_y": "538266.980041",
    "longitude": "-90.10356009003696",
    "latitude": "29.97438623102531",
    "geocoded_column": {
      "latitude": "29.97438623102531",
      "longitude": "-90.10356009003696"
    }
  },
  {
    "service_request": "2022-883240",
    "request_type": "Roads/Drainage",
    "request_reason": "Street Subsidence (Sinking)",
    "date_created": "2022-05-15T09:40:50.000",
    "date_modified": "2022-05-15T09:40:50.000",
    "request_status": "Pending",
    "responsible_agency": "Department of Public Works",
    "final_address": "8615 Stroelitz St",
    "address_councildis": "A",
    "status": "Pending",
    "rowid": "883240",
    "final_x": "3666567.56404",
    "final_y": "536286.064903",
    "longitude": "-90.11506174668799",
    "latitude": "29.969045727621026",
    "geocoded_column": {
      "latitude": "29.969045727621026",
      "longitude": "-90.11506174668799"
    }
  },
  {
    "service_request": "2022-883239",
    "request_type": "Abandoned Vehicles",
    "request_reason": "Abandoned/Junk Vehicles",
    "date_created": "2022-05-15T09:34:10.000",
    "date_modified": "2022-05-15T09:34:11.000",
    "request_status": "Pending",
    "responsible_agency": "Department of Public Works",
    "final_address": "SUMNER ST & LAWRENCE ST",
    "address_councildis": "C",
    "status": "Pending",
    "rowid": "883239",
    "final_x": "3691012.6",
    "final_y": "525542.78",
    "longitude": "-90.03824638635969",
    "latitude": "29.93876812992951",
    "geocoded_column": {
      "latitude": "29.93876812992951",
      "longitude": "-90.03824638635969"
    }
  },
  {
    "service_request": "2022-883238",
    "request_type": "Trash/Recycling",
    "request_reason": "Start Trash Service",
    "date_created": "2022-05-15T09:29:42.000",
    "date_modified": "2022-05-15T09:29:43.000",
    "request_status": "Pending",
    "responsible_agency": "Department of Sanitation",
    "final_address": "345 Joseph St, New Orleans, Louisiana, 70115",
    "address_councildis": "A",
    "status": "Assigned to Contractor",
    "contractor": "Richards Disposal",
    "rowid": "883238",
    "final_x": "3665852.31988",
    "final_y": "517503.27295",
    "longitude": "-90.11794972109118",
    "latitude": "29.91741998290495",
    "geocoded_column": {
      "latitude": "29.91741998290495",
      "longitude": "-90.11794972109118"
    }
  },
  {
    "service_request": "2022-883237",
    "request_type": "Trash/Recycling",
    "request_reason": "Order Recycling Cart",
    "date_created": "2022-05-15T09:12:43.000",
    "date_modified": "2022-05-15T09:12:43.000",
    "request_status": "Pending",
    "responsible_agency": "Department of Sanitation",
    "final_address": "2833 Magazine St",
    "address_councildis": "B",
    "status": "Pending",
    "rowid": "883237",
    "final_x": "3676748.42216",
    "final_y": "520723.954105",
    "longitude": "-90.08344596047654",
    "latitude": "29.925953529081198",
    "geocoded_column": {
      "latitude": "29.925953529081198",
      "longitude": "-90.08344596047654"
    }
  },
  {
    "service_request": "2022-883236",
    "request_type": "Trash/Recycling",
    "request_reason": "Missed Trash Pick-Up",
    "date_created": "2022-05-15T09:09:42.000",
    "date_modified": "2022-05-15T09:10:04.000",
    "request_status": "Pending",
    "responsible_agency": "Department of Sanitation",
    "final_address": "1500 Camp St",
    "address_councildis": "B",
    "status": "Assigned to Contractor",
    "contractor": "Richards Disposal",
    "rowid": "883236",
    "final_x": "3679833.75432",
    "final_y": "523875.159612",
    "longitude": "-90.0735971156865",
    "latitude": "29.93452540916678",
    "geocoded_column": {
      "latitude": "29.93452540916678",
      "longitude": "-90.0735971156865"
    }
  },
  {
    "service_request": "2022-883235",
    "request_type": "Trash/Recycling",
    "request_reason": "Order Recycling Cart",
    "date_created": "2022-05-15T08:54:43.000",
    "date_modified": "2022-05-15T08:54:43.000",
    "request_status": "Pending",
    "responsible_agency": "Department of Sanitation",
    "final_address": "5621 Pembrook Dr",
    "address_councildis": "C",
    "status": "Pending",
    "rowid": "883235",
    "final_x": "3704400.50801",
    "final_y": "520912.275129",
    "longitude": "-89.99615021101876",
    "latitude": "29.925613002078673",
    "geocoded_column": {
      "latitude": "29.925613002078673",
      "longitude": "-89.99615021101876"
    }
  },
  {
    "service_request": "2022-883234",
    "request_type": "Trash/Recycling",
    "request_reason": "Order Recycling Cart",
    "date_created": "2022-05-15T08:44:47.000",
    "date_modified": "2022-05-15T08:44:47.000",
    "request_status": "Pending",
    "responsible_agency": "Department of Sanitation",
    "final_address": "413 Aurora Oaks Dr",
    "address_councildis": "C",
    "status": "Pending",
    "rowid": "883234",
    "final_x": "3701288.7233",
    "final_y": "522281.15033",
    "longitude": "-90.00592303941531",
    "latitude": "29.929476420854172",
    "geocoded_column": {
      "latitude": "29.929476420854172",
      "longitude": "-90.00592303941531"
    }
  },
  {
    "service_request": "2022-883233",
    "request_type": "Trash/Recycling",
    "request_reason": "Request a Large Item Pick Up",
    "date_created": "2022-05-15T08:42:54.000",
    "date_modified": "2022-05-15T08:42:55.000",
    "request_status": "Pending",
    "responsible_agency": "Department of Sanitation",
    "final_address": "3425 Vincennes Pl",
    "address_councildis": "A",
    "status": "Assigned to Contractor",
    "contractor": "Richards Disposal",
    "rowid": "883233",
    "final_x": "3668074.73505",
    "final_y": "528736.23872",
    "longitude": "-90.11055641924116",
    "latitude": "29.94824204360276",
    "geocoded_column": {
      "latitude": "29.94824204360276",
      "longitude": "-90.11055641924116"
    }
  },
  {
    "service_request": "2022-883232",
    "request_type": "Trash/Recycling",
    "request_reason": "Illegal Dumping",
    "date_created": "2022-05-15T08:41:38.000",
    "date_modified": "2022-05-15T08:41:38.000",
    "request_status": "Pending",
    "responsible_agency": "Department of Sanitation",
    "final_address": "118 N Lopez St",
    "address_councildis": "B",
    "status": "Pending",
    "rowid": "883232",
    "final_x": "3674071.25108",
    "final_y": "536363.100551",
    "longitude": "-90.09136191382584",
    "latitude": "29.96903604788026",
    "geocoded_column": {
      "latitude": "29.96903604788026",
      "longitude": "-90.09136191382584"
    }
  },
  {
    "service_request": "2022-883231",
    "request_type": "Trash/Recycling",
    "request_reason": "MIssed Recycling Pick-Up",
    "date_created": "2022-05-15T08:38:42.000",
    "date_modified": "2022-05-15T08:38:43.000",
    "request_status": "Pending",
    "responsible_agency": "Department of Sanitation",
    "final_address": "4155 Vendome Pl",
    "address_councildis": "B",
    "status": "Assigned to Contractor",
    "contractor": "Richards Disposal",
    "rowid": "883231",
    "final_x": "3669007.85159",
    "final_y": "530852.208514",
    "longitude": "-90.10753870665252",
    "latitude": "29.954032854992814",
    "geocoded_column": {
      "latitude": "29.954032854992814",
      "longitude": "-90.10753870665252"
    }
  },
  {
    "service_request": "2022-883229",
    "request_type": "Trash/Recycling",
    "request_reason": "Missed Trash Pick-Up",
    "date_created": "2022-05-15T08:07:01.000",
    "date_modified": "2022-05-15T08:07:02.000",
    "request_status": "Pending",
    "responsible_agency": "Department of Sanitation",
    "final_address": "8343 Belfast St",
    "address_councildis": "A",
    "status": "Assigned to Contractor",
    "contractor": "Richards Disposal",
    "rowid": "883229",
    "final_x": "3664860.50714",
    "final_y": "533089.674116",
    "longitude": "-90.12055961362591",
    "latitude": "29.960306499539413",
    "geocoded_column": {
      "latitude": "29.960306499539413",
      "longitude": "-90.12055961362591"
    }
  },
  {
    "service_request": "2022-883228",
    "request_type": "Roads/Drainage",
    "request_reason": "Pothole",
    "date_created": "2022-05-15T08:05:28.000",
    "date_modified": "2022-05-15T08:05:28.000",
    "request_status": "Pending",
    "responsible_agency": "Department of Public Works",
    "final_address": "PALMETTO ST & MISTLETOE ST",
    "address_councildis": "A",
    "status": "Pending",
    "rowid": "883228",
    "final_x": "3665251.2",
    "final_y": "537740.68",
    "longitude": "-90.11917025506519",
    "latitude": "29.973083854340736",
    "geocoded_column": {
      "latitude": "29.973083854340736",
      "longitude": "-90.11917025506519"
    }
  },
  {
    "service_request": "2022-883226",
    "request_type": "Trash/Recycling",
    "request_reason": "Missed Trash Pick-Up",
    "date_created": "2022-05-15T07:52:52.000",
    "date_modified": "2022-05-15T07:52:53.000",
    "request_status": "Pending",
    "responsible_agency": "Department of Sanitation",
    "final_address": "1468 Henry Clay Ave",
    "address_councildis": "A",
    "status": "Assigned to Contractor",
    "contractor": "Richards Disposal",
    "rowid": "883226",
    "final_x": "3664698.54228",
    "final_y": "522026.695418",
    "longitude": "-90.1214405517599",
    "latitude": "29.929891576563023",
    "geocoded_column": {
      "latitude": "29.929891576563023",
      "longitude": "-90.1214405517599"
    }
  },
  {
    "service_request": "2022-883225",
    "request_type": "Roads/Drainage",
    "request_reason": "Pothole",
    "date_created": "2022-05-15T07:28:40.000",
    "date_modified": "2022-05-15T07:28:40.000",
    "request_status": "Pending",
    "responsible_agency": "Department of Public Works",
    "final_address": "ST CHARLES AVE & STATE ST",
    "address_councildis": "A",
    "status": "Pending",
    "rowid": "883225",
    "final_x": "3665749.4",
    "final_y": "522436.58",
    "longitude": "-90.11810943646248",
    "latitude": "29.930988026619243",
    "geocoded_column": {
      "latitude": "29.930988026619243",
      "longitude": "-90.11810943646248"
    }
  },
  {
    "service_request": "2022-883224",
    "request_type": "Trash/Recycling",
    "request_reason": "Repair Trash Cart",
    "date_created": "2022-05-15T07:27:06.000",
    "date_modified": "2022-05-15T07:27:07.000",
    "request_status": "Pending",
    "responsible_agency": "Department of Sanitation",
    "final_address": "New Orleans,LA",
    "status": "Assigned to Contractor",
    "rowid": "883224",
    "longitude": "0.0",
    "latitude": "0.0",
    "geocoded_column": {
      "latitude": "0.0",
      "longitude": "0.0"
    }
  },
  {
    "service_request": "2022-883223",
    "request_type": "Property Maintenance",
    "request_reason": "Property Maintenance",
    "date_created": "2022-05-15T03:09:40.000",
    "date_modified": "2022-05-15T03:09:40.000",
    "request_status": "Pending",
    "responsible_agency": "Department of Code Enforcement",
    "final_address": "2524 Touro St",
    "address_councildis": "D",
    "status": "Pending",
    "rowid": "883223",
    "final_x": "3683771.25897",
    "final_y": "541628.877196",
    "longitude": "-90.06054394729743",
    "latitude": "29.983222437129236",
    "geocoded_column": {
      "latitude": "29.983222437129236",
      "longitude": "-90.06054394729743"
    }
  },
  {
    "service_request": "2022-883222",
    "request_type": "Property Maintenance",
    "request_reason": "Property Maintenance",
    "date_created": "2022-05-15T02:07:14.000",
    "date_modified": "2022-05-15T02:07:14.000",
    "request_status": "Pending",
    "responsible_agency": "Department of Code Enforcement",
    "final_address": "17600 Paris Rd",
    "address_councildis": "E",
    "status": "Pending",
    "rowid": "883222",
    "final_x": "3721049.61516",
    "final_y": "574670.481579",
    "longitude": "-89.94153353534014",
    "latitude": "30.07288225329255",
    "geocoded_column": {
      "latitude": "30.07288225329255",
      "longitude": "-89.94153353534014"
    }
  },
  {
    "service_request": "2022-883220",
    "request_type": "Trash/Recycling",
    "request_reason": "Illegal Dumping",
    "date_created": "2022-05-14T23:28:35.000",
    "date_modified": "2022-05-14T23:28:35.000",
    "request_status": "Pending",
    "responsible_agency": "Department of Sanitation",
    "final_address": "500 Port St",
    "address_councildis": "C",
    "status": "Pending",
    "rowid": "883220",
    "final_x": "3686868.4351",
    "final_y": "534364.623557",
    "longitude": "-90.05101825525108",
    "latitude": "29.96315332565695",
    "geocoded_column": {
      "latitude": "29.96315332565695",
      "longitude": "-90.05101825525108"
    }
  },
  {
    "service_request": "2022-883219",
    "request_type": "Abandoned Vehicles",
    "request_reason": "Vehicle Blocking Your Driveway",
    "date_created": "2022-05-14T23:23:57.000",
    "date_modified": "2022-05-14T23:23:57.000",
    "request_status": "Pending",
    "responsible_agency": "Department of Public Works",
    "final_address": "920 Conti St",
    "address_councildis": "C",
    "status": "Pending",
    "rowid": "883219",
    "final_x": "3681133.1956",
    "final_y": "532060.265475",
    "longitude": "-90.06920973640284",
    "latitude": "29.956992361632587",
    "geocoded_column": {
      "latitude": "29.956992361632587",
      "longitude": "-90.06920973640284"
    }
  },
  {
    "service_request": "2022-883217",
    "request_type": "Trash/Recycling",
    "request_reason": "Missed Trash Pick-Up",
    "date_created": "2022-05-14T22:38:51.000",
    "date_modified": "2022-05-14T22:38:52.000",
    "request_status": "Pending",
    "responsible_agency": "Department of Sanitation",
    "final_address": "130 S Murat St",
    "address_councildis": "A",
    "status": "Assigned to Contractor",
    "contractor": "Richards Disposal",
    "rowid": "883217",
    "final_x": "3669543.29223",
    "final_y": "539119.185482",
    "longitude": "-90.10556829656949",
    "latitude": "29.976748527138856",
    "geocoded_column": {
      "latitude": "29.976748527138856",
      "longitude": "-90.10556829656949"
    }
  },
  {
    "service_request": "2022-883216",
    "request_type": "Health Related Questions",
    "request_reason": "Noise Ordinance Complaint",
    "date_created": "2022-05-14T22:37:25.000",
    "date_modified": "2022-05-14T22:37:25.000",
    "request_status": "Pending",
    "responsible_agency": "Health Department",
    "final_address": "2841 Louisiana Ave",
    "address_councildis": "B",
    "status": "Pending",
    "rowid": "883216",
    "final_x": "3672426.52135",
    "final_y": "525812.615549",
    "longitude": "-90.09691562369595",
    "latitude": "29.94007462510549",
    "geocoded_column": {
      "latitude": "29.94007462510549",
      "longitude": "-90.09691562369595"
    }
  },
  {
    "service_request": "2022-883215",
    "request_type": "Trash/Recycling",
    "request_reason": "Missed Trash Pick-Up",
    "date_created": "2022-05-14T21:41:30.000",
    "date_modified": "2022-05-14T21:41:47.000",
    "request_status": "Pending",
    "responsible_agency": "Department of Sanitation",
    "final_address": "728 S Hennessey St",
    "address_councildis": "A",
    "status": "Assigned to Contractor",
    "contractor": "Richards Disposal",
    "rowid": "883215",
    "final_x": "3668745.21543",
    "final_y": "536854.329864",
    "longitude": "-90.10816536387033",
    "latitude": "29.970544423651113",
    "geocoded_column": {
      "latitude": "29.970544423651113",
      "longitude": "-90.10816536387033"
    }
  },
  {
    "service_request": "2022-883214",
    "request_type": "Trash/Recycling",
    "request_reason": "Missed Trash Pick-Up",
    "date_created": "2022-05-14T21:40:38.000",
    "date_modified": "2022-05-14T21:41:48.000",
    "request_status": "Pending",
    "responsible_agency": "Department of Sanitation",
    "final_address": "321 S Alexander St",
    "address_councildis": "A",
    "status": "Assigned to Contractor",
    "contractor": "Richards Disposal",
    "rowid": "883214",
    "final_x": "3669378.10593",
    "final_y": "538424.371401",
    "longitude": "-90.10611351100955",
    "latitude": "29.974842888365515",
    "geocoded_column": {
      "latitude": "29.974842888365515",
      "longitude": "-90.10611351100955"
    }
  },
  {
    "service_request": "2022-883213",
    "request_type": "Trash/Recycling",
    "request_reason": "Missed Trash Pick-Up",
    "date_created": "2022-05-14T21:33:49.000",
    "date_modified": "2022-05-14T21:33:50.000",
    "request_status": "Pending",
    "responsible_agency": "Department of Sanitation",
    "final_address": "412 S Alexander St, New Orleans, Louisiana, 70119",
    "address_councildis": "A",
    "status": "Assigned to Contractor",
    "contractor": "Richards Disposal",
    "rowid": "883213",
    "final_x": "3669193.39585",
    "final_y": "538059.347977",
    "longitude": "-90.10670921491145",
    "latitude": "29.97384463502483",
    "geocoded_column": {
      "latitude": "29.97384463502483",
      "longitude": "-90.10670921491145"
    }
  },
  {
    "service_request": "2022-883211",
    "request_type": "Health Related Questions",
    "request_reason": "Noise Ordinance Complaint",
    "date_created": "2022-05-14T21:10:43.000",
    "date_modified": "2022-05-14T21:10:43.000",
    "request_status": "Pending",
    "responsible_agency": "Health Department",
    "final_address": "2108 Third St",
    "address_councildis": "B",
    "status": "Pending",
    "rowid": "883211",
    "final_x": "3675385.15675",
    "final_y": "524412.670844",
    "longitude": "-90.08762280179653",
    "latitude": "29.93613712044748",
    "geocoded_column": {
      "latitude": "29.93613712044748",
      "longitude": "-90.08762280179653"
    }
  },
  {
    "service_request": "2022-883210",
    "request_type": "Trash/Recycling",
    "request_reason": "Missed Trash Pick-Up",
    "date_created": "2022-05-14T21:09:00.000",
    "date_modified": "2022-05-14T21:09:00.000",
    "request_status": "Pending",
    "responsible_agency": "Department of Sanitation",
    "final_address": "204 S Olympia St",
    "address_councildis": "A",
    "status": "Assigned to Contractor",
    "contractor": "Richards Disposal",
    "rowid": "883210",
    "final_x": "3669178.4873",
    "final_y": "539178.626826",
    "longitude": "-90.10671845831",
    "latitude": "29.97692271380925",
    "geocoded_column": {
      "latitude": "29.97692271380925",
      "longitude": "-90.10671845831"
    }
  },
  {
    "service_request": "2022-883209",
    "request_type": "Trash/Recycling",
    "request_reason": "Illegal Dumping",
    "date_created": "2022-05-14T21:06:55.000",
    "date_modified": "2022-05-14T21:06:55.000",
    "request_status": "Pending",
    "responsible_agency": "Department of Sanitation",
    "final_address": "2417 Gravier St",
    "address_councildis": "B",
    "status": "Pending",
    "rowid": "883209",
    "final_x": "3675112.59048",
    "final_y": "532843.933124",
    "longitude": "-90.08819405767647",
    "latitude": "29.95932844731823",
    "geocoded_column": {
      "latitude": "29.95932844731823",
      "longitude": "-90.08819405767647"
    }
  },
  {
    "service_request": "2022-883208",
    "request_type": "Roads/Drainage",
    "request_reason": "Catch Basin - Clogged",
    "date_created": "2022-05-14T21:00:19.000",
    "date_modified": "2022-05-14T21:00:19.000",
    "request_status": "Pending",
    "responsible_agency": "Department of Public Works",
    "final_address": "535 S Clark St",
    "address_councildis": "B",
    "status": "Pending",
    "rowid": "883208",
    "final_x": "3671638.53492",
    "final_y": "535557.568198",
    "longitude": "-90.09907201764004",
    "latitude": "29.966893383448546",
    "geocoded_column": {
      "latitude": "29.966893383448546",
      "longitude": "-90.09907201764004"
    }
  },
  {
    "service_request": "2022-883207",
    "request_type": "Health Related Questions",
    "request_reason": "Noise Ordinance Complaint",
    "date_created": "2022-05-14T20:53:12.000",
    "date_modified": "2022-05-14T20:53:12.000",
    "request_status": "Pending",
    "responsible_agency": "Health Department",
    "final_address": "2108 Third St",
    "address_councildis": "B",
    "status": "Pending",
    "rowid": "883207",
    "final_x": "3675385.15675",
    "final_y": "524412.670844",
    "longitude": "-90.08762280179653",
    "latitude": "29.93613712044748",
    "geocoded_column": {
      "latitude": "29.93613712044748",
      "longitude": "-90.08762280179653"
    }
  },
  {
    "service_request": "2022-883206",
    "request_type": "Health Related Questions",
    "request_reason": "Noise Ordinance Complaint",
    "date_created": "2022-05-14T20:49:02.000",
    "date_modified": "2022-05-14T20:49:02.000",
    "request_status": "Pending",
    "responsible_agency": "Health Department",
    "final_address": "2108 Third St",
    "address_councildis": "B",
    "status": "Pending",
    "rowid": "883206",
    "final_x": "3675385.15675",
    "final_y": "524412.670844",
    "longitude": "-90.08762280179653",
    "latitude": "29.93613712044748",
    "geocoded_column": {
      "latitude": "29.93613712044748",
      "longitude": "-90.08762280179653"
    }
  },
  {
    "service_request": "2022-883205",
    "request_type": "Safety & Permits",
    "request_reason": "Licenses & Permits",
    "date_created": "2022-05-14T20:35:16.000",
    "date_modified": "2022-05-14T20:35:16.000",
    "request_status": "Pending",
    "responsible_agency": "Safety and Permits",
    "final_address": "2000 Burgundy St",
    "address_councildis": "C",
    "status": "Pending",
    "rowid": "883205",
    "final_x": "3684318.77397",
    "final_y": "535495.166406",
    "longitude": "-90.05903006849091",
    "latitude": "29.966340139100453",
    "geocoded_column": {
      "latitude": "29.966340139100453",
      "longitude": "-90.05903006849091"
    }
  },
  {
    "service_request": "2022-883203",
    "request_type": "Safety & Permits",
    "request_reason": "Licenses & Permits",
    "date_created": "2022-05-14T20:04:51.000",
    "date_modified": "2022-05-14T20:04:51.000",
    "request_status": "Pending",
    "responsible_agency": "Safety and Permits",
    "final_address": "209 Decatur St",
    "address_councildis": "C",
    "status": "Pending",
    "rowid": "883203",
    "final_x": "3682049.38229",
    "final_y": "530659.09293",
    "longitude": "-90.06636562960138",
    "latitude": "29.953111788278857",
    "geocoded_column": {
      "latitude": "29.953111788278857",
      "longitude": "-90.06636562960138"
    }
  },
  {
    "service_request": "2022-883202",
    "request_type": "Trash/Recycling",
    "request_reason": "Missed Trash Pick-Up",
    "date_created": "2022-05-14T20:01:08.000",
    "date_modified": "2022-05-14T20:01:09.000",
    "request_status": "Pending",
    "responsible_agency": "Department of Sanitation",
    "final_address": "134 N Alexander St",
    "address_councildis": "A",
    "status": "Assigned to Contractor",
    "contractor": "Richards Disposal",
    "rowid": "883202",
    "final_x": "3670253.93831",
    "final_y": "539432.27457",
    "longitude": "-90.10331323336244",
    "latitude": "29.97758845966334",
    "geocoded_column": {
      "latitude": "29.97758845966334",
      "longitude": "-90.10331323336244"
    }
  },
  {
    "service_request": "2022-883201",
    "request_type": "Trash/Recycling",
    "request_reason": "Repair Trash Cart",
    "date_created": "2022-05-14T19:56:35.000",
    "date_modified": "2022-05-14T19:56:36.000",
    "request_status": "Pending",
    "responsible_agency": "Department of Sanitation",
    "final_address": "2114 Lowerline St",
    "address_councildis": "A",
    "status": "Assigned to Contractor",
    "contractor": "Richards Disposal",
    "rowid": "883201",
    "final_x": "3665477.70938",
    "final_y": "529657.266689",
    "longitude": "-90.11872550262122",
    "latitude": "29.950850521218268",
    "geocoded_column": {
      "latitude": "29.950850521218268",
      "longitude": "-90.11872550262122"
    }
  },
  {
    "service_request": "2022-883200",
    "request_type": "Abandoned Vehicles",
    "request_reason": "Abandoned/Junk Vehicles",
    "date_created": "2022-05-14T19:43:56.000",
    "date_modified": "2022-05-14T19:43:56.000",
    "request_status": "Pending",
    "responsible_agency": "Department of Public Works",
    "final_address": "4108 Prentiss Ave",
    "address_councildis": "D",
    "status": "Pending",
    "rowid": "883200",
    "final_x": "3689032.4822",
    "final_y": "554310.248024",
    "longitude": "-90.0434754466183",
    "latitude": "30.017929854240876",
    "geocoded_column": {
      "latitude": "30.017929854240876",
      "longitude": "-90.0434754466183"
    }
  },
  {
    "service_request": "2022-883199",
    "request_type": "Parks & Parkways",
    "request_reason": "Request Tree Service (Right of Way/Public Property)",
    "date_created": "2022-05-14T19:34:57.000",
    "date_modified": "2022-05-15T18:14:05.000",
    "request_status": "Pending",
    "responsible_agency": "Department of Parks & Parkway",
    "final_address": "MICHOUD BLVD & SIX FLAGS PKWY",
    "address_councildis": "E",
    "status": "Pending",
    "rowid": "883199",
    "final_x": "3724634.1",
    "final_y": "566081.38",
    "longitude": "-89.9305342809073",
    "latitude": "30.04914564884181",
    "geocoded_column": {
      "latitude": "30.04914564884181",
      "longitude": "-89.9305342809073"
    }
  },
  {
    "service_request": "2022-883197",
    "request_type": "Trash/Recycling",
    "request_reason": "Missed Trash Pick-Up",
    "date_created": "2022-05-14T19:21:21.000",
    "date_modified": "2022-05-14T19:21:22.000",
    "request_status": "Pending",
    "responsible_agency": "Department of Sanitation",
    "final_address": "500 BLK Passera Ct",
    "address_councildis": "A",
    "status": "Assigned to Contractor",
    "contractor": "Richards Disposal",
    "rowid": "883197",
    "final_x": "3670569.51414",
    "final_y": "540791.658362",
    "longitude": "-90.10227040808329",
    "latitude": "29.981316985108613",
    "geocoded_column": {
      "latitude": "29.981316985108613",
      "longitude": "-90.10227040808329"
    }
  },
  {
    "service_request": "2022-883196",
    "request_type": "Trash/Recycling",
    "request_reason": "Missed Trash Pick-Up",
    "date_created": "2022-05-14T19:07:31.000",
    "date_modified": "2022-05-14T19:07:31.000",
    "request_status": "Pending",
    "responsible_agency": "Department of Sanitation",
    "final_address": "4113 DHemecourt St",
    "address_councildis": "A",
    "status": "Assigned to Contractor",
    "contractor": "Richards Disposal",
    "rowid": "883196",
    "final_x": "3669705.81486",
    "final_y": "536953.853128",
    "longitude": "-90.10512830170478",
    "latitude": "29.970789802470545",
    "geocoded_column": {
      "latitude": "29.970789802470545",
      "longitude": "-90.10512830170478"
    }
  },
  {
    "service_request": "2022-883195",
    "request_type": "Trash/Recycling",
    "request_reason": "Missed Trash Pick-Up",
    "date_created": "2022-05-14T18:56:08.000",
    "date_modified": "2022-05-14T18:56:08.000",
    "request_status": "Pending",
    "responsible_agency": "Department of Sanitation",
    "final_address": "8500 BLK Sycamore St",
    "address_councildis": "A",
    "status": "Assigned to Contractor",
    "contractor": "Richards Disposal",
    "rowid": "883195",
    "final_x": "3663139.01161",
    "final_y": "532051.838899",
    "longitude": "-90.1260302952257",
    "latitude": "29.95750277852316",
    "geocoded_column": {
      "latitude": "29.95750277852316",
      "longitude": "-90.1260302952257"
    }
  },
  {
    "service_request": "2022-883194",
    "request_type": "Mayor's Request",
    "request_reason": "Requests to the Mayor",
    "date_created": "2022-05-14T18:49:25.000",
    "date_modified": "2022-05-14T18:49:25.000",
    "request_status": "Pending",
    "responsible_agency": "Executive Office of the Mayor",
    "final_address": "2313 S Johnson St",
    "address_councildis": "B",
    "status": "Pending",
    "rowid": "883194",
    "final_x": "3673604.85358",
    "final_y": "528700.773312",
    "longitude": "-90.09309674804481",
    "latitude": "29.947981097020467",
    "geocoded_column": {
      "latitude": "29.947981097020467",
      "longitude": "-90.09309674804481"
    }
  },
  {
    "service_request": "2022-883193",
    "request_type": "Trash/Recycling",
    "request_reason": "Missed Trash Pick-Up",
    "date_created": "2022-05-14T18:44:31.000",
    "date_modified": "2022-05-14T18:44:32.000",
    "request_status": "Pending",
    "responsible_agency": "Department of Sanitation",
    "final_address": "8514 Sycamore St",
    "address_councildis": "A",
    "status": "Assigned to Contractor",
    "contractor": "Richards Disposal",
    "rowid": "883193",
    "final_x": "3663145.87309",
    "final_y": "531989.863683",
    "longitude": "-90.1260106906066",
    "latitude": "29.957332168019764",
    "geocoded_column": {
      "latitude": "29.957332168019764",
      "longitude": "-90.1260106906066"
    }
  },
  {
    "service_request": "2022-883192",
    "request_type": "Mosquito, Termite & Rodent Control",
    "request_reason": "Mosquito Complaint",
    "date_created": "2022-05-14T18:18:55.000",
    "date_modified": "2022-05-14T18:18:55.000",
    "request_status": "Pending",
    "responsible_agency": "Mosquito, Termite & Rodent Control Board",
    "final_address": "5714 Lafaye St",
    "address_councildis": "D",
    "status": "Pending",
    "rowid": "883192",
    "final_x": "3687162.94031",
    "final_y": "554283.74748",
    "longitude": "-90.04938340612846",
    "latitude": "30.01791472162876",
    "geocoded_column": {
      "latitude": "30.01791472162876",
      "longitude": "-90.04938340612846"
    }
  },
  {
    "service_request": "2022-883191",
    "request_type": "Property Maintenance",
    "request_reason": "Property Maintenance",
    "date_created": "2022-05-14T18:17:53.000",
    "date_modified": "2022-05-14T18:17:53.000",
    "request_status": "Pending",
    "responsible_agency": "Department of Code Enforcement",
    "final_address": "5542 Pratt Dr",
    "address_councildis": "D",
    "status": "Pending",
    "rowid": "883191",
    "final_x": "3680244.85423",
    "final_y": "552965.284759",
    "longitude": "-90.07128777912374",
    "latitude": "30.014500763127213",
    "geocoded_column": {
      "latitude": "30.014500763127213",
      "longitude": "-90.07128777912374"
    }
  },
  {
    "service_request": "2022-883190",
    "request_type": "Trash/Recycling",
    "request_reason": "Missed Trash Pick-Up",
    "date_created": "2022-05-14T18:11:45.000",
    "date_modified": "2022-05-14T18:11:46.000",
    "request_status": "Pending",
    "responsible_agency": "Department of Sanitation",
    "final_address": "8643 Hickory St",
    "address_councildis": "A",
    "status": "Assigned to Contractor",
    "contractor": "Richards Disposal",
    "rowid": "883190",
    "final_x": "3661855.15712",
    "final_y": "531369.613571",
    "longitude": "-90.13010696934349",
    "latitude": "29.95566401239345",
    "geocoded_column": {
      "latitude": "29.95566401239345",
      "longitude": "-90.13010696934349"
    }
  },
  {
    "service_request": "2022-883189",
    "request_type": "Property Maintenance",
    "request_reason": "Property Maintenance",
    "date_created": "2022-05-14T18:07:30.000",
    "date_modified": "2022-05-14T18:07:30.000",
    "request_status": "Pending",
    "responsible_agency": "Department of Code Enforcement",
    "final_address": "6209 Pasteur Blvd",
    "address_councildis": "D",
    "status": "Pending",
    "rowid": "883189",
    "final_x": "3682812.54012",
    "final_y": "555861.180761",
    "longitude": "-90.063073733012",
    "latitude": "30.022385405255775",
    "geocoded_column": {
      "latitude": "30.022385405255775",
      "longitude": "-90.063073733012"
    }
  },
  {
    "service_request": "2022-883188",
    "request_type": "Trash/Recycling",
    "request_reason": "Missed Trash Pick-Up",
    "date_created": "2022-05-14T18:00:12.000",
    "date_modified": "2022-05-14T18:00:13.000",
    "request_status": "Pending",
    "responsible_agency": "Department of Sanitation",
    "final_address": "4239 Tulane Ave",
    "address_councildis": "A",
    "status": "Assigned to Contractor",
    "contractor": "Richards Disposal",
    "rowid": "883188",
    "final_x": "3668667.8642",
    "final_y": "536713.003527",
    "longitude": "-90.10841442008591",
    "latitude": "29.970158097385436",
    "geocoded_column": {
      "latitude": "29.970158097385436",
      "longitude": "-90.10841442008591"
    }
  },
  {
    "service_request": "2022-883187",
    "request_type": "Trash/Recycling",
    "request_reason": "Request a Large Item Pick Up",
    "date_created": "2022-05-14T17:57:40.000",
    "date_modified": "2022-05-14T17:57:41.000",
    "request_status": "Pending",
    "responsible_agency": "Department of Sanitation",
    "final_address": "1121 Crete St",
    "address_councildis": "A",
    "status": "Assigned to Contractor",
    "contractor": "Richards Disposal",
    "rowid": "883187",
    "final_x": "3677606.98984",
    "final_y": "538863.867337",
    "longitude": "-90.08010942644972",
    "latitude": "29.97580644937645",
    "geocoded_column": {
      "latitude": "29.97580644937645",
      "longitude": "-90.08010942644972"
    }
  },
  {
    "service_request": "2022-883186",
    "request_type": "Trash/Recycling",
    "request_reason": "Replace Trash Cart",
    "date_created": "2022-05-14T17:57:04.000",
    "date_modified": "2022-05-14T17:57:05.000",
    "request_status": "Pending",
    "responsible_agency": "Department of Sanitation",
    "final_address": "4853 Gilbert St",
    "address_councildis": "E",
    "status": "Assigned to Contractor",
    "contractor": "Metro Disposal",
    "rowid": "883186",
    "final_x": "3729549.72774",
    "final_y": "562341.512607",
    "longitude": "-89.91514446726929",
    "latitude": "30.03869619313856",
    "geocoded_column": {
      "latitude": "30.03869619313856",
      "longitude": "-89.91514446726929"
    }
  },
  {
    "service_request": "2022-883185",
    "request_type": "Trash/Recycling",
    "request_reason": "Illegal Dumping",
    "date_created": "2022-05-14T17:53:13.000",
    "date_modified": "2022-05-14T17:53:13.000",
    "request_status": "Pending",
    "responsible_agency": "Department of Sanitation",
    "final_address": "2300 S Carrollton Ave",
    "address_councildis": "A",
    "status": "Pending",
    "rowid": "883185",
    "final_x": "3664550.98509",
    "final_y": "531283.075842",
    "longitude": "-90.12159735366247",
    "latitude": "29.955347947752692",
    "geocoded_column": {
      "latitude": "29.955347947752692",
      "longitude": "-90.12159735366247"
    }
  },
  {
    "service_request": "2022-883184",
    "request_type": "Traffic Signals/Signs/Striping/Streetlights",
    "request_reason": "Traffic Sign Missing/Damaged",
    "date_created": "2022-05-14T17:48:57.000",
    "date_modified": "2022-05-14T17:48:58.000",
    "request_status": "Pending",
    "responsible_agency": "Department of Public Works",
    "final_address": "MARAIS ST & ST BERNARD AVE",
    "address_councildis": "C",
    "status": "Pending",
    "rowid": "883184",
    "final_x": "3682894.3",
    "final_y": "536500.98",
    "longitude": "-90.06349332735539",
    "latitude": "29.969149261961793",
    "geocoded_column": {
      "latitude": "29.969149261961793",
      "longitude": "-90.06349332735539"
    }
  },