[
  {
    "service_request": "2022-901670",
    "request_type": "Trash/Recycling",
    "request_reason": "Order Recycling Cart",
    "date_created": "2022-07-20T01:43:27.000",
    "date_modified": "2022-07-20T01:43:27.000",
    "request_status": "Pending",
    "responsible_agency": "Department of Sanitation",
    "final_address": "6448 Canal Blvd",
    "address_councildis": "A",
    "status": "Pending",
    "rowid": "901670",
    "final_x": "3668604.4994",
    "final_y": "550468.96226",
    "longitude": "-90.10815002377947",
    "latitude": "30.007984143839057",
    "geocoded_column": {
      "latitude": "30.007984143839057",
      "longitude": "-90.10815002377947"
    }
  },
  {
    "service_request": "2022-901669",
    "request_type": "Trash/Recycling",
    "request_reason": "Repair Trash Cart",
    "date_created": "2022-07-19T23:19:55.000",
    "date_modified": "2022-07-19T23:19:56.000",
    "request_status": "Pending",
    "responsible_agency": "Department of Sanitation",
    "final_address": "3003 Pine St",
    "address_councildis": "B",
    "status": "Assigned to Contractor",
    "contractor": "Richards Disposal",
    "rowid": "901669",
    "final_x": "3667555.245",
    "final_y": "532077.748611",
    "longitude": "-90.11208421952237",
    "latitude": "29.95744533757146",
    "geocoded_column": {
      "latitude": "29.95744533757146",
      "longitude": "-90.11208421952237"
    }
  },
  {
    "service_request": "2022-901668",
    "request_type": "Trash/Recycling",
    "request_reason": "Replace Trash Cart",
    "date_created": "2022-07-19T22:45:16.000",
    "date_modified": "2022-07-19T22:45:17.000",
    "request_status": "Pending",
    "responsible_agency": "Department of Sanitation",
    "final_address": "721 Josephine St",
    "address_councildis": "B",
    "status": "Assigned to Contractor",
    "contractor": "Richards Disposal",
    "rowid": "901668",
    "final_x": "3680026.31131",
    "final_y": "521303.290617",
    "longitude": "-90.07307851853307",
    "latitude": "29.927447792458764",
    "geocoded_column": {
      "latitude": "29.927447792458764",
      "longitude": "-90.07307851853307"
    }
  },
  {
    "service_request": "2022-901667",
    "request_type": "Traffic Signals/Signs/Striping/Streetlights",
    "request_reason": "Street Light Outage/Malfunction",
    "date_created": "2022-07-19T22:33:07.000",
    "date_modified": "2022-07-19T22:33:08.000",
    "request_status": "Pending",
    "responsible_agency": "Department of Public Works",
    "final_address": "8215 Spruce St",
    "address_councildis": "A",
    "status": "Pending",
    "contractor": "Royal Engineering",
    "rowid": "901667",
    "final_x": "3663518.89274",
    "final_y": "530811.88909",
    "longitude": "-90.12487203148662",
    "latitude": "29.954082307670184",
    "geocoded_column": {
      "latitude": "29.954082307670184",
      "longitude": "-90.12487203148662"
    }
  },
  {
    "service_request": "2022-901666",
    "request_type": "Trash/Recycling",
    "request_reason": "Missed Trash Pick-Up",
    "date_created": "2022-07-19T21:57:46.000",
    "date_modified": "2022-07-19T21:57:47.000",
    "request_status": "Pending",
    "responsible_agency": "Department of Sanitation",
    "final_address": "5331 Bellaire Dr",
    "address_councildis": "A",
    "status": "Assigned to Contractor",
    "contractor": "Metro Disposal",
    "rowid": "901666",
    "final_x": "3664111.39156",
    "final_y": "543485.701134",
    "longitude": "-90.12257829187664",
    "latitude": "29.988913898813234",
    "geocoded_column": {
      "latitude": "29.988913898813234",
      "longitude": "-90.12257829187664"
    }
  },
  {
    "service_request": "2022-901665",
    "request_type": "Trash/Recycling",
    "request_reason": "Missed Trash Pick-Up",
    "date_created": "2022-07-19T21:55:40.000",
    "date_modified": "2022-07-19T21:55:41.000",
    "request_status": "Pending",
    "responsible_agency": "Department of Sanitation",
    "final_address": "1716 Peniston St",
    "address_councildis": "B",
    "status": "Assigned to Contractor",
    "contractor": "Richards Disposal",
    "rowid": "901665",
    "final_x": "3672703.25512",
    "final_y": "521676.042169",
    "longitude": "-90.09618293650352",
    "latitude": "29.928692174491566",
    "geocoded_column": {
      "latitude": "29.928692174491566",
      "longitude": "-90.09618293650352"
    }
  },
  {
    "service_request": "2022-901664",
    "request_type": "Trash/Recycling",
    "request_reason": "Missed Trash Pick-Up",
    "date_created": "2022-07-19T21:47:35.000",
    "date_modified": "2022-07-19T21:47:36.000",
    "request_status": "Pending",
    "responsible_agency": "Department of Sanitation",
    "final_address": "5693 Evelyn Ct",
    "address_councildis": "A",
    "status": "Assigned to Contractor",
    "contractor": "Metro Disposal",
    "rowid": "901664",
    "final_x": "3664698.97485",
    "final_y": "545350.676048",
    "longitude": "-90.12065994096392",
    "latitude": "29.99402486151924",
    "geocoded_column": {
      "latitude": "29.99402486151924",
      "longitude": "-90.12065994096392"
    }
  },
  {
    "service_request": "2022-901663",
    "request_type": "Trash/Recycling",
    "request_reason": "Missed Trash Pick-Up",
    "date_created": "2022-07-19T21:35:38.000",
    "date_modified": "2022-07-19T21:35:39.000",
    "request_status": "Pending",
    "responsible_agency": "Department of Sanitation",
    "final_address": "2127 S Lopez St",
    "address_councildis": "A",
    "status": "Assigned to Contractor",
    "contractor": "Richards Disposal",
    "rowid": "901663",
    "final_x": "3669099.90618",
    "final_y": "529310.002625",
    "longitude": "-90.10730013951202",
    "latitude": "29.949789585731942",
    "geocoded_column": {
      "latitude": "29.949789585731942",
      "longitude": "-90.10730013951202"
    }
  },
  {
    "service_request": "2022-901662",
    "request_type": "Trash/Recycling",
    "request_reason": "Replace Trash Cart",
    "date_created": "2022-07-19T21:33:19.000",
    "date_modified": "2022-07-19T21:33:20.000",
    "request_status": "Pending",
    "responsible_agency": "Department of Sanitation",
    "final_address": "New Orleans,LA",
    "status": "Assigned to Contractor",
    "rowid": "901662",
    "longitude": "0.0",
    "latitude": "0.0",
    "geocoded_column": {
      "latitude": "0.0",
      "longitude": "0.0"
    }
  },
  {
    "service_request": "2022-901661",
    "request_type": "Trash/Recycling",
    "request_reason": "Missed Trash Pick-Up",
    "date_created": "2022-07-19T21:32:56.000",
    "date_modified": "2022-07-19T21:33:00.000",
    "request_status": "Pending",
    "responsible_agency": "Department of Sanitation",
    "final_address": "5620 Bellaire Dr",
    "address_councildis": "A",
    "status": "Assigned to Contractor",
    "contractor": "Metro Disposal",
    "rowid": "901661",
    "final_x": "3664044.65466",
    "final_y": "545204.898831",
    "longitude": "-90.1227317209759",
    "latitude": "29.993643048432997",
    "geocoded_column": {
      "latitude": "29.993643048432997",
      "longitude": "-90.1227317209759"
    }
  },
  {
    "service_request": "2022-901660",
    "request_type": "Trash/Recycling",
    "request_reason": "Missed Trash Pick-Up",
    "date_created": "2022-07-19T21:32:14.000",
    "date_modified": "2022-07-19T21:32:15.000",
    "request_status": "Pending",
    "responsible_agency": "Department of Sanitation",
    "final_address": "900 Florida Blvd",
    "address_councildis": "A",
    "status": "Assigned to Contractor",
    "contractor": "Metro Disposal",
    "rowid": "901660",
    "final_x": "3669677.26874",
    "final_y": "545105.573647",
    "longitude": "-90.10494246545535",
    "latitude": "29.99320510526222",
    "geocoded_column": {
      "latitude": "29.99320510526222",
      "longitude": "-90.10494246545535"
    }
  },
  {
    "service_request": "2022-901659",
    "request_type": "Roads/Drainage",
    "request_reason": "Unpermitted work in ROW",
    "date_created": "2022-07-19T21:21:33.000",
    "date_modified": "2022-07-19T21:21:33.000",
    "request_status": "Pending",
    "responsible_agency": "Department of Public Works",
    "final_address": "4233 Fontainebleau Dr",
    "address_councildis": "B",
    "status": "Pending",
    "rowid": "901659",
    "final_x": "3669594.35182",
    "final_y": "529369.643777",
    "longitude": "-90.1057369255015",
    "latitude": "29.949939023014437",
    "geocoded_column": {
      "latitude": "29.949939023014437",
      "longitude": "-90.1057369255015"
    }
  },
  {
    "service_request": "2022-901658",
    "request_type": "Trash/Recycling",
    "request_reason": "Missed Trash Pick-Up",
    "date_created": "2022-07-19T21:17:22.000",
    "date_modified": "2022-07-19T21:17:23.000",
    "request_status": "Pending",
    "responsible_agency": "Department of Sanitation",
    "final_address": "5586 Jacquelyn Ct",
    "address_councildis": "A",
    "status": "Assigned to Contractor",
    "contractor": "Metro Disposal",
    "rowid": "901658",
    "final_x": "3664535.15424",
    "final_y": "544959.196367",
    "longitude": "-90.12119051137778",
    "latitude": "29.992953191844915",
    "geocoded_column": {
      "latitude": "29.992953191844915",
      "longitude": "-90.12119051137778"
    }
  },
  {
    "service_request": "2022-901657",
    "request_type": "Trash/Recycling",
    "request_reason": "Missed Trash Pick-Up",
    "date_created": "2022-07-19T21:05:57.000",
    "date_modified": "2022-07-19T21:05:57.000",
    "request_status": "Pending",
    "responsible_agency": "Department of Sanitation",
    "final_address": "4938 Annunciation St",
    "address_councildis": "B",
    "status": "Assigned to Contractor",
    "contractor": "Richards Disposal",
    "rowid": "901657",
    "final_x": "3668645.75815",
    "final_y": "517505.63199",
    "longitude": "-90.1091323057317",
    "latitude": "29.917344701601614",
    "geocoded_column": {
      "latitude": "29.917344701601614",
      "longitude": "-90.1091323057317"
    }
  },
  {
    "service_request": "2022-901656",
    "request_type": "Trash/Recycling",
    "request_reason": "Missed Trash Pick-Up",
    "date_created": "2022-07-19T21:05:07.000",
    "date_modified": "2022-07-19T21:05:08.000",
    "request_status": "Pending",
    "responsible_agency": "Department of Sanitation",
    "final_address": "308 W Kenilworth St",
    "address_councildis": "A",
    "status": "Assigned to Contractor",
    "contractor": "Metro Disposal",
    "rowid": "901656",
    "final_x": "3664924.88896",
    "final_y": "546256.685136",
    "longitude": "-90.1199159995479",
    "latitude": "29.99650950110404",
    "geocoded_column": {
      "latitude": "29.99650950110404",
      "longitude": "-90.1199159995479"
    }
  },
  {
    "service_request": "2022-901655",
    "request_type": "Trash/Recycling",
    "request_reason": "Replace Trash Cart",
    "date_created": "2022-07-19T21:03:56.000",
    "date_modified": "2022-07-19T21:03:56.000",
    "request_status": "Pending",
    "responsible_agency": "Department of Sanitation",
    "final_address": "3016 Calhoun St",
    "address_councildis": "A",
    "status": "Assigned to Contractor",
    "contractor": "Richards Disposal",
    "rowid": "901655",
    "final_x": "3666901.02714",
    "final_y": "527743.312895",
    "longitude": "-90.11429566389647",
    "latitude": "29.945546206962614",
    "geocoded_column": {
      "latitude": "29.945546206962614",
      "longitude": "-90.11429566389647"
    }
  },
  {
    "service_request": "2022-901654",
    "request_type": "Trash/Recycling",
    "request_reason": "Missed Trash Pick-Up",
    "date_created": "2022-07-19T21:01:32.000",
    "date_modified": "2022-07-19T21:01:32.000",
    "request_status": "Pending",
    "responsible_agency": "Department of Sanitation",
    "final_address": "5801 Marcia Ave",
    "address_councildis": "A",
    "status": "Assigned to Contractor",
    "contractor": "Metro Disposal",
    "rowid": "901654",
    "final_x": "3664856.64474",
    "final_y": "546396.05864",
    "longitude": "-90.12012691816523",
    "latitude": "29.99689471755044",
    "geocoded_column": {
      "latitude": "29.99689471755044",
      "longitude": "-90.12012691816523"
    }
  },
  {
    "service_request": "2022-901653",
    "request_type": "Trash/Recycling",
    "request_reason": "Missed Trash Pick-Up",
    "date_created": "2022-07-19T20:58:29.000",
    "date_modified": "2022-07-19T20:58:30.000",
    "request_status": "Pending",
    "responsible_agency": "Department of Sanitation",
    "final_address": "400 Bellaire Dr",
    "address_councildis": "A",
    "status": "Assigned to Contractor",
    "contractor": "Metro Disposal",
    "rowid": "901653",
    "final_x": "3663891.01306",
    "final_y": "542296.766477",
    "longitude": "-90.12331406246292",
    "latitude": "29.98565113059693",
    "geocoded_column": {
      "latitude": "29.98565113059693",
      "longitude": "-90.12331406246292"
    }
  },
  {
    "service_request": "2022-901652",
    "request_type": "Trash/Recycling",
    "request_reason": "Missed Trash Pick-Up",
    "date_created": "2022-07-19T20:58:03.000",
    "date_modified": "2022-07-19T20:58:04.000",
    "request_status": "Pending",
    "responsible_agency": "Department of Sanitation",
    "final_address": "5880 Marcia Ave",
    "address_councildis": "A",
    "status": "Assigned to Contractor",
    "contractor": "Metro Disposal",
    "rowid": "901652",
    "final_x": "3664720.35892",
    "final_y": "546947.514641",
    "longitude": "-90.12053900201036",
    "latitude": "29.998414999823513",
    "geocoded_column": {
      "latitude": "29.998414999823513",
      "longitude": "-90.12053900201036"
    }
  },
  {
    "service_request": "2022-901651",
    "request_type": "Trash/Recycling",
    "request_reason": "Missed Trash Pick-Up",
    "date_created": "2022-07-19T20:52:04.000",
    "date_modified": "2022-07-19T20:52:05.000",
    "request_status": "Pending",
    "responsible_agency": "Department of Sanitation",
    "final_address": "5559 Cherlyn Dr",
    "address_councildis": "A",
    "status": "Assigned to Contractor",
    "contractor": "Metro Disposal",
    "rowid": "901651",
    "final_x": "3665278.44468",
    "final_y": "544856.983631",
    "longitude": "-90.11884599897625",
    "latitude": "29.99265050019207",
    "geocoded_column": {
      "latitude": "29.99265050019207",
      "longitude": "-90.11884599897625"
    }
  },
  {
    "service_request": "2022-901650",
    "request_type": "Trash/Recycling",
    "request_reason": "Missed Trash Pick-Up",
    "date_created": "2022-07-19T20:47:29.000",
    "date_modified": "2022-07-19T20:47:29.000",
    "request_status": "Pending",
    "responsible_agency": "Department of Sanitation",
    "final_address": "212 Filmore Ave",
    "address_councildis": "A",
    "status": "Assigned to Contractor",
    "contractor": "Metro Disposal",
    "rowid": "901650",
    "final_x": "3667204.64897",
    "final_y": "552072.498646",
    "longitude": "-90.11251861383882",
    "latitude": "30.01243439027857",
    "geocoded_column": {
      "latitude": "30.01243439027857",
      "longitude": "-90.11251861383882"
    }
  },
  {
    "service_request": "2022-901649",
    "request_type": "Trash/Recycling",
    "request_reason": "Illegal Dumping",
    "date_created": "2022-07-19T20:35:49.000",
    "date_modified": "2022-07-19T20:35:49.000",
    "request_status": "Pending",
    "responsible_agency": "Department of Sanitation",
    "final_address": "731 S Solomon St",
    "address_councildis": "A",
    "status": "Pending",
    "rowid": "901649",
    "final_x": "3668954.0123",
    "final_y": "536694.295751",
    "longitude": "-90.10751136393722",
    "latitude": "29.970098243050572",
    "geocoded_column": {
      "latitude": "29.970098243050572",
      "longitude": "-90.10751136393722"
    }
  },
  {
    "service_request": "2022-901648",
    "request_type": "Trash/Recycling",
    "request_reason": "Missed Trash Pick-Up",
    "date_created": "2022-07-19T20:34:22.000",
    "date_modified": "2022-07-19T20:34:23.000",
    "request_status": "Pending",
    "responsible_agency": "Department of Sanitation",
    "final_address": "5844 Marcia Ave",
    "address_councildis": "A",
    "status": "Assigned to Contractor",
    "contractor": "Metro Disposal",
    "rowid": "901648",
    "final_x": "3664707.63751",
    "final_y": "546708.355409",
    "longitude": "-90.12058718528604",
    "latitude": "29.997757764050622",
    "geocoded_column": {
      "latitude": "29.997757764050622",
      "longitude": "-90.12058718528604"
    }
  },
  {
    "service_request": "2022-901647",
    "request_type": "Abandoned Vehicles",
    "request_reason": "Abandoned/Junk Vehicles",
    "date_created": "2022-07-19T20:34:08.000",
    "date_modified": "2022-07-19T20:34:08.000",
    "request_status": "Pending",
    "responsible_agency": "Department of Public Works",
    "final_address": "715 S Solomon St",
    "address_councildis": "A",
    "status": "Pending",
    "rowid": "901647",
    "final_x": "3669056.0089",
    "final_y": "536764.1746",
    "longitude": "-90.10718688577886",
    "latitude": "29.97028738579072",
    "geocoded_column": {
      "latitude": "29.97028738579072",
      "longitude": "-90.10718688577886"
    }
  },
  {
    "service_request": "2022-901646",
    "request_type": "Trash/Recycling",
    "request_reason": "Missed Trash Pick-Up",
    "date_created": "2022-07-19T20:33:55.000",
    "date_modified": "2022-07-19T20:33:56.000",
    "request_status": "Pending",
    "responsible_agency": "Department of Sanitation",
    "final_address": "6560 Catina St",
    "address_councildis": "A",
    "status": "Assigned to Contractor",
    "contractor": "Metro Disposal",
    "rowid": "901646",
    "final_x": "3666908.17607",
    "final_y": "551386.235669",
    "longitude": "-90.11347838901612",
    "latitude": "30.010556089200083",
    "geocoded_column": {
      "latitude": "30.010556089200083",
      "longitude": "-90.11347838901612"
    }
  },
  {
    "service_request": "2022-901645",
    "request_type": "Abandoned Vehicles",
    "request_reason": "Abandoned/Junk Vehicles",
    "date_created": "2022-07-19T20:28:07.000",
    "date_modified": "2022-07-19T20:28:07.000",
    "request_status": "Pending",
    "responsible_agency": "Department of Public Works",
    "final_address": "220 Decatur",
    "address_councildis": "C",
    "status": "Pending",
    "rowid": "901645",
    "final_x": "3682186.39688",
    "final_y": "530679.569154",
    "longitude": "-90.06593228244998",
    "latitude": "29.95316392455036",
    "geocoded_column": {
      "latitude": "29.95316392455036",
      "longitude": "-90.06593228244998"
    }
  },
  {
    "service_request": "2022-901644",
    "request_type": "Trash/Recycling",
    "request_reason": "Missed Trash Pick-Up",
    "date_created": "2022-07-19T20:23:48.000",
    "date_modified": "2022-07-19T20:23:48.000",
    "request_status": "Pending",
    "responsible_agency": "Department of Sanitation",
    "final_address": "119 Oaktree Dr",
    "address_councildis": "A",
    "status": "Assigned to Contractor",
    "contractor": "Metro Disposal",
    "rowid": "901644",
    "final_x": "3665537.1065",
    "final_y": "544869.286031",
    "longitude": "-90.11802851839738",
    "latitude": "29.99267678666888",
    "geocoded_column": {
      "latitude": "29.99267678666888",
      "longitude": "-90.11802851839738"
    }
  },
  {
    "service_request": "2022-901643",
    "request_type": "Trash/Recycling",
    "request_reason": "Missed Trash Pick-Up",
    "date_created": "2022-07-19T20:23:28.000",
    "date_modified": "2022-07-19T20:23:28.000",
    "request_status": "Pending",
    "responsible_agency": "Department of Sanitation",
    "final_address": "5439 Marcia Ave",
    "address_councildis": "A",
    "status": "Assigned to Contractor",
    "contractor": "Metro Disposal",
    "rowid": "901643",
    "final_x": "3664898.83789",
    "final_y": "543955.386062",
    "longitude": "-90.12007526758103",
    "latitude": "29.99018247095435",
    "geocoded_column": {
      "latitude": "29.99018247095435",
      "longitude": "-90.12007526758103"
    }
  },
  {
    "service_request": "2022-901642",
    "request_type": "Trash/Recycling",
    "request_reason": "Missed Trash Pick-Up",
    "date_created": "2022-07-19T20:20:52.000",
    "date_modified": "2022-07-19T20:20:54.000",
    "request_status": "Pending",
    "responsible_agency": "Department of Sanitation",
    "final_address": "411 Country Club Dr",
    "address_councildis": "A",
    "status": "Assigned to Contractor",
    "contractor": "Metro Disposal",
    "rowid": "901642",
    "final_x": "3664339.90407",
    "final_y": "544406.307855",
    "longitude": "-90.12182574103115",
    "latitude": "29.991438614133994",
    "geocoded_column": {
      "latitude": "29.991438614133994",
      "longitude": "-90.12182574103115"
    }
  },
  {
    "service_request": "2022-901641",
    "request_type": "Traffic Signals/Signs/Striping/Streetlights",
    "request_reason": "Street Light Outage/Malfunction",
    "date_created": "2022-07-19T20:18:39.000",
    "date_modified": "2022-07-19T20:18:40.000",
    "request_status": "Pending",
    "responsible_agency": "Department of Public Works",
    "final_address": "1958 Duels St",
    "address_councildis": "D",
    "status": "Pending",
    "contractor": "Royal Engineering",
    "rowid": "901641",
    "final_x": "3682817.99989",
    "final_y": "542327.619469",
    "longitude": "-90.06353037190823",
    "latitude": "29.98517281358152",
    "geocoded_column": {
      "latitude": "29.98517281358152",
      "longitude": "-90.06353037190823"
    }
  },
  {
    "service_request": "2022-901640",
    "request_type": "Abandoned Vehicles",
    "request_reason": "Abandoned/Junk Vehicles",
    "date_created": "2022-07-19T20:13:29.000",
    "date_modified": "2022-07-19T20:13:29.000",
    "request_status": "Pending",
    "responsible_agency": "Department of Public Works",
    "final_address": "8201 Apple St",
    "address_councildis": "A",
    "status": "Pending",
    "rowid": "901640",
    "final_x": "3665095.90445",
    "final_y": "532390.880387",
    "longitude": "-90.11983964407767",
    "latitude": "29.95837819253992",
    "geocoded_column": {
      "latitude": "29.95837819253992",
      "longitude": "-90.11983964407767"
    }
  },
  {
    "service_request": "2022-901639",
    "request_type": "Trash/Recycling",
    "request_reason": "Missed Trash Pick-Up",
    "date_created": "2022-07-19T20:12:03.000",
    "date_modified": "2022-07-19T20:12:03.000",
    "request_status": "Pending",
    "responsible_agency": "Department of Sanitation",
    "final_address": "5545 Marcia Ave",
    "address_councildis": "A",
    "status": "Assigned to Contractor",
    "contractor": "Metro Disposal",
    "rowid": "901639",
    "final_x": "3664936.84186",
    "final_y": "544660.436303",
    "longitude": "-90.11993163864445",
    "latitude": "29.992120013097693",
    "geocoded_column": {
      "latitude": "29.992120013097693",
      "longitude": "-90.11993163864445"
    }
  },
  {
    "service_request": "2022-901638",
    "request_type": "Property Maintenance",
    "request_reason": "Property Maintenance",
    "date_created": "2022-07-19T20:06:17.000",
    "date_modified": "2022-07-19T20:06:17.000",
    "request_status": "Pending",
    "responsible_agency": "Department of Code Enforcement",
    "final_address": "1838 St Philip St",
    "address_councildis": "D",
    "status": "Pending",
    "rowid": "901638",
    "final_x": "3679866.0381",
    "final_y": "535881.780551",
    "longitude": "-90.07307830185829",
    "latitude": "29.96753860591791",
    "geocoded_column": {
      "latitude": "29.96753860591791",
      "longitude": "-90.07307830185829"
    }
  },
  {
    "service_request": "2022-901637",
    "request_type": "Trash/Recycling",
    "request_reason": "Request a Large Item Pick Up",
    "date_created": "2022-07-19T19:58:54.000",
    "date_modified": "2022-07-19T19:58:55.000",
    "request_status": "Pending",
    "responsible_agency": "Department of Sanitation",
    "final_address": "4301 Baudin St, New Orleans, Louisiana, 70119",
    "address_councildis": "A",
    "status": "Assigned to Contractor",
    "contractor": "Richards Disposal",
    "rowid": "901637",
    "final_x": "3669309.05012",
    "final_y": "537726.148552",
    "longitude": "-90.10635522046991",
    "latitude": "29.972925043761933",
    "geocoded_column": {
      "latitude": "29.972925043761933",
      "longitude": "-90.10635522046991"
    }
  },
  {
    "service_request": "2022-901636",
    "request_type": "Trash/Recycling",
    "request_reason": "Request a Large Item Pick Up",
    "date_created": "2022-07-19T19:57:44.000",
    "date_modified": "2022-07-19T19:57:45.000",
    "request_status": "Pending",
    "responsible_agency": "Department of Sanitation",
    "final_address": "400 S Solomon St, New Orleans, Louisiana, 70119",
    "status": "Assigned to Contractor",
    "rowid": "901636",
    "longitude": "0.0",
    "latitude": "0.0",
    "geocoded_column": {
      "latitude": "0.0",
      "longitude": "0.0"
    }
  },
  {
    "service_request": "2022-901635",
    "request_type": "Trash/Recycling",
    "request_reason": "Request a Large Item Pick Up",
    "date_created": "2022-07-19T19:54:28.000",
    "date_modified": "2022-07-19T19:54:28.000",
    "request_status": "Pending",
    "responsible_agency": "Department of Sanitation",
    "final_address": "13035 Laval St",
    "address_councildis": "E",
    "status": "Assigned to Contractor",
    "contractor": "Metro Disposal",
    "rowid": "901635",
    "final_x": "3723860.80947",
    "final_y": "562545.271328",
    "longitude": "-89.93311488583099",
    "latitude": "30.039448821317812",
    "geocoded_column": {
      "latitude": "30.039448821317812",
      "longitude": "-89.93311488583099"
    }
  },
  {
    "service_request": "2022-901634",
    "request_type": "Trash/Recycling",
    "request_reason": "Missed Trash Pick-Up",
    "date_created": "2022-07-19T19:49:09.000",
    "date_modified": "2022-07-19T19:49:10.000",
    "request_status": "Pending",
    "responsible_agency": "Department of Sanitation",
    "final_address": "3717 General Pershing St",
    "address_councildis": "B",
    "status": "Assigned to Contractor",
    "contractor": "Richards Disposal",
    "rowid": "901634",
    "final_x": "3670549.01319",
    "final_y": "528369.24352",
    "longitude": "-90.10275653191385",
    "latitude": "29.94716009235243",
    "geocoded_column": {
      "latitude": "29.94716009235243",
      "longitude": "-90.10275653191385"
    }
  },
  {
    "service_request": "2022-901633",
    "request_type": "Trash/Recycling",
    "request_reason": "Missed Trash Pick-Up",
    "date_created": "2022-07-19T19:46:41.000",
    "date_modified": "2022-07-19T19:46:42.000",
    "request_status": "Pending",
    "responsible_agency": "Department of Sanitation",
    "final_address": "12 Maryland Dr, New Orleans, Louisiana, 70124",
    "address_councildis": "A",
    "status": "Assigned to Contractor",
    "contractor": "Metro Disposal",
    "rowid": "901633",
    "final_x": "3663668.31463",
    "final_y": "542180.918221",
    "longitude": "-90.12402134158401",
    "latitude": "29.985339051394327",
    "geocoded_column": {
      "latitude": "29.985339051394327",
      "longitude": "-90.12402134158401"
    }
  },
  {
    "service_request": "2022-901632",
    "request_type": "Trash/Recycling",
    "request_reason": "Request a Large Item Pick Up",
    "date_created": "2022-07-19T19:45:38.000",
    "date_modified": "2022-07-19T19:45:38.000",
    "request_status": "Pending",
    "responsible_agency": "Department of Sanitation",
    "final_address": "Baudin St & S Hennessey St, New Orleans, Louisiana, 70119",
    "address_councildis": "A",
    "status": "Assigned to Contractor",
    "contractor": "Richards Disposal",
    "rowid": "901632",
    "final_x": "3669321.9",
    "final_y": "537674.08",
    "longitude": "-90.10631639889317",
    "latitude": "29.972781494376207",
    "geocoded_column": {
      "latitude": "29.972781494376207",
      "longitude": "-90.10631639889317"
    }
  },
  {
    "service_request": "2022-901631",
    "request_type": "Trash/Recycling",
    "request_reason": "Illegal Dumping",
    "date_created": "2022-07-19T19:44:56.000",
    "date_modified": "2022-07-19T19:44:56.000",
    "request_status": "Pending",
    "responsible_agency": "Department of Sanitation",
    "final_address": "14800 Old Gentilly Rd",
    "address_councildis": "E",
    "status": "Pending",
    "rowid": "901631",
    "final_x": "3732024.91879",
    "final_y": "561149.031134",
    "longitude": "-89.90736921561665",
    "latitude": "30.035332900843606",
    "geocoded_column": {
      "latitude": "30.035332900843606",
      "longitude": "-89.90736921561665"
    }
  },
  {
    "service_request": "2022-901629",
    "request_type": "Trash/Recycling",
    "request_reason": "Missed Trash Pick-Up",
    "date_created": "2022-07-19T19:41:56.000",
    "date_modified": "2022-07-19T19:41:56.000",
    "request_status": "Pending",
    "responsible_agency": "Department of Sanitation",
    "final_address": "110 Country Club Dr",
    "address_councildis": "A",
    "status": "Assigned to Contractor",
    "contractor": "Metro Disposal",
    "rowid": "901629",
    "final_x": "3665761.77991",
    "final_y": "544222.39419",
    "longitude": "-90.11734049862147",
    "latitude": "29.99089150028852",
    "geocoded_column": {
      "latitude": "29.99089150028852",
      "longitude": "-90.11734049862147"
    }
  },
  {
    "service_request": "2022-901628",
    "request_type": "Trash/Recycling",
    "request_reason": "Illegal Dumping",
    "date_created": "2022-07-19T19:40:24.000",
    "date_modified": "2022-07-19T19:40:24.000",
    "request_status": "Pending",
    "responsible_agency": "Department of Sanitation",
    "final_address": "8101 Almonaster Ave",
    "address_councildis": "E",
    "status": "Pending",
    "rowid": "901628",
    "final_x": "3705907.81675",
    "final_y": "551310.582997",
    "longitude": "-89.99026739318323",
    "latitude": "30.00914880084444",
    "geocoded_column": {
      "latitude": "30.00914880084444",
      "longitude": "-89.99026739318323"
    }
  },
  {
    "service_request": "2022-901627",
    "request_type": "Abandoned Vehicles",
    "request_reason": "Abandoned/Junk Vehicles",
    "date_created": "2022-07-19T19:40:23.000",
    "date_modified": "2022-07-19T19:40:23.000",
    "request_status": "Pending",
    "responsible_agency": "Department of Public Works",
    "final_address": "6102 Todd Pl",
    "address_councildis": "E",
    "status": "Pending",
    "rowid": "901627",
    "final_x": "3699325.83543",
    "final_y": "532704.06234",
    "longitude": "-90.01173997848773",
    "latitude": "29.9581981607967",
    "geocoded_column": {
      "latitude": "29.9581981607967",
      "longitude": "-90.01173997848773"
    }
  },
  {
    "service_request": "2022-901625",
    "request_type": "Trash/Recycling",
    "request_reason": "Illegal Dumping",
    "date_created": "2022-07-19T19:39:05.000",
    "date_modified": "2022-07-19T19:39:05.000",
    "request_status": "Pending",
    "responsible_agency": "Department of Sanitation",
    "final_address": "7979 Almonaster Ave",
    "address_councildis": "E",
    "status": "Pending",
    "rowid": "901625",
    "final_x": "3705258.92203",
    "final_y": "551240.500053",
    "longitude": "-89.99232004581647",
    "latitude": "30.008976996795596",
    "geocoded_column": {
      "latitude": "30.008976996795596",
      "longitude": "-89.99232004581647"
    }
  },
  {
    "service_request": "2022-901623",
    "request_type": "Trash/Recycling",
    "request_reason": "Illegal Dumping",
    "date_created": "2022-07-19T19:37:12.000",
    "date_modified": "2022-07-19T19:37:12.000",
    "request_status": "Pending",
    "responsible_agency": "Department of Sanitation",
    "final_address": "7800 Almonaster Ave",
    "address_councildis": "E",
    "status": "Pending",
    "rowid": "901623",
    "final_x": "3704502.64734",
    "final_y": "550711.888661",
    "longitude": "-89.99472886060836",
    "latitude": "30.007547831612836",
    "geocoded_column": {
      "latitude": "30.007547831612836",
      "longitude": "-89.99472886060836"
    }
  },
  {
    "service_request": "2022-901622",
    "request_type": "Trash/Recycling",
    "request_reason": "Request a Large Item Pick Up",
    "date_created": "2022-07-19T19:36:42.000",
    "date_modified": "2022-07-19T19:36:43.000",
    "request_status": "Pending",
    "responsible_agency": "Department of Sanitation",
    "final_address": "S Murat St & Banks St, New Orleans, Louisiana, 70119",
    "address_councildis": "A",
    "status": "Assigned to Contractor",
    "contractor": "Richards Disposal",
    "rowid": "901622",
    "final_x": "3668990.9",
    "final_y": "538453.88",
    "longitude": "-90.10733541156544",
    "latitude": "29.97493542439952",
    "geocoded_column": {
      "latitude": "29.97493542439952",
      "longitude": "-90.10733541156544"
    }
  },
  {
    "service_request": "2022-901621",
    "request_type": "Trash/Recycling",
    "request_reason": "Missed Trash Pick-Up",
    "date_created": "2022-07-19T19:35:15.000",
    "date_modified": "2022-07-19T19:35:16.000",
    "request_status": "Pending",
    "responsible_agency": "Department of Sanitation",
    "final_address": "5351 Bellaire Dr",
    "address_councildis": "A",
    "status": "Assigned to Contractor",
    "contractor": "Metro Disposal",
    "rowid": "901621",
    "final_x": "3664118.65613",
    "final_y": "543615.07835",
    "longitude": "-90.12255102693723",
    "latitude": "29.989269431333827",
    "geocoded_column": {
      "latitude": "29.989269431333827",
      "longitude": "-90.12255102693723"
    }
  },
  {
    "service_request": "2022-901620",
    "request_type": "Trash/Recycling",
    "request_reason": "Missed Trash Pick-Up",
    "date_created": "2022-07-19T19:35:02.000",
    "date_modified": "2022-07-19T19:35:03.000",
    "request_status": "Pending",
    "responsible_agency": "Department of Sanitation",
    "final_address": "5652 General Haig St, New Orleans, Louisiana, 70124",
    "address_councildis": "A",
    "status": "Assigned to Contractor",
    "contractor": "Metro Disposal",
    "rowid": "901620",
    "final_x": "3670342.08372",
    "final_y": "544851.858703",
    "longitude": "-90.10285102649114",
    "latitude": "29.99248786283697",
    "geocoded_column": {
      "latitude": "29.99248786283697",
      "longitude": "-90.10285102649114"
    }
  },
  {
    "service_request": "2022-901619",
    "request_type": "EMS",
    "request_reason": "EMS Lost & Found",
    "date_created": "2022-07-19T19:33:05.000",
    "date_modified": "2022-07-19T19:33:05.000",
    "request_status": "Pending",
    "responsible_agency": "Emergency Medical Services",
    "status": "Pending",
    "rowid": "901619",
    "longitude": "0.0",
    "latitude": "0.0",
    "geocoded_column": {
      "latitude": "0.0",
      "longitude": "0.0"
    }
  },
  {
    "service_request": "2022-901618",
    "request_type": "Trash/Recycling",
    "request_reason": "Illegal Dumping",
    "date_created": "2022-07-19T19:23:04.000",
    "date_modified": "2022-07-19T19:23:04.000",
    "request_status": "Pending",
    "responsible_agency": "Department of Sanitation",
    "final_address": "6600 Almonaster Ave",
    "address_councildis": "E",
    "status": "Pending",
    "rowid": "901618",
    "final_x": "3699437.84567",
    "final_y": "549395.011091",
    "longitude": "-90.0107779462199",
    "latitude": "30.004088631325295",
    "geocoded_column": {
      "latitude": "30.004088631325295",
      "longitude": "-90.0107779462199"
    }
  },
  {
    "service_request": "2022-901616",
    "request_type": "Trash/Recycling",
    "request_reason": "Missed Trash Pick-Up",
    "date_created": "2022-07-19T19:08:33.000",
    "date_modified": "2022-07-19T19:08:34.000",
    "request_status": "Pending",
    "responsible_agency": "Department of Sanitation",
    "final_address": "5845 Sylvia Dr",
    "address_councildis": "A",
    "status": "Assigned to Contractor",
    "contractor": "Metro Disposal",
    "rowid": "901616",
    "final_x": "3664591.67277",
    "final_y": "546714.392145",
    "longitude": "-90.12095331513068",
    "latitude": "29.99777773730762",
    "geocoded_column": {
      "latitude": "29.99777773730762",
      "longitude": "-90.12095331513068"
    }
  },
  {
    "service_request": "2022-901615",
    "request_type": "Trash/Recycling",
    "request_reason": "Missed Trash Pick-Up",
    "date_created": "2022-07-19T19:01:33.000",
    "date_modified": "2022-07-19T19:01:34.000",
    "request_status": "Pending",
    "responsible_agency": "Department of Sanitation",
    "final_address": "101 Country Club Dr",
    "address_councildis": "A",
    "status": "Assigned to Contractor",
    "contractor": "Metro Disposal",
    "rowid": "901615",
    "final_x": "3665780.11034",
    "final_y": "544403.924367",
    "longitude": "-90.11727651146273",
    "latitude": "29.99139011159367",
    "geocoded_column": {
      "latitude": "29.99139011159367",
      "longitude": "-90.11727651146273"
    }
  },
  {
    "service_request": "2022-901614",
    "request_type": "Trash/Recycling",
    "request_reason": "Replace Trash Cart",
    "date_created": "2022-07-19T19:01:25.000",
    "date_modified": "2022-07-19T19:01:26.000",
    "request_status": "Pending",
    "responsible_agency": "Department of Sanitation",
    "final_address": "5821 Colbert St",
    "address_councildis": "A",
    "status": "Assigned to Contractor",
    "contractor": "Metro Disposal",
    "rowid": "901614",
    "final_x": "3667388.67578",
    "final_y": "546402.19976",
    "longitude": "-90.11212812283972",
    "latitude": "29.996837645331112",
    "geocoded_column": {
      "latitude": "29.996837645331112",
      "longitude": "-90.11212812283972"
    }
  },
  {
    "service_request": "2022-901613",
    "request_type": "Abandoned Vehicles",
    "request_reason": "Abandoned/Junk Vehicles",
    "date_created": "2022-07-19T19:01:15.000",
    "date_modified": "2022-07-19T19:01:15.000",
    "request_status": "Pending",
    "responsible_agency": "Department of Public Works",
    "final_address": "715 S Solomon St",
    "address_councildis": "A",
    "status": "Pending",
    "rowid": "901613",
    "final_x": "3669056.0089",
    "final_y": "536764.1746",
    "longitude": "-90.10718688577886",
    "latitude": "29.97028738579072",
    "geocoded_column": {
      "latitude": "29.97028738579072",
      "longitude": "-90.10718688577886"
    }
  },
  {
    "service_request": "2022-901612",
    "request_type": "Trash/Recycling",
    "request_reason": "Illegal Dumping",
    "date_created": "2022-07-19T19:01:05.000",
    "date_modified": "2022-07-19T19:01:05.000",
    "request_status": "Pending",
    "responsible_agency": "Department of Sanitation",
    "final_address": "5900 Almonaster Ave",
    "address_councildis": "E",
    "status": "Pending",
    "rowid": "901612",
    "final_x": "3698161.74531",
    "final_y": "549080.420243",
    "longitude": "-90.01482078709545",
    "latitude": "30.0032640615742",
    "geocoded_column": {
      "latitude": "30.0032640615742",
      "longitude": "-90.01482078709545"
    }
  },
  {
    "service_request": "2022-901611",
    "request_type": "Trash/Recycling",
    "request_reason": "Replace Trash Cart",
    "date_created": "2022-07-19T19:00:00.000",
    "date_modified": "2022-07-19T19:00:01.000",
    "request_status": "Pending",
    "responsible_agency": "Department of Sanitation",
    "final_address": "309 Broadway St",
    "address_councildis": "A",
    "status": "Assigned to Contractor",
    "contractor": "Richards Disposal",
    "rowid": "901611",
    "final_x": "3661590.15885",
    "final_y": "522528.178682",
    "longitude": "-90.13123663259691",
    "latitude": "29.93136052977104",
    "geocoded_column": {
      "latitude": "29.93136052977104",
      "longitude": "-90.13123663259691"
    }
  },
  {
    "service_request": "2022-901610",
    "request_type": "Property Maintenance",
    "request_reason": "Property Maintenance",
    "date_created": "2022-07-19T18:53:20.000",
    "date_modified": "2022-07-19T18:53:20.000",
    "request_status": "Pending",
    "responsible_agency": "Department of Code Enforcement",
    "final_address": "3 Kings Canyon Dr",
    "address_councildis": "C",
    "status": "Pending",
    "rowid": "901610",
    "final_x": "3699152.6826",
    "final_y": "515755.5269",
    "longitude": "-90.01290347672419",
    "latitude": "29.911601051831518",
    "geocoded_column": {
      "latitude": "29.911601051831518",
      "longitude": "-90.01290347672419"
    }
  },
  {
    "service_request": "2022-901609",
    "request_type": "Trash/Recycling",
    "request_reason": "Missed Trash Pick-Up",
    "date_created": "2022-07-19T18:52:56.000",
    "date_modified": "2022-07-19T18:52:57.000",
    "request_status": "Pending",
    "responsible_agency": "Department of Sanitation",
    "final_address": "5821 Colbert St",
    "address_councildis": "A",
    "status": "Assigned to Contractor",
    "contractor": "Metro Disposal",
    "rowid": "901609",
    "final_x": "3667388.67578",
    "final_y": "546402.19976",
    "longitude": "-90.11212812283972",
    "latitude": "29.996837645331112",
    "geocoded_column": {
      "latitude": "29.996837645331112",
      "longitude": "-90.11212812283972"
    }
  },
  {
    "service_request": "2022-901608",
    "request_type": "Trash/Recycling",
    "request_reason": "Missed Trash Pick-Up",
    "date_created": "2022-07-19T18:52:08.000",
    "date_modified": "2022-07-19T18:52:09.000",
    "request_status": "Pending",
    "responsible_agency": "Department of Sanitation",
    "final_address": "1416 Arts St",
    "address_councildis": "C",
    "status": "Assigned to Contractor",
    "contractor": "Metro Disposal",
    "rowid": "901608",
    "final_x": "3687079.35465",
    "final_y": "537745.494024",
    "longitude": "-90.05023264470674",
    "latitude": "29.97244304898685",
    "geocoded_column": {
      "latitude": "29.97244304898685",
      "longitude": "-90.05023264470674"
    }
  },
  {
    "service_request": "2022-901607",
    "request_type": "Property Maintenance",
    "request_reason": "Property Maintenance",
    "date_created": "2022-07-19T18:51:36.000",
    "date_modified": "2022-07-19T18:51:37.000",
    "request_status": "Pending",
    "responsible_agency": "Department of Code Enforcement",
    "final_address": "1 Kings Canyon Dr",
    "address_councildis": "C",
    "status": "Pending",
    "rowid": "901607",
    "final_x": "3699089.64919",
    "final_y": "515767.15378",
    "longitude": "-90.013102001978",
    "latitude": "29.911635018968752",
    "geocoded_column": {
      "latitude": "29.911635018968752",
      "longitude": "-90.013102001978"
    }
  },
  {
    "service_request": "2022-901606",
    "request_type": "Trash/Recycling",
    "request_reason": "Missed Trash Pick-Up",
    "date_created": "2022-07-19T18:49:33.000",
    "date_modified": "2022-07-19T18:49:34.000",
    "request_status": "Pending",
    "responsible_agency": "Department of Sanitation",
    "final_address": "5514 Jacquelyn Ct",
    "address_councildis": "A",
    "status": "Assigned to Contractor",
    "contractor": "Metro Disposal",
    "rowid": "901606",
    "final_x": "3664651.55124",
    "final_y": "544506.571791",
    "longitude": "-90.12083796132195",
    "latitude": "29.991705241914456",
    "geocoded_column": {
      "latitude": "29.991705241914456",
      "longitude": "-90.12083796132195"
    }
  },
  {
    "service_request": "2022-901604",
    "request_type": "Trash/Recycling",
    "request_reason": "Missed Trash Pick-Up",
    "date_created": "2022-07-19T18:44:52.000",
    "date_modified": "2022-07-19T18:44:52.000",
    "request_status": "Pending",
    "responsible_agency": "Department of Sanitation",
    "final_address": "5621 Marcia Ave",
    "address_councildis": "A",
    "status": "Assigned to Contractor",
    "contractor": "Metro Disposal",
    "rowid": "901604",
    "final_x": "3664959.20973",
    "final_y": "545078.377999",
    "longitude": "-90.11984700138727",
    "latitude": "29.99326855919187",
    "geocoded_column": {
      "latitude": "29.99326855919187",
      "longitude": "-90.11984700138727"
    }
  },
  {
    "service_request": "2022-901603",
    "request_type": "Trash/Recycling",
    "request_reason": "Missed Trash Pick-Up",
    "date_created": "2022-07-19T18:44:46.000",
    "date_modified": "2022-07-19T18:44:46.000",
    "request_status": "Pending",
    "responsible_agency": "Department of Sanitation",
    "final_address": "5515 Marcia Ave",
    "address_councildis": "A",
    "status": "Assigned to Contractor",
    "contractor": "Metro Disposal",
    "rowid": "901603",
    "final_x": "3664924.72576",
    "final_y": "544436.276239",
    "longitude": "-90.11997740912501",
    "latitude": "29.99150400191586",
    "geocoded_column": {
      "latitude": "29.99150400191586",
      "longitude": "-90.11997740912501"
    }
  },
  {
    "service_request": "2022-901602",
    "request_type": "Trash/Recycling",
    "request_reason": "Missed Trash Pick-Up",
    "date_created": "2022-07-19T18:43:56.000",
    "date_modified": "2022-07-19T18:43:57.000",
    "request_status": "Pending",
    "responsible_agency": "Department of Sanitation",
    "final_address": "360 Leslie Ln",
    "address_councildis": "A",
    "status": "Assigned to Contractor",
    "contractor": "Metro Disposal",
    "rowid": "901602",
    "final_x": "3664659.42522",
    "final_y": "547336.598545",
    "longitude": "-90.1207184848632",
    "latitude": "29.999486620435047",
    "geocoded_column": {
      "latitude": "29.999486620435047",
      "longitude": "-90.1207184848632"
    }
  },
  {
    "service_request": "2022-901601",
    "request_type": "Trash/Recycling",
    "request_reason": "Missed Trash Pick-Up",
    "date_created": "2022-07-19T18:42:50.000",
    "date_modified": "2022-07-19T18:42:51.000",
    "request_status": "Pending",
    "responsible_agency": "Department of Sanitation",
    "final_address": "5663 Bellaire Dr",
    "address_councildis": "A",
    "status": "Assigned to Contractor",
    "contractor": "Metro Disposal",
    "rowid": "901601",
    "final_x": "3664228.31757",
    "final_y": "545520.286096",
    "longitude": "-90.12214102446552",
    "latitude": "29.994504919280697",
    "geocoded_column": {
      "latitude": "29.994504919280697",
      "longitude": "-90.12214102446552"
    }
  },
  {
    "service_request": "2022-901600",
    "request_type": "Trash/Recycling",
    "request_reason": "Missed Trash Pick-Up",
    "date_created": "2022-07-19T18:40:09.000",
    "date_modified": "2022-07-19T18:40:10.000",
    "request_status": "Pending",
    "responsible_agency": "Department of Sanitation",
    "final_address": "923 General Taylor St",
    "address_councildis": "B",
    "status": "Assigned to Contractor",
    "contractor": "Richards Disposal",
    "rowid": "901600",
    "final_x": "3673101.58273",
    "final_y": "519197.109943",
    "longitude": "-90.09501006762476",
    "latitude": "29.921864074921313",
    "geocoded_column": {
      "latitude": "29.921864074921313",
      "longitude": "-90.09501006762476"
    }
  },
  {
    "service_request": "2022-901599",
    "request_type": "Trash/Recycling",
    "request_reason": "Missed Trash Pick-Up",
    "date_created": "2022-07-19T18:40:03.000",
    "date_modified": "2022-07-19T18:40:04.000",
    "request_status": "Pending",
    "responsible_agency": "Department of Sanitation",
    "final_address": "5583 Bellaire Dr",
    "address_councildis": "A",
    "status": "Assigned to Contractor",
    "contractor": "Metro Disposal",
    "rowid": "901599",
    "final_x": "3664196.47796",
    "final_y": "544965.707151",
    "longitude": "-90.12226011806042",
    "latitude": "29.992980941209265",
    "geocoded_column": {
      "latitude": "29.992980941209265",
      "longitude": "-90.12226011806042"
    }
  },
  {
    "service_request": "2022-901598",
    "request_type": "Traffic Signals/Signs/Striping/Streetlights",
    "request_reason": "Street Light Outage/Malfunction",
    "date_created": "2022-07-19T18:39:40.000",
    "date_modified": "2022-07-19T18:39:41.000",
    "request_status": "Pending",
    "responsible_agency": "Department of Public Works",
    "final_address": "4323 Vixen St",
    "address_councildis": "C",
    "status": "Pending",
    "contractor": "Royal Engineering",
    "rowid": "901598",
    "final_x": "3699517.86109",
    "final_y": "520650.359673",
    "longitude": "-90.01157267668405",
    "latitude": "29.925048597446466",
    "geocoded_column": {
      "latitude": "29.925048597446466",
      "longitude": "-90.01157267668405"
    }
  },
  {
    "service_request": "2022-901597",
    "request_type": "Traffic Signals/Signs/Striping/Streetlights",
    "request_reason": "Street Light Outage/Malfunction",
    "date_created": "2022-07-19T18:39:00.000",
    "date_modified": "2022-07-19T18:39:01.000",
    "request_status": "Pending",
    "responsible_agency": "Department of Public Works",
    "final_address": "3308 Belfort St",
    "address_councildis": "A",
    "status": "Pending",
    "contractor": "Royal Engineering",
    "rowid": "901597",
    "final_x": "3677491.21141",
    "final_y": "542479.224717",
    "longitude": "-90.0803502276339",
    "latitude": "29.985750913670852",
    "geocoded_column": {
      "latitude": "29.985750913670852",
      "longitude": "-90.0803502276339"
    }
  },
  {
    "service_request": "2022-901596",
    "request_type": "Trash/Recycling",
    "request_reason": "MIssed Recycling Pick-Up",
    "date_created": "2022-07-19T18:36:02.000",
    "date_modified": "2022-07-19T18:36:03.000",
    "request_status": "Pending",
    "responsible_agency": "Department of Sanitation",
    "final_address": "5601 Marcia Ave",
    "address_councildis": "A",
    "status": "Assigned to Contractor",
    "contractor": "Metro Disposal",
    "rowid": "901596",
    "final_x": "3664952.07847",
    "final_y": "544946.531535",
    "longitude": "-90.11987393855563",
    "latitude": "29.992906233970068",
    "geocoded_column": {
      "latitude": "29.992906233970068",
      "longitude": "-90.11987393855563"
    }
  },
  {
    "service_request": "2022-901595",
    "request_type": "Trash/Recycling",
    "request_reason": "Missed Trash Pick-Up",
    "date_created": "2022-07-19T18:35:24.000",
    "date_modified": "2022-07-19T18:35:25.000",
    "request_status": "Pending",
    "responsible_agency": "Department of Sanitation",
    "final_address": "5601 Marcia Ave",
    "address_councildis": "A",
    "status": "Assigned to Contractor",
    "contractor": "Metro Disposal",
    "rowid": "901595",
    "final_x": "3664952.07847",
    "final_y": "544946.531535",
    "longitude": "-90.11987393855563",
    "latitude": "29.992906233970068",
    "geocoded_column": {
      "latitude": "29.992906233970068",
      "longitude": "-90.11987393855563"
    }
  },
  {
    "service_request": "2022-901594",
    "request_type": "Trash/Recycling",
    "request_reason": "Request a Large Item Pick Up",
    "date_created": "2022-07-19T18:34:09.000",
    "date_modified": "2022-07-19T18:34:10.000",
    "request_status": "Pending",
    "responsible_agency": "Department of Sanitation",
    "final_address": "911 Saint Ann St, New Orleans, Louisiana, 70116",
    "status": "Assigned to Contractor",
    "rowid": "901594",
    "longitude": "0.0",
    "latitude": "0.0",
    "geocoded_column": {
      "latitude": "0.0",
      "longitude": "0.0"
    }
  },
  {
    "service_request": "2022-901593",
    "request_type": "Trash/Recycling",
    "request_reason": "Missed Trash Pick-Up",
    "date_created": "2022-07-19T18:32:24.000",
    "date_modified": "2022-07-19T18:32:25.000",
    "request_status": "Pending",
    "responsible_agency": "Department of Sanitation",
    "final_address": "300 Leslie Ln",
    "address_councildis": "A",
    "status": "Assigned to Contractor",
    "contractor": "Metro Disposal",
    "rowid": "901593",
    "final_x": "3665045.83239",
    "final_y": "547316.106001",
    "longitude": "-90.11949849271788",
    "latitude": "29.99941902330447",
    "geocoded_column": {
      "latitude": "29.99941902330447",
      "longitude": "-90.11949849271788"
    }
  },
  {
    "service_request": "2022-901592",
    "request_type": "Trash/Recycling",
    "request_reason": "Missed Trash Pick-Up",
    "date_created": "2022-07-19T18:28:10.000",
    "date_modified": "2022-07-19T18:28:11.000",
    "request_status": "Pending",
    "responsible_agency": "Department of Sanitation",
    "final_address": "143 Country Club Dr",
    "address_councildis": "A",
    "status": "Assigned to Contractor",
    "contractor": "Metro Disposal",
    "rowid": "901592",
    "final_x": "3665473.63296",
    "final_y": "544422.089935",
    "longitude": "-90.11824400033846",
    "latitude": "29.99144900063228",
    "geocoded_column": {
      "latitude": "29.99144900063228",
      "longitude": "-90.11824400033846"
    }
  },
  {
    "service_request": "2022-901591",
    "request_type": "Trash/Recycling",
    "request_reason": "Request a Large Item Pick Up",
    "date_created": "2022-07-19T18:27:53.000",
    "date_modified": "2022-07-19T18:27:54.000",
    "request_status": "Pending",
    "responsible_agency": "Department of Sanitation",
    "final_address": "5800 Tall Timbers Dr",
    "address_councildis": "C",
    "status": "Assigned to Contractor",
    "contractor": "Richards Disposal",
    "rowid": "901591",
    "final_x": "3705216.84043",
    "final_y": "514082.02917",
    "longitude": "-89.99382537095208",
    "latitude": "29.90680596284354",
    "geocoded_column": {
      "latitude": "29.90680596284354",
      "longitude": "-89.99382537095208"
    }
  },
  {
    "service_request": "2022-901590",
    "request_type": "Trash/Recycling",
    "request_reason": "Missed Trash Pick-Up",
    "date_created": "2022-07-19T18:27:25.000",
    "date_modified": "2022-07-19T18:27:26.000",
    "request_status": "Pending",
    "responsible_agency": "Department of Sanitation",
    "final_address": "5590 Jacquelyn Ct",
    "address_councildis": "A",
    "status": "Assigned to Contractor",
    "contractor": "Metro Disposal",
    "rowid": "901590",
    "final_x": "3664605.15495",
    "final_y": "544955.388111",
    "longitude": "-90.12096951766739",
    "latitude": "29.99294068410047",
    "geocoded_column": {
      "latitude": "29.99294068410047",
      "longitude": "-90.12096951766739"
    }
  },
  {
    "service_request": "2022-901589",
    "request_type": "Trash/Recycling",
    "request_reason": "Missed Trash Pick-Up",
    "date_created": "2022-07-19T18:26:40.000",
    "date_modified": "2022-07-19T18:26:40.000",
    "request_status": "Pending",
    "responsible_agency": "Department of Sanitation",
    "final_address": "5662 Evelyn Ct",
    "address_councildis": "A",
    "status": "Assigned to Contractor",
    "contractor": "Metro Disposal",
    "rowid": "901589",
    "final_x": "3664340.07386",
    "final_y": "545397.63912",
    "longitude": "-90.12179209520569",
    "latitude": "29.994164433220675",
    "geocoded_column": {
      "latitude": "29.994164433220675",
      "longitude": "-90.12179209520569"
    }
  },
  {
    "service_request": "2022-901588",
    "request_type": "Property Maintenance",
    "request_reason": "Property Maintenance",
    "date_created": "2022-07-19T18:25:56.000",
    "date_modified": "2022-07-19T18:25:56.000",
    "request_status": "Pending",
    "responsible_agency": "Department of Code Enforcement",
    "final_address": "413 Park Blvd",
    "address_councildis": "C",
    "status": "Pending",
    "rowid": "901588",
    "final_x": "3686888.70249",
    "final_y": "525757.390525",
    "longitude": "-90.05125837577367",
    "latitude": "29.93948575522105",
    "geocoded_column": {
      "latitude": "29.93948575522105",
      "longitude": "-90.05125837577367"
    }
  },
  {
    "service_request": "2022-901587",
    "request_type": "Trash/Recycling",
    "request_reason": "Missed Trash Pick-Up",
    "date_created": "2022-07-19T18:24:23.000",
    "date_modified": "2022-07-19T18:24:24.000",
    "request_status": "Pending",
    "responsible_agency": "Department of Sanitation",
    "final_address": "5524 Dayna Ct",
    "address_councildis": "A",
    "status": "Assigned to Contractor",
    "contractor": "Metro Disposal",
    "rowid": "901587",
    "final_x": "3664368.24064",
    "final_y": "544067.054542",
    "longitude": "-90.12174756285931",
    "latitude": "29.99050495874657",
    "geocoded_column": {
      "latitude": "29.99050495874657",
      "longitude": "-90.12174756285931"
    }
  },
  {
    "service_request": "2022-901586",
    "request_type": "Trash/Recycling",
    "request_reason": "Missed Trash Pick-Up",
    "date_created": "2022-07-19T18:18:37.000",
    "date_modified": "2022-07-19T18:18:37.000",
    "request_status": "Pending",
    "responsible_agency": "Department of Sanitation",
    "final_address": "1306 Elysian Fields Ave",
    "address_councildis": "C",
    "status": "Assigned to Contractor",
    "contractor": "Metro Disposal",
    "rowid": "901586",
    "final_x": "3684837.99938",
    "final_y": "537098.74452",
    "longitude": "-90.05733397316044",
    "latitude": "29.970733534794547",
    "geocoded_column": {
      "latitude": "29.970733534794547",
      "longitude": "-90.05733397316044"
    }
  },
  {
    "service_request": "2022-901585",
    "request_type": "Property Maintenance",
    "request_reason": "Property Maintenance",
    "date_created": "2022-07-19T18:16:45.000",
    "date_modified": "2022-07-19T18:16:45.000",
    "request_status": "Pending",
    "responsible_agency": "Department of Code Enforcement",
    "final_address": "7533 Selma St",
    "address_councildis": "E",
    "status": "Pending",
    "rowid": "901585",
    "final_x": "3702899.76298",
    "final_y": "554103.072024",
    "longitude": "-89.99966809730863",
    "latitude": "30.016923685700654",
    "geocoded_column": {
      "latitude": "30.016923685700654",
      "longitude": "-89.99966809730863"
    }
  },
  {
    "service_request": "2022-901584",
    "request_type": "Abandoned Vehicles",
    "request_reason": "Abandoned/Junk Vehicles",
    "date_created": "2022-07-19T18:04:36.000",
    "date_modified": "2022-07-19T20:08:46.000",
    "request_status": "Pending",
    "responsible_agency": "Department of Public Works",
    "final_address": "TOURO ST & N DORGENOIS ST",
    "address_councildis": "D",
    "status": "Pending",
    "rowid": "901584",
    "final_x": "3683821.2",
    "final_y": "541394.38",
    "longitude": "-90.06039443609096",
    "latitude": "29.98257612691052",
    "geocoded_column": {
      "latitude": "29.98257612691052",
      "longitude": "-90.06039443609096"
    }
  },
  {
    "service_request": "2022-901583",
    "request_type": "Trash/Recycling",
    "request_reason": "Missed Trash Pick-Up",
    "date_created": "2022-07-19T18:00:49.000",
    "date_modified": "2022-07-19T18:00:49.000",
    "request_status": "Pending",
    "responsible_agency": "Department of Sanitation",
    "final_address": "1011 Newton St, New Orleans, Louisiana, 70114",
    "address_councildis": "C",
    "status": "Assigned to Contractor",
    "contractor": "Richards Disposal",
    "rowid": "901583",
    "final_x": "3688530.07139",
    "final_y": "527874.334271",
    "longitude": "-90.04600128239707",
    "latitude": "29.945256030454665",
    "geocoded_column": {
      "latitude": "29.945256030454665",
      "longitude": "-90.04600128239707"
    }
  },
  {
    "service_request": "2022-901582",
    "request_type": "Parks & Parkways",
    "request_reason": "Request Grass Cutting Service (City Owned Property)",
    "date_created": "2022-07-19T17:52:45.000",
    "date_modified": "2022-07-19T17:52:45.000",
    "request_status": "Pending",
    "responsible_agency": "Department of Parks & Parkway",
    "final_address": "3235 Camp St",
    "address_councildis": "B",
    "status": "Pending",
    "rowid": "901582",
    "final_x": "3675287.90792",
    "final_y": "520208.41868",
    "longitude": "-90.08807406510483",
    "latitude": "29.924579698272574",
    "geocoded_column": {
      "latitude": "29.924579698272574",
      "longitude": "-90.08807406510483"
    }
  },
  {
    "service_request": "2022-901581",
    "request_type": "Trash/Recycling",
    "request_reason": "Request a Large Item Pick Up",
    "date_created": "2022-07-19T17:50:20.000",
    "date_modified": "2022-07-19T17:50:20.000",
    "request_status": "Pending",
    "responsible_agency": "Department of Sanitation",
    "final_address": "2503 Pauger St",
    "address_councildis": "D",
    "status": "Assigned to Contractor",
    "contractor": "Metro Disposal",
    "rowid": "901581",
    "final_x": "3683696.29871",
    "final_y": "538838.802697",
    "longitude": "-90.0608785729414",
    "latitude": "29.975552998976436",
    "geocoded_column": {
      "latitude": "29.975552998976436",
      "longitude": "-90.0608785729414"
    }
  },
  {
    "service_request": "2022-901580",
    "request_type": "Trash/Recycling",
    "request_reason": "Request a Large Item Pick Up",
    "date_created": "2022-07-19T17:45:17.000",
    "date_modified": "2022-07-19T17:45:18.000",
    "request_status": "Pending",
    "responsible_agency": "Department of Sanitation",
    "final_address": "3936 Pauger St",
    "address_councildis": "D",
    "status": "Assigned to Contractor",
    "contractor": "Metro Disposal",
    "rowid": "901580",
    "final_x": "3683057.46549",
    "final_y": "545331.845328",
    "longitude": "-90.06266877382771",
    "latitude": "29.993426072746082",
    "geocoded_column": {
      "latitude": "29.993426072746082",
      "longitude": "-90.06266877382771"
    }
  },
  {
    "service_request": "2022-901579",
    "request_type": "Trash/Recycling",
    "request_reason": "Request a Large Item Pick Up",
    "date_created": "2022-07-19T17:42:41.000",
    "date_modified": "2022-07-19T17:42:42.000",
    "request_status": "Pending",
    "responsible_agency": "Department of Sanitation",
    "final_address": "4107 Virgil Blvd",
    "address_councildis": "D",
    "status": "Assigned to Contractor",
    "contractor": "Metro Disposal",
    "rowid": "901579",
    "final_x": "3679689.12495",
    "final_y": "547481.303762",
    "longitude": "-90.0732341543099",
    "latitude": "29.999438599473727",
    "geocoded_column": {
      "latitude": "29.999438599473727",
      "longitude": "-90.0732341543099"
    }
  },
  {
    "service_request": "2022-901578",
    "request_type": "Trash/Recycling",
    "request_reason": "MIssed Recycling Pick-Up",
    "date_created": "2022-07-19T17:41:40.000",
    "date_modified": "2022-07-19T17:41:41.000",
    "request_status": "Pending",
    "responsible_agency": "Department of Sanitation",
    "final_address": "221 S Solomon St",
    "address_councildis": "A",
    "status": "Assigned to Contractor",
    "contractor": "Richards Disposal",
    "rowid": "901578",
    "final_x": "3670188.28474",
    "final_y": "538266.980041",
    "longitude": "-90.10356009003696",
    "latitude": "29.97438623102531",
    "geocoded_column": {
      "latitude": "29.97438623102531",
      "longitude": "-90.10356009003696"
    }
  },
  {
    "service_request": "2022-901577",
    "request_type": "Trash/Recycling",
    "request_reason": "Request a Large Item Pick Up",
    "date_created": "2022-07-19T17:37:47.000",
    "date_modified": "2022-07-19T17:37:47.000",
    "request_status": "Pending",
    "responsible_agency": "Department of Sanitation",
    "final_address": "1920 Harmony St",
    "address_councildis": "B",
    "status": "Assigned to Contractor",
    "contractor": "Richards Disposal",
    "rowid": "901577",
    "final_x": "3674259.15304",
    "final_y": "522964.834171",
    "longitude": "-90.09122718051972",
    "latitude": "29.93218965222322",
    "geocoded_column": {
      "latitude": "29.93218965222322",
      "longitude": "-90.09122718051972"
    }
  },
  {
    "service_request": "2022-901576",
    "request_type": "Parks & Parkways",
    "request_reason": "Request Grass Cutting Service (City Owned Property)",
    "date_created": "2022-07-19T17:36:15.000",
    "date_modified": "2022-07-19T17:36:16.000",
    "request_status": "Pending",
    "responsible_agency": "Department of Parks & Parkway",
    "final_address": "3235 Camp St",
    "address_councildis": "B",
    "status": "Pending",
    "rowid": "901576",
    "final_x": "3675287.90792",
    "final_y": "520208.41868",
    "longitude": "-90.08807406510483",
    "latitude": "29.924579698272574",
    "geocoded_column": {
      "latitude": "29.924579698272574",
      "longitude": "-90.08807406510483"
    }
  },
  {
    "service_request": "2022-901575",
    "request_type": "Trash/Recycling",
    "request_reason": "Missed Trash Pick-Up",
    "date_created": "2022-07-19T17:34:03.000",
    "date_modified": "2022-07-19T17:34:03.000",
    "request_status": "Pending",
    "responsible_agency": "Department of Sanitation",
    "final_address": "1011 Newton St",
    "address_councildis": "C",
    "status": "Assigned to Contractor",
    "contractor": "Richards Disposal",
    "rowid": "901575",
    "final_x": "3688530.07139",
    "final_y": "527874.334271",
    "longitude": "-90.04600128239707",
    "latitude": "29.945256030454665",
    "geocoded_column": {
      "latitude": "29.945256030454665",
      "longitude": "-90.04600128239707"
    }
  },
  {
    "service_request": "2022-901574",
    "request_type": "Trash/Recycling",
    "request_reason": "Missed Trash Pick-Up",
    "date_created": "2022-07-19T17:22:09.000",
    "date_modified": "2022-07-19T17:22:09.000",
    "request_status": "Pending",
    "responsible_agency": "Department of Sanitation",
    "final_address": "2120 Peniston St",
    "address_councildis": "B",
    "status": "Assigned to Contractor",
    "contractor": "Richards Disposal",
    "rowid": "901574",
    "final_x": "3672372.56244",
    "final_y": "523013.234043",
    "longitude": "-90.09718132721434",
    "latitude": "29.93237883469038",
    "geocoded_column": {
      "latitude": "29.93237883469038",
      "longitude": "-90.09718132721434"
    }
  },
  {
    "service_request": "2022-901573",
    "request_type": "Trash/Recycling",
    "request_reason": "MIssed Recycling Pick-Up",
    "date_created": "2022-07-19T17:20:32.000",
    "date_modified": "2022-07-19T17:20:33.000",
    "request_status": "Pending",
    "responsible_agency": "Department of Sanitation",
    "final_address": "747 S Genois St",
    "address_councildis": "B",
    "status": "Assigned to Contractor",
    "contractor": "Richards Disposal",
    "rowid": "901573",
    "final_x": "3670901.85537",
    "final_y": "535018.57031",
    "longitude": "-90.10141675811427",
    "latitude": "29.965433118263814",
    "geocoded_column": {
      "latitude": "29.965433118263814",
      "longitude": "-90.10141675811427"
    }
  },
  {
    "service_request": "2022-901572",
    "request_type": "Traffic Signals/Signs/Striping/Streetlights",
    "request_reason": "Traffic Signal Malfunctioning/Damaged",
    "date_created": "2022-07-19T17:10:03.000",
    "date_modified": "2022-07-19T17:10:03.000",
    "request_status": "Pending",
    "responsible_agency": "Department of Public Works",
    "final_address": "HOV & GEN DE GAULLE EXIT",
    "address_councildis": "C",
    "status": "Pending",
    "rowid": "901572",
    "final_x": "3690914.63",
    "final_y": "522399.27",
    "longitude": "-90.03866782145019",
    "latitude": "29.930127587978433",
    "geocoded_column": {
      "latitude": "29.930127587978433",
      "longitude": "-90.03866782145019"
    }
  },
  {
    "service_request": "2022-901571",
    "request_type": "Trash/Recycling",
    "request_reason": "Start Trash Service",
    "date_created": "2022-07-19T17:09:40.000",
    "date_modified": "2022-07-19T17:09:41.000",
    "case_close_date": "2022-06-23T19:00:00.000",
    "request_status": "Pending",
    "responsible_agency": "Department of Sanitation",
    "final_address": "736 Dante St",
    "address_councildis": "A",
    "status": "Assigned to Contractor",
    "contractor": "Richards Disposal",
    "rowid": "901571",
    "final_x": "3660364.68525",
    "final_y": "527758.265791",
    "longitude": "-90.13493264152125",
    "latitude": "29.94577691319367",
    "geocoded_column": {
      "latitude": "29.94577691319367",
      "longitude": "-90.13493264152125"
    }
  },
  {
    "service_request": "2022-901570",
    "request_type": "Trash/Recycling",
    "request_reason": "MIssed Recycling Pick-Up",
    "date_created": "2022-07-19T17:06:35.000",
    "date_modified": "2022-07-19T17:06:35.000",
    "request_status": "Pending",
    "responsible_agency": "Department of Sanitation",
    "final_address": "134 S Telemachus St",
    "address_councildis": "B",
    "status": "Assigned to Contractor",
    "contractor": "Richards Disposal",
    "rowid": "901570",
    "final_x": "3672229.18087",
    "final_y": "537040.819848",
    "longitude": "-90.097156219468",
    "latitude": "29.970954318953897",
    "geocoded_column": {
      "latitude": "29.970954318953897",
      "longitude": "-90.097156219468"
    }
  },
  {
    "service_request": "2022-901569",
    "request_type": "Trash/Recycling",
    "request_reason": "Request a Large Item Pick Up",
    "date_created": "2022-07-19T17:05:54.000",
    "date_modified": "2022-07-19T17:05:55.000",
    "request_status": "Pending",
    "responsible_agency": "Department of Sanitation",
    "final_address": "1825 Hope St",
    "address_councildis": "D",
    "status": "Assigned to Contractor",
    "contractor": "Metro Disposal",
    "rowid": "901569",
    "final_x": "3680709.83893",
    "final_y": "541946.32302",
    "longitude": "-90.07020243858922",
    "latitude": "29.98418845157032",
    "geocoded_column": {
      "latitude": "29.98418845157032",
      "longitude": "-90.07020243858922"
    }
  },
  {
    "service_request": "2022-901568",
    "request_type": "Abandoned Vehicles",
    "request_reason": "Abandoned/Junk Vehicles",
    "date_created": "2022-07-19T16:58:22.000",
    "date_modified": "2022-07-19T16:58:22.000",
    "request_status": "Pending",
    "responsible_agency": "Department of Public Works",
    "final_address": "1315 St Andrew St",
    "address_councildis": "B",
    "status": "Pending",
    "rowid": "901568",
    "final_x": "3678976.02146",
    "final_y": "523267.033787",
    "longitude": "-90.07632601935202",
    "latitude": "29.93287916439355",
    "geocoded_column": {
      "latitude": "29.93287916439355",
      "longitude": "-90.07632601935202"
    }
  },
  {
    "service_request": "2022-901567",
    "request_type": "Property Maintenance",
    "request_reason": "Property Maintenance",
    "date_created": "2022-07-19T16:56:59.000",
    "date_modified": "2022-07-19T16:57:00.000",
    "request_status": "Pending",
    "responsible_agency": "Department of Code Enforcement",
    "final_address": "1420 N Dorgenois St",
    "address_councildis": "D",
    "status": "Pending",
    "rowid": "901567",
    "final_x": "3678794.81883",
    "final_y": "538738.111561",
    "longitude": "-90.07636228317067",
    "latitude": "29.975424888799026",
    "geocoded_column": {
      "latitude": "29.975424888799026",
      "longitude": "-90.07636228317067"
    }
  },
  {
    "service_request": "2022-901566",
    "request_type": "Abandoned Vehicles",
    "request_reason": "Abandoned/Junk Vehicles",
    "date_created": "2022-07-19T16:56:48.000",
    "date_modified": "2022-07-19T16:56:48.000",
    "request_status": "Pending",
    "responsible_agency": "Department of Public Works",
    "final_address": "1315 St Andrew St",
    "address_councildis": "B",
    "status": "Pending",
    "rowid": "901566",
    "final_x": "3678976.02146",
    "final_y": "523267.033787",
    "longitude": "-90.07632601935202",
    "latitude": "29.93287916439355",
    "geocoded_column": {
      "latitude": "29.93287916439355",
      "longitude": "-90.07632601935202"
    }
  },
  {
    "service_request": "2022-901565",
    "request_type": "Abandoned Vehicles",
    "request_reason": "Abandoned/Junk Vehicles",
    "date_created": "2022-07-19T16:54:31.000",
    "date_modified": "2022-07-19T16:54:31.000",
    "request_status": "Pending",
    "responsible_agency": "Department of Public Works",
    "final_address": "1315 St Andrew St",
    "address_councildis": "B",
    "status": "Pending",
    "rowid": "901565",
    "final_x": "3678976.02146",
    "final_y": "523267.033787",
    "longitude": "-90.07632601935202",
    "latitude": "29.93287916439355",
    "geocoded_column": {
      "latitude": "29.93287916439355",
      "longitude": "-90.07632601935202"
    }
  },
  {
    "service_request": "2022-901564",
    "request_type": "Roads/Drainage",
    "request_reason": "Pothole",
    "date_created": "2022-07-19T16:53:40.000",
    "date_modified": "2022-07-19T16:53:40.000",
    "request_status": "Pending",
    "responsible_agency": "Department of Public Works",
    "final_address": "5612 Camp St",
    "address_councildis": "A",
    "status": "Pending",
    "rowid": "901564",
    "final_x": "3666061.6146",
    "final_y": "519209.618231",
    "longitude": "-90.1172319308618",
    "latitude": "29.92210579201996",
    "geocoded_column": {
      "latitude": "29.92210579201996",
      "longitude": "-90.1172319308618"
    }
  },
  {
    "service_request": "2022-901562",
    "request_type": "Mosquito, Termite & Rodent Control",
    "request_reason": "Rodent Complaint (Rats)",
    "date_created": "2022-07-19T16:45:59.000",
    "date_modified": "2022-07-19T16:45:59.000",
    "request_status": "Pending",
    "responsible_agency": "Mosquito, Termite & Rodent Control Board",
    "final_address": "1401 S Carrollton Ave",
    "address_councildis": "A",
    "status": "Pending",
    "rowid": "901562",
    "final_x": "3662592.38951",
    "final_y": "528825.4048",
    "longitude": "-90.12786355748113",
    "latitude": "29.948646951152188",
    "geocoded_column": {
      "latitude": "29.948646951152188",
      "longitude": "-90.12786355748113"
    }
  },
  {
    "service_request": "2022-901561",
    "request_type": "Traffic Signals/Signs/Striping/Streetlights",
    "request_reason": "Street Light Outage/Malfunction",
    "date_created": "2022-07-19T16:45:46.000",
    "date_modified": "2022-07-19T16:45:47.000",
    "request_status": "Pending",
    "responsible_agency": "Department of Public Works",
    "final_address": "1529 Athis St",
    "address_councildis": "D",
    "status": "Pending",
    "contractor": "Royal Engineering",
    "rowid": "901561",
    "final_x": "3678612.94024",
    "final_y": "553831.768407",
    "longitude": "-90.07641379479819",
    "latitude": "30.016932601547882",
    "geocoded_column": {
      "latitude": "30.016932601547882",
      "longitude": "-90.07641379479819"
    }
  },
  {
    "service_request": "2022-901560",
    "request_type": "Traffic Signals/Signs/Striping/Streetlights",
    "request_reason": "Street Light Outage/Malfunction",
    "date_created": "2022-07-19T16:44:06.000",
    "date_modified": "2022-07-19T16:44:07.000",
    "request_status": "Pending",
    "responsible_agency": "Department of Public Works",
    "final_address": "1518 Clouet St",
    "address_councildis": "D",
    "status": "Pending",
    "contractor": "Royal Engineering",
    "rowid": "901560",
    "final_x": "3689383.54838",
    "final_y": "537655.648136",
    "longitude": "-90.04295881294847",
    "latitude": "29.972124856335284",
    "geocoded_column": {
      "latitude": "29.972124856335284",
      "longitude": "-90.04295881294847"
    }
  },
  {
    "service_request": "2022-901559",
    "request_type": "Traffic Signals/Signs/Striping/Streetlights",
    "request_reason": "Street Light Outage/Malfunction",
    "date_created": "2022-07-19T16:42:40.000",
    "date_modified": "2022-07-19T16:42:41.000",
    "request_status": "Pending",
    "responsible_agency": "Department of Public Works",
    "final_address": "8000 Devine Ave",
    "address_councildis": "E",
    "status": "Pending",
    "contractor": "Royal Engineering",
    "rowid": "901559",
    "final_x": "3705015.10033",
    "final_y": "564064.017505",
    "longitude": "-89.99261631417295",
    "latitude": "30.044244527990564",
    "geocoded_column": {
      "latitude": "30.044244527990564",
      "longitude": "-89.99261631417295"
    }
  },
  {
    "service_request": "2022-901558",
    "request_type": "Roads/Drainage",
    "request_reason": "Pothole",
    "date_created": "2022-07-19T16:42:18.000",
    "date_modified": "2022-07-19T16:42:21.000",
    "request_status": "Pending",
    "responsible_agency": "Department of Public Works",
    "final_address": "PRYTANIA ST & STATE ST",
    "address_councildis": "A",
    "status": "Pending",
    "rowid": "901558",
    "final_x": "3665222.7",
    "final_y": "520835.48",
    "longitude": "-90.11982569350866",
    "latitude": "29.926600856257647",
    "geocoded_column": {
      "latitude": "29.926600856257647",
      "longitude": "-90.11982569350866"
    }
  },
  {
    "service_request": "2022-901557",
    "request_type": "Trash/Recycling",
    "request_reason": "Replace Trash Cart",
    "date_created": "2022-07-19T16:39:26.000",
    "date_modified": "2022-07-19T16:39:26.000",
    "request_status": "Pending",
    "responsible_agency": "Department of Sanitation",
    "final_address": "7190 Wayside Dr",
    "address_councildis": "E",
    "status": "Assigned to Contractor",
    "contractor": "Metro Disposal",
    "rowid": "901557",
    "final_x": "3717197.33688",
    "final_y": "568277.682405",
    "longitude": "-89.95395511044644",
    "latitude": "30.055432817424364",
    "geocoded_column": {
      "latitude": "30.055432817424364",
      "longitude": "-89.95395511044644"
    }
  },
  {
    "service_request": "2022-901556",
    "request_type": "Trash/Recycling",
    "request_reason": "Missed Trash Pick-Up",
    "date_created": "2022-07-19T16:35:57.000",
    "date_modified": "2022-07-19T16:35:57.000",
    "request_status": "Pending",
    "responsible_agency": "Department of Sanitation",
    "final_address": "2812 Palmyra St, New Orleans, Louisiana, 70119",
    "address_councildis": "B",
    "status": "Assigned to Contractor",
    "contractor": "Richards Disposal",
    "rowid": "901556",
    "final_x": "3674257.52859",
    "final_y": "534844.724742",
    "longitude": "-90.09082563255227",
    "latitude": "29.96485547385951",
    "geocoded_column": {
      "latitude": "29.96485547385951",
      "longitude": "-90.09082563255227"
    }
  },
  {
    "service_request": "2022-901555",
    "request_type": "Property Maintenance",
    "request_reason": "Property Maintenance",
    "date_created": "2022-07-19T16:29:48.000",
    "date_modified": "2022-07-19T16:29:48.000",
    "request_status": "Pending",
    "responsible_agency": "Department of Code Enforcement",
    "final_address": "5900 Beechcraft St",
    "address_councildis": "D",
    "status": "Pending",
    "rowid": "901555",
    "final_x": "3696294.97059",
    "final_y": "553298.530903",
    "longitude": "-90.02056551182808",
    "latitude": "30.01492122310821",
    "geocoded_column": {
      "latitude": "30.01492122310821",
      "longitude": "-90.02056551182808"
    }
  },
  {
    "service_request": "2022-901554",
    "request_type": "Trash/Recycling",
    "request_reason": "Request a Large Item Pick Up",
    "date_created": "2022-07-19T16:29:37.000",
    "date_modified": "2022-07-19T16:29:38.000",
    "request_status": "Pending",
    "responsible_agency": "Department of Sanitation",
    "final_address": "2633 Palmer Ave",
    "address_councildis": "A",
    "status": "Assigned to Contractor",
    "contractor": "Richards Disposal",
    "rowid": "901554",
    "final_x": "3666743.02676",
    "final_y": "526445.463998",
    "longitude": "-90.11483809994598",
    "latitude": "29.941982162159213",
    "geocoded_column": {
      "latitude": "29.941982162159213",
      "longitude": "-90.11483809994598"
    }
  },
  {
    "service_request": "2022-901553",
    "request_type": "Traffic Signals/Signs/Striping/Streetlights",
    "request_reason": "Street Light Outage/Malfunction",
    "date_created": "2022-07-19T16:27:16.000",
    "date_modified": "2022-07-19T16:27:16.000",
    "request_status": "Pending",
    "responsible_agency": "Department of Public Works",
    "final_address": "297 Audubon Blvd",
    "address_councildis": "A",
    "status": "Pending",
    "contractor": "Royal Engineering",
    "rowid": "901553",
    "final_x": "3667106.72801",
    "final_y": "529674.368001",
    "longitude": "-90.11358129446668",
    "latitude": "29.950849962899806",
    "geocoded_column": {
      "latitude": "29.950849962899806",
      "longitude": "-90.11358129446668"
    }
  },
  {
    "service_request": "2022-901552",
    "request_type": "Traffic Signals/Signs/Striping/Streetlights",
    "request_reason": "Street Light Outage/Malfunction",
    "date_created": "2022-07-19T16:26:48.000",
    "date_modified": "2022-07-19T16:26:48.000",
    "request_status": "Pending",
    "responsible_agency": "Department of Public Works",
    "final_address": "265 Audubon Blvd",
    "address_councildis": "A",
    "status": "Pending",
    "contractor": "Royal Engineering",
    "rowid": "901552",
    "final_x": "3666882.23738",
    "final_y": "529289.022657",
    "longitude": "-90.11430306908531",
    "latitude": "29.949796957487123",
    "geocoded_column": {
      "latitude": "29.949796957487123",
      "longitude": "-90.11430306908531"
    }
  },
  {
    "service_request": "2022-901551",
    "request_type": "Trash/Recycling",
    "request_reason": "Request a Large Item Pick Up",
    "date_created": "2022-07-19T16:26:16.000",
    "date_modified": "2022-07-19T16:26:17.000",
    "request_status": "Pending",
    "responsible_agency": "Department of Sanitation",
    "final_address": "2300 Calhoun St",
    "address_councildis": "A",
    "status": "Assigned to Contractor",
    "contractor": "Richards Disposal",
    "rowid": "901551",
    "final_x": "3665879.57888",
    "final_y": "525454.319805",
    "longitude": "-90.1175974004856",
    "latitude": "29.939282052613454",
    "geocoded_column": {
      "latitude": "29.939282052613454",
      "longitude": "-90.1175974004856"
    }
  },
  {
    "service_request": "2022-901550",
    "request_type": "Traffic Signals/Signs/Striping/Streetlights",
    "request_reason": "Street Light Outage/Malfunction",
    "date_created": "2022-07-19T16:18:33.000",
    "date_modified": "2022-07-19T16:18:34.000",
    "request_status": "Pending",
    "responsible_agency": "Department of Public Works",
    "final_address": "4230 San Remo St",
    "address_councildis": "E",
    "status": "Pending",
    "contractor": "Royal Engineering",
    "rowid": "901550",
    "final_x": "3760533.42275",
    "final_y": "572736.311401",
    "longitude": "-89.81679535676241",
    "latitude": "30.066186362867597",
    "geocoded_column": {
      "latitude": "30.066186362867597",
      "longitude": "-89.81679535676241"
    }
  },
  {
    "service_request": "2022-901549",
    "request_type": "Trash/Recycling",
    "request_reason": "Missed Trash Pick-Up",
    "date_created": "2022-07-19T16:13:15.000",
    "date_modified": "2022-07-19T16:13:17.000",
    "request_status": "Pending",
    "responsible_agency": "Department of Sanitation",
    "final_address": "1625 General Taylor St",
    "address_councildis": "B",
    "status": "Assigned to Contractor",
    "contractor": "Richards Disposal",
    "rowid": "901549",
    "final_x": "3672615.84424",
    "final_y": "521265.630713",
    "longitude": "-90.09647286001298",
    "latitude": "29.927566269717005",
    "geocoded_column": {
      "latitude": "29.927566269717005",
      "longitude": "-90.09647286001298"
    }
  },
  {
    "service_request": "2022-901548",
    "request_type": "Traffic Signals/Signs/Striping/Streetlights",
    "request_reason": "Traffic Sign Missing/Damaged",
    "date_created": "2022-07-19T16:13:09.000",
    "date_modified": "2022-07-19T16:13:10.000",
    "request_status": "Pending",
    "responsible_agency": "Department of Public Works",
    "final_address": "FRANKLIN AVE & N VILLERE ST",
    "address_councildis": "C",
    "status": "Pending",
    "rowid": "901548",
    "final_x": "3687334.8",
    "final_y": "537600.58",
    "longitude": "-90.04943103335364",
    "latitude": "29.97203671849377",
    "geocoded_column": {
      "latitude": "29.97203671849377",
      "longitude": "-90.04943103335364"
    }
  },
  {
    "service_request": "2022-901547",
    "request_type": "Roads/Drainage",
    "request_reason": "Debris in Roadway",
    "date_created": "2022-07-19T16:10:18.000",
    "date_modified": "2022-07-19T16:10:22.000",
    "request_status": "Pending",
    "responsible_agency": "Department of Public Works",
    "final_address": "4844 Lonely Oak Dr",
    "address_councildis": "E",
    "status": "Pending",
    "rowid": "901547",
    "final_x": "3702211.98794",
    "final_y": "554933.188056",
    "longitude": "-90.00181068684934",
    "latitude": "30.019228180510947",
    "geocoded_column": {
      "latitude": "30.019228180510947",
      "longitude": "-90.00181068684934"
    }
  },
  {
    "service_request": "2022-901546",
    "request_type": "Trash/Recycling",
    "request_reason": "Order Recycling Cart",
    "date_created": "2022-07-19T16:05:17.000",
    "date_modified": "2022-07-19T16:05:18.000",
    "request_status": "Pending",
    "responsible_agency": "Department of Sanitation",
    "final_address": "2711 Ramsey Dr",
    "address_councildis": "C",
    "status": "Pending",
    "rowid": "901546",
    "final_x": "3703061.59953",
    "final_y": "520862.031225",
    "longitude": "-90.00037854991376",
    "latitude": "29.925517744161077",
    "geocoded_column": {
      "latitude": "29.925517744161077",
      "longitude": "-90.00037854991376"
    }
  },
  {
    "service_request": "2022-901545",
    "request_type": "Roads/Drainage",
    "request_reason": "Street Flooding / Drainage",
    "date_created": "2022-07-19T15:59:34.000",
    "date_modified": "2022-07-19T15:59:35.000",
    "request_status": "Pending",
    "responsible_agency": "Department of Public Works",
    "final_address": "2328 Coliseum St",
    "address_councildis": "B",
    "status": "Pending",
    "rowid": "901545",
    "final_x": "3677730.84187",
    "final_y": "522487.63449",
    "longitude": "-90.080283866196",
    "latitude": "29.930773572625625",
    "geocoded_column": {
      "latitude": "29.930773572625625",
      "longitude": "-90.080283866196"
    }
  },
  {
    "service_request": "2022-901544",
    "request_type": "Trash/Recycling",
    "request_reason": "Repair Trash Cart",
    "date_created": "2022-07-19T15:59:09.000",
    "date_modified": "2022-07-19T15:59:09.000",
    "request_status": "Pending",
    "responsible_agency": "Department of Sanitation",
    "final_address": "3439 Magnolia St",
    "address_councildis": "B",
    "status": "Assigned to Contractor",
    "contractor": "Richards Disposal",
    "rowid": "901544",
    "final_x": "3672282.48603",
    "final_y": "525035.381501",
    "longitude": "-90.09739683395269",
    "latitude": "29.937941757056716",
    "geocoded_column": {
      "latitude": "29.937941757056716",
      "longitude": "-90.09739683395269"
    }
  },
  {
    "service_request": "2022-901543",
    "request_type": "Trash/Recycling",
    "request_reason": "Repair Trash Cart",
    "date_created": "2022-07-19T15:58:36.000",
    "date_modified": "2022-07-19T15:58:37.000",
    "request_status": "Pending",
    "responsible_agency": "Department of Sanitation",
    "final_address": "3437 Magnolia St",
    "address_councildis": "B",
    "status": "Assigned to Contractor",
    "contractor": "Richards Disposal",
    "rowid": "901543",
    "final_x": "3672294.03911",
    "final_y": "525040.560445",
    "longitude": "-90.09736018346136",
    "latitude": "29.937955654815283",
    "geocoded_column": {
      "latitude": "29.937955654815283",
      "longitude": "-90.09736018346136"
    }
  },
  {
    "service_request": "2022-901542",
    "request_type": "Trash/Recycling",
    "request_reason": "Order Recycling Cart",
    "date_created": "2022-07-19T15:57:20.000",
    "date_modified": "2022-07-19T15:57:21.000",
    "case_close_date": "2022-07-10T19:00:00.000",
    "request_status": "Pending",
    "responsible_agency": "Department of Sanitation",
    "final_address": "3815 Banks St",
    "address_councildis": "A",
    "status": "Pending",
    "rowid": "901542",
    "final_x": "3671273.49915",
    "final_y": "536770.153928",
    "longitude": "-90.100183592215",
    "latitude": "29.97023839386112",
    "geocoded_column": {
      "latitude": "29.97023839386112",
      "longitude": "-90.100183592215"
    }
  },
  {
    "service_request": "2022-901541",
    "request_type": "Trash/Recycling",
    "request_reason": "Return Recycling Cart",
    "date_created": "2022-07-19T15:56:08.000",
    "date_modified": "2022-07-19T15:56:08.000",
    "case_close_date": "2022-07-05T19:00:00.000",
    "request_status": "Pending",
    "responsible_agency": "Department of Sanitation",
    "final_address": "2415 Magnolia St",
    "address_councildis": "B",
    "status": "Pending",
    "rowid": "901541",
    "final_x": "3674638.72289",
    "final_y": "526462.09715",
    "longitude": "-90.08990910609505",
    "latitude": "29.941794664525467",
    "geocoded_column": {
      "latitude": "29.941794664525467",
      "longitude": "-90.08990910609505"
    }
  },
  {
    "service_request": "2022-901540",
    "request_type": "Abandoned Vehicles",
    "request_reason": "Abandoned/Junk Vehicles",
    "date_created": "2022-07-19T15:52:42.000",
    "date_modified": "2022-07-19T15:52:43.000",
    "request_status": "Pending",
    "responsible_agency": "Department of Public Works",
    "final_address": "6315 Spain St",
    "address_councildis": "D",
    "status": "Pending",
    "rowid": "901540",
    "final_x": "3684576.76277",
    "final_y": "556356.833498",
    "longitude": "-90.05748178746161",
    "latitude": "30.023694372148082",
    "geocoded_column": {
      "latitude": "30.023694372148082",
      "longitude": "-90.05748178746161"
    }
  },
  {
    "service_request": "2022-901539",
    "request_type": "Trash/Recycling",
    "request_reason": "Missed Trash Pick-Up",
    "date_created": "2022-07-19T15:51:56.000",
    "date_modified": "2022-07-19T15:51:56.000",
    "request_status": "Pending",
    "responsible_agency": "Department of Sanitation",
    "final_address": "1925 Burdette St",
    "address_councildis": "A",
    "status": "Assigned to Contractor",
    "contractor": "Richards Disposal",
    "rowid": "901539",
    "final_x": "3664608.24135",
    "final_y": "529546.036609",
    "longitude": "-90.12147456812008",
    "latitude": "29.950569988123323",
    "geocoded_column": {
      "latitude": "29.950569988123323",
      "longitude": "-90.12147456812008"
    }
  },
  {
    "service_request": "2022-901538",
    "request_type": "Trash/Recycling",
    "request_reason": "Request a Large Item Pick Up",
    "date_created": "2022-07-19T15:46:27.000",
    "date_modified": "2022-07-19T15:46:28.000",
    "request_status": "Pending",
    "responsible_agency": "Department of Sanitation",
    "final_address": "13512 Granville St",
    "address_councildis": "E",
    "status": "Assigned to Contractor",
    "contractor": "Metro Disposal",
    "rowid": "901538",
    "final_x": "3725917.08038",
    "final_y": "562210.641119",
    "longitude": "-89.9266295361287",
    "latitude": "30.0384594748473",
    "geocoded_column": {
      "latitude": "30.0384594748473",
      "longitude": "-89.9266295361287"
    }
  },
  {
    "service_request": "2022-901537",
    "request_type": "Parks & Parkways",
    "request_reason": "Request Tree Service (Right of Way/Public Property)",
    "date_created": "2022-07-19T15:44:46.000",
    "date_modified": "2022-07-19T15:49:48.000",
    "request_status": "Pending",
    "responsible_agency": "Department of Parks & Parkway",
    "final_address": "4313 Chartres St",
    "address_councildis": "C",
    "rowid": "901537",
    "final_x": "3692366.05168",
    "final_y": "533233.334404",
    "longitude": "-90.03369801947632",
    "latitude": "29.95987236185482",
    "geocoded_column": {
      "latitude": "29.95987236185482",
      "longitude": "-90.03369801947632"
    }
  },
  {
    "service_request": "2022-901536",
    "request_type": "Traffic Signals/Signs/Striping/Streetlights",
    "request_reason": "Street Light Outage/Malfunction",
    "date_created": "2022-07-19T15:40:10.000",
    "date_modified": "2022-07-19T15:40:11.000",
    "request_status": "Pending",
    "responsible_agency": "Department of Public Works",
    "final_address": "948 Florida Blvd",
    "address_councildis": "A",
    "status": "Pending",
    "contractor": "Royal Engineering",
    "rowid": "901536",
    "final_x": "3670193.77697",
    "final_y": "545118.428751",
    "longitude": "-90.10331046163651",
    "latitude": "29.993225216909284",
    "geocoded_column": {
      "latitude": "29.993225216909284",
      "longitude": "-90.10331046163651"
    }
  },
  {
    "service_request": "2022-901535",
    "request_type": "Abandoned Vehicles",
    "request_reason": "Abandoned/Junk Vehicles",
    "date_created": "2022-07-19T15:32:46.000",
    "date_modified": "2022-07-19T15:32:46.000",
    "request_status": "Pending",
    "responsible_agency": "Department of Public Works",
    "final_address": "2804 Dumaine St",
    "address_councildis": "A",
    "status": "Pending",
    "rowid": "901535",
    "final_x": "3676634.57729",
    "final_y": "537877.454153",
    "longitude": "-90.08321457146414",
    "latitude": "29.973123358865116",
    "geocoded_column": {
      "latitude": "29.973123358865116",
      "longitude": "-90.08321457146414"
    }
  },
  {
    "service_request": "2022-901534",
    "request_type": "Abandoned Vehicles",
    "request_reason": "Abandoned/Junk Vehicles",
    "date_created": "2022-07-19T15:31:35.000",
    "date_modified": "2022-07-19T15:31:36.000",
    "request_status": "Pending",
    "responsible_agency": "Department of Public Works",
    "final_address": "929 N Villere St",
    "address_councildis": "C",
    "status": "Pending",
    "rowid": "901534",
    "final_x": "3680853.97083",
    "final_y": "534997.175622",
    "longitude": "-90.06998919188857",
    "latitude": "29.965076331330824",
    "geocoded_column": {
      "latitude": "29.965076331330824",
      "longitude": "-90.06998919188857"
    }
  },
  {
    "service_request": "2022-901533",
    "request_type": "Trash/Recycling",
    "request_reason": "Request a Large Item Pick Up",
    "date_created": "2022-07-19T15:29:13.000",
    "date_modified": "2022-07-19T15:29:14.000",
    "request_status": "Pending",
    "responsible_agency": "Department of Sanitation",
    "final_address": "5419 N Robertson St",
    "address_councildis": "E",
    "status": "Assigned to Contractor",
    "contractor": "Metro Disposal",
    "rowid": "901533",
    "final_x": "3697736.8152",
    "final_y": "535444.787782",
    "longitude": "-90.01665819178484",
    "latitude": "29.965784480180442",
    "geocoded_column": {
      "latitude": "29.965784480180442",
      "longitude": "-90.01665819178484"
    }
  },
  {
    "service_request": "2022-901532",
    "request_type": "Property Maintenance",
    "request_reason": "Property Maintenance",
    "date_created": "2022-07-19T15:26:13.000",
    "date_modified": "2022-07-19T15:26:13.000",
    "request_status": "Pending",
    "responsible_agency": "Department of Code Enforcement",
    "final_address": "2109 Elysian Fields Ave",
    "address_councildis": "D",
    "status": "Pending",
    "rowid": "901532",
    "final_x": "3684816.22921",
    "final_y": "540096.455947",
    "longitude": "-90.05729729757883",
    "latitude": "29.978976860257017",
    "geocoded_column": {
      "latitude": "29.978976860257017",
      "longitude": "-90.05729729757883"
    }
  },
  {
    "service_request": "2022-901531",
    "request_type": "Trash/Recycling",
    "request_reason": "Missed Trash Pick-Up",
    "date_created": "2022-07-19T15:23:45.000",
    "date_modified": "2022-07-19T15:23:45.000",
    "request_status": "Pending",
    "responsible_agency": "Department of Sanitation",
    "final_address": "1925 Orleans Ave",
    "address_councildis": "D",
    "status": "Assigned to Contractor",
    "contractor": "Richards Disposal",
    "rowid": "901531",
    "final_x": "3679141.87631",
    "final_y": "535326.062726",
    "longitude": "-90.07538448678316",
    "latitude": "29.96603245203055",
    "geocoded_column": {
      "latitude": "29.96603245203055",
      "longitude": "-90.07538448678316"
    }
  },
  {
    "service_request": "2022-901530",
    "request_type": "Parks & Parkways",
    "request_reason": "Request Tree Service (Right of Way/Public Property)",
    "date_created": "2022-07-19T15:21:31.000",
    "date_modified": "2022-07-19T15:21:31.000",
    "request_status": "Pending",
    "responsible_agency": "Department of Parks & Parkway",
    "final_address": "110 Country Club Dr",
    "address_councildis": "A",
    "status": "Pending",
    "rowid": "901530",
    "final_x": "3665761.77991",
    "final_y": "544222.39419",
    "longitude": "-90.11734049862147",
    "latitude": "29.99089150028852",
    "geocoded_column": {
      "latitude": "29.99089150028852",
      "longitude": "-90.11734049862147"
    }
  },
  {
    "service_request": "2022-901529",
    "request_type": "Abandoned Vehicles",
    "request_reason": "Abandoned/Junk Vehicles",
    "date_created": "2022-07-19T15:18:43.000",
    "date_modified": "2022-07-19T15:21:57.000",
    "request_status": "Pending",
    "responsible_agency": "Department of Public Works",
    "final_address": "7501 Mayo Rd",
    "address_councildis": "E",
    "status": "Pending",
    "rowid": "901529",
    "final_x": "3701026.95383",
    "final_y": "560445.877598",
    "longitude": "-90.00535309436577",
    "latitude": "30.034423763536942",
    "geocoded_column": {
      "latitude": "30.034423763536942",
      "longitude": "-90.00535309436577"
    }
  },
  {
    "service_request": "2022-901528",
    "request_type": "Traffic Signals/Signs/Striping/Streetlights",
    "request_reason": "Street Light Outage/Malfunction",
    "date_created": "2022-07-19T15:17:24.000",
    "date_modified": "2022-07-19T15:17:24.000",
    "request_status": "Pending",
    "responsible_agency": "Department of Public Works",
    "final_address": "11300 N Parkwood Ct",
    "address_councildis": "E",
    "status": "Pending",
    "contractor": "Royal Engineering",
    "rowid": "901528",
    "final_x": "3716795.17727",
    "final_y": "559307.044957",
    "longitude": "-89.95556717782245",
    "latitude": "30.030780519128502",
    "geocoded_column": {
      "latitude": "30.030780519128502",
      "longitude": "-89.95556717782245"
    }
  },
  {
    "service_request": "2022-901527",
    "request_type": "Traffic Signals/Signs/Striping/Streetlights",
    "request_reason": "Additional signage",
    "date_created": "2022-07-19T15:12:01.000",
    "date_modified": "2022-07-19T15:12:01.000",
    "request_status": "Pending",
    "responsible_agency": "Department of Public Works",
    "final_address": "DWYER RD & CHANTILLY DR",
    "address_councildis": "E",
    "status": "Pending",
    "rowid": "901527",
    "final_x": "3700741.4",
    "final_y": "555702.38",
    "longitude": "-90.00642906608365",
    "latitude": "30.02139007068011",
    "geocoded_column": {
      "latitude": "30.02139007068011",
      "longitude": "-90.00642906608365"
    }
  },