[
  {
    "service_request": "2022-932563",
    "request_type": "Property Maintenance",
    "request_reason": "Property Maintenance",
    "date_created": "2022-10-28T01:19:36.000",
    "date_modified": "2022-10-28T01:19:36.000",
    "request_status": "Pending",
    "responsible_agency": "Department of Code Enforcement",
    "final_address": "2002 St Andrew St",
    "address_councildis": "B",
    "status": "Pending",
    "rowid": "932563",
    "final_x": "3677175.29915",
    "final_y": "525435.747901",
    "longitude": "-90.08193599532034",
    "latitude": "29.938896611416606",
    "geocoded_column": {
      "latitude": "29.938896611416606",
      "longitude": "-90.08193599532034"
    }
  },
  {
    "service_request": "2022-932562",
    "request_type": "Property Maintenance",
    "request_reason": "Property Maintenance",
    "date_created": "2022-10-28T00:21:34.000",
    "date_modified": "2022-10-28T00:21:34.000",
    "request_status": "Pending",
    "responsible_agency": "Department of Code Enforcement",
    "final_address": "10703 Pressburg St",
    "address_councildis": "E",
    "status": "Pending",
    "rowid": "932562",
    "final_x": "3714897.60767",
    "final_y": "557393.959067",
    "longitude": "-89.96163584502749",
    "latitude": "30.02558289518457",
    "geocoded_column": {
      "latitude": "30.02558289518457",
      "longitude": "-89.96163584502749"
    }
  },
  {
    "service_request": "2022-932561",
    "request_type": "Traffic Signals/Signs/Striping/Streetlights",
    "request_reason": "Street Light Outage/Malfunction",
    "date_created": "2022-10-27T23:10:15.000",
    "date_modified": "2022-10-27T23:10:16.000",
    "request_status": "Pending",
    "responsible_agency": "Department of Public Works",
    "final_address": "219 S Alexander St",
    "address_councildis": "A",
    "status": "Pending",
    "contractor": "Legacy Professional Services",
    "rowid": "932561",
    "final_x": "3669593.17358",
    "final_y": "538724.885513",
    "longitude": "-90.10542410040286",
    "latitude": "29.97566286552893",
    "geocoded_column": {
      "latitude": "29.97566286552893",
      "longitude": "-90.10542410040286"
    }
  },
  {
    "service_request": "2022-932560",
    "request_type": "Trash/Recycling",
    "request_reason": "Replace Trash Cart",
    "date_created": "2022-10-27T22:32:07.000",
    "date_modified": "2022-10-27T22:32:08.000",
    "request_status": "Pending",
    "responsible_agency": "Department of Sanitation",
    "final_address": "2179 N Broad St",
    "address_councildis": "D",
    "status": "Assigned to Contractor",
    "contractor": "Metro Disposal",
    "rowid": "932560",
    "final_x": "3681130.93883",
    "final_y": "542987.508621",
    "longitude": "-90.06883608324345",
    "latitude": "29.987038576111285",
    "geocoded_column": {
      "latitude": "29.987038576111285",
      "longitude": "-90.06883608324345"
    }
  },
  {
    "service_request": "2022-932559",
    "request_type": "Trash/Recycling",
    "request_reason": "Request a Large Item Pick Up",
    "date_created": "2022-10-27T21:49:38.000",
    "date_modified": "2022-10-27T21:49:38.000",
    "request_status": "Pending",
    "responsible_agency": "Department of Sanitation",
    "final_address": "1614 Opelousas Ave",
    "address_councildis": "C",
    "status": "Assigned to Contractor",
    "contractor": "Richards Disposal",
    "rowid": "932559",
    "final_x": "3690405.86364",
    "final_y": "529085.611392",
    "longitude": "-90.04003566863395",
    "latitude": "29.94852854639118",
    "geocoded_column": {
      "latitude": "29.94852854639118",
      "longitude": "-90.04003566863395"
    }
  },
  {
    "service_request": "2022-932558",
    "request_type": "Trash/Recycling",
    "request_reason": "Request a Large Item Pick Up",
    "date_created": "2022-10-27T21:48:50.000",
    "date_modified": "2022-10-27T21:48:50.000",
    "request_status": "Pending",
    "responsible_agency": "Department of Sanitation",
    "final_address": "1523 Prentiss Ave",
    "address_councildis": "D",
    "status": "Assigned to Contractor",
    "contractor": "Metro Disposal",
    "rowid": "932558",
    "final_x": "3678575.78811",
    "final_y": "553530.335703",
    "longitude": "-90.07654162636561",
    "latitude": "30.016104891135104",
    "geocoded_column": {
      "latitude": "30.016104891135104",
      "longitude": "-90.07654162636561"
    }
  },
  {
    "service_request": "2022-932557",
    "request_type": "Trash/Recycling",
    "request_reason": "Order Trash Cart",
    "date_created": "2022-10-27T21:42:17.000",
    "date_modified": "2022-10-27T21:42:17.000",
    "request_status": "Pending",
    "responsible_agency": "Department of Sanitation",
    "final_address": "2517 Congress St",
    "address_councildis": "D",
    "status": "Assigned to Contractor",
    "contractor": "Metro Disposal",
    "rowid": "932557",
    "final_x": "3692116.80585",
    "final_y": "541019.482507",
    "longitude": "-90.03420631895568",
    "latitude": "29.981289283913373",
    "geocoded_column": {
      "latitude": "29.981289283913373",
      "longitude": "-90.03420631895568"
    }
  },
  {
    "service_request": "2022-932556",
    "request_type": "Trash/Recycling",
    "request_reason": "MIssed Recycling Pick-Up",
    "date_created": "2022-10-27T21:23:40.000",
    "date_modified": "2022-10-27T21:23:41.000",
    "request_status": "Pending",
    "responsible_agency": "Department of Sanitation",
    "final_address": "5521 S Claiborne Ave",
    "address_councildis": "A",
    "status": "Assigned to Contractor",
    "contractor": "Richards Disposal",
    "rowid": "932556",
    "final_x": "3668020.69805",
    "final_y": "526758.56755",
    "longitude": "-90.11079365983107",
    "latitude": "29.942805674570323",
    "geocoded_column": {
      "latitude": "29.942805674570323",
      "longitude": "-90.11079365983107"
    }
  },
  {
    "service_request": "2022-932555",
    "request_type": "Trash/Recycling",
    "request_reason": "Replace Trash Cart",
    "date_created": "2022-10-27T21:04:00.000",
    "date_modified": "2022-10-27T21:04:01.000",
    "request_status": "Pending",
    "responsible_agency": "Department of Sanitation",
    "final_address": "4631 Baccich St",
    "address_councildis": "D",
    "status": "Assigned to Contractor",
    "contractor": "Metro Disposal",
    "rowid": "932555",
    "final_x": "3687811.85161",
    "final_y": "549973.616148",
    "longitude": "-90.0474859242368",
    "latitude": "30.006043434753995",
    "geocoded_column": {
      "latitude": "30.006043434753995",
      "longitude": "-90.0474859242368"
    }
  },
  {
    "service_request": "2022-932554",
    "request_type": "Traffic Signals/Signs/Striping/Streetlights",
    "request_reason": "Street Light Outage/Malfunction",
    "date_created": "2022-10-27T20:54:09.000",
    "date_modified": "2022-10-27T20:54:10.000",
    "request_status": "Pending",
    "responsible_agency": "Department of Public Works",
    "final_address": "4016 Mithra St",
    "address_councildis": "D",
    "status": "Pending",
    "contractor": "Legacy Professional Services",
    "rowid": "932554",
    "final_x": "3688877.99683",
    "final_y": "552982.794135",
    "longitude": "-90.04401075416",
    "latitude": "30.01428462810157",
    "geocoded_column": {
      "latitude": "30.01428462810157",
      "longitude": "-90.04401075416"
    }
  },
  {
    "service_request": "2022-932552",
    "request_type": "Trash/Recycling",
    "request_reason": "Missed Trash Pick-Up",
    "date_created": "2022-10-27T20:36:47.000",
    "date_modified": "2022-10-27T20:36:47.000",
    "request_status": "Pending",
    "responsible_agency": "Department of Sanitation",
    "final_address": "2013 Foucher St",
    "address_councildis": "B",
    "status": "Assigned to Contractor",
    "contractor": "Richards Disposal",
    "rowid": "932552",
    "final_x": "3673013.87963",
    "final_y": "522769.234618",
    "longitude": "-90.09516506719164",
    "latitude": "29.931688875583387",
    "geocoded_column": {
      "latitude": "29.931688875583387",
      "longitude": "-90.09516506719164"
    }
  },
  {
    "service_request": "2022-932551",
    "request_type": "Roads/Drainage",
    "request_reason": "Street Flooding / Drainage",
    "date_created": "2022-10-27T20:27:50.000",
    "date_modified": "2022-10-27T20:27:50.000",
    "request_status": "Pending",
    "responsible_agency": "Department of Public Works",
    "final_address": "5168 St Roch Ave",
    "address_councildis": "D",
    "status": "Pending",
    "rowid": "932551",
    "final_x": "3685075.06722",
    "final_y": "551919.14799",
    "longitude": "-90.05606355372174",
    "latitude": "30.011477102309136",
    "geocoded_column": {
      "latitude": "30.011477102309136",
      "longitude": "-90.05606355372174"
    }
  },
  {
    "service_request": "2022-932550",
    "request_type": "Trash/Recycling",
    "request_reason": "Order Trash Cart",
    "date_created": "2022-10-27T20:22:44.000",
    "date_modified": "2022-10-27T20:22:45.000",
    "request_status": "Pending",
    "responsible_agency": "Department of Sanitation",
    "final_address": "6000 Warrington Dr",
    "address_councildis": "D",
    "status": "Assigned to Contractor",
    "contractor": "Metro Disposal",
    "rowid": "932550",
    "final_x": "3680645.95413",
    "final_y": "554584.232472",
    "longitude": "-90.06996410403346",
    "latitude": "30.01894012762408",
    "geocoded_column": {
      "latitude": "30.01894012762408",
      "longitude": "-90.06996410403346"
    }
  },
  {
    "service_request": "2022-932549",
    "request_type": "Trash/Recycling",
    "request_reason": "Order Recycling Cart",
    "date_created": "2022-10-27T20:19:19.000",
    "date_modified": "2022-10-27T20:19:19.000",
    "request_status": "Pending",
    "responsible_agency": "Department of Sanitation",
    "final_address": "7517 Mayo Rd",
    "address_councildis": "E",
    "status": "Pending",
    "rowid": "932549",
    "final_x": "3700992.47556",
    "final_y": "560554.536734",
    "longitude": "-90.00545807048017",
    "latitude": "30.034723632592225",
    "geocoded_column": {
      "latitude": "30.034723632592225",
      "longitude": "-90.00545807048017"
    }
  },
  {
    "service_request": "2022-932548",
    "request_type": "Trash/Recycling",
    "request_reason": "Order Recycling Cart",
    "date_created": "2022-10-27T20:17:26.000",
    "date_modified": "2022-10-27T20:17:26.000",
    "request_status": "Pending",
    "responsible_agency": "Department of Sanitation",
    "final_address": "7032 Queensway Dr",
    "address_councildis": "E",
    "status": "Pending",
    "rowid": "932548",
    "final_x": "3719145.90258",
    "final_y": "569376.03895",
    "longitude": "-89.94775417177271",
    "latitude": "30.058388199923115",
    "geocoded_column": {
      "latitude": "30.058388199923115",
      "longitude": "-89.94775417177271"
    }
  },
  {
    "service_request": "2022-932547",
    "request_type": "Trash/Recycling",
    "request_reason": "Order Trash Cart",
    "date_created": "2022-10-27T20:15:43.000",
    "date_modified": "2022-10-27T20:15:43.000",
    "request_status": "Pending",
    "responsible_agency": "Department of Sanitation",
    "final_address": "7601 Ligustrum Dr",
    "address_councildis": "E",
    "status": "Assigned to Contractor",
    "contractor": "Metro Disposal",
    "rowid": "932547",
    "final_x": "3701623.04637",
    "final_y": "561068.517022",
    "longitude": "-90.00344653543806",
    "latitude": "30.03611677022769",
    "geocoded_column": {
      "latitude": "30.03611677022769",
      "longitude": "-90.00344653543806"
    }
  },
  {
    "service_request": "2022-932546",
    "request_type": "Trash/Recycling",
    "request_reason": "Order Recycling Cart",
    "date_created": "2022-10-27T20:15:26.000",
    "date_modified": "2022-10-27T20:15:26.000",
    "request_status": "Pending",
    "responsible_agency": "Department of Sanitation",
    "final_address": "7301 Restgate Rd",
    "address_councildis": "E",
    "status": "Pending",
    "rowid": "932546",
    "final_x": "3710589.65694",
    "final_y": "563611.912929",
    "longitude": "-89.97501531593832",
    "latitude": "30.042820895860814",
    "geocoded_column": {
      "latitude": "30.042820895860814",
      "longitude": "-89.97501531593832"
    }
  },
  {
    "service_request": "2022-932545",
    "request_type": "Trash/Recycling",
    "request_reason": "Replace Trash Cart",
    "date_created": "2022-10-27T20:04:48.000",
    "date_modified": "2022-10-27T20:04:49.000",
    "request_status": "Pending",
    "responsible_agency": "Department of Sanitation",
    "final_address": "623 Montegut St",
    "address_councildis": "C",
    "status": "Assigned to Contractor",
    "contractor": "Metro Disposal",
    "rowid": "932545",
    "final_x": "3688061.37967",
    "final_y": "534473.338821",
    "longitude": "-90.04724723372523",
    "latitude": "29.963415492180644",
    "geocoded_column": {
      "latitude": "29.963415492180644",
      "longitude": "-90.04724723372523"
    }
  },
  {
    "service_request": "2022-932544",
    "request_type": "Trash/Recycling",
    "request_reason": "Missed Trash Pick-Up",
    "date_created": "2022-10-27T20:02:06.000",
    "date_modified": "2022-10-27T20:02:07.000",
    "request_status": "Pending",
    "responsible_agency": "Department of Sanitation",
    "final_address": "2224 Louisiana Ave",
    "address_councildis": "B",
    "status": "Assigned to Contractor",
    "contractor": "Richards Disposal",
    "rowid": "932544",
    "final_x": "3673197.78497",
    "final_y": "523680.675963",
    "longitude": "-90.09455339081428",
    "latitude": "29.934189578641437",
    "geocoded_column": {
      "latitude": "29.934189578641437",
      "longitude": "-90.09455339081428"
    }
  },
  {
    "service_request": "2022-932543",
    "request_type": "Trash/Recycling",
    "request_reason": "Replace Trash Cart",
    "date_created": "2022-10-27T19:42:15.000",
    "date_modified": "2022-10-27T19:42:17.000",
    "request_status": "Pending",
    "responsible_agency": "Department of Sanitation",
    "final_address": "1708 Bartholomew St",
    "address_councildis": "D",
    "status": "Assigned to Contractor",
    "contractor": "Metro Disposal",
    "rowid": "932543",
    "final_x": "3692346.68041",
    "final_y": "537653.798408",
    "longitude": "-90.03360085374636",
    "latitude": "29.97202768447965",
    "geocoded_column": {
      "latitude": "29.97202768447965",
      "longitude": "-90.03360085374636"
    }
  },
  {
    "service_request": "2022-932542",
    "request_type": "Traffic Signals/Signs/Striping/Streetlights",
    "request_reason": "Street Light Outage/Malfunction",
    "date_created": "2022-10-27T19:39:09.000",
    "date_modified": "2022-10-27T19:39:10.000",
    "request_status": "Pending",
    "responsible_agency": "Department of Public Works",
    "final_address": "2647 Hyman Pl",
    "address_councildis": "C",
    "status": "Pending",
    "contractor": "Legacy Professional Services",
    "rowid": "932542",
    "final_x": "3700989.34397",
    "final_y": "521242.195321",
    "longitude": "-90.00690608556941",
    "latitude": "29.926629186589224",
    "geocoded_column": {
      "latitude": "29.926629186589224",
      "longitude": "-90.00690608556941"
    }
  },
  {
    "service_request": "2022-932541",
    "request_type": "Trash/Recycling",
    "request_reason": "Replace Trash Cart",
    "date_created": "2022-10-27T19:37:19.000",
    "date_modified": "2022-10-27T19:37:20.000",
    "request_status": "Pending",
    "responsible_agency": "Department of Sanitation",
    "final_address": "5351 Bellaire Dr",
    "address_councildis": "A",
    "status": "Assigned to Contractor",
    "contractor": "Metro Disposal",
    "rowid": "932541",
    "final_x": "3664067.53632",
    "final_y": "543618.16315",
    "longitude": "-90.1227123973135",
    "latitude": "29.989279398674174",
    "geocoded_column": {
      "latitude": "29.989279398674174",
      "longitude": "-90.1227123973135"
    }
  },
  {
    "service_request": "2022-932540",
    "request_type": "Trash/Recycling",
    "request_reason": "Request a Large Item Pick Up",
    "date_created": "2022-10-27T19:25:37.000",
    "date_modified": "2022-10-27T19:25:38.000",
    "request_status": "Pending",
    "responsible_agency": "Department of Sanitation",
    "final_address": "3112 Laurel St",
    "address_councildis": "B",
    "status": "Assigned to Contractor",
    "contractor": "Richards Disposal",
    "rowid": "932540",
    "final_x": "3676430.90677",
    "final_y": "519489.751479",
    "longitude": "-90.0844907262408",
    "latitude": "29.922569390489524",
    "geocoded_column": {
      "latitude": "29.922569390489524",
      "longitude": "-90.0844907262408"
    }
  },
  {
    "service_request": "2022-932539",
    "request_type": "Traffic Signals/Signs/Striping/Streetlights",
    "request_reason": "Street Light Outage/Malfunction",
    "date_created": "2022-10-27T19:09:47.000",
    "date_modified": "2022-10-27T19:09:48.000",
    "request_status": "Pending",
    "responsible_agency": "Department of Public Works",
    "final_address": "6101 Argonne Blvd",
    "address_councildis": "A",
    "status": "Pending",
    "contractor": "Legacy Professional Services",
    "rowid": "932539",
    "final_x": "3670281.2923",
    "final_y": "547836.900178",
    "longitude": "-90.1029418059407",
    "latitude": "30.000697488116646",
    "geocoded_column": {
      "latitude": "30.000697488116646",
      "longitude": "-90.1029418059407"
    }
  },
  {
    "service_request": "2022-932538",
    "request_type": "Trash/Recycling",
    "request_reason": "Replace Trash Cart",
    "date_created": "2022-10-27T19:07:29.000",
    "date_modified": "2022-10-27T19:07:30.000",
    "request_status": "Pending",
    "responsible_agency": "Department of Sanitation",
    "final_address": "5844 Marshal Foch St",
    "address_councildis": "A",
    "status": "Assigned to Contractor",
    "contractor": "Metro Disposal",
    "rowid": "932538",
    "final_x": "3669640.84698",
    "final_y": "546207.832336",
    "longitude": "-90.1050201914198",
    "latitude": "29.996237009972422",
    "geocoded_column": {
      "latitude": "29.996237009972422",
      "longitude": "-90.1050201914198"
    }
  },
  {
    "service_request": "2022-932537",
    "request_type": "Trash/Recycling",
    "request_reason": "Missed Trash Pick-Up",
    "date_created": "2022-10-27T19:06:03.000",
    "date_modified": "2022-10-27T19:06:03.000",
    "request_status": "Pending",
    "responsible_agency": "Department of Sanitation",
    "final_address": "1123 Margaret Pl",
    "address_councildis": "B",
    "status": "Assigned to Contractor",
    "contractor": "Richards Disposal",
    "rowid": "932537",
    "final_x": "3680202.61595",
    "final_y": "526237.04787",
    "longitude": "-90.07235057154209",
    "latitude": "29.94100866351144",
    "geocoded_column": {
      "latitude": "29.94100866351144",
      "longitude": "-90.07235057154209"
    }
  },
  {
    "service_request": "2022-932536",
    "request_type": "Trash/Recycling",
    "request_reason": "Replace Trash Cart",
    "date_created": "2022-10-27T18:58:21.000",
    "date_modified": "2022-10-27T18:58:22.000",
    "request_status": "Pending",
    "responsible_agency": "Department of Sanitation",
    "final_address": "5045 Madrid St",
    "address_councildis": "D",
    "status": "Assigned to Contractor",
    "contractor": "Metro Disposal",
    "rowid": "932536",
    "final_x": "3691446.57763",
    "final_y": "556382.069274",
    "longitude": "-90.03577373011468",
    "latitude": "30.023551644505094",
    "geocoded_column": {
      "latitude": "30.023551644505094",
      "longitude": "-90.03577373011468"
    }
  },
  {
    "service_request": "2022-932534",
    "request_type": "Trash/Recycling",
    "request_reason": "Replace Trash Cart",
    "date_created": "2022-10-27T18:42:16.000",
    "date_modified": "2022-10-27T18:42:17.000",
    "request_status": "Pending",
    "responsible_agency": "Department of Sanitation",
    "final_address": "4520 Elysian Fields Ave",
    "address_councildis": "D",
    "status": "Assigned to Contractor",
    "contractor": "Metro Disposal",
    "rowid": "932534",
    "final_x": "3683844.62671",
    "final_y": "549396.330451",
    "longitude": "-90.06003958902981",
    "latitude": "30.00457792415666",
    "geocoded_column": {
      "latitude": "30.00457792415666",
      "longitude": "-90.06003958902981"
    }
  },
  {
    "service_request": "2022-932533",
    "request_type": "Trash/Recycling",
    "request_reason": "Missed Trash Pick-Up",
    "date_created": "2022-10-27T18:41:20.000",
    "date_modified": "2022-10-27T18:41:21.000",
    "request_status": "Pending",
    "responsible_agency": "Department of Sanitation",
    "final_address": "600 First St",
    "address_councildis": "B",
    "status": "Assigned to Contractor",
    "contractor": "Richards Disposal",
    "rowid": "932533",
    "final_x": "3679030.64898",
    "final_y": "519985.956024",
    "longitude": "-90.07626720005887",
    "latitude": "29.923855625335953",
    "geocoded_column": {
      "latitude": "29.923855625335953",
      "longitude": "-90.07626720005887"
    }
  },
  {
    "service_request": "2022-932532",
    "request_type": "Trash/Recycling",
    "request_reason": "MIssed Recycling Pick-Up",
    "date_created": "2022-10-27T18:36:41.000",
    "date_modified": "2022-10-27T18:36:42.000",
    "request_status": "Pending",
    "responsible_agency": "Department of Sanitation",
    "final_address": "426 S Bernadotte St",
    "address_councildis": "A",
    "status": "Assigned to Contractor",
    "contractor": "Richards Disposal",
    "rowid": "932532",
    "final_x": "3667967.39489",
    "final_y": "538886.774537",
    "longitude": "-90.11055332269713",
    "latitude": "29.97615581094481",
    "geocoded_column": {
      "latitude": "29.97615581094481",
      "longitude": "-90.11055332269713"
    }
  },
  {
    "service_request": "2022-932530",
    "request_type": "Trash/Recycling",
    "request_reason": "Repair Trash Cart",
    "date_created": "2022-10-27T18:30:58.000",
    "date_modified": "2022-10-27T18:30:59.000",
    "request_status": "Pending",
    "responsible_agency": "Department of Sanitation",
    "final_address": "1900 Feliciana St",
    "address_councildis": "D",
    "status": "Assigned to Contractor",
    "contractor": "Metro Disposal",
    "rowid": "932530",
    "final_x": "3689455.74057",
    "final_y": "539115.847498",
    "longitude": "-90.04267887507964",
    "latitude": "29.976137653370355",
    "geocoded_column": {
      "latitude": "29.976137653370355",
      "longitude": "-90.04267887507964"
    }
  },
  {
    "service_request": "2022-932527",
    "request_type": "Trash/Recycling",
    "request_reason": "Repair Trash Cart",
    "date_created": "2022-10-27T18:10:33.000",
    "date_modified": "2022-10-27T18:10:34.000",
    "request_status": "Pending",
    "responsible_agency": "Department of Sanitation",
    "final_address": "4440 Pauger St",
    "address_councildis": "D",
    "status": "Assigned to Contractor",
    "contractor": "Metro Disposal",
    "rowid": "932527",
    "final_x": "3682793.29724",
    "final_y": "549064.857747",
    "longitude": "-90.06337254503332",
    "latitude": "30.003698574838577",
    "geocoded_column": {
      "latitude": "30.003698574838577",
      "longitude": "-90.06337254503332"
    }
  },
  {
    "service_request": "2022-932526",
    "request_type": "Trash/Recycling",
    "request_reason": "Repair Trash Cart",
    "date_created": "2022-10-27T18:05:33.000",
    "date_modified": "2022-10-27T18:05:34.000",
    "request_status": "Pending",
    "responsible_agency": "Department of Sanitation",
    "final_address": "5034 Debore Cir",
    "address_councildis": "D",
    "status": "Assigned to Contractor",
    "contractor": "Metro Disposal",
    "rowid": "932526",
    "final_x": "3692138.91382",
    "final_y": "552998.782871",
    "longitude": "-90.03370735121402",
    "latitude": "30.014227297089988",
    "geocoded_column": {
      "latitude": "30.014227297089988",
      "longitude": "-90.03370735121402"
    }
  },
  {
    "service_request": "2022-932525",
    "request_type": "Trash/Recycling",
    "request_reason": "Order Trash Cart",
    "date_created": "2022-10-27T17:56:21.000",
    "date_modified": "2022-10-27T17:56:22.000",
    "request_status": "Pending",
    "responsible_agency": "Department of Sanitation",
    "final_address": "4824 Bancroft Dr 70122",
    "status": "Assigned to Contractor",
    "rowid": "932525",
    "longitude": "0.0",
    "latitude": "0.0",
    "geocoded_column": {
      "latitude": "0.0",
      "longitude": "0.0"
    }
  },
  {
    "service_request": "2022-932523",
    "request_type": "Traffic Signals/Signs/Striping/Streetlights",
    "request_reason": "Traffic Sign Missing/Damaged",
    "date_created": "2022-10-27T17:51:47.000",
    "date_modified": "2022-10-27T17:51:47.000",
    "request_status": "Pending",
    "responsible_agency": "Department of Public Works",
    "final_address": "ELYSIAN FIELDS AVE & LEON C SIMON DR",
    "address_councildis": "D",
    "status": "Pending",
    "rowid": "932523",
    "final_x": "3683413.7",
    "final_y": "556897.98",
    "longitude": "-90.06113784293002",
    "latitude": "30.025217882515513",
    "geocoded_column": {
      "latitude": "30.025217882515513",
      "longitude": "-90.06113784293002"
    }
  },
  {
    "service_request": "2022-932522",
    "request_type": "Trash/Recycling",
    "request_reason": "Replace Trash Cart",
    "date_created": "2022-10-27T17:49:57.000",
    "date_modified": "2022-10-27T17:49:58.000",
    "request_status": "Pending",
    "responsible_agency": "Department of Sanitation",
    "final_address": "5300 Memphis St",
    "address_councildis": "A",
    "status": "Assigned to Contractor",
    "contractor": "Metro Disposal",
    "rowid": "932522",
    "final_x": "3668607.50721",
    "final_y": "542266.721869",
    "longitude": "-90.10841753798775",
    "latitude": "29.985430723979512",
    "geocoded_column": {
      "latitude": "29.985430723979512",
      "longitude": "-90.10841753798775"
    }
  },
  {
    "service_request": "2022-932521",
    "request_type": "Trash/Recycling",
    "request_reason": "Illegal Dumping",
    "date_created": "2022-10-27T17:44:15.000",
    "date_modified": "2022-10-27T17:44:15.000",
    "request_status": "Pending",
    "responsible_agency": "Department of Sanitation",
    "final_address": "2300 BLK Forstall St",
    "address_councildis": "E",
    "status": "Pending",
    "rowid": "932521",
    "final_x": "3697565.16389",
    "final_y": "538871.871847",
    "longitude": "-90.0170759356104",
    "latitude": "29.97521315462999",
    "geocoded_column": {
      "latitude": "29.97521315462999",
      "longitude": "-90.0170759356104"
    }
  },
  {
    "service_request": "2022-932520",
    "request_type": "Roads/Drainage",
    "request_reason": "Debris in Roadway",
    "date_created": "2022-10-27T17:43:53.000",
    "date_modified": "2022-10-27T17:43:53.000",
    "request_status": "Pending",
    "responsible_agency": "Department of Public Works",
    "final_address": "2300 BLK Forstall St",
    "address_councildis": "E",
    "status": "Pending",
    "rowid": "932520",
    "final_x": "3697565.16389",
    "final_y": "538871.871847",
    "longitude": "-90.0170759356104",
    "latitude": "29.97521315462999",
    "geocoded_column": {
      "latitude": "29.97521315462999",
      "longitude": "-90.0170759356104"
    }
  },
  {
    "service_request": "2022-932519",
    "request_type": "Trash/Recycling",
    "request_reason": "Order Trash Cart",
    "date_created": "2022-10-27T17:41:49.000",
    "date_modified": "2022-10-27T17:41:50.000",
    "request_status": "Pending",
    "responsible_agency": "Department of Sanitation",
    "final_address": "4783 Eunice Dr",
    "address_councildis": "E",
    "status": "Assigned to Contractor",
    "contractor": "Metro Disposal",
    "rowid": "932519",
    "final_x": "3710586.91499",
    "final_y": "556079.015834",
    "longitude": "-89.97530613652243",
    "latitude": "30.022108503878222",
    "geocoded_column": {
      "latitude": "30.022108503878222",
      "longitude": "-89.97530613652243"
    }
  },
  {
    "service_request": "2022-932518",
    "request_type": "Trash/Recycling",
    "request_reason": "Replace Trash Cart",
    "date_created": "2022-10-27T17:40:30.000",
    "date_modified": "2022-10-27T17:40:30.000",
    "request_status": "Pending",
    "responsible_agency": "Department of Sanitation",
    "final_address": "2221 St Andrew St",
    "address_councildis": "B",
    "status": "Assigned to Contractor",
    "contractor": "Richards Disposal",
    "rowid": "932518",
    "final_x": "3676687.80053",
    "final_y": "526101.662718",
    "longitude": "-90.08345215295915",
    "latitude": "29.940742288413517",
    "geocoded_column": {
      "latitude": "29.940742288413517",
      "longitude": "-90.08345215295915"
    }
  },
  {
    "service_request": "2022-932517",
    "request_type": "Trash/Recycling",
    "request_reason": "Replace Trash Cart",
    "date_created": "2022-10-27T17:39:35.000",
    "date_modified": "2022-10-27T17:39:36.000",
    "request_status": "Pending",
    "responsible_agency": "Department of Sanitation",
    "final_address": "208 Crystal St",
    "address_councildis": "D",
    "status": "Assigned to Contractor",
    "contractor": "Metro Disposal",
    "rowid": "932517",
    "final_x": "3667187.88314",
    "final_y": "556040.134233",
    "longitude": "-90.11243801835849",
    "latitude": "30.023344479280553",
    "geocoded_column": {
      "latitude": "30.023344479280553",
      "longitude": "-90.11243801835849"
    }
  },
  {
    "service_request": "2022-932516",
    "request_type": "Trash/Recycling",
    "request_reason": "MIssed Recycling Pick-Up",
    "date_created": "2022-10-27T17:38:12.000",
    "date_modified": "2022-10-27T17:38:13.000",
    "request_status": "Pending",
    "responsible_agency": "Department of Sanitation",
    "final_address": "1410 Thalia St",
    "address_councildis": "B",
    "status": "Assigned to Contractor",
    "contractor": "Richards Disposal",
    "rowid": "932516",
    "final_x": "3679969.49877",
    "final_y": "525375.765245",
    "longitude": "-90.0731164711927",
    "latitude": "29.938647474163314",
    "geocoded_column": {
      "latitude": "29.938647474163314",
      "longitude": "-90.0731164711927"
    }
  },
  {
    "service_request": "2022-932515",
    "request_type": "Trash/Recycling",
    "request_reason": "Missed Trash Pick-Up",
    "date_created": "2022-10-27T17:36:28.000",
    "date_modified": "2022-10-27T17:36:29.000",
    "request_status": "Pending",
    "responsible_agency": "Department of Sanitation",
    "final_address": "1410 Thalia St",
    "address_councildis": "B",
    "status": "Assigned to Contractor",
    "contractor": "Richards Disposal",
    "rowid": "932515",
    "final_x": "3679969.49877",
    "final_y": "525375.765245",
    "longitude": "-90.0731164711927",
    "latitude": "29.938647474163314",
    "geocoded_column": {
      "latitude": "29.938647474163314",
      "longitude": "-90.0731164711927"
    }
  },
  {
    "service_request": "2022-932514",
    "request_type": "Trash/Recycling",
    "request_reason": "Missed Trash Pick-Up",
    "date_created": "2022-10-27T17:36:22.000",
    "date_modified": "2022-10-27T17:36:23.000",
    "request_status": "Pending",
    "responsible_agency": "Department of Sanitation",
    "final_address": "1410 Thalia St",
    "address_councildis": "B",
    "status": "Assigned to Contractor",
    "contractor": "Richards Disposal",
    "rowid": "932514",
    "final_x": "3679969.49877",
    "final_y": "525375.765245",
    "longitude": "-90.0731164711927",
    "latitude": "29.938647474163314",
    "geocoded_column": {
      "latitude": "29.938647474163314",
      "longitude": "-90.0731164711927"
    }
  },
  {
    "service_request": "2022-932512",
    "request_type": "Trash/Recycling",
    "request_reason": "Repair Trash Cart",
    "date_created": "2022-10-27T17:32:41.000",
    "date_modified": "2022-10-27T17:32:42.000",
    "request_status": "Pending",
    "responsible_agency": "Department of Sanitation",
    "final_address": "4853 Sierra Madre Dr",
    "address_councildis": "E",
    "status": "Assigned to Contractor",
    "contractor": "Metro Disposal",
    "rowid": "932512",
    "final_x": "3713919.90744",
    "final_y": "556941.262682",
    "longitude": "-89.96474229140259",
    "latitude": "30.024370305170844",
    "geocoded_column": {
      "latitude": "30.024370305170844",
      "longitude": "-89.96474229140259"
    }
  },
  {
    "service_request": "2022-932511",
    "request_type": "Trash/Recycling",
    "request_reason": "Replace Recycling Cart",
    "date_created": "2022-10-27T17:32:25.000",
    "date_modified": "2022-10-27T17:32:25.000",
    "request_status": "Pending",
    "responsible_agency": "Department of Sanitation",
    "final_address": "4907 Music St",
    "address_councildis": "D",
    "status": "Pending",
    "rowid": "932511",
    "final_x": "3685652.36252",
    "final_y": "550939.132053",
    "longitude": "-90.0542742060209",
    "latitude": "30.008764709076527",
    "geocoded_column": {
      "latitude": "30.008764709076527",
      "longitude": "-90.0542742060209"
    }
  },
  {
    "service_request": "2022-932510",
    "request_type": "Trash/Recycling",
    "request_reason": "Order Recycling Cart",
    "date_created": "2022-10-27T17:31:52.000",
    "date_modified": "2022-10-27T17:31:52.000",
    "request_status": "Pending",
    "responsible_agency": "Department of Sanitation",
    "final_address": "160 Middle Park Pl",
    "address_councildis": "A",
    "status": "Pending",
    "rowid": "932510",
    "final_x": "3669919.29294",
    "final_y": "544676.784719",
    "longitude": "-90.10419247859102",
    "latitude": "29.992018946877383",
    "geocoded_column": {
      "latitude": "29.992018946877383",
      "longitude": "-90.10419247859102"
    }
  },
  {
    "service_request": "2022-932509",
    "request_type": "Trash/Recycling",
    "request_reason": "Replace Trash Cart",
    "date_created": "2022-10-27T17:31:27.000",
    "date_modified": "2022-10-27T17:31:27.000",
    "request_status": "Pending",
    "responsible_agency": "Department of Sanitation",
    "final_address": "4907 Music St",
    "address_councildis": "D",
    "status": "Assigned to Contractor",
    "contractor": "Metro Disposal",
    "rowid": "932509",
    "final_x": "3685652.36252",
    "final_y": "550939.132053",
    "longitude": "-90.0542742060209",
    "latitude": "30.008764709076527",
    "geocoded_column": {
      "latitude": "30.008764709076527",
      "longitude": "-90.0542742060209"
    }
  },
  {
    "service_request": "2022-932506",
    "request_type": "Trash/Recycling",
    "request_reason": "Repair Trash Cart",
    "date_created": "2022-10-27T17:29:01.000",
    "date_modified": "2022-10-27T17:29:02.000",
    "request_status": "Pending",
    "responsible_agency": "Department of Sanitation",
    "final_address": "4859 Lurline St",
    "address_councildis": "E",
    "status": "Assigned to Contractor",
    "contractor": "Metro Disposal",
    "rowid": "932506",
    "final_x": "3711978.34674",
    "final_y": "556810.744218",
    "longitude": "-89.970882115412",
    "latitude": "30.02407505165901",
    "geocoded_column": {
      "latitude": "30.02407505165901",
      "longitude": "-89.970882115412"
    }
  },
  {
    "service_request": "2022-932505",
    "request_type": "Property Maintenance",
    "request_reason": "Property Maintenance",
    "date_created": "2022-10-27T17:28:41.000",
    "date_modified": "2022-10-27T17:28:41.000",
    "request_status": "Pending",
    "responsible_agency": "Department of Code Enforcement",
    "final_address": "333 Bouny St",
    "address_councildis": "C",
    "status": "Pending",
    "rowid": "932505",
    "final_x": "3685792.8045",
    "final_y": "530128.724481",
    "longitude": "-90.05456424582574",
    "latitude": "29.951539112841676",
    "geocoded_column": {
      "latitude": "29.951539112841676",
      "longitude": "-90.05456424582574"
    }
  },
  {
    "service_request": "2022-932504",
    "request_type": "Trash/Recycling",
    "request_reason": "Repair Trash Cart",
    "date_created": "2022-10-27T17:28:18.000",
    "date_modified": "2022-10-27T17:28:18.000",
    "request_status": "Pending",
    "responsible_agency": "Department of Sanitation",
    "final_address": "2028 Music St",
    "address_councildis": "D",
    "status": "Assigned to Contractor",
    "contractor": "Metro Disposal",
    "rowid": "932504",
    "final_x": "3686522.70575",
    "final_y": "540004.431627",
    "longitude": "-90.05191085343617",
    "latitude": "29.978671461787066",
    "geocoded_column": {
      "latitude": "29.978671461787066",
      "longitude": "-90.05191085343617"
    }
  },
  {
    "service_request": "2022-932502",
    "request_type": "Trash/Recycling",
    "request_reason": "Order Trash Cart",
    "date_created": "2022-10-27T17:26:30.000",
    "date_modified": "2022-10-27T17:26:32.000",
    "request_status": "Pending",
    "responsible_agency": "Department of Sanitation",
    "final_address": "7540 Daniel Dr",
    "address_councildis": "E",
    "status": "Assigned to Contractor",
    "contractor": "Metro Disposal",
    "rowid": "932502",
    "final_x": "3705150.08452",
    "final_y": "562534.1128",
    "longitude": "-89.99224629747638",
    "latitude": "30.04003355219674",
    "geocoded_column": {
      "latitude": "30.04003355219674",
      "longitude": "-89.99224629747638"
    }
  },
  {
    "service_request": "2022-932501",
    "request_type": "Roads/Drainage",
    "request_reason": "Street Subsidence (Sinking)",
    "date_created": "2022-10-27T17:26:18.000",
    "date_modified": "2022-10-27T17:26:18.000",
    "request_status": "Pending",
    "responsible_agency": "Department of Public Works",
    "final_address": "114 Atlantic Ave",
    "address_councildis": "C",
    "status": "Pending",
    "rowid": "932501",
    "final_x": "3688910.2031",
    "final_y": "531136.04109",
    "longitude": "-90.04468527296723",
    "latitude": "29.95421285646406",
    "geocoded_column": {
      "latitude": "29.95421285646406",
      "longitude": "-90.04468527296723"
    }
  },
  {
    "service_request": "2022-932500",
    "request_type": "Trash/Recycling",
    "request_reason": "Repair Recycling Cart",
    "date_created": "2022-10-27T17:25:35.000",
    "date_modified": "2022-10-27T17:25:35.000",
    "request_status": "Pending",
    "responsible_agency": "Department of Sanitation",
    "final_address": "8603 Dinkins St",
    "address_councildis": "E",
    "status": "Pending",
    "rowid": "932500",
    "final_x": "3703782.43614",
    "final_y": "562997.5704",
    "longitude": "-89.99655137938421",
    "latitude": "30.04135181997445",
    "geocoded_column": {
      "latitude": "30.04135181997445",
      "longitude": "-89.99655137938421"
    }
  },
  {
    "service_request": "2022-932499",
    "request_type": "Roads/Drainage",
    "request_reason": "Street Flooding / Drainage",
    "date_created": "2022-10-27T17:22:56.000",
    "date_modified": "2022-10-27T17:22:56.000",
    "request_status": "Pending",
    "responsible_agency": "Department of Public Works",
    "final_address": "433 Bouny St",
    "address_councildis": "C",
    "status": "Pending",
    "rowid": "932499",
    "final_x": "3686031.67951",
    "final_y": "529800.317569",
    "longitude": "-90.05382157520837",
    "latitude": "29.95062877348979",
    "geocoded_column": {
      "latitude": "29.95062877348979",
      "longitude": "-90.05382157520837"
    }
  },
  {
    "service_request": "2022-932497",
    "request_type": "Trash/Recycling",
    "request_reason": "Replace Trash Cart",
    "date_created": "2022-10-27T17:20:40.000",
    "date_modified": "2022-10-27T17:20:40.000",
    "request_status": "Pending",
    "responsible_agency": "Department of Sanitation",
    "final_address": "8603 Dinkins St",
    "address_councildis": "E",
    "status": "Assigned to Contractor",
    "contractor": "Metro Disposal",
    "rowid": "932497",
    "final_x": "3703782.43614",
    "final_y": "562997.5704",
    "longitude": "-89.99655137938421",
    "latitude": "30.04135181997445",
    "geocoded_column": {
      "latitude": "30.04135181997445",
      "longitude": "-89.99655137938421"
    }
  },
  {
    "service_request": "2022-932495",
    "request_type": "Trash/Recycling",
    "request_reason": "Repair Trash Cart",
    "date_created": "2022-10-27T17:19:59.000",
    "date_modified": "2022-10-27T17:20:00.000",
    "request_status": "Pending",
    "responsible_agency": "Department of Sanitation",
    "final_address": "3141 N Miro St",
    "address_councildis": "D",
    "status": "Assigned to Contractor",
    "contractor": "Metro Disposal",
    "rowid": "932495",
    "final_x": "3690401.22416",
    "final_y": "540095.791627",
    "longitude": "-90.0396578284455",
    "latitude": "29.978802834607816",
    "geocoded_column": {
      "latitude": "29.978802834607816",
      "longitude": "-90.0396578284455"
    }
  },
  {
    "service_request": "2022-932493",
    "request_type": "Trash/Recycling",
    "request_reason": "Replace Trash Cart",
    "date_created": "2022-10-27T17:17:38.000",
    "date_modified": "2022-10-27T17:17:38.000",
    "request_status": "Pending",
    "responsible_agency": "Department of Sanitation",
    "final_address": "3 S Lark St",
    "address_councildis": "D",
    "status": "Assigned to Contractor",
    "contractor": "Metro Disposal",
    "rowid": "932493",
    "final_x": "3675230.13576",
    "final_y": "556222.790554",
    "longitude": "-90.0870198952689",
    "latitude": "30.023608648574047",
    "geocoded_column": {
      "latitude": "30.023608648574047",
      "longitude": "-90.0870198952689"
    }
  },
  {
    "service_request": "2022-932492",
    "request_type": "Trash/Recycling",
    "request_reason": "Order Trash Cart",
    "date_created": "2022-10-27T17:17:04.000",
    "date_modified": "2022-10-27T17:17:04.000",
    "request_status": "Pending",
    "responsible_agency": "Department of Sanitation",
    "final_address": "5183 De Montluzin St",
    "address_councildis": "D",
    "status": "Assigned to Contractor",
    "contractor": "Metro Disposal",
    "rowid": "932492",
    "final_x": "3687101.24066",
    "final_y": "551852.90287",
    "longitude": "-90.04966439676689",
    "latitude": "30.011232694157982",
    "geocoded_column": {
      "latitude": "30.011232694157982",
      "longitude": "-90.04966439676689"
    }
  },
  {
    "service_request": "2022-932489",
    "request_type": "Trash/Recycling",
    "request_reason": "Replace Trash Cart",
    "date_created": "2022-10-27T17:13:51.000",
    "date_modified": "2022-10-27T17:13:52.000",
    "request_status": "Pending",
    "responsible_agency": "Department of Sanitation",
    "final_address": "1453 N Dorgenois St",
    "address_councildis": "D",
    "status": "Assigned to Contractor",
    "contractor": "Metro Disposal",
    "rowid": "932489",
    "final_x": "3678991.46792",
    "final_y": "539123.080138",
    "longitude": "-90.07572786781746",
    "latitude": "29.97647748651307",
    "geocoded_column": {
      "latitude": "29.97647748651307",
      "longitude": "-90.07572786781746"
    }
  },
  {
    "service_request": "2022-932488",
    "request_type": "Trash/Recycling",
    "request_reason": "Repair Trash Cart",
    "date_created": "2022-10-27T17:13:25.000",
    "date_modified": "2022-10-27T17:13:26.000",
    "case_close_date": "2022-08-31T19:00:00.000",
    "request_status": "Pending",
    "responsible_agency": "Department of Sanitation",
    "final_address": "1126 St Andrew St B",
    "address_councildis": "B",
    "status": "Assigned to Contractor",
    "contractor": "Richards Disposal",
    "rowid": "932488",
    "final_x": "3679306.96968",
    "final_y": "522726.434042",
    "longitude": "-90.07529997819722",
    "latitude": "29.931382705698766",
    "geocoded_column": {
      "latitude": "29.931382705698766",
      "longitude": "-90.07529997819722"
    }
  },
  {
    "service_request": "2022-932486",
    "request_type": "Trash/Recycling",
    "request_reason": "Repair Trash Cart",
    "date_created": "2022-10-27T17:11:56.000",
    "date_modified": "2022-10-27T17:11:56.000",
    "request_status": "Pending",
    "responsible_agency": "Department of Sanitation",
    "final_address": "5660 Clements Dr",
    "address_councildis": "E",
    "status": "Assigned to Contractor",
    "contractor": "Metro Disposal",
    "rowid": "932486",
    "final_x": "3702521.95588",
    "final_y": "556486.985178",
    "longitude": "-90.00077420668512",
    "latitude": "30.02349061783908",
    "geocoded_column": {
      "latitude": "30.02349061783908",
      "longitude": "-90.00077420668512"
    }
  },
  {
    "service_request": "2022-932485",
    "request_type": "Trash/Recycling",
    "request_reason": "Repair Trash Cart",
    "date_created": "2022-10-27T17:11:48.000",
    "date_modified": "2022-10-27T17:11:48.000",
    "request_status": "Pending",
    "responsible_agency": "Department of Sanitation",
    "final_address": "4921 Nighthart St",
    "address_councildis": "E",
    "status": "Assigned to Contractor",
    "contractor": "Metro Disposal",
    "rowid": "932485",
    "final_x": "3716132.57688",
    "final_y": "557661.953947",
    "longitude": "-89.9577233956928",
    "latitude": "30.026279066224628",
    "geocoded_column": {
      "latitude": "30.026279066224628",
      "longitude": "-89.9577233956928"
    }
  },
  {
    "service_request": "2022-932481",
    "request_type": "Trash/Recycling",
    "request_reason": "Order Trash Cart",
    "date_created": "2022-10-27T17:08:08.000",
    "date_modified": "2022-10-27T17:08:09.000",
    "request_status": "Pending",
    "responsible_agency": "Department of Sanitation",
    "final_address": "5012 Paris Ave",
    "address_councildis": "D",
    "status": "Assigned to Contractor",
    "contractor": "Metro Disposal",
    "rowid": "932481",
    "final_x": "3679152.77141",
    "final_y": "550853.261845",
    "longitude": "-90.07481151529407",
    "latitude": "30.008726488795013",
    "geocoded_column": {
      "latitude": "30.008726488795013",
      "longitude": "-90.07481151529407"
    }
  },
  {
    "service_request": "2022-932480",
    "request_type": "Trash/Recycling",
    "request_reason": "Replace Trash Cart",
    "date_created": "2022-10-27T17:07:06.000",
    "date_modified": "2022-10-27T17:07:07.000",
    "request_status": "Pending",
    "responsible_agency": "Department of Sanitation",
    "final_address": "5845 Colbert St",
    "address_councildis": "A",
    "status": "Assigned to Contractor",
    "contractor": "Metro Disposal",
    "rowid": "932480",
    "final_x": "3667391.62036",
    "final_y": "546503.821713",
    "longitude": "-90.11211539966347",
    "latitude": "29.997116984442933",
    "geocoded_column": {
      "latitude": "29.997116984442933",
      "longitude": "-90.11211539966347"
    }
  },
  {
    "service_request": "2022-932479",
    "request_type": "Property Maintenance",
    "request_reason": "Property Maintenance",
    "date_created": "2022-10-27T17:06:39.000",
    "date_modified": "2022-10-27T17:06:40.000",
    "request_status": "Pending",
    "responsible_agency": "Department of Code Enforcement",
    "final_address": "1003 Teche St",
    "address_councildis": "C",
    "status": "Pending",
    "rowid": "932479",
    "final_x": "3686520.47036",
    "final_y": "527838.222591",
    "longitude": "-90.05234748823128",
    "latitude": "29.94521866320905",
    "geocoded_column": {
      "latitude": "29.94521866320905",
      "longitude": "-90.05234748823128"
    }
  },
  {
    "service_request": "2022-932478",
    "request_type": "Traffic Signals/Signs/Striping/Streetlights",
    "request_reason": "Street Light Outage/Malfunction",
    "date_created": "2022-10-27T17:06:13.000",
    "date_modified": "2022-10-27T17:06:13.000",
    "request_status": "Pending",
    "responsible_agency": "Department of Public Works",
    "final_address": "17 Kings Canyon Dr",
    "address_councildis": "C",
    "status": "Pending",
    "contractor": "Legacy Professional Services",
    "rowid": "932478",
    "final_x": "3699577.79703",
    "final_y": "515740.029492",
    "longitude": "-90.01156228131927",
    "latitude": "29.911544962036505",
    "geocoded_column": {
      "latitude": "29.911544962036505",
      "longitude": "-90.01156228131927"
    }
  },
  {
    "service_request": "2022-932477",
    "request_type": "Trash/Recycling",
    "request_reason": "Order Trash Cart",
    "date_created": "2022-10-27T17:06:10.000",
    "date_modified": "2022-10-27T17:06:10.000",
    "request_status": "Pending",
    "responsible_agency": "Department of Sanitation",
    "final_address": "4610 Laurel St",
    "address_councildis": "B",
    "status": "Assigned to Contractor",
    "contractor": "Richards Disposal",
    "rowid": "932477",
    "final_x": "3670295.06529",
    "final_y": "517930.317622",
    "longitude": "-90.1039119812886",
    "latitude": "29.918463897804266",
    "geocoded_column": {
      "latitude": "29.918463897804266",
      "longitude": "-90.1039119812886"
    }
  },
  {
    "service_request": "2022-932476",
    "request_type": "Trash/Recycling",
    "request_reason": "Repair Trash Cart",
    "date_created": "2022-10-27T17:03:09.000",
    "date_modified": "2022-10-27T17:03:10.000",
    "request_status": "Pending",
    "responsible_agency": "Department of Sanitation",
    "final_address": "327 Florida Blvd",
    "address_councildis": "A",
    "status": "Assigned to Contractor",
    "contractor": "Metro Disposal",
    "rowid": "932476",
    "final_x": "3667167.4505",
    "final_y": "545619.584656",
    "longitude": "-90.1128532974768",
    "latitude": "29.99469220370665",
    "geocoded_column": {
      "latitude": "29.99469220370665",
      "longitude": "-90.1128532974768"
    }
  },
  {
    "service_request": "2022-932475",
    "request_type": "Trash/Recycling",
    "request_reason": "Replace Trash Cart",
    "date_created": "2022-10-27T17:02:32.000",
    "date_modified": "2022-10-27T17:02:33.000",
    "request_status": "Pending",
    "responsible_agency": "Department of Sanitation",
    "final_address": "5217 Hawthorne Pl",
    "address_councildis": "A",
    "status": "Assigned to Contractor",
    "contractor": "Metro Disposal",
    "rowid": "932475",
    "final_x": "3667848.15002",
    "final_y": "542987.511437",
    "longitude": "-90.1107917513634",
    "latitude": "29.98743494891074",
    "geocoded_column": {
      "latitude": "29.98743494891074",
      "longitude": "-90.1107917513634"
    }
  },
  {
    "service_request": "2022-932474",
    "request_type": "Trash/Recycling",
    "request_reason": "Request a Large Item Pick Up",
    "date_created": "2022-10-27T17:00:44.000",
    "date_modified": "2022-10-27T17:00:45.000",
    "request_status": "Pending",
    "responsible_agency": "Department of Sanitation",
    "final_address": "3149 N Villere St",
    "address_councildis": "C",
    "status": "Assigned to Contractor",
    "contractor": "Metro Disposal",
    "rowid": "932474",
    "final_x": "3689671.87868",
    "final_y": "537038.760968",
    "longitude": "-90.04207017574346",
    "latitude": "29.97041970258712",
    "geocoded_column": {
      "latitude": "29.97041970258712",
      "longitude": "-90.04207017574346"
    }
  },
  {
    "service_request": "2022-932473",
    "request_type": "Trash/Recycling",
    "request_reason": "Order Trash Cart",
    "date_created": "2022-10-27T17:00:25.000",
    "date_modified": "2022-10-27T17:00:26.000",
    "request_status": "Pending",
    "responsible_agency": "Department of Sanitation",
    "final_address": "8823 Colapissa St",
    "address_councildis": "A",
    "status": "Assigned to Contractor",
    "contractor": "Richards Disposal",
    "rowid": "932473",
    "final_x": "3664569.88436",
    "final_y": "535247.568838",
    "longitude": "-90.12140527184842",
    "latitude": "29.966248456504",
    "geocoded_column": {
      "latitude": "29.966248456504",
      "longitude": "-90.12140527184842"
    }
  },
  {
    "service_request": "2022-932472",
    "request_type": "Trash/Recycling",
    "request_reason": "Repair Trash Cart",
    "date_created": "2022-10-27T16:58:45.000",
    "date_modified": "2022-10-27T16:58:46.000",
    "request_status": "Pending",
    "responsible_agency": "Department of Sanitation",
    "final_address": "4428 Stephen Girard Ave",
    "address_councildis": "D",
    "status": "Assigned to Contractor",
    "contractor": "Metro Disposal",
    "rowid": "932472",
    "final_x": "3690753.54544",
    "final_y": "550137.158484",
    "longitude": "-90.0381866001615",
    "latitude": "30.00640201886476",
    "geocoded_column": {
      "latitude": "30.00640201886476",
      "longitude": "-90.0381866001615"
    }
  },
  {
    "service_request": "2022-932471",
    "request_type": "Trash/Recycling",
    "request_reason": "Illegal Dumping",
    "date_created": "2022-10-27T16:58:11.000",
    "date_modified": "2022-10-27T16:58:11.000",
    "request_status": "Pending",
    "responsible_agency": "Department of Sanitation",
    "final_address": "1457 N Prieur St",
    "address_councildis": "D",
    "status": "Pending",
    "rowid": "932471",
    "final_x": "3680678.29371",
    "final_y": "537687.076168",
    "longitude": "-90.07045034765713",
    "latitude": "29.972477958398418",
    "geocoded_column": {
      "latitude": "29.972477958398418",
      "longitude": "-90.07045034765713"
    }
  },
  {
    "service_request": "2022-932470",
    "request_type": "Trash/Recycling",
    "request_reason": "MIssed Recycling Pick-Up",
    "date_created": "2022-10-27T16:57:04.000",
    "date_modified": "2022-10-27T16:57:05.000",
    "request_status": "Pending",
    "responsible_agency": "Department of Sanitation",
    "final_address": "8823 Colapissa St",
    "address_councildis": "A",
    "status": "Assigned to Contractor",
    "contractor": "Richards Disposal",
    "rowid": "932470",
    "final_x": "3664569.88436",
    "final_y": "535247.568838",
    "longitude": "-90.12140527184842",
    "latitude": "29.966248456504",
    "geocoded_column": {
      "latitude": "29.966248456504",
      "longitude": "-90.12140527184842"
    }
  },
  {
    "service_request": "2022-932469",
    "request_type": "Trash/Recycling",
    "request_reason": "Repair Trash Cart",
    "date_created": "2022-10-27T16:55:09.000",
    "date_modified": "2022-10-27T16:55:10.000",
    "request_status": "Pending",
    "responsible_agency": "Department of Sanitation",
    "final_address": "4621 Allen St",
    "address_councildis": "D",
    "status": "Assigned to Contractor",
    "contractor": "Metro Disposal",
    "rowid": "932469",
    "final_x": "3681737.11464",
    "final_y": "549611.375059",
    "longitude": "-90.06669011282261",
    "latitude": "30.00523344599638",
    "geocoded_column": {
      "latitude": "30.00523344599638",
      "longitude": "-90.06669011282261"
    }
  },
  {
    "service_request": "2022-932468",
    "request_type": "Trash/Recycling",
    "request_reason": "Missed Trash Pick-Up",
    "date_created": "2022-10-27T16:50:35.000",
    "date_modified": "2022-10-27T16:50:36.000",
    "request_status": "Pending",
    "responsible_agency": "Department of Sanitation",
    "final_address": "4400 BLK S Roman St",
    "address_councildis": "B",
    "status": "Assigned to Contractor",
    "contractor": "Richards Disposal",
    "rowid": "932468",
    "final_x": "3670060.64245",
    "final_y": "526550.839074",
    "longitude": "-90.10436008568273",
    "latitude": "29.942174484709426",
    "geocoded_column": {
      "latitude": "29.942174484709426",
      "longitude": "-90.10436008568273"
    }
  },
  {
    "service_request": "2022-932467",
    "request_type": "Trash/Recycling",
    "request_reason": "Repair Trash Cart",
    "date_created": "2022-10-27T16:50:04.000",
    "date_modified": "2022-10-27T16:50:05.000",
    "request_status": "Pending",
    "responsible_agency": "Department of Sanitation",
    "final_address": "2724 S Saratoga St",
    "address_councildis": "B",
    "status": "Assigned to Contractor",
    "contractor": "Richards Disposal",
    "rowid": "932467",
    "final_x": "3675001.1643",
    "final_y": "524029.814844",
    "longitude": "-90.08884820547885",
    "latitude": "29.935095864563046",
    "geocoded_column": {
      "latitude": "29.935095864563046",
      "longitude": "-90.08884820547885"
    }
  },
  {
    "service_request": "2022-932466",
    "request_type": "Trash/Recycling",
    "request_reason": "Replace Trash Cart",
    "date_created": "2022-10-27T16:48:28.000",
    "date_modified": "2022-10-27T16:48:29.000",
    "request_status": "Pending",
    "responsible_agency": "Department of Sanitation",
    "final_address": "2532 Dreux Ave",
    "address_councildis": "D",
    "status": "Assigned to Contractor",
    "contractor": "Metro Disposal",
    "rowid": "932466",
    "final_x": "3686401.9133",
    "final_y": "552170.924054",
    "longitude": "-90.05186261302123",
    "latitude": "30.012128659400748",
    "geocoded_column": {
      "latitude": "30.012128659400748",
      "longitude": "-90.05186261302123"
    }
  },
  {
    "service_request": "2022-932464",
    "request_type": "Trash/Recycling",
    "request_reason": "Illegal Dumping",
    "date_created": "2022-10-27T16:46:26.000",
    "date_modified": "2022-10-27T16:46:26.000",
    "request_status": "Pending",
    "responsible_agency": "Department of Sanitation",
    "final_address": "2207 Dumaine St B",
    "address_councildis": "D",
    "status": "Pending",
    "rowid": "932464",
    "final_x": "3678764.81198",
    "final_y": "536357.368519",
    "longitude": "-90.07653952403238",
    "latitude": "29.968879567818778",
    "geocoded_column": {
      "latitude": "29.968879567818778",
      "longitude": "-90.07653952403238"
    }
  },
  {
    "service_request": "2022-932463",
    "request_type": "Trash/Recycling",
    "request_reason": "Illegal Dumping",
    "date_created": "2022-10-27T16:46:01.000",
    "date_modified": "2022-10-27T16:46:02.000",
    "request_status": "Pending",
    "responsible_agency": "Department of Sanitation",
    "final_address": "2207 Dumaine St A",
    "address_councildis": "D",
    "status": "Pending",
    "rowid": "932463",
    "final_x": "3678756.42133",
    "final_y": "536348.404423",
    "longitude": "-90.0765663327384",
    "latitude": "29.96885517267231",
    "geocoded_column": {
      "latitude": "29.96885517267231",
      "longitude": "-90.0765663327384"
    }
  },
  {
    "service_request": "2022-932462",
    "request_type": "Trash/Recycling",
    "request_reason": "Replace Trash Cart",
    "date_created": "2022-10-27T16:38:18.000",
    "date_modified": "2022-10-27T16:38:18.000",
    "request_status": "Pending",
    "responsible_agency": "Department of Sanitation",
    "final_address": "532 Chartres St",
    "address_councildis": "C",
    "status": "Assigned to Contractor",
    "contractor": "Empire Services",
    "rowid": "932462",
    "final_x": "3682564.34799",
    "final_y": "531852.082691",
    "longitude": "-90.0646978875855",
    "latitude": "29.956376438175962",
    "geocoded_column": {
      "latitude": "29.956376438175962",
      "longitude": "-90.0646978875855"
    }
  },
  {
    "service_request": "2022-932461",
    "request_type": "Trash/Recycling",
    "request_reason": "MIssed Recycling Pick-Up",
    "date_created": "2022-10-27T16:37:02.000",
    "date_modified": "2022-10-27T16:37:03.000",
    "request_status": "Pending",
    "responsible_agency": "Department of Sanitation",
    "final_address": "DHEMECOURT ST & S TELEMACHUS ST",
    "address_councildis": "B",
    "status": "Assigned to Contractor",
    "contractor": "Richards Disposal",
    "rowid": "932461",
    "final_x": "3671136.8",
    "final_y": "535820.28",
    "longitude": "-90.10064757538693",
    "latitude": "29.967630603934307",
    "geocoded_column": {
      "latitude": "29.967630603934307",
      "longitude": "-90.10064757538693"
    }
  },
  {
    "service_request": "2022-932460",
    "request_type": "Trash/Recycling",
    "request_reason": "Missed Trash Pick-Up",
    "date_created": "2022-10-27T16:36:02.000",
    "date_modified": "2022-10-27T16:36:02.000",
    "request_status": "Pending",
    "responsible_agency": "Department of Sanitation",
    "final_address": "537 Broadway St, New Orleans, Louisiana, 70118",
    "address_councildis": "A",
    "status": "Assigned to Contractor",
    "contractor": "Richards Disposal",
    "rowid": "932460",
    "final_x": "3662638.87603",
    "final_y": "524093.094332",
    "longitude": "-90.1278739728474",
    "latitude": "29.935633260426673",
    "geocoded_column": {
      "latitude": "29.935633260426673",
      "longitude": "-90.1278739728474"
    }
  },
  {
    "service_request": "2022-932459",
    "request_type": "Traffic Signals/Signs/Striping/Streetlights",
    "request_reason": "Street Name Sign Damaged or Missing",
    "date_created": "2022-10-27T16:36:00.000",
    "date_modified": "2022-10-27T16:36:00.000",
    "request_status": "Pending",
    "responsible_agency": "Department of Public Works",
    "final_address": "6940 Bamberry St",
    "address_councildis": "E",
    "status": "Pending",
    "rowid": "932459",
    "final_x": "3699221.47364",
    "final_y": "559176.821788",
    "longitude": "-90.0111049050968",
    "latitude": "30.030991761979152",
    "geocoded_column": {
      "latitude": "30.030991761979152",
      "longitude": "-90.0111049050968"
    }
  },
  {
    "service_request": "2022-932458",
    "request_type": "Trash/Recycling",
    "request_reason": "Repair Trash Cart",
    "date_created": "2022-10-27T16:34:07.000",
    "date_modified": "2022-10-27T16:34:08.000",
    "request_status": "Pending",
    "responsible_agency": "Department of Sanitation",
    "final_address": "1263 St Denis St",
    "address_councildis": "D",
    "status": "Assigned to Contractor",
    "contractor": "Metro Disposal",
    "rowid": "932458",
    "final_x": "3677114.62344",
    "final_y": "545715.345168",
    "longitude": "-90.08142804051356",
    "latitude": "29.99466043243667",
    "geocoded_column": {
      "latitude": "29.99466043243667",
      "longitude": "-90.08142804051356"
    }
  },
  {
    "service_request": "2022-932457",
    "request_type": "Roads/Drainage",
    "request_reason": "Street Flooding / Drainage",
    "date_created": "2022-10-27T16:33:56.000",
    "date_modified": "2022-10-27T16:33:56.000",
    "request_status": "Pending",
    "responsible_agency": "Department of Public Works",
    "final_address": "939 Iberville St",
    "address_councildis": "C",
    "status": "Pending",
    "rowid": "932457",
    "final_x": "3680749.64213",
    "final_y": "531673.316611",
    "longitude": "-90.07043434462538",
    "latitude": "29.955940012904332",
    "geocoded_column": {
      "latitude": "29.955940012904332",
      "longitude": "-90.07043434462538"
    }
  },
  {
    "service_request": "2022-932456",
    "request_type": "Trash/Recycling",
    "request_reason": "Missed Trash Pick-Up",
    "date_created": "2022-10-27T16:33:14.000",
    "date_modified": "2022-10-27T16:33:15.000",
    "request_status": "Pending",
    "responsible_agency": "Department of Sanitation",
    "final_address": "1410 Third St",
    "address_councildis": "B",
    "status": "Assigned to Contractor",
    "contractor": "Richards Disposal",
    "rowid": "932456",
    "final_x": "3676858.08853",
    "final_y": "522138.553466",
    "longitude": "-90.08305105084322",
    "latitude": "29.929839927888427",
    "geocoded_column": {
      "latitude": "29.929839927888427",
      "longitude": "-90.08305105084322"
    }
  },
  {
    "service_request": "2022-932455",
    "request_type": "Trash/Recycling",
    "request_reason": "Repair Recycling Cart",
    "date_created": "2022-10-27T16:28:28.000",
    "date_modified": "2022-10-27T16:28:48.000",
    "request_status": "Pending",
    "responsible_agency": "Department of Sanitation",
    "final_address": "2658 Acacia St",
    "address_councildis": "D",
    "status": "Pending",
    "rowid": "932455",
    "final_x": "3687621.99951",
    "final_y": "546341.999568",
    "longitude": "-90.04821438821921",
    "latitude": "29.996063662661644",
    "geocoded_column": {
      "latitude": "29.996063662661644",
      "longitude": "-90.04821438821921"
    }
  },
  {
    "service_request": "2022-932454",
    "request_type": "Trash/Recycling",
    "request_reason": "Missed Trash Pick-Up",
    "date_created": "2022-10-27T16:26:16.000",
    "date_modified": "2022-10-27T16:26:17.000",
    "request_status": "Pending",
    "responsible_agency": "Department of Sanitation",
    "final_address": "1618 S Liberty St",
    "address_councildis": "B",
    "status": "Assigned to Contractor",
    "contractor": "Richards Disposal",
    "rowid": "932454",
    "final_x": "3676745.19873",
    "final_y": "526531.537982",
    "longitude": "-90.08325613022687",
    "latitude": "29.941922581934552",
    "geocoded_column": {
      "latitude": "29.941922581934552",
      "longitude": "-90.08325613022687"
    }
  },
  {
    "service_request": "2022-932453",
    "request_type": "Trash/Recycling",
    "request_reason": "Repair Trash Cart",
    "date_created": "2022-10-27T16:25:28.000",
    "date_modified": "2022-10-27T16:25:29.000",
    "request_status": "Pending",
    "responsible_agency": "Department of Sanitation",
    "final_address": "6717 Foch Rd",
    "address_councildis": "D",
    "status": "Assigned to Contractor",
    "contractor": "Metro Disposal",
    "rowid": "932453",
    "final_x": "3696853.93725",
    "final_y": "556058.969113",
    "longitude": "-90.01869939010116",
    "latitude": "30.022493764040366",
    "geocoded_column": {
      "latitude": "30.022493764040366",
      "longitude": "-90.01869939010116"
    }
  },
  {
    "service_request": "2022-932452",
    "request_type": "Trash/Recycling",
    "request_reason": "Repair Recycling Cart",
    "date_created": "2022-10-27T16:22:19.000",
    "date_modified": "2022-10-27T16:22:19.000",
    "request_status": "Pending",
    "responsible_agency": "Department of Sanitation",
    "final_address": "5123 Cameron Blvd",
    "address_councildis": "D",
    "status": "Pending",
    "rowid": "932452",
    "final_x": "3682711.48194",
    "final_y": "551582.404885",
    "longitude": "-90.06354287595067",
    "latitude": "30.010623413634455",
    "geocoded_column": {
      "latitude": "30.010623413634455",
      "longitude": "-90.06354287595067"
    }
  },
  {
    "service_request": "2022-932451",
    "request_type": "Abandoned Vehicles",
    "request_reason": "Abandoned/Junk Vehicles",
    "date_created": "2022-10-27T16:21:20.000",
    "date_modified": "2022-10-27T16:27:53.000",
    "request_status": "Pending",
    "responsible_agency": "Department of Public Works",
    "final_address": "DHEMECOURT ST & S GENOIS ST",
    "address_councildis": "B",
    "status": "Pending",
    "rowid": "932451",
    "final_x": "3671401.5",
    "final_y": "535620.68",
    "longitude": "-90.09981843023166",
    "latitude": "29.96707393822266",
    "geocoded_column": {
      "latitude": "29.96707393822266",
      "longitude": "-90.09981843023166"
    }
  },
  {
    "service_request": "2022-932450",
    "request_type": "Trash/Recycling",
    "request_reason": "MIssed Recycling Pick-Up",
    "date_created": "2022-10-27T16:20:08.000",
    "date_modified": "2022-10-27T16:20:08.000",
    "request_status": "Pending",
    "responsible_agency": "Department of Sanitation",
    "final_address": "834 Audubon St",
    "address_councildis": "A",
    "status": "Assigned to Contractor",
    "contractor": "Richards Disposal",
    "rowid": "932450",
    "final_x": "3663745.7833",
    "final_y": "525401.800637",
    "longitude": "-90.12433584444115",
    "latitude": "29.939199720522865",
    "geocoded_column": {
      "latitude": "29.939199720522865",
      "longitude": "-90.12433584444115"
    }
  },
  {
    "service_request": "2022-932449",
    "request_type": "Trash/Recycling",
    "request_reason": "Replace Recycling Cart",
    "date_created": "2022-10-27T16:19:37.000",
    "date_modified": "2022-10-27T16:19:37.000",
    "request_status": "Pending",
    "responsible_agency": "Department of Sanitation",
    "final_address": "2426 N Rampart St",
    "address_councildis": "C",
    "status": "Pending",
    "rowid": "932449",
    "final_x": "3686041.33692",
    "final_y": "535989.729415",
    "longitude": "-90.05357281163406",
    "latitude": "29.967647228432504",
    "geocoded_column": {
      "latitude": "29.967647228432504",
      "longitude": "-90.05357281163406"
    }
  },
  {
    "service_request": "2022-932448",
    "request_type": "Trash/Recycling",
    "request_reason": "Missed Trash Pick-Up",
    "date_created": "2022-10-27T16:19:36.000",
    "date_modified": "2022-10-27T16:19:37.000",
    "request_status": "Pending",
    "responsible_agency": "Department of Sanitation",
    "final_address": "834 Audubon St",
    "address_councildis": "A",
    "status": "Assigned to Contractor",
    "contractor": "Richards Disposal",
    "rowid": "932448",
    "final_x": "3663745.7833",
    "final_y": "525401.800637",
    "longitude": "-90.12433584444115",
    "latitude": "29.939199720522865",
    "geocoded_column": {
      "latitude": "29.939199720522865",
      "longitude": "-90.12433584444115"
    }
  },
  {
    "service_request": "2022-932447",
    "request_type": "Trash/Recycling",
    "request_reason": "Replace Recycling Cart",
    "date_created": "2022-10-27T16:19:07.000",
    "date_modified": "2022-10-27T16:19:08.000",
    "request_status": "Pending",
    "responsible_agency": "Department of Sanitation",
    "final_address": "2424 N Rampart St",
    "address_councildis": "C",
    "status": "Pending",
    "rowid": "932447",
    "final_x": "3686026.75356",
    "final_y": "535989.729415",
    "longitude": "-90.05361886614543",
    "latitude": "29.96764767628268",
    "geocoded_column": {
      "latitude": "29.96764767628268",
      "longitude": "-90.05361886614543"
    }
  },
  {
    "service_request": "2022-932446",
    "request_type": "Trash/Recycling",
    "request_reason": "Repair Trash Cart",
    "date_created": "2022-10-27T16:17:47.000",
    "date_modified": "2022-10-27T16:17:47.000",
    "request_status": "Pending",
    "responsible_agency": "Department of Sanitation",
    "final_address": "3030 Royal St",
    "address_councildis": "C",
    "status": "Assigned to Contractor",
    "contractor": "Metro Disposal",
    "rowid": "932446",
    "final_x": "3688302.01097",
    "final_y": "534554.231877",
    "longitude": "-90.04648447966903",
    "latitude": "29.963630491376254",
    "geocoded_column": {
      "latitude": "29.963630491376254",
      "longitude": "-90.04648447966903"
    }
  },
  {
    "service_request": "2022-932445",
    "request_type": "Trash/Recycling",
    "request_reason": "Order Recycling Cart",
    "date_created": "2022-10-27T16:16:36.000",
    "date_modified": "2022-10-27T16:16:36.000",
    "request_status": "Pending",
    "responsible_agency": "Department of Sanitation",
    "final_address": "6343 Canal Blvd",
    "address_councildis": "A",
    "status": "Pending",
    "rowid": "932445",
    "final_x": "3668826.43668",
    "final_y": "549735.109524",
    "longitude": "-90.1074736585384",
    "latitude": "30.00595977836289",
    "geocoded_column": {
      "latitude": "30.00595977836289",
      "longitude": "-90.1074736585384"
    }
  },
  {
    "service_request": "2022-932444",
    "request_type": "Trash/Recycling",
    "request_reason": "Replace Trash Cart",
    "date_created": "2022-10-27T16:16:21.000",
    "date_modified": "2022-10-27T16:16:22.000",
    "request_status": "Pending",
    "responsible_agency": "Department of Sanitation",
    "final_address": "6343 Canal Blvd",
    "address_councildis": "A",
    "status": "Assigned to Contractor",
    "contractor": "Metro Disposal",
    "rowid": "932444",
    "final_x": "3668826.43668",
    "final_y": "549735.109524",
    "longitude": "-90.1074736585384",
    "latitude": "30.00595977836289",
    "geocoded_column": {
      "latitude": "30.00595977836289",
      "longitude": "-90.1074736585384"
    }
  },
  {
    "service_request": "2022-932443",
    "request_type": "Trash/Recycling",
    "request_reason": "Repair Recycling Cart",
    "date_created": "2022-10-27T16:15:26.000",
    "date_modified": "2022-10-27T16:15:27.000",
    "request_status": "Pending",
    "responsible_agency": "Department of Sanitation",
    "final_address": "6345 Canal Blvd",
    "address_councildis": "A",
    "status": "Pending",
    "rowid": "932443",
    "final_x": "3668837.90234",
    "final_y": "549763.726612",
    "longitude": "-90.10743646843537",
    "latitude": "30.00603812807914",
    "geocoded_column": {
      "latitude": "30.00603812807914",
      "longitude": "-90.10743646843537"
    }
  },
  {
    "service_request": "2022-932442",
    "request_type": "Traffic Signals/Signs/Striping/Streetlights",
    "request_reason": "Street Light Outage/Malfunction",
    "date_created": "2022-10-27T16:13:42.000",
    "date_modified": "2022-10-27T16:13:42.000",
    "request_status": "Pending",
    "responsible_agency": "Department of Public Works",
    "final_address": "5411 Pratt Dr",
    "address_councildis": "D",
    "status": "Pending",
    "contractor": "Legacy Professional Services",
    "rowid": "932442",
    "final_x": "3680476.06767",
    "final_y": "552455.96655",
    "longitude": "-90.07057499260952",
    "latitude": "30.013093318116198",
    "geocoded_column": {
      "latitude": "30.013093318116198",
      "longitude": "-90.07057499260952"
    }
  },
  {
    "service_request": "2022-932440",
    "request_type": "Traffic Signals/Signs/Striping/Streetlights",
    "request_reason": "Street Light Outage/Malfunction",
    "date_created": "2022-10-27T16:11:53.000",
    "date_modified": "2022-10-27T16:11:53.000",
    "request_status": "Pending",
    "responsible_agency": "Department of Public Works",
    "final_address": "BERKLEY DR & BLAIR ST",
    "address_councildis": "C",
    "status": "Pending",
    "contractor": "Legacy Professional Services",
    "rowid": "932440",
    "final_x": "3709373.7",
    "final_y": "517952.18",
    "longitude": "-89.98056182646465",
    "latitude": "29.917313260327532",
    "geocoded_column": {
      "latitude": "29.917313260327532",
      "longitude": "-89.98056182646465"
    }
  },
  {
    "service_request": "2022-932439",
    "request_type": "Traffic Signals/Signs/Striping/Streetlights",
    "request_reason": "Street Light Outage/Malfunction",
    "date_created": "2022-10-27T16:11:24.000",
    "date_modified": "2022-10-27T16:11:24.000",
    "request_status": "Pending",
    "responsible_agency": "Department of Public Works",
    "final_address": "5411 Pratt Dr",
    "address_councildis": "D",
    "status": "Pending",
    "contractor": "Legacy Professional Services",
    "rowid": "932439",
    "final_x": "3680476.06767",
    "final_y": "552455.96655",
    "longitude": "-90.07057499260952",
    "latitude": "30.013093318116198",
    "geocoded_column": {
      "latitude": "30.013093318116198",
      "longitude": "-90.07057499260952"
    }
  },
  {
    "service_request": "2022-932437",
    "request_type": "Traffic Signals/Signs/Striping/Streetlights",
    "request_reason": "Street Light Outage/Malfunction",
    "date_created": "2022-10-27T16:10:13.000",
    "date_modified": "2022-10-27T16:10:14.000",
    "request_status": "Pending",
    "responsible_agency": "Department of Public Works",
    "final_address": "78 Tern St",
    "address_councildis": "D",
    "status": "Pending",
    "contractor": "Legacy Professional Services",
    "rowid": "932437",
    "final_x": "3674884.00289",
    "final_y": "557150.355931",
    "longitude": "-90.08808175413242",
    "latitude": "30.026169464774615",
    "geocoded_column": {
      "latitude": "30.026169464774615",
      "longitude": "-90.08808175413242"
    }
  },
  {
    "service_request": "2022-932436",
    "request_type": "Trash/Recycling",
    "request_reason": "Repair Trash Cart",
    "date_created": "2022-10-27T16:10:05.000",
    "date_modified": "2022-10-27T16:10:05.000",
    "request_status": "Pending",
    "responsible_agency": "Department of Sanitation",
    "final_address": "6510 General Diaz St",
    "address_councildis": "A",
    "status": "Assigned to Contractor",
    "contractor": "Metro Disposal",
    "rowid": "932436",
    "final_x": "3669736.79207",
    "final_y": "550761.395669",
    "longitude": "-90.10456285210545",
    "latitude": "30.008754894653354",
    "geocoded_column": {
      "latitude": "30.008754894653354",
      "longitude": "-90.10456285210545"
    }
  },
  {
    "service_request": "2022-932435",
    "request_type": "Trash/Recycling",
    "request_reason": "Missed Trash Pick-Up",
    "date_created": "2022-10-27T16:08:40.000",
    "date_modified": "2022-10-27T16:08:40.000",
    "request_status": "Pending",
    "responsible_agency": "Department of Sanitation",
    "final_address": "4400 BLK Saint Ann St",
    "address_councildis": "A",
    "status": "Assigned to Contractor",
    "contractor": "Richards Disposal",
    "rowid": "932435",
    "final_x": "3671428.85494",
    "final_y": "541368.92722",
    "longitude": "-90.09953657830569",
    "latitude": "29.982878863174857",
    "geocoded_column": {
      "latitude": "29.982878863174857",
      "longitude": "-90.09953657830569"
    }
  },
  {
    "service_request": "2022-932434",
    "request_type": "Trash/Recycling",
    "request_reason": "Replace Trash Cart",
    "date_created": "2022-10-27T16:07:16.000",
    "date_modified": "2022-10-27T16:07:18.000",
    "request_status": "Pending",
    "responsible_agency": "Department of Sanitation",
    "final_address": "2773 Clover St",
    "address_councildis": "D",
    "status": "Assigned to Contractor",
    "contractor": "Metro Disposal",
    "rowid": "932434",
    "final_x": "3688413.07689",
    "final_y": "546831.418705",
    "longitude": "-90.0456980683711",
    "latitude": "29.997384968901752",
    "geocoded_column": {
      "latitude": "29.997384968901752",
      "longitude": "-90.0456980683711"
    }
  },
  {
    "service_request": "2022-932433",
    "request_type": "Traffic Signals/Signs/Striping/Streetlights",
    "request_reason": "Street Light Outage/Malfunction",
    "date_created": "2022-10-27T16:07:02.000",
    "date_modified": "2022-10-27T16:07:03.000",
    "request_status": "Pending",
    "responsible_agency": "Department of Public Works",
    "final_address": "78 Tern St",
    "address_councildis": "D",
    "status": "Pending",
    "contractor": "Legacy Professional Services",
    "rowid": "932433",
    "final_x": "3674884.00289",
    "final_y": "557150.355931",
    "longitude": "-90.08808175413242",
    "latitude": "30.026169464774615",
    "geocoded_column": {
      "latitude": "30.026169464774615",
      "longitude": "-90.08808175413242"
    }
  },
  {
    "service_request": "2022-932432",
    "request_type": "Traffic Signals/Signs/Striping/Streetlights",
    "request_reason": "Street Light Outage/Malfunction",
    "date_created": "2022-10-27T16:06:10.000",
    "date_modified": "2022-10-27T16:06:10.000",
    "request_status": "Pending",
    "responsible_agency": "Department of Public Works",
    "final_address": "78 Tern St",
    "address_councildis": "D",
    "status": "Pending",
    "contractor": "Legacy Professional Services",
    "rowid": "932432",
    "final_x": "3674884.00289",
    "final_y": "557150.355931",
    "longitude": "-90.08808175413242",
    "latitude": "30.026169464774615",
    "geocoded_column": {
      "latitude": "30.026169464774615",
      "longitude": "-90.08808175413242"
    }
  },
  {
    "service_request": "2022-932431",
    "request_type": "Traffic Signals/Signs/Striping/Streetlights",
    "request_reason": "Street Light Outage/Malfunction",
    "date_created": "2022-10-27T16:04:58.000",
    "date_modified": "2022-10-27T16:04:59.000",
    "request_status": "Pending",
    "responsible_agency": "Department of Public Works",
    "final_address": "78 Tern St",
    "address_councildis": "D",
    "status": "Pending",
    "contractor": "Legacy Professional Services",
    "rowid": "932431",
    "final_x": "3674884.00289",
    "final_y": "557150.355931",
    "longitude": "-90.08808175413242",
    "latitude": "30.026169464774615",
    "geocoded_column": {
      "latitude": "30.026169464774615",
      "longitude": "-90.08808175413242"
    }
  },
  {
    "service_request": "2022-932430",
    "request_type": "Traffic Signals/Signs/Striping/Streetlights",
    "request_reason": "Street Light Outage/Malfunction",
    "date_created": "2022-10-27T16:03:55.000",
    "date_modified": "2022-10-27T16:03:56.000",
    "request_status": "Pending",
    "responsible_agency": "Department of Public Works",
    "final_address": "78 Tern St",
    "address_councildis": "D",
    "status": "Pending",
    "contractor": "Legacy Professional Services",
    "rowid": "932430",
    "final_x": "3674884.00289",
    "final_y": "557150.355931",
    "longitude": "-90.08808175413242",
    "latitude": "30.026169464774615",
    "geocoded_column": {
      "latitude": "30.026169464774615",
      "longitude": "-90.08808175413242"
    }
  },
  {
    "service_request": "2022-932429",
    "request_type": "Parks & Parkways",
    "request_reason": "Request Tree Service (Right of Way/Public Property)",
    "date_created": "2022-10-27T16:02:54.000",
    "date_modified": "2022-10-27T16:02:55.000",
    "request_status": "Pending",
    "responsible_agency": "Department of Parks & Parkway",
    "final_address": "8310 Aberdeen Rd",
    "address_councildis": "E",
    "status": "Pending",
    "rowid": "932429",
    "final_x": "3703283.46954",
    "final_y": "561491.561183",
    "longitude": "-89.99818373962212",
    "latitude": "30.0372268828288",
    "geocoded_column": {
      "latitude": "30.0372268828288",
      "longitude": "-89.99818373962212"
    }
  },
  {
    "service_request": "2022-932428",
    "request_type": "Trash/Recycling",
    "request_reason": "Missed Trash Pick-Up",
    "date_created": "2022-10-27T16:02:11.000",
    "date_modified": "2022-10-27T16:02:12.000",
    "request_status": "Pending",
    "responsible_agency": "Department of Sanitation",
    "final_address": "1709 Pine St",
    "address_councildis": "A",
    "status": "Assigned to Contractor",
    "contractor": "Richards Disposal",
    "rowid": "932428",
    "final_x": "3665010.23572",
    "final_y": "528134.345663",
    "longitude": "-90.12025246162389",
    "latitude": "29.946676597441925",
    "geocoded_column": {
      "latitude": "29.946676597441925",
      "longitude": "-90.12025246162389"
    }
  },
  {
    "service_request": "2022-932427",
    "request_type": "Trash/Recycling",
    "request_reason": "Missed Trash Pick-Up",
    "date_created": "2022-10-27T16:00:15.000",
    "date_modified": "2022-10-27T16:00:16.000",
    "request_status": "Pending",
    "responsible_agency": "Department of Sanitation",
    "final_address": "624 Toledano St",
    "address_councildis": "B",
    "status": "Assigned to Contractor",
    "contractor": "Richards Disposal",
    "rowid": "932427",
    "final_x": "3676044.41979",
    "final_y": "518215.526134",
    "longitude": "-90.085754505087",
    "latitude": "29.919077257577626",
    "geocoded_column": {
      "latitude": "29.919077257577626",
      "longitude": "-90.085754505087"
    }
  },
  {
    "service_request": "2022-932426",
    "request_type": "Trash/Recycling",
    "request_reason": "Dead Animal Pick Up",
    "date_created": "2022-10-27T15:59:22.000",
    "date_modified": "2022-10-27T15:59:23.000",
    "request_status": "Pending",
    "responsible_agency": "Department of Sanitation",
    "final_address": "3250 General De Gaulle Dr",
    "address_councildis": "C",
    "status": "Assigned to Contractor",
    "contractor": "Richards Disposal",
    "rowid": "932426",
    "final_x": "3696007.14141",
    "final_y": "520979.973817",
    "longitude": "-90.02264292485948",
    "latitude": "29.92606581117921",
    "geocoded_column": {
      "latitude": "29.92606581117921",
      "longitude": "-90.02264292485948"
    }
  },
  {
    "service_request": "2022-932425",
    "request_type": "Trash/Recycling",
    "request_reason": "Repair Trash Cart",
    "date_created": "2022-10-27T15:55:18.000",
    "date_modified": "2022-10-27T15:55:19.000",
    "request_status": "Pending",
    "responsible_agency": "Department of Sanitation",
    "final_address": "3510 N Rampart St",
    "address_councildis": "C",
    "status": "Assigned to Contractor",
    "contractor": "Metro Disposal",
    "rowid": "932425",
    "final_x": "3690470.37718",
    "final_y": "535137.130246",
    "longitude": "-90.03961624264667",
    "latitude": "29.96516611980881",
    "geocoded_column": {
      "latitude": "29.96516611980881",
      "longitude": "-90.03961624264667"
    }
  },
  {
    "service_request": "2022-932424",
    "request_type": "Trash/Recycling",
    "request_reason": "Repair Trash Cart",
    "date_created": "2022-10-27T15:55:00.000",
    "date_modified": "2022-10-27T15:55:01.000",
    "request_status": "Pending",
    "responsible_agency": "Department of Sanitation",
    "final_address": "12321 Morrison Rd",
    "address_councildis": "E",
    "status": "Assigned to Contractor",
    "contractor": "Metro Disposal",
    "rowid": "932424",
    "final_x": "3714759.37464",
    "final_y": "567708.173604",
    "longitude": "-89.9616824959107",
    "latitude": "30.053947373461515",
    "geocoded_column": {
      "latitude": "30.053947373461515",
      "longitude": "-89.9616824959107"
    }
  },
  {
    "service_request": "2022-932423",
    "request_type": "Trash/Recycling",
    "request_reason": "Replace Trash Cart",
    "date_created": "2022-10-27T15:54:59.000",
    "date_modified": "2022-10-27T15:55:00.000",
    "request_status": "Pending",
    "responsible_agency": "Department of Sanitation",
    "final_address": "1625 N Galvez St",
    "address_councildis": "D",
    "status": "Assigned to Contractor",
    "contractor": "Metro Disposal",
    "rowid": "932423",
    "final_x": "3680870.58216",
    "final_y": "539067.81825",
    "longitude": "-90.06979498153797",
    "latitude": "29.976268692728798",
    "geocoded_column": {
      "latitude": "29.976268692728798",
      "longitude": "-90.06979498153797"
    }
  },
  {
    "service_request": "2022-932422",
    "request_type": "Trash/Recycling",
    "request_reason": "Repair Trash Cart",
    "date_created": "2022-10-27T15:54:54.000",
    "date_modified": "2022-10-27T15:54:55.000",
    "request_status": "Pending",
    "responsible_agency": "Department of Sanitation",
    "final_address": "3508 N Rampart St",
    "address_councildis": "C",
    "status": "Assigned to Contractor",
    "contractor": "Metro Disposal",
    "rowid": "932422",
    "final_x": "3690452.30428",
    "final_y": "535141.227462",
    "longitude": "-90.03967316961094",
    "latitude": "29.965177946780322",
    "geocoded_column": {
      "latitude": "29.965177946780322",
      "longitude": "-90.03967316961094"
    }
  },
  {
    "service_request": "2022-932421",
    "request_type": "Traffic Signals/Signs/Striping/Streetlights",
    "request_reason": "Street Light Outage/Malfunction",
    "date_created": "2022-10-27T15:53:37.000",
    "date_modified": "2022-10-27T15:53:38.000",
    "request_status": "Pending",
    "responsible_agency": "Department of Public Works",
    "final_address": "2716 St Nick Dr",
    "address_councildis": "C",
    "status": "Pending",
    "contractor": "Legacy Professional Services",
    "rowid": "932421",
    "final_x": "3699374.86596",
    "final_y": "520948.212153",
    "longitude": "-90.01201322115004",
    "latitude": "29.92587212431199",
    "geocoded_column": {
      "latitude": "29.92587212431199",
      "longitude": "-90.01201322115004"
    }
  },
  {
    "service_request": "2022-932420",
    "request_type": "Roads/Drainage",
    "request_reason": "Debris in Roadway",
    "date_created": "2022-10-27T15:49:28.000",
    "date_modified": "2022-10-27T15:49:28.000",
    "request_status": "Pending",
    "responsible_agency": "Department of Public Works",
    "final_address": "5660 Read Blvd",
    "address_councildis": "E",
    "status": "Pending",
    "rowid": "932420",
    "final_x": "3711260.5267",
    "final_y": "559758.782493",
    "longitude": "-89.97303968206258",
    "latitude": "30.032204441391542",
    "geocoded_column": {
      "latitude": "30.032204441391542",
      "longitude": "-89.97303968206258"
    }
  },
  {
    "service_request": "2022-932419",
    "request_type": "Trash/Recycling",
    "request_reason": "Missed Trash Pick-Up",
    "date_created": "2022-10-27T15:47:31.000",
    "date_modified": "2022-10-27T15:47:31.000",
    "request_status": "Pending",
    "responsible_agency": "Department of Sanitation",
    "final_address": "12 Newcomb Blvd",
    "address_councildis": "A",
    "status": "Assigned to Contractor",
    "contractor": "Richards Disposal",
    "rowid": "932419",
    "final_x": "3663620.42061",
    "final_y": "524946.431677",
    "longitude": "-90.12474679572009",
    "latitude": "29.937951237199634",
    "geocoded_column": {
      "latitude": "29.937951237199634",
      "longitude": "-90.12474679572009"
    }
  },
  {
    "service_request": "2022-932418",
    "request_type": "Trash/Recycling",
    "request_reason": "Replace Trash Cart",
    "date_created": "2022-10-27T15:43:23.000",
    "date_modified": "2022-10-27T15:43:24.000",
    "request_status": "Pending",
    "responsible_agency": "Department of Sanitation",
    "final_address": "5517 Pasteur Blvd",
    "address_councildis": "D",
    "status": "Assigned to Contractor",
    "contractor": "Metro Disposal",
    "rowid": "932418",
    "final_x": "3682996.1348",
    "final_y": "553191.008151",
    "longitude": "-90.06258718701626",
    "latitude": "30.015037810911178",
    "geocoded_column": {
      "latitude": "30.015037810911178",
      "longitude": "-90.06258718701626"
    }
  },
  {
    "service_request": "2022-932417",
    "request_type": "Trash/Recycling",
    "request_reason": "Replace Trash Cart",
    "date_created": "2022-10-27T15:42:49.000",
    "date_modified": "2022-10-27T15:42:49.000",
    "request_status": "Pending",
    "responsible_agency": "Department of Sanitation",
    "final_address": "5518 Pasteur Blvd",
    "address_councildis": "D",
    "status": "Assigned to Contractor",
    "contractor": "Metro Disposal",
    "rowid": "932417",
    "final_x": "3682787.30978",
    "final_y": "553177.316439",
    "longitude": "-90.06324745367094",
    "latitude": "30.015006529887472",
    "geocoded_column": {
      "latitude": "30.015006529887472",
      "longitude": "-90.06324745367094"
    }
  },
  {
    "service_request": "2022-932416",
    "request_type": "Trash/Recycling",
    "request_reason": "Missed Trash Pick-Up",
    "date_created": "2022-10-27T15:40:27.000",
    "date_modified": "2022-10-27T15:40:28.000",
    "request_status": "Pending",
    "responsible_agency": "Department of Sanitation",
    "final_address": "503 Washington Ave",
    "address_councildis": "B",
    "status": "Assigned to Contractor",
    "contractor": "Richards Disposal",
    "rowid": "932416",
    "final_x": "3678302.76002",
    "final_y": "519027.153015",
    "longitude": "-90.07859802571423",
    "latitude": "29.92124116526272",
    "geocoded_column": {
      "latitude": "29.92124116526272",
      "longitude": "-90.07859802571423"
    }
  },
  {
    "service_request": "2022-932415",
    "request_type": "Trash/Recycling",
    "request_reason": "Missed Trash Pick-Up",
    "date_created": "2022-10-27T15:39:38.000",
    "date_modified": "2022-10-27T15:39:39.000",
    "request_status": "Pending",
    "responsible_agency": "Department of Sanitation",
    "final_address": "503 Washington Ave",
    "address_councildis": "B",
    "status": "Assigned to Contractor",
    "contractor": "Richards Disposal",
    "rowid": "932415",
    "final_x": "3678302.76002",
    "final_y": "519027.153015",
    "longitude": "-90.07859802571423",
    "latitude": "29.92124116526272",
    "geocoded_column": {
      "latitude": "29.92124116526272",
      "longitude": "-90.07859802571423"
    }
  },
  {
    "service_request": "2022-932414",
    "request_type": "Property Maintenance",
    "request_reason": "Property Maintenance",
    "date_created": "2022-10-27T15:38:14.000",
    "date_modified": "2022-10-27T15:38:14.000",
    "request_status": "Pending",
    "responsible_agency": "Department of Code Enforcement",
    "final_address": "10703 Pressburg St",
    "address_councildis": "E",
    "status": "Pending",
    "rowid": "932414",
    "final_x": "3714897.60767",
    "final_y": "557393.959067",
    "longitude": "-89.96163584502749",
    "latitude": "30.02558289518457",
    "geocoded_column": {
      "latitude": "30.02558289518457",
      "longitude": "-89.96163584502749"
    }
  },
  {
    "service_request": "2022-932413",
    "request_type": "Trash/Recycling",
    "request_reason": "Repair Trash Cart",
    "date_created": "2022-10-27T15:36:52.000",
    "date_modified": "2022-10-27T15:36:52.000",
    "request_status": "Pending",
    "responsible_agency": "Department of Sanitation",
    "final_address": "1528 Riviera Ave",
    "address_councildis": "D",
    "status": "Assigned to Contractor",
    "contractor": "Metro Disposal",
    "rowid": "932413",
    "final_x": "3678908.2308",
    "final_y": "550863.940117",
    "longitude": "-90.07558372833796",
    "latitude": "30.008763233171297",
    "geocoded_column": {
      "latitude": "30.008763233171297",
      "longitude": "-90.07558372833796"
    }
  },
  {
    "service_request": "2022-932412",
    "request_type": "Trash/Recycling",
    "request_reason": "Replace Trash Cart",
    "date_created": "2022-10-27T15:35:14.000",
    "date_modified": "2022-10-27T15:35:15.000",
    "request_status": "Pending",
    "responsible_agency": "Department of Sanitation",
    "final_address": "2614 S Liberty St",
    "address_councildis": "B",
    "status": "Assigned to Contractor",
    "contractor": "Richards Disposal",
    "rowid": "932412",
    "final_x": "3674978.42024",
    "final_y": "524850.842428",
    "longitude": "-90.08889185820522",
    "latitude": "29.937354101607735",
    "geocoded_column": {
      "latitude": "29.937354101607735",
      "longitude": "-90.08889185820522"
    }
  },
  {
    "service_request": "2022-932411",
    "request_type": "Trash/Recycling",
    "request_reason": "Repair Trash Cart",
    "date_created": "2022-10-27T15:31:53.000",
    "date_modified": "2022-10-27T15:31:54.000",
    "request_status": "Pending",
    "responsible_agency": "Department of Sanitation",
    "final_address": "2678 Acacia St",
    "address_councildis": "D",
    "status": "Assigned to Contractor",
    "contractor": "Metro Disposal",
    "rowid": "932411",
    "final_x": "3687803.97129",
    "final_y": "546359.48936",
    "longitude": "-90.04763893477917",
    "latitude": "29.996106140258647",
    "geocoded_column": {
      "latitude": "29.996106140258647",
      "longitude": "-90.04763893477917"
    }
  },
  {
    "service_request": "2022-932410",
    "request_type": "Trash/Recycling",
    "request_reason": "Repair Trash Cart",
    "date_created": "2022-10-27T15:31:08.000",
    "date_modified": "2022-10-27T15:31:08.000",
    "request_status": "Pending",
    "responsible_agency": "Department of Sanitation",
    "final_address": "60 N Wren St",
    "address_councildis": "D",
    "status": "Assigned to Contractor",
    "contractor": "Metro Disposal",
    "rowid": "932410",
    "final_x": "3672727.7892",
    "final_y": "556189.82761",
    "longitude": "-90.09492794240845",
    "latitude": "30.023592613575097",
    "geocoded_column": {
      "latitude": "30.023592613575097",
      "longitude": "-90.09492794240845"
    }
  },
  {
    "service_request": "2022-932409",
    "request_type": "Traffic Signals/Signs/Striping/Streetlights",
    "request_reason": "Street Light Outage/Malfunction",
    "date_created": "2022-10-27T15:28:46.000",
    "date_modified": "2022-10-27T15:28:47.000",
    "request_status": "Pending",
    "responsible_agency": "Department of Public Works",
    "final_address": "3511 Preston Pl",
    "address_councildis": "C",
    "status": "Pending",
    "contractor": "Legacy Professional Services",
    "rowid": "932409",
    "final_x": "3708468.16107",
    "final_y": "517893.636598",
    "longitude": "-89.98342224949215",
    "latitude": "29.91718165127485",
    "geocoded_column": {
      "latitude": "29.91718165127485",
      "longitude": "-89.98342224949215"
    }
  },
  {
    "service_request": "2022-932408",
    "request_type": "Trash/Recycling",
    "request_reason": "Repair Trash Cart",
    "date_created": "2022-10-27T15:28:23.000",
    "date_modified": "2022-10-27T15:28:24.000",
    "request_status": "Pending",
    "responsible_agency": "Department of Sanitation",
    "final_address": "3227 Belfort St",
    "address_councildis": "A",
    "status": "Assigned to Contractor",
    "contractor": "Metro Disposal",
    "rowid": "932408",
    "final_x": "3678133.45902",
    "final_y": "542582.397837",
    "longitude": "-90.07831805595757",
    "latitude": "29.986015277342293",
    "geocoded_column": {
      "latitude": "29.986015277342293",
      "longitude": "-90.07831805595757"
    }
  },
  {
    "service_request": "2022-932407",
    "request_type": "Trash/Recycling",
    "request_reason": "Repair Trash Cart",
    "date_created": "2022-10-27T15:27:20.000",
    "date_modified": "2022-10-27T15:27:20.000",
    "request_status": "Pending",
    "responsible_agency": "Department of Sanitation",
    "final_address": "2761 New York St",
    "address_councildis": "D",
    "status": "Assigned to Contractor",
    "contractor": "Metro Disposal",
    "rowid": "932407",
    "final_x": "3687535.89775",
    "final_y": "556896.893914",
    "longitude": "-90.04811239818365",
    "latitude": "30.025088407760908",
    "geocoded_column": {
      "latitude": "30.025088407760908",
      "longitude": "-90.04811239818365"
    }
  },
  {
    "service_request": "2022-932406",
    "request_type": "Traffic Signals/Signs/Striping/Streetlights",
    "request_reason": "Street Light Outage/Malfunction",
    "date_created": "2022-10-27T15:27:14.000",
    "date_modified": "2022-10-27T15:27:14.000",
    "request_status": "Pending",
    "responsible_agency": "Department of Public Works",
    "final_address": "3511 Preston Pl",
    "address_councildis": "C",
    "status": "Pending",
    "contractor": "Legacy Professional Services",
    "rowid": "932406",
    "final_x": "3708468.16107",
    "final_y": "517893.636598",
    "longitude": "-89.98342224949215",
    "latitude": "29.91718165127485",
    "geocoded_column": {
      "latitude": "29.91718165127485",
      "longitude": "-89.98342224949215"
    }
  },
  {
    "service_request": "2022-932405",
    "request_type": "Trash/Recycling",
    "request_reason": "MIssed Recycling Pick-Up",
    "date_created": "2022-10-27T15:25:45.000",
    "date_modified": "2022-10-27T15:25:46.000",
    "request_status": "Pending",
    "responsible_agency": "Department of Sanitation",
    "final_address": "1111 Erato St",
    "address_councildis": "B",
    "status": "Assigned to Contractor",
    "contractor": "Richards Disposal",
    "rowid": "932405",
    "final_x": "3680552.30274",
    "final_y": "525692.492349",
    "longitude": "-90.07126548381918",
    "latitude": "29.939500730852806",
    "geocoded_column": {
      "latitude": "29.939500730852806",
      "longitude": "-90.07126548381918"
    }
  },