[
  {
    "service_request": "2021-844454",
    "request_type": "Trash/Recycling",
    "request_reason": "Illegal Dumping",
    "date_created": "2021-11-29T01:32:06.000",
    "date_modified": "2021-11-29T02:01:10.000",
    "request_status": "Pending",
    "responsible_agency": "Department of Sanitation",
    "final_address": "GENERAL DE GAULLE DR & TALL OAKS DR",
    "address_councildis": "C",
    "status": "Pending",
    "rowid": "844454",
    "final_x": "3704473.0",
    "final_y": "515178.18",
    "longitude": "-89.99613261414365",
    "latitude": "29.90984389225126",
    "geocoded_column": {
      "latitude": "29.90984389225126",
      "longitude": "-89.99613261414365"
    }
  },
  {
    "service_request": "2021-844453",
    "request_type": "Health Related Questions",
    "request_reason": "Noise Ordinance Complaint",
    "date_created": "2021-11-29T01:24:10.000",
    "date_modified": "2021-11-29T02:01:12.000",
    "request_status": "Pending",
    "responsible_agency": "Health Department",
    "final_address": "6015 Prytania St, New Orleans, Louisiana, 70118",
    "address_councildis": "A",
    "status": "Pending",
    "rowid": "844453",
    "final_x": "3665088.1986",
    "final_y": "520953.381945",
    "longitude": "-90.12024633907009",
    "latitude": "29.92692896554448",
    "geocoded_column": {
      "latitude": "29.92692896554448",
      "longitude": "-90.12024633907009"
    }
  },
  {
    "service_request": "2021-844452",
    "request_type": "Property Maintenance",
    "request_reason": "Property Maintenance",
    "date_created": "2021-11-28T23:23:42.000",
    "date_modified": "2021-11-28T23:23:42.000",
    "request_status": "Pending",
    "responsible_agency": "Department of Code Enforcement",
    "final_address": "3033 S Carrollton Ave",
    "address_councildis": "B",
    "status": "Pending",
    "rowid": "844452",
    "final_x": "3666586.17402",
    "final_y": "533209.355716",
    "longitude": "-90.1151062778048",
    "latitude": "29.96058524996126",
    "geocoded_column": {
      "latitude": "29.96058524996126",
      "longitude": "-90.1151062778048"
    }
  },
  {
    "service_request": "2021-844450",
    "request_type": "Property Maintenance",
    "request_reason": "Property Maintenance",
    "date_created": "2021-11-28T22:09:41.000",
    "date_modified": "2021-11-28T22:09:41.000",
    "request_status": "Pending",
    "responsible_agency": "Department of Code Enforcement",
    "final_address": "2418 N Villere St",
    "address_councildis": "C",
    "status": "Pending",
    "rowid": "844450",
    "final_x": "3686608.37698",
    "final_y": "537504.212488",
    "longitude": "-90.05172859477729",
    "latitude": "29.971794102343647",
    "geocoded_column": {
      "latitude": "29.971794102343647",
      "longitude": "-90.05172859477729"
    }
  },
  {
    "service_request": "2021-844449",
    "request_type": "Trash/Recycling",
    "request_reason": "Replace Trash Cart",
    "date_created": "2021-11-28T21:54:43.000",
    "date_modified": "2021-11-28T21:54:43.000",
    "request_status": "Pending",
    "responsible_agency": "Department of Sanitation",
    "final_address": "1809 E Homestead Dr",
    "address_councildis": "C",
    "status": "Assigned to Contractor",
    "contractor": "Richards Disposal",
    "rowid": "844449",
    "final_x": "3697115.84778",
    "final_y": "525298.915389",
    "longitude": "-90.01898669531492",
    "latitude": "29.937906498196853",
    "geocoded_column": {
      "latitude": "29.937906498196853",
      "longitude": "-90.01898669531492"
    }
  },
  {
    "service_request": "2021-844448",
    "request_type": "Trash/Recycling",
    "request_reason": "Order Trash Cart",
    "date_created": "2021-11-28T21:53:01.000",
    "date_modified": "2021-11-28T21:53:01.000",
    "request_status": "Pending",
    "responsible_agency": "Department of Sanitation",
    "final_address": "4711 Lennox Blvd",
    "address_councildis": "C",
    "status": "Assigned to Contractor",
    "contractor": "Richards Disposal",
    "rowid": "844448",
    "final_x": "3700652.44055",
    "final_y": "513356.747698",
    "longitude": "-90.00825744901417",
    "latitude": "29.90495761352562",
    "geocoded_column": {
      "latitude": "29.90495761352562",
      "longitude": "-90.00825744901417"
    }
  },
  {
    "service_request": "2021-844447",
    "request_type": "Property Maintenance",
    "request_reason": "Property Maintenance",
    "date_created": "2021-11-28T21:52:49.000",
    "date_modified": "2021-11-28T21:52:49.000",
    "request_status": "Pending",
    "responsible_agency": "Department of Code Enforcement",
    "final_address": "2418 N Villere St",
    "address_councildis": "C",
    "status": "Pending",
    "rowid": "844447",
    "final_x": "3686608.37698",
    "final_y": "537504.212488",
    "longitude": "-90.05172859477729",
    "latitude": "29.971794102343647",
    "geocoded_column": {
      "latitude": "29.971794102343647",
      "longitude": "-90.05172859477729"
    }
  },
  {
    "service_request": "2021-844446",
    "request_type": "Traffic Signals/Signs/Striping/Streetlights",
    "request_reason": "Traffic Sign Missing/Damaged",
    "date_created": "2021-11-28T21:51:58.000",
    "date_modified": "2021-11-28T22:01:21.000",
    "request_status": "Pending",
    "responsible_agency": "Department of Public Works",
    "final_address": "31 Mcalister Dr",
    "address_councildis": "A",
    "status": "Pending",
    "rowid": "844446",
    "final_x": "3665535.74266",
    "final_y": "526090.779966",
    "longitude": "-90.11866163856537",
    "latitude": "29.941042140852357",
    "geocoded_column": {
      "latitude": "29.941042140852357",
      "longitude": "-90.11866163856537"
    }
  },
  {
    "service_request": "2021-844445",
    "request_type": "Trash/Recycling",
    "request_reason": "Request a Large Item Pick Up",
    "date_created": "2021-11-28T21:16:55.000",
    "date_modified": "2021-11-28T22:01:23.000",
    "request_status": "Pending",
    "responsible_agency": "Department of Sanitation",
    "final_address": "2326 Chartres St",
    "address_councildis": "C",
    "status": "Assigned to Contractor",
    "contractor": "Metro Disposal",
    "rowid": "844445",
    "final_x": "3685794.10428",
    "final_y": "534525.986565",
    "longitude": "-90.05440517111725",
    "latitude": "29.96363003322108",
    "geocoded_column": {
      "latitude": "29.96363003322108",
      "longitude": "-90.05440517111725"
    }
  },
  {
    "service_request": "2021-844444",
    "request_type": "Traffic Signals/Signs/Striping/Streetlights",
    "request_reason": "Street Light Outage/Malfunction",
    "date_created": "2021-11-28T20:37:11.000",
    "date_modified": "2021-11-28T20:37:12.000",
    "request_status": "Pending",
    "responsible_agency": "Department of Public Works",
    "final_address": "6468 Bellaire Dr",
    "address_councildis": "A",
    "status": "Pending",
    "contractor": "Royal Engineering",
    "rowid": "844444",
    "final_x": "3664409.4393",
    "final_y": "551022.552661",
    "longitude": "-90.12138504340078",
    "latitude": "30.00962899493372",
    "geocoded_column": {
      "latitude": "30.00962899493372",
      "longitude": "-90.12138504340078"
    }
  },
  {
    "service_request": "2021-844443",
    "request_type": "Traffic Signals/Signs/Striping/Streetlights",
    "request_reason": "Street Light Outage/Malfunction",
    "date_created": "2021-11-28T18:43:42.000",
    "date_modified": "2021-11-28T18:43:42.000",
    "request_status": "Pending",
    "responsible_agency": "Department of Public Works",
    "final_address": "1029 Leontine St",
    "address_councildis": "B",
    "status": "Pending",
    "contractor": "Royal Engineering",
    "rowid": "844443",
    "final_x": "3667295.97658",
    "final_y": "519390.816311",
    "longitude": "-90.11332946018119",
    "latitude": "29.92256794973777",
    "geocoded_column": {
      "latitude": "29.92256794973777",
      "longitude": "-90.11332946018119"
    }
  },
  {
    "service_request": "2021-844442",
    "request_type": "Roads/Drainage",
    "request_reason": "Leaking Hydrant",
    "date_created": "2021-11-28T17:49:31.000",
    "date_modified": "2021-11-28T18:01:09.000",
    "request_status": "Pending",
    "responsible_agency": "Department of Public Works",
    "final_address": "St Louis St & N White St, New Orleans, Louisiana, 70119",
    "address_councildis": "B",
    "status": "Pending",
    "rowid": "844442",
    "final_x": "3675724.8",
    "final_y": "536566.48",
    "longitude": "-90.08613289674646",
    "latitude": "29.969545887254647",
    "geocoded_column": {
      "latitude": "29.969545887254647",
      "longitude": "-90.08613289674646"
    }
  },
  {
    "service_request": "2021-844441",
    "request_type": "Trash/Recycling",
    "request_reason": "Request a Large Item Pick Up",
    "date_created": "2021-11-28T17:33:47.000",
    "date_modified": "2021-11-28T18:01:12.000",
    "request_status": "Pending",
    "responsible_agency": "Department of Sanitation",
    "final_address": "431 Elmira Ave",
    "address_councildis": "C",
    "status": "Assigned to Contractor",
    "contractor": "Richards Disposal",
    "rowid": "844441",
    "final_x": "3688166.14415",
    "final_y": "530061.840193",
    "longitude": "-90.04707278217772",
    "latitude": "29.95128216112302",
    "geocoded_column": {
      "latitude": "29.95128216112302",
      "longitude": "-90.04707278217772"
    }
  },
  {
    "service_request": "2021-844440",
    "request_type": "Property Maintenance",
    "request_reason": "Property Maintenance",
    "date_created": "2021-11-28T17:19:30.000",
    "date_modified": "2021-11-28T17:19:30.000",
    "request_status": "Pending",
    "responsible_agency": "Department of Code Enforcement",
    "final_address": "1952 Evergreen Ave",
    "address_councildis": "C",
    "status": "Pending",
    "rowid": "844440",
    "final_x": "3688192.59753",
    "final_y": "524562.044732",
    "longitude": "-90.04718417621564",
    "latitude": "29.9361587785345",
    "geocoded_column": {
      "latitude": "29.9361587785345",
      "longitude": "-90.04718417621564"
    }
  },
  {
    "service_request": "2021-844439",
    "request_type": "Property Maintenance",
    "request_reason": "Property Maintenance",
    "date_created": "2021-11-28T17:18:13.000",
    "date_modified": "2021-11-28T17:18:13.000",
    "request_status": "Pending",
    "responsible_agency": "Department of Code Enforcement",
    "final_address": "1958 Evergreen Ave",
    "address_councildis": "C",
    "status": "Pending",
    "rowid": "844439",
    "final_x": "3688196.10102",
    "final_y": "524494.964412",
    "longitude": "-90.04717549270661",
    "latitude": "29.935974222159242",
    "geocoded_column": {
      "latitude": "29.935974222159242",
      "longitude": "-90.04717549270661"
    }
  },
  {
    "service_request": "2021-844438",
    "request_type": "Abandoned Vehicles",
    "request_reason": "Abandoned/Junk Vehicles",
    "date_created": "2021-11-28T17:16:36.000",
    "date_modified": "2021-11-28T17:16:36.000",
    "request_status": "Pending",
    "responsible_agency": "Department of Public Works",
    "final_address": "1812 Nunez St",
    "address_councildis": "C",
    "status": "Pending",
    "rowid": "844438",
    "final_x": "3687277.08137",
    "final_y": "524748.742204",
    "longitude": "-90.05006787841484",
    "latitude": "29.936700358130203",
    "geocoded_column": {
      "latitude": "29.936700358130203",
      "longitude": "-90.05006787841484"
    }
  },
  {
    "service_request": "2021-844437",
    "request_type": "Abandoned Vehicles",
    "request_reason": "Abandoned/Junk Vehicles",
    "date_created": "2021-11-28T17:14:49.000",
    "date_modified": "2021-11-28T17:14:49.000",
    "request_status": "Pending",
    "responsible_agency": "Department of Public Works",
    "final_address": "1820 Nunez St",
    "address_councildis": "C",
    "status": "Pending",
    "rowid": "844437",
    "final_x": "3687334.60175",
    "final_y": "524693.173116",
    "longitude": "-90.04988824943945",
    "latitude": "29.936545790426052",
    "geocoded_column": {
      "latitude": "29.936545790426052",
      "longitude": "-90.04988824943945"
    }
  },
  {
    "service_request": "2021-844436",
    "request_type": "Safety & Permits",
    "request_reason": "Construction permit",
    "date_created": "2021-11-28T17:13:34.000",
    "date_modified": "2021-11-28T17:13:34.000",
    "request_status": "Pending",
    "responsible_agency": "Department of Code Enforcement",
    "final_address": "646 Magellan St",
    "address_councildis": "C",
    "status": "Pending",
    "rowid": "844436",
    "final_x": "3688104.17782",
    "final_y": "525008.368509",
    "longitude": "-90.04744750626057",
    "latitude": "29.937388746890978",
    "geocoded_column": {
      "latitude": "29.937388746890978",
      "longitude": "-90.04744750626057"
    }
  },
  {
    "service_request": "2021-844435",
    "request_type": "Trash/Recycling",
    "request_reason": "Request a Large Item Pick Up",
    "date_created": "2021-11-28T16:58:11.000",
    "date_modified": "2021-11-28T17:01:12.000",
    "request_status": "Pending",
    "responsible_agency": "Department of Sanitation",
    "final_address": "604 Pacific Ave",
    "address_councildis": "C",
    "status": "Assigned to Contractor",
    "contractor": "Richards Disposal",
    "rowid": "844435",
    "final_x": "3688521.18857",
    "final_y": "529392.902017",
    "longitude": "-90.04597546067225",
    "latitude": "29.949431846945437",
    "geocoded_column": {
      "latitude": "29.949431846945437",
      "longitude": "-90.04597546067225"
    }
  },
  {
    "service_request": "2021-844433",
    "request_type": "Property Maintenance",
    "request_reason": "Property Maintenance",
    "date_created": "2021-11-28T16:29:17.000",
    "date_modified": "2021-11-28T16:29:17.000",
    "request_status": "Pending",
    "responsible_agency": "Department of Code Enforcement",
    "final_address": "2133 Allen St",
    "address_councildis": "D",
    "status": "Pending",
    "rowid": "844433",
    "final_x": "3682492.00316",
    "final_y": "540093.106635",
    "longitude": "-90.06463820353143",
    "latitude": "29.979038615774183",
    "geocoded_column": {
      "latitude": "29.979038615774183",
      "longitude": "-90.06463820353143"
    }
  },
  {
    "service_request": "2021-844432",
    "request_type": "Parks & Parkways",
    "request_reason": "Request Tree Service (Right of Way/Public Property)",
    "date_created": "2021-11-28T16:27:13.000",
    "date_modified": "2021-11-28T17:01:15.000",
    "request_status": "Pending",
    "responsible_agency": "Department of Parks & Parkway",
    "final_address": "3300 Seine St",
    "address_councildis": "C",
    "status": "Pending",
    "rowid": "844432",
    "final_x": "3696151.1249",
    "final_y": "519720.611256",
    "longitude": "-90.02223390117453",
    "latitude": "29.922598462909736",
    "geocoded_column": {
      "latitude": "29.922598462909736",
      "longitude": "-90.02223390117453"
    }
  },
  {
    "service_request": "2021-844431",
    "request_type": "Abandoned Vehicles",
    "request_reason": "Abandoned/Junk Vehicles",
    "date_created": "2021-11-28T16:21:36.000",
    "date_modified": "2021-11-28T17:01:16.000",
    "request_status": "Pending",
    "responsible_agency": "Department of Public Works",
    "final_address": "3300 Seine St",
    "address_councildis": "C",
    "status": "Pending",
    "rowid": "844431",
    "final_x": "3696151.1249",
    "final_y": "519720.611256",
    "longitude": "-90.02223390117453",
    "latitude": "29.922598462909736",
    "geocoded_column": {
      "latitude": "29.922598462909736",
      "longitude": "-90.02223390117453"
    }
  },
  {
    "service_request": "2021-844428",
    "request_type": "Trash/Recycling",
    "request_reason": "Missed Trash Pick-Up",
    "date_created": "2021-11-28T16:05:50.000",
    "date_modified": "2021-11-28T16:05:50.000",
    "request_status": "Pending",
    "responsible_agency": "Department of Sanitation",
    "final_address": "1208 Camp St",
    "address_councildis": "B",
    "status": "Assigned to Contractor",
    "contractor": "Richards Disposal",
    "rowid": "844428",
    "final_x": "3680260.99183",
    "final_y": "525618.957437",
    "longitude": "-90.07218774628612",
    "latitude": "29.939307353623576",
    "geocoded_column": {
      "latitude": "29.939307353623576",
      "longitude": "-90.07218774628612"
    }
  },
  {
    "service_request": "2021-844427",
    "request_type": "Trash/Recycling",
    "request_reason": "Missed Trash Pick-Up",
    "date_created": "2021-11-28T15:40:11.000",
    "date_modified": "2021-11-28T16:00:57.000",
    "request_status": "Pending",
    "responsible_agency": "Department of Sanitation",
    "final_address": "1206 Camp St",
    "address_councildis": "B",
    "status": "Assigned to Contractor",
    "contractor": "Richards Disposal",
    "rowid": "844427",
    "final_x": "3680264.08443",
    "final_y": "525628.238077",
    "longitude": "-90.07217766006715",
    "latitude": "29.939332778709044",
    "geocoded_column": {
      "latitude": "29.939332778709044",
      "longitude": "-90.07217766006715"
    }
  },
  {
    "service_request": "2021-844426",
    "request_type": "Trash/Recycling",
    "request_reason": "Request a Large Item Pick Up",
    "date_created": "2021-11-28T15:28:43.000",
    "date_modified": "2021-11-28T16:01:00.000",
    "request_status": "Pending",
    "responsible_agency": "Department of Sanitation",
    "final_address": "2638 Governor Nicholls St, New Orleans, Louisiana, 70119",
    "address_councildis": "D",
    "status": "Assigned to Contractor",
    "contractor": "Richards Disposal",
    "rowid": "844426",
    "final_x": "3677925.92469",
    "final_y": "538212.890953",
    "longitude": "-90.07912464375795",
    "latitude": "29.974006892744924",
    "geocoded_column": {
      "latitude": "29.974006892744924",
      "longitude": "-90.07912464375795"
    }
  },
  {
    "service_request": "2021-844425",
    "request_type": "Abandoned Vehicles",
    "request_reason": "Abandoned/Junk Vehicles",
    "date_created": "2021-11-28T15:10:37.000",
    "date_modified": "2021-11-28T15:10:37.000",
    "request_status": "Pending",
    "responsible_agency": "Department of Public Works",
    "final_address": "4715 Miles Dr",
    "address_councildis": "D",
    "status": "Pending",
    "rowid": "844425",
    "final_x": "3679628.17154",
    "final_y": "548868.020179",
    "longitude": "-90.0733785384693",
    "latitude": "30.003253418970758",
    "geocoded_column": {
      "latitude": "30.003253418970758",
      "longitude": "-90.0733785384693"
    }
  },
  {
    "service_request": "2021-844424",
    "request_type": "Trash/Recycling",
    "request_reason": "Request a Large Item Pick Up",
    "date_created": "2021-11-28T14:40:24.000",
    "date_modified": "2021-11-28T15:01:24.000",
    "request_status": "Pending",
    "responsible_agency": "Department of Sanitation",
    "final_address": "7810 Parry St",
    "address_councildis": "E",
    "status": "Assigned to Contractor",
    "contractor": "Metro Disposal",
    "rowid": "844424",
    "final_x": "3714004.72357",
    "final_y": "568887.280869",
    "longitude": "-89.96402320216197",
    "latitude": "30.057214252544263",
    "geocoded_column": {
      "latitude": "30.057214252544263",
      "longitude": "-89.96402320216197"
    }
  },
  {
    "service_request": "2021-844423",
    "request_type": "Trash/Recycling",
    "request_reason": "Missed Trash Pick-Up",
    "date_created": "2021-11-28T14:31:10.000",
    "date_modified": "2021-11-28T14:31:11.000",
    "request_status": "Pending",
    "responsible_agency": "Department of Sanitation",
    "final_address": "1427 St Mary St",
    "address_councildis": "B",
    "status": "Assigned to Contractor",
    "contractor": "Richards Disposal",
    "rowid": "844423",
    "final_x": "3678984.6484",
    "final_y": "523767.974395",
    "longitude": "-90.07628143555137",
    "latitude": "29.934256326135813",
    "geocoded_column": {
      "latitude": "29.934256326135813",
      "longitude": "-90.07628143555137"
    }
  },
  {
    "service_request": "2021-844422",
    "request_type": "Trash/Recycling",
    "request_reason": "Request a Large Item Pick Up",
    "date_created": "2021-11-28T14:18:00.000",
    "date_modified": "2021-11-28T14:18:01.000",
    "request_status": "Pending",
    "responsible_agency": "Department of Sanitation",
    "final_address": "1845 Deslonde St",
    "address_councildis": "E",
    "status": "Assigned to Contractor",
    "contractor": "Metro Disposal",
    "rowid": "844422",
    "final_x": "3696249.97757",
    "final_y": "537349.808584",
    "longitude": "-90.02128466274631",
    "latitude": "29.9710695022835",
    "geocoded_column": {
      "latitude": "29.9710695022835",
      "longitude": "-90.02128466274631"
    }
  },
  {
    "service_request": "2021-844421",
    "request_type": "Traffic Signals/Signs/Striping/Streetlights",
    "request_reason": "Additional signage",
    "date_created": "2021-11-28T14:02:34.000",
    "date_modified": "2021-11-28T14:02:34.000",
    "request_status": "Pending",
    "responsible_agency": "Department of Public Works",
    "final_address": "PORT ST & ST CLAUDE AVE",
    "address_councildis": "C",
    "status": "Pending",
    "rowid": "844421",
    "final_x": "3687420.8",
    "final_y": "536399.48",
    "longitude": "-90.04920194272945",
    "latitude": "29.968731463821154",
    "geocoded_column": {
      "latitude": "29.968731463821154",
      "longitude": "-90.04920194272945"
    }
  },
  {
    "service_request": "2021-844420",
    "request_type": "Trash/Recycling",
    "request_reason": "Request a Large Item Pick Up",
    "date_created": "2021-11-28T13:55:49.000",
    "date_modified": "2021-11-28T14:01:02.000",
    "request_status": "Pending",
    "responsible_agency": "Department of Sanitation",
    "final_address": "1450 N Roman St",
    "address_councildis": "D",
    "status": "Assigned to Contractor",
    "contractor": "Metro Disposal",
    "rowid": "844420",
    "final_x": "3681016.49608",
    "final_y": "537392.719496",
    "longitude": "-90.06939249964725",
    "latitude": "29.971658325517353",
    "geocoded_column": {
      "latitude": "29.971658325517353",
      "longitude": "-90.06939249964725"
    }
  },
  {
    "service_request": "2021-844419",
    "request_type": "Trash/Recycling",
    "request_reason": "Request a Large Item Pick Up",
    "date_created": "2021-11-28T13:44:22.000",
    "date_modified": "2021-11-28T13:44:23.000",
    "request_status": "Pending",
    "responsible_agency": "Department of Sanitation",
    "final_address": "1140 Esplanade Ave",
    "address_councildis": "C",
    "status": "Assigned to Contractor",
    "contractor": "Richards Disposal",
    "rowid": "844419",
    "final_x": "3682566.87356",
    "final_y": "535491.837254",
    "longitude": "-90.06456265108791",
    "latitude": "29.966384440636013",
    "geocoded_column": {
      "latitude": "29.966384440636013",
      "longitude": "-90.06456265108791"
    }
  },
  {
    "service_request": "2021-844418",
    "request_type": "Abandoned Vehicles",
    "request_reason": "Abandoned/Junk Vehicles",
    "date_created": "2021-11-28T12:51:59.000",
    "date_modified": "2021-11-28T13:01:15.000",
    "request_status": "Pending",
    "responsible_agency": "Department of Public Works",
    "final_address": "6024 Eads St",
    "address_councildis": "D",
    "status": "Pending",
    "rowid": "844418",
    "final_x": "3686714.56041",
    "final_y": "555434.953113",
    "longitude": "-90.05075939711342",
    "latitude": "30.021093918671923",
    "geocoded_column": {
      "latitude": "30.021093918671923",
      "longitude": "-90.05075939711342"
    }
  },
  {
    "service_request": "2021-844417",
    "request_type": "Abandoned Vehicles",
    "request_reason": "Abandoned/Junk Vehicles",
    "date_created": "2021-11-28T12:25:10.000",
    "date_modified": "2021-11-28T12:25:10.000",
    "request_status": "Pending",
    "responsible_agency": "Department of Public Works",
    "final_address": "10720 Roger Dr",
    "address_councildis": "E",
    "status": "Pending",
    "rowid": "844417",
    "final_x": "3711606.36325",
    "final_y": "562993.601568",
    "longitude": "-89.97182536371032",
    "latitude": "30.04108760926601",
    "geocoded_column": {
      "latitude": "30.04108760926601",
      "longitude": "-89.97182536371032"
    }
  },
  {
    "service_request": "2021-844416",
    "request_type": "Abandoned Vehicles",
    "request_reason": "Abandoned/Junk Vehicles",
    "date_created": "2021-11-28T12:17:50.000",
    "date_modified": "2021-11-28T13:01:17.000",
    "request_status": "Pending",
    "responsible_agency": "Department of Public Works",
    "final_address": "2321 S Roman St",
    "address_councildis": "B",
    "status": "Pending",
    "rowid": "844416",
    "final_x": "3673959.85204",
    "final_y": "528151.216511",
    "longitude": "-90.09199467125363",
    "latitude": "29.946459426800402",
    "geocoded_column": {
      "latitude": "29.946459426800402",
      "longitude": "-90.09199467125363"
    }
  },
  {
    "service_request": "2021-844412",
    "request_type": "Parks & Parkways",
    "request_reason": "Request Tree Service (Right of Way/Public Property)",
    "date_created": "2021-11-28T12:02:34.000",
    "date_modified": "2021-11-28T12:02:34.000",
    "request_status": "Pending",
    "responsible_agency": "Department of Parks & Parkway",
    "final_address": "7818 Freret St",
    "address_councildis": "A",
    "status": "Pending",
    "rowid": "844412",
    "final_x": "3662186.11207",
    "final_y": "527167.800703",
    "longitude": "-90.12920135397232",
    "latitude": "29.944100816464605",
    "geocoded_column": {
      "latitude": "29.944100816464605",
      "longitude": "-90.12920135397232"
    }
  },
  {
    "service_request": "2021-844411",
    "request_type": "Abandoned Vehicles",
    "request_reason": "Abandoned/Junk Vehicles",
    "date_created": "2021-11-28T11:40:38.000",
    "date_modified": "2021-11-28T11:40:38.000",
    "request_status": "Pending",
    "responsible_agency": "Department of Public Works",
    "final_address": "1720 Lapeyrouse St",
    "address_councildis": "D",
    "status": "Pending",
    "rowid": "844411",
    "final_x": "3681730.15304",
    "final_y": "538072.403657",
    "longitude": "-90.06711494412757",
    "latitude": "29.97350555688954",
    "geocoded_column": {
      "latitude": "29.97350555688954",
      "longitude": "-90.06711494412757"
    }
  },
  {
    "service_request": "2021-844410",
    "request_type": "Abandoned Vehicles",
    "request_reason": "Abandoned/Junk Vehicles",
    "date_created": "2021-11-28T11:34:22.000",
    "date_modified": "2021-11-28T12:00:51.000",
    "request_status": "Pending",
    "responsible_agency": "Department of Public Works",
    "final_address": "534 Henry Clay Ave, New Orleans, Louisiana, 70118",
    "address_councildis": "A",
    "status": "Pending",
    "rowid": "844410",
    "final_x": "3663447.96685",
    "final_y": "518907.640055",
    "longitude": "-90.12549221544853",
    "latitude": "29.921351461167102",
    "geocoded_column": {
      "latitude": "29.921351461167102",
      "longitude": "-90.12549221544853"
    }
  },
  {
    "service_request": "2021-844409",
    "request_type": "Abandoned Vehicles",
    "request_reason": "Abandoned/Junk Vehicles",
    "date_created": "2021-11-28T11:34:18.000",
    "date_modified": "2021-11-28T11:34:18.000",
    "request_status": "Pending",
    "responsible_agency": "Department of Public Works",
    "final_address": "1720 Lapeyrouse St",
    "address_councildis": "D",
    "status": "Pending",
    "rowid": "844409",
    "final_x": "3681730.15304",
    "final_y": "538072.403657",
    "longitude": "-90.06711494412757",
    "latitude": "29.97350555688954",
    "geocoded_column": {
      "latitude": "29.97350555688954",
      "longitude": "-90.06711494412757"
    }
  },
  {
    "service_request": "2021-844408",
    "request_type": "Trash/Recycling",
    "request_reason": "Request a Large Item Pick Up",
    "date_created": "2021-11-28T11:27:48.000",
    "date_modified": "2021-11-28T12:00:53.000",
    "request_status": "Pending",
    "responsible_agency": "Department of Sanitation",
    "final_address": "2631 Palmyra St, New Orleans, Louisiana, 70119",
    "address_councildis": "B",
    "status": "Assigned to Contractor",
    "contractor": "Richards Disposal",
    "rowid": "844408",
    "final_x": "3675133.24296",
    "final_y": "534321.153093",
    "longitude": "-90.08807814773225",
    "latitude": "29.96338968870044",
    "geocoded_column": {
      "latitude": "29.96338968870044",
      "longitude": "-90.08807814773225"
    }
  },
  {
    "service_request": "2021-844407",
    "request_type": "Trash/Recycling",
    "request_reason": "Repair Trash Cart",
    "date_created": "2021-11-28T10:56:39.000",
    "date_modified": "2021-11-28T10:56:39.000",
    "request_status": "Pending",
    "responsible_agency": "Department of Sanitation",
    "final_address": "918 St Peter St",
    "address_councildis": "C",
    "status": "Assigned to Contractor",
    "contractor": "Empire Services",
    "rowid": "844407",
    "final_x": "3681811.22696",
    "final_y": "532947.0649",
    "longitude": "-90.067037781059",
    "latitude": "29.95941017267505",
    "geocoded_column": {
      "latitude": "29.95941017267505",
      "longitude": "-90.067037781059"
    }
  },
  {
    "service_request": "2021-844406",
    "request_type": "Traffic Signals/Signs/Striping/Streetlights",
    "request_reason": "Traffic Sign Missing/Damaged",
    "date_created": "2021-11-28T10:51:02.000",
    "date_modified": "2021-11-28T10:51:02.000",
    "request_status": "Pending",
    "responsible_agency": "Department of Public Works",
    "final_address": "7000 Ridgefield Dr",
    "address_councildis": "E",
    "status": "Pending",
    "rowid": "844406",
    "final_x": "3719479.99801",
    "final_y": "569354.427686",
    "longitude": "-89.94669897009598",
    "latitude": "30.0583176653899",
    "geocoded_column": {
      "latitude": "30.0583176653899",
      "longitude": "-89.94669897009598"
    }
  },
  {
    "service_request": "2021-844405",
    "request_type": "Abandoned Vehicles",
    "request_reason": "Abandoned/Junk Vehicles",
    "date_created": "2021-11-28T10:49:25.000",
    "date_modified": "2021-11-28T11:01:37.000",
    "request_status": "Pending",
    "responsible_agency": "Department of Public Works",
    "final_address": "6024 Eads St",
    "address_councildis": "D",
    "status": "Pending",
    "rowid": "844405",
    "final_x": "3686714.56041",
    "final_y": "555434.953113",
    "longitude": "-90.05075939711342",
    "latitude": "30.021093918671923",
    "geocoded_column": {
      "latitude": "30.021093918671923",
      "longitude": "-90.05075939711342"
    }
  },
  {
    "service_request": "2021-844404",
    "request_type": "Trash/Recycling",
    "request_reason": "Order Trash Cart",
    "date_created": "2021-11-28T10:44:06.000",
    "date_modified": "2021-11-28T10:44:06.000",
    "request_status": "Pending",
    "responsible_agency": "Department of Sanitation",
    "final_address": "6992 Queensway Dr",
    "address_councildis": "E",
    "status": "Assigned to Contractor",
    "contractor": "Metro Disposal",
    "rowid": "844404",
    "final_x": "3719294.19417",
    "final_y": "569175.553766",
    "longitude": "-89.94729310856985",
    "latitude": "30.057832017700413",
    "geocoded_column": {
      "latitude": "30.057832017700413",
      "longitude": "-89.94729310856985"
    }
  },
  {
    "service_request": "2021-844403",
    "request_type": "Trash/Recycling",
    "request_reason": "Order Trash Cart",
    "date_created": "2021-11-28T10:44:06.000",
    "date_modified": "2021-11-28T10:44:06.000",
    "request_status": "Pending",
    "responsible_agency": "Department of Sanitation",
    "final_address": "6992 Queensway Dr",
    "address_councildis": "E",
    "status": "Assigned to Contractor",
    "contractor": "Metro Disposal",
    "rowid": "844403",
    "final_x": "3719294.19417",
    "final_y": "569175.553766",
    "longitude": "-89.94729310856985",
    "latitude": "30.057832017700413",
    "geocoded_column": {
      "latitude": "30.057832017700413",
      "longitude": "-89.94729310856985"
    }
  },
  {
    "service_request": "2021-844402",
    "request_type": "Abandoned Vehicles",
    "request_reason": "Abandoned/Junk Vehicles",
    "date_created": "2021-11-28T10:26:07.000",
    "date_modified": "2021-11-28T11:01:39.000",
    "request_status": "Pending",
    "responsible_agency": "Department of Public Works",
    "final_address": "5922 Florida Ave",
    "address_councildis": "E",
    "status": "Pending",
    "rowid": "844402",
    "final_x": "3700976.35722",
    "final_y": "539320.973962",
    "longitude": "-90.00628613290266",
    "latitude": "29.976339835367213",
    "geocoded_column": {
      "latitude": "29.976339835367213",
      "longitude": "-90.00628613290266"
    }
  },
  {
    "service_request": "2021-844401",
    "request_type": "Traffic Signals/Signs/Striping/Streetlights",
    "request_reason": "Additional signage",
    "date_created": "2021-11-28T10:10:18.000",
    "date_modified": "2021-11-28T10:10:18.000",
    "request_status": "Pending",
    "responsible_agency": "Department of Public Works",
    "final_address": "528 Governor Nicholls St Apt A",
    "address_councildis": "C",
    "status": "Pending",
    "rowid": "844401",
    "final_x": "3684042.79829",
    "final_y": "533562.384837",
    "longitude": "-90.05996942357035",
    "latitude": "29.961034091659933",
    "geocoded_column": {
      "latitude": "29.961034091659933",
      "longitude": "-90.05996942357035"
    }
  },
  {
    "service_request": "2021-844400",
    "request_type": "Safety & Permits",
    "request_reason": "Licenses & Permits",
    "date_created": "2021-11-28T10:01:57.000",
    "date_modified": "2021-11-28T10:01:57.000",
    "request_status": "Pending",
    "responsible_agency": "Safety and Permits",
    "final_address": "S BROAD ST & PALMYRA ST",
    "address_councildis": "B",
    "status": "Pending",
    "rowid": "844400",
    "final_x": "3674849.4",
    "final_y": "534488.18",
    "longitude": "-90.08896876561211",
    "latitude": "29.963857435270427",
    "geocoded_column": {
      "latitude": "29.963857435270427",
      "longitude": "-90.08896876561211"
    }
  },
  {
    "service_request": "2021-844399",
    "request_type": "Safety & Permits",
    "request_reason": "Licenses & Permits",
    "date_created": "2021-11-28T09:58:24.000",
    "date_modified": "2021-11-28T09:58:24.000",
    "request_status": "Pending",
    "responsible_agency": "Safety and Permits",
    "final_address": "2418 N Villere St",
    "address_councildis": "C",
    "status": "Pending",
    "rowid": "844399",
    "final_x": "3686608.37698",
    "final_y": "537504.212488",
    "longitude": "-90.05172859477729",
    "latitude": "29.971794102343647",
    "geocoded_column": {
      "latitude": "29.971794102343647",
      "longitude": "-90.05172859477729"
    }
  },
  {
    "service_request": "2021-844398",
    "request_type": "Property Maintenance",
    "request_reason": "Property Maintenance",
    "date_created": "2021-11-28T09:55:20.000",
    "date_modified": "2021-11-28T09:55:20.000",
    "request_status": "Pending",
    "responsible_agency": "Department of Code Enforcement",
    "final_address": "5820 Louis Xiv St",
    "address_councildis": "A",
    "status": "Pending",
    "rowid": "844398",
    "final_x": "3667916.88148",
    "final_y": "546260.137296",
    "longitude": "-90.11046433195173",
    "latitude": "29.996431532831036",
    "geocoded_column": {
      "latitude": "29.996431532831036",
      "longitude": "-90.11046433195173"
    }
  },
  {
    "service_request": "2021-844397",
    "request_type": "Abandoned Vehicles",
    "request_reason": "Abandoned/Junk Vehicles",
    "date_created": "2021-11-28T09:55:04.000",
    "date_modified": "2021-11-28T09:56:31.000",
    "request_status": "Pending",
    "responsible_agency": "Department of Public Works",
    "final_address": "5200 BLK Glouster Rd",
    "address_councildis": "E",
    "status": "Pending",
    "rowid": "844397",
    "final_x": "3707666.51967",
    "final_y": "557556.794451",
    "longitude": "-89.98447880337142",
    "latitude": "30.026266665250244",
    "geocoded_column": {
      "latitude": "30.026266665250244",
      "longitude": "-89.98447880337142"
    }
  },
  {
    "service_request": "2021-844395",
    "request_type": "Property Maintenance",
    "request_reason": "Property Maintenance",
    "date_created": "2021-11-28T09:50:41.000",
    "date_modified": "2021-11-28T09:50:41.000",
    "request_status": "Pending",
    "responsible_agency": "Department of Code Enforcement",
    "final_address": "2418 N Villere St",
    "address_councildis": "C",
    "status": "Pending",
    "rowid": "844395",
    "final_x": "3686608.37698",
    "final_y": "537504.212488",
    "longitude": "-90.05172859477729",
    "latitude": "29.971794102343647",
    "geocoded_column": {
      "latitude": "29.971794102343647",
      "longitude": "-90.05172859477729"
    }
  },
  {
    "service_request": "2021-844394",
    "request_type": "Safety & Permits",
    "request_reason": "Licenses & Permits",
    "date_created": "2021-11-28T09:43:48.000",
    "date_modified": "2021-11-28T09:43:48.000",
    "request_status": "Pending",
    "responsible_agency": "Safety and Permits",
    "final_address": "2418 N Villere St",
    "address_councildis": "C",
    "status": "Pending",
    "rowid": "844394",
    "final_x": "3686608.37698",
    "final_y": "537504.212488",
    "longitude": "-90.05172859477729",
    "latitude": "29.971794102343647",
    "geocoded_column": {
      "latitude": "29.971794102343647",
      "longitude": "-90.05172859477729"
    }
  },
  {
    "service_request": "2021-844393",
    "request_type": "Abandoned Vehicles",
    "request_reason": "Abandoned/Junk Vehicles",
    "date_created": "2021-11-28T09:39:35.000",
    "date_modified": "2021-11-28T10:01:06.000",
    "request_status": "Pending",
    "responsible_agency": "Department of Public Works",
    "final_address": "3120 Frenchmen St",
    "address_councildis": "D",
    "status": "Pending",
    "rowid": "844393",
    "final_x": "3683914.76028",
    "final_y": "544195.771022",
    "longitude": "-90.0600005998907",
    "latitude": "29.99027610403387",
    "geocoded_column": {
      "latitude": "29.99027610403387",
      "longitude": "-90.0600005998907"
    }
  },
  {
    "service_request": "2021-844392",
    "request_type": "Trash/Recycling",
    "request_reason": "Missed Trash Pick-Up",
    "date_created": "2021-11-28T09:35:41.000",
    "date_modified": "2021-11-28T10:01:10.000",
    "request_status": "Pending",
    "responsible_agency": "Department of Sanitation",
    "final_address": "10219 Dreux Ave",
    "address_councildis": "E",
    "status": "Assigned to Contractor",
    "contractor": "Metro Disposal",
    "rowid": "844392",
    "final_x": "3713328.30552",
    "final_y": "556019.301401",
    "longitude": "-89.96664637433247",
    "latitude": "30.0218546913256",
    "geocoded_column": {
      "latitude": "30.0218546913256",
      "longitude": "-89.96664637433247"
    }
  },
  {
    "service_request": "2021-844391",
    "request_type": "Traffic Signals/Signs/Striping/Streetlights",
    "request_reason": "Street Light Outage/Malfunction",
    "date_created": "2021-11-28T08:49:34.000",
    "date_modified": "2021-11-28T08:49:35.000",
    "request_status": "Pending",
    "responsible_agency": "Department of Public Works",
    "final_address": "931 Louisa St",
    "address_councildis": "C",
    "status": "Pending",
    "contractor": "Royal Engineering",
    "rowid": "844391",
    "final_x": "3689452.84233",
    "final_y": "535312.252358",
    "longitude": "-90.04282332408857",
    "latitude": "29.965679194659177",
    "geocoded_column": {
      "latitude": "29.965679194659177",
      "longitude": "-90.04282332408857"
    }
  },
  {
    "service_request": "2021-844390",
    "request_type": "Traffic Signals/Signs/Striping/Streetlights",
    "request_reason": "Street Light Outage/Malfunction",
    "date_created": "2021-11-28T08:48:30.000",
    "date_modified": "2021-11-28T08:48:30.000",
    "request_status": "Pending",
    "responsible_agency": "Department of Public Works",
    "final_address": "931 Louisa St",
    "address_councildis": "C",
    "status": "Pending",
    "contractor": "Royal Engineering",
    "rowid": "844390",
    "final_x": "3689452.84233",
    "final_y": "535312.252358",
    "longitude": "-90.04282332408857",
    "latitude": "29.965679194659177",
    "geocoded_column": {
      "latitude": "29.965679194659177",
      "longitude": "-90.04282332408857"
    }
  },
  {
    "service_request": "2021-844389",
    "request_type": "Traffic Signals/Signs/Striping/Streetlights",
    "request_reason": "Street Light Outage/Malfunction",
    "date_created": "2021-11-28T08:47:01.000",
    "date_modified": "2021-11-28T08:47:01.000",
    "request_status": "Pending",
    "responsible_agency": "Department of Public Works",
    "final_address": "3301 Royal St",
    "address_councildis": "C",
    "status": "Pending",
    "contractor": "Royal Engineering",
    "rowid": "844389",
    "final_x": "3689507.60585",
    "final_y": "534299.647045",
    "longitude": "-90.04268640237082",
    "latitude": "29.962893187662416",
    "geocoded_column": {
      "latitude": "29.962893187662416",
      "longitude": "-90.04268640237082"
    }
  },
  {
    "service_request": "2021-844388",
    "request_type": "Traffic Signals/Signs/Striping/Streetlights",
    "request_reason": "Street Light Outage/Malfunction",
    "date_created": "2021-11-28T08:45:32.000",
    "date_modified": "2021-11-28T08:45:33.000",
    "request_status": "Pending",
    "responsible_agency": "Department of Public Works",
    "final_address": "3301 Royal St",
    "address_councildis": "C",
    "status": "Pending",
    "contractor": "Royal Engineering",
    "rowid": "844388",
    "final_x": "3689507.60585",
    "final_y": "534299.647045",
    "longitude": "-90.04268640237082",
    "latitude": "29.962893187662416",
    "geocoded_column": {
      "latitude": "29.962893187662416",
      "longitude": "-90.04268640237082"
    }
  },
  {
    "service_request": "2021-844387",
    "request_type": "Traffic Signals/Signs/Striping/Streetlights",
    "request_reason": "Street Light Outage/Malfunction",
    "date_created": "2021-11-28T08:42:48.000",
    "date_modified": "2021-11-28T08:42:49.000",
    "request_status": "Pending",
    "responsible_agency": "Department of Public Works",
    "final_address": "3301 Royal St",
    "address_councildis": "C",
    "status": "Pending",
    "contractor": "Royal Engineering",
    "rowid": "844387",
    "final_x": "3689507.60585",
    "final_y": "534299.647045",
    "longitude": "-90.04268640237082",
    "latitude": "29.962893187662416",
    "geocoded_column": {
      "latitude": "29.962893187662416",
      "longitude": "-90.04268640237082"
    }
  },
  {
    "service_request": "2021-844385",
    "request_type": "Trash/Recycling",
    "request_reason": "Request a Large Item Pick Up",
    "date_created": "2021-11-28T08:35:50.000",
    "date_modified": "2021-11-28T08:35:51.000",
    "request_status": "Pending",
    "responsible_agency": "Department of Sanitation",
    "final_address": "1328 Octavia St",
    "address_councildis": "A",
    "status": "Assigned to Contractor",
    "contractor": "Richards Disposal",
    "rowid": "844385",
    "final_x": "3666833.90234",
    "final_y": "520885.103161",
    "longitude": "-90.11473788468162",
    "latitude": "29.926690286777678",
    "geocoded_column": {
      "latitude": "29.926690286777678",
      "longitude": "-90.11473788468162"
    }
  },
  {
    "service_request": "2021-844384",
    "request_type": "Trash/Recycling",
    "request_reason": "Request a Large Item Pick Up",
    "date_created": "2021-11-28T08:25:26.000",
    "date_modified": "2021-11-28T08:25:27.000",
    "request_status": "Pending",
    "responsible_agency": "Department of Sanitation",
    "final_address": "6811 Louis Xiv St",
    "address_councildis": "A",
    "status": "Assigned to Contractor",
    "contractor": "Metro Disposal",
    "rowid": "844384",
    "final_x": "3668677.22068",
    "final_y": "552812.38479",
    "longitude": "-90.10784109222101",
    "latitude": "30.014425594623713",
    "geocoded_column": {
      "latitude": "30.014425594623713",
      "longitude": "-90.10784109222101"
    }
  },
  {
    "service_request": "2021-844383",
    "request_type": "Trash/Recycling",
    "request_reason": "Missed Trash Pick-Up",
    "date_created": "2021-11-28T08:23:33.000",
    "date_modified": "2021-11-28T08:23:34.000",
    "request_status": "Pending",
    "responsible_agency": "Department of Sanitation",
    "final_address": "6811 Louis Xiv St",
    "address_councildis": "A",
    "status": "Assigned to Contractor",
    "contractor": "Metro Disposal",
    "rowid": "844383",
    "final_x": "3668677.22068",
    "final_y": "552812.38479",
    "longitude": "-90.10784109222101",
    "latitude": "30.014425594623713",
    "geocoded_column": {
      "latitude": "30.014425594623713",
      "longitude": "-90.10784109222101"
    }
  },
  {
    "service_request": "2021-844382",
    "request_type": "Trash/Recycling",
    "request_reason": "Request a Large Item Pick Up",
    "date_created": "2021-11-28T08:16:47.000",
    "date_modified": "2021-11-28T09:00:53.000",
    "request_status": "Pending",
    "responsible_agency": "Department of Sanitation",
    "final_address": "2112 Lowerline St",
    "address_councildis": "A",
    "status": "Assigned to Contractor",
    "contractor": "Richards Disposal",
    "rowid": "844382",
    "final_x": "3665477.70938",
    "final_y": "529657.266689",
    "longitude": "-90.11872550262122",
    "latitude": "29.950850521218268",
    "geocoded_column": {
      "latitude": "29.950850521218268",
      "longitude": "-90.11872550262122"
    }
  },
  {
    "service_request": "2021-844381",
    "request_type": "Trash/Recycling",
    "request_reason": "Order Trash Cart",
    "date_created": "2021-11-28T07:51:33.000",
    "date_modified": "2021-11-28T07:51:34.000",
    "request_status": "Pending",
    "responsible_agency": "Department of Sanitation",
    "final_address": "1423 Terpsichore St",
    "address_councildis": "B",
    "status": "Assigned to Contractor",
    "contractor": "Richards Disposal",
    "rowid": "844381",
    "final_x": "3679689.96891",
    "final_y": "524941.491965",
    "longitude": "-90.07401404500644",
    "latitude": "29.937461816802337",
    "geocoded_column": {
      "latitude": "29.937461816802337",
      "longitude": "-90.07401404500644"
    }
  },
  {
    "service_request": "2021-844380",
    "request_type": "Trash/Recycling",
    "request_reason": "Missed Trash Pick-Up",
    "date_created": "2021-11-28T07:50:00.000",
    "date_modified": "2021-11-28T07:50:01.000",
    "request_status": "Pending",
    "responsible_agency": "Department of Sanitation",
    "final_address": "8619 Plum St",
    "address_councildis": "A",
    "status": "Assigned to Contractor",
    "contractor": "Richards Disposal",
    "rowid": "844380",
    "final_x": "3660795.64486",
    "final_y": "529966.461825",
    "longitude": "-90.13349894583168",
    "latitude": "29.951836345840594",
    "geocoded_column": {
      "latitude": "29.951836345840594",
      "longitude": "-90.13349894583168"
    }
  },
  {
    "service_request": "2021-844379",
    "request_type": "Trash/Recycling",
    "request_reason": "Request a Large Item Pick Up",
    "date_created": "2021-11-27T23:02:06.000",
    "date_modified": "2021-11-28T00:01:03.000",
    "request_status": "Pending",
    "responsible_agency": "Department of Sanitation",
    "final_address": "3824 Jena St",
    "address_councildis": "B",
    "status": "Assigned to Contractor",
    "contractor": "Richards Disposal",
    "rowid": "844379",
    "final_x": "3669628.05332",
    "final_y": "528635.207488",
    "longitude": "-90.10565535973669",
    "latitude": "29.94791857039029",
    "geocoded_column": {
      "latitude": "29.94791857039029",
      "longitude": "-90.10565535973669"
    }
  },
  {
    "service_request": "2021-844377",
    "request_type": "Trash/Recycling",
    "request_reason": "Missed Trash Pick-Up",
    "date_created": "2021-11-27T22:14:02.000",
    "date_modified": "2021-11-27T22:14:03.000",
    "request_status": "Pending",
    "responsible_agency": "Department of Sanitation",
    "final_address": "6065 General Meyer Ave",
    "address_councildis": "C",
    "status": "Assigned to Contractor",
    "contractor": "Richards Disposal",
    "rowid": "844377",
    "final_x": "3706429.86993",
    "final_y": "520953.953593",
    "longitude": "-89.98974264689541",
    "latitude": "29.925662328529434",
    "geocoded_column": {
      "latitude": "29.925662328529434",
      "longitude": "-89.98974264689541"
    }
  },
  {
    "service_request": "2021-844375",
    "request_type": "Trash/Recycling",
    "request_reason": "Replace Trash Cart",
    "date_created": "2021-11-27T20:41:57.000",
    "date_modified": "2021-11-27T21:01:33.000",
    "request_status": "Pending",
    "responsible_agency": "Department of Sanitation",
    "final_address": "2917 Hollygrove St",
    "address_councildis": "A",
    "status": "Assigned to Contractor",
    "contractor": "Richards Disposal",
    "rowid": "844375",
    "final_x": "3663861.59386",
    "final_y": "535132.014982",
    "longitude": "-90.12364590189583",
    "latitude": "29.965951301256847",
    "geocoded_column": {
      "latitude": "29.965951301256847",
      "longitude": "-90.12364590189583"
    }
  },
  {
    "service_request": "2021-844373",
    "request_type": "Health Related Questions",
    "request_reason": "Noise Ordinance Complaint",
    "date_created": "2021-11-27T19:50:07.000",
    "date_modified": "2021-11-27T19:50:07.000",
    "request_status": "Pending",
    "responsible_agency": "Health Department",
    "final_address": "2108 Third St",
    "address_councildis": "B",
    "status": "Pending",
    "rowid": "844373",
    "final_x": "3675385.15675",
    "final_y": "524412.670844",
    "longitude": "-90.08762280179653",
    "latitude": "29.93613712044748",
    "geocoded_column": {
      "latitude": "29.93613712044748",
      "longitude": "-90.08762280179653"
    }
  },
  {
    "service_request": "2021-844372",
    "request_type": "Property Maintenance",
    "request_reason": "Property Maintenance",
    "date_created": "2021-11-27T19:47:31.000",
    "date_modified": "2021-11-27T19:47:31.000",
    "request_status": "Pending",
    "responsible_agency": "Department of Code Enforcement",
    "final_address": "2108 Third St Apt 1",
    "address_councildis": "B",
    "status": "Pending",
    "rowid": "844372",
    "final_x": "3675365.83547",
    "final_y": "524415.600252",
    "longitude": "-90.08768369914122",
    "latitude": "29.936145752924865",
    "geocoded_column": {
      "latitude": "29.936145752924865",
      "longitude": "-90.08768369914122"
    }
  },
  {
    "service_request": "2021-844371",
    "request_type": "Property Maintenance",
    "request_reason": "Property Maintenance",
    "date_created": "2021-11-27T19:47:09.000",
    "date_modified": "2021-11-27T19:47:09.000",
    "request_status": "Pending",
    "responsible_agency": "Department of Code Enforcement",
    "final_address": "2108 Third St",
    "address_councildis": "B",
    "status": "Pending",
    "rowid": "844371",
    "final_x": "3675385.15675",
    "final_y": "524412.670844",
    "longitude": "-90.08762280179653",
    "latitude": "29.93613712044748",
    "geocoded_column": {
      "latitude": "29.93613712044748",
      "longitude": "-90.08762280179653"
    }
  },
  {
    "service_request": "2021-844370",
    "request_type": "Property Maintenance",
    "request_reason": "Property Maintenance",
    "date_created": "2021-11-27T19:47:06.000",
    "date_modified": "2021-11-27T19:47:06.000",
    "request_status": "Pending",
    "responsible_agency": "Department of Code Enforcement",
    "final_address": "2108 Third St",
    "address_councildis": "B",
    "status": "Pending",
    "rowid": "844370",
    "final_x": "3675385.15675",
    "final_y": "524412.670844",
    "longitude": "-90.08762280179653",
    "latitude": "29.93613712044748",
    "geocoded_column": {
      "latitude": "29.93613712044748",
      "longitude": "-90.08762280179653"
    }
  },
  {
    "service_request": "2021-844369",
    "request_type": "Property Maintenance",
    "request_reason": "Property Maintenance",
    "date_created": "2021-11-27T19:46:49.000",
    "date_modified": "2021-11-27T19:46:49.000",
    "request_status": "Pending",
    "responsible_agency": "Department of Code Enforcement",
    "final_address": "2108 Third St",
    "address_councildis": "B",
    "status": "Pending",
    "rowid": "844369",
    "final_x": "3675385.15675",
    "final_y": "524412.670844",
    "longitude": "-90.08762280179653",
    "latitude": "29.93613712044748",
    "geocoded_column": {
      "latitude": "29.93613712044748",
      "longitude": "-90.08762280179653"
    }
  },
  {
    "service_request": "2021-844368",
    "request_type": "Property Maintenance",
    "request_reason": "Property Maintenance",
    "date_created": "2021-11-27T19:46:46.000",
    "date_modified": "2021-11-27T19:46:46.000",
    "request_status": "Pending",
    "responsible_agency": "Department of Code Enforcement",
    "final_address": "2108 Third St",
    "address_councildis": "B",
    "status": "Pending",
    "rowid": "844368",
    "final_x": "3675385.15675",
    "final_y": "524412.670844",
    "longitude": "-90.08762280179653",
    "latitude": "29.93613712044748",
    "geocoded_column": {
      "latitude": "29.93613712044748",
      "longitude": "-90.08762280179653"
    }
  },
  {
    "service_request": "2021-844367",
    "request_type": "Property Maintenance",
    "request_reason": "Property Maintenance",
    "date_created": "2021-11-27T19:46:14.000",
    "date_modified": "2021-11-27T19:46:14.000",
    "request_status": "Pending",
    "responsible_agency": "Department of Code Enforcement",
    "final_address": "2108 Third St",
    "address_councildis": "B",
    "status": "Pending",
    "rowid": "844367",
    "final_x": "3675385.15675",
    "final_y": "524412.670844",
    "longitude": "-90.08762280179653",
    "latitude": "29.93613712044748",
    "geocoded_column": {
      "latitude": "29.93613712044748",
      "longitude": "-90.08762280179653"
    }
  },
  {
    "service_request": "2021-844366",
    "request_type": "Property Maintenance",
    "request_reason": "Property Maintenance",
    "date_created": "2021-11-27T19:45:51.000",
    "date_modified": "2021-11-27T19:45:51.000",
    "request_status": "Pending",
    "responsible_agency": "Department of Code Enforcement",
    "final_address": "2108 Third St",
    "address_councildis": "B",
    "status": "Pending",
    "rowid": "844366",
    "final_x": "3675385.15675",
    "final_y": "524412.670844",
    "longitude": "-90.08762280179653",
    "latitude": "29.93613712044748",
    "geocoded_column": {
      "latitude": "29.93613712044748",
      "longitude": "-90.08762280179653"
    }
  },
  {
    "service_request": "2021-844365",
    "request_type": "Property Maintenance",
    "request_reason": "Property Maintenance",
    "date_created": "2021-11-27T19:45:46.000",
    "date_modified": "2021-11-27T19:45:46.000",
    "request_status": "Pending",
    "responsible_agency": "Department of Code Enforcement",
    "final_address": "2108 Third St",
    "address_councildis": "B",
    "status": "Pending",
    "rowid": "844365",
    "final_x": "3675385.15675",
    "final_y": "524412.670844",
    "longitude": "-90.08762280179653",
    "latitude": "29.93613712044748",
    "geocoded_column": {
      "latitude": "29.93613712044748",
      "longitude": "-90.08762280179653"
    }
  },
  {
    "service_request": "2021-844364",
    "request_type": "Property Maintenance",
    "request_reason": "Property Maintenance",
    "date_created": "2021-11-27T19:45:18.000",
    "date_modified": "2021-11-27T19:45:18.000",
    "request_status": "Pending",
    "responsible_agency": "Department of Code Enforcement",
    "final_address": "2108 Third St",
    "address_councildis": "B",
    "status": "Pending",
    "rowid": "844364",
    "final_x": "3675385.15675",
    "final_y": "524412.670844",
    "longitude": "-90.08762280179653",
    "latitude": "29.93613712044748",
    "geocoded_column": {
      "latitude": "29.93613712044748",
      "longitude": "-90.08762280179653"
    }
  },
  {
    "service_request": "2021-844363",
    "request_type": "Property Maintenance",
    "request_reason": "Property Maintenance",
    "date_created": "2021-11-27T19:44:47.000",
    "date_modified": "2021-11-27T19:44:47.000",
    "request_status": "Pending",
    "responsible_agency": "Department of Code Enforcement",
    "final_address": "2108 Third St",
    "address_councildis": "B",
    "status": "Pending",
    "rowid": "844363",
    "final_x": "3675385.15675",
    "final_y": "524412.670844",
    "longitude": "-90.08762280179653",
    "latitude": "29.93613712044748",
    "geocoded_column": {
      "latitude": "29.93613712044748",
      "longitude": "-90.08762280179653"
    }
  },
  {
    "service_request": "2021-844362",
    "request_type": "Trash/Recycling",
    "request_reason": "Request a Large Item Pick Up",
    "date_created": "2021-11-27T18:48:00.000",
    "date_modified": "2021-11-27T18:48:00.000",
    "request_status": "Pending",
    "responsible_agency": "Department of Sanitation",
    "final_address": "3208 Luna St",
    "address_councildis": "C",
    "status": "Assigned to Contractor",
    "contractor": "Richards Disposal",
    "rowid": "844362",
    "final_x": "3696221.16451",
    "final_y": "528019.749439",
    "longitude": "-90.02171294351731",
    "latitude": "29.945416037548863",
    "geocoded_column": {
      "latitude": "29.945416037548863",
      "longitude": "-90.02171294351731"
    }
  },
  {
    "service_request": "2021-844361",
    "request_type": "Abandoned Vehicles",
    "request_reason": "Vehicle Blocking Your Driveway",
    "date_created": "2021-11-27T18:38:44.000",
    "date_modified": "2021-11-27T19:01:26.000",
    "request_status": "Pending",
    "responsible_agency": "Department of Public Works",
    "final_address": "3826 Palmyra St",
    "address_councildis": "A",
    "status": "Pending",
    "rowid": "844361",
    "final_x": "3671378.24955",
    "final_y": "537074.244552",
    "longitude": "-90.09984244039727",
    "latitude": "29.971071440550872",
    "geocoded_column": {
      "latitude": "29.971071440550872",
      "longitude": "-90.09984244039727"
    }
  },
  {
    "service_request": "2021-844360",
    "request_type": "Trash/Recycling",
    "request_reason": "Missed Trash Pick-Up",
    "date_created": "2021-11-27T17:21:53.000",
    "date_modified": "2021-11-27T17:21:53.000",
    "request_status": "Pending",
    "responsible_agency": "Department of Sanitation",
    "final_address": "5929 Camp St",
    "address_councildis": "A",
    "status": "Assigned to Contractor",
    "contractor": "Richards Disposal",
    "rowid": "844360",
    "final_x": "3665096.5856",
    "final_y": "519547.234807",
    "longitude": "-90.12026685608063",
    "latitude": "29.923062258781435",
    "geocoded_column": {
      "latitude": "29.923062258781435",
      "longitude": "-90.12026685608063"
    }
  },
  {
    "service_request": "2021-844359",
    "request_type": "Trash/Recycling",
    "request_reason": "Missed Trash Pick-Up",
    "date_created": "2021-11-27T16:36:23.000",
    "date_modified": "2021-11-27T16:36:24.000",
    "request_status": "Pending",
    "responsible_agency": "Department of Sanitation",
    "final_address": "5771 Eastover Dr",
    "address_councildis": "E",
    "status": "Assigned to Contractor",
    "contractor": "Metro Disposal",
    "rowid": "844359",
    "final_x": "3719241.40601",
    "final_y": "563600.057633",
    "longitude": "-89.94767308271507",
    "latitude": "30.042503457605093",
    "geocoded_column": {
      "latitude": "30.042503457605093",
      "longitude": "-89.94767308271507"
    }
  },
  {
    "service_request": "2021-844358",
    "request_type": "Abandoned Vehicles",
    "request_reason": "Abandoned/Junk Vehicles",
    "date_created": "2021-11-27T16:26:03.000",
    "date_modified": "2021-11-27T17:01:05.000",
    "request_status": "Pending",
    "responsible_agency": "Department of Public Works",
    "final_address": "2921 St Peter St",
    "address_councildis": "A",
    "status": "Pending",
    "rowid": "844358",
    "final_x": "3675802.86709",
    "final_y": "537563.004616",
    "longitude": "-90.08585209130824",
    "latitude": "29.972283654082446",
    "geocoded_column": {
      "latitude": "29.972283654082446",
      "longitude": "-90.08585209130824"
    }
  },
  {
    "service_request": "2021-844357",
    "request_type": "Trash/Recycling",
    "request_reason": "Request a Large Item Pick Up",
    "date_created": "2021-11-27T16:22:41.000",
    "date_modified": "2021-11-27T16:22:42.000",
    "request_status": "Pending",
    "responsible_agency": "Department of Sanitation",
    "final_address": "3469 Vespasian St",
    "address_councildis": "C",
    "status": "Assigned to Contractor",
    "contractor": "Richards Disposal",
    "rowid": "844357",
    "final_x": "3696053.47414",
    "final_y": "522570.257786",
    "longitude": "-90.02243923494422",
    "latitude": "29.930437091892376",
    "geocoded_column": {
      "latitude": "29.930437091892376",
      "longitude": "-90.02243923494422"
    }
  },
  {
    "service_request": "2021-844356",
    "request_type": "Traffic Signals/Signs/Striping/Streetlights",
    "request_reason": "Traffic Signal Malfunctioning/Damaged",
    "date_created": "2021-11-27T16:19:43.000",
    "date_modified": "2021-11-27T16:19:43.000",
    "request_status": "Pending",
    "responsible_agency": "Department of Public Works",
    "final_address": "GENERAL MEYER AVE & SHIRLEY DR",
    "address_councildis": "C",
    "status": "Pending",
    "rowid": "844356",
    "final_x": "3693172.5",
    "final_y": "527521.78",
    "longitude": "-90.03135637952057",
    "latitude": "29.944142397456922",
    "geocoded_column": {
      "latitude": "29.944142397456922",
      "longitude": "-90.03135637952057"
    }
  },
  {
    "service_request": "2021-844355",
    "request_type": "COVID-19",
    "request_reason": "COVID-19 Business Non-Compliance",
    "date_created": "2021-11-27T16:07:21.000",
    "date_modified": "2021-11-27T16:07:22.000",
    "request_status": "Pending",
    "responsible_agency": "Safety and Permits",
    "final_address": "7612 Oak St",
    "address_councildis": "A",
    "status": "Pending",
    "rowid": "844355",
    "final_x": "3663201.63373",
    "final_y": "527210.916991",
    "longitude": "-90.12599361878064",
    "latitude": "29.944189989355966",
    "geocoded_column": {
      "latitude": "29.944189989355966",
      "longitude": "-90.12599361878064"
    }
  },
  {
    "service_request": "2021-844354",
    "request_type": "COVID-19",
    "request_reason": "COVID-19 Business Non-Compliance",
    "date_created": "2021-11-27T16:06:00.000",
    "date_modified": "2021-11-27T16:06:01.000",
    "request_status": "Pending",
    "responsible_agency": "Safety and Permits",
    "final_address": "941 Bourbon St",
    "address_councildis": "C",
    "status": "Pending",
    "rowid": "844354",
    "final_x": "3682900.95292",
    "final_y": "533555.780869",
    "longitude": "-90.06357538722466",
    "latitude": "29.96105077470387",
    "geocoded_column": {
      "latitude": "29.96105077470387",
      "longitude": "-90.06357538722466"
    }
  },
  {
    "service_request": "2021-844353",
    "request_type": "COVID-19",
    "request_reason": "COVID-19 Business Non-Compliance",
    "date_created": "2021-11-27T16:04:42.000",
    "date_modified": "2021-11-27T16:04:43.000",
    "request_status": "Pending",
    "responsible_agency": "Safety and Permits",
    "final_address": "116 Roosevelt Way",
    "address_councildis": "B",
    "status": "Pending",
    "rowid": "844353",
    "final_x": "3680233.02479",
    "final_y": "531169.328514",
    "longitude": "-90.07208315999544",
    "latitude": "29.95456986227239",
    "geocoded_column": {
      "latitude": "29.95456986227239",
      "longitude": "-90.07208315999544"
    }
  },
  {
    "service_request": "2021-844352",
    "request_type": "COVID-19",
    "request_reason": "COVID-19 Business Non-Compliance",
    "date_created": "2021-11-27T16:03:19.000",
    "date_modified": "2021-11-27T16:03:20.000",
    "request_status": "Pending",
    "responsible_agency": "Safety and Permits",
    "final_address": "718 St Peter St",
    "address_councildis": "C",
    "status": "Pending",
    "rowid": "844352",
    "final_x": "3682364.44316",
    "final_y": "532519.320068",
    "longitude": "-90.06530580417049",
    "latitude": "29.958217198020957",
    "geocoded_column": {
      "latitude": "29.958217198020957",
      "longitude": "-90.06530580417049"
    }
  },
  {
    "service_request": "2021-844351",
    "request_type": "Abandoned Vehicles",
    "request_reason": "Abandoned/Junk Vehicles",
    "date_created": "2021-11-27T16:02:27.000",
    "date_modified": "2021-11-27T16:02:27.000",
    "request_status": "Pending",
    "responsible_agency": "Department of Public Works",
    "final_address": "633 Mandeville St",
    "address_councildis": "C",
    "status": "Pending",
    "rowid": "844351",
    "final_x": "3685928.09321",
    "final_y": "534855.63591",
    "longitude": "-90.05397042567085",
    "latitude": "29.964532341982757",
    "geocoded_column": {
      "latitude": "29.964532341982757",
      "longitude": "-90.05397042567085"
    }
  },
  {
    "service_request": "2021-844350",
    "request_type": "Trash/Recycling",
    "request_reason": "Request a Large Item Pick Up",
    "date_created": "2021-11-27T15:39:27.000",
    "date_modified": "2021-11-27T16:01:22.000",
    "request_status": "Pending",
    "responsible_agency": "Department of Sanitation",
    "final_address": "907 Cherokee St, New Orleans, Louisiana, 70118",
    "address_councildis": "A",
    "status": "Assigned to Contractor",
    "contractor": "Richards Disposal",
    "rowid": "844350",
    "final_x": "3662914.65594",
    "final_y": "526201.816702",
    "longitude": "-90.1269332370911",
    "latitude": "29.941423596913193",
    "geocoded_column": {
      "latitude": "29.941423596913193",
      "longitude": "-90.1269332370911"
    }
  },
  {
    "service_request": "2021-844349",
    "request_type": "Trash/Recycling",
    "request_reason": "Missed Trash Pick-Up",
    "date_created": "2021-11-27T15:22:10.000",
    "date_modified": "2021-11-27T15:22:11.000",
    "request_status": "Pending",
    "responsible_agency": "Department of Sanitation",
    "final_address": "5900 Alfred St",
    "address_councildis": "D",
    "status": "Assigned to Contractor",
    "contractor": "Metro Disposal",
    "rowid": "844349",
    "final_x": "3677094.92488",
    "final_y": "553967.891032",
    "longitude": "-90.08120539661627",
    "latitude": "30.017352588562474",
    "geocoded_column": {
      "latitude": "30.017352588562474",
      "longitude": "-90.08120539661627"
    }
  },
  {
    "service_request": "2021-844348",
    "request_type": "Parks & Parkways",
    "request_reason": "Request Tree Service (Right of Way/Public Property)",
    "date_created": "2021-11-27T15:20:01.000",
    "date_modified": "2021-11-27T15:20:01.000",
    "request_status": "Pending",
    "responsible_agency": "Department of Parks & Parkway",
    "final_address": "5910 Memphis St",
    "address_councildis": "A",
    "status": "Pending",
    "rowid": "844348",
    "final_x": "3669047.05178",
    "final_y": "546683.738961",
    "longitude": "-90.10687986308383",
    "latitude": "29.997563077898906",
    "geocoded_column": {
      "latitude": "29.997563077898906",
      "longitude": "-90.10687986308383"
    }
  },
  {
    "service_request": "2021-844347",
    "request_type": "Property Maintenance",
    "request_reason": "Property Maintenance",
    "date_created": "2021-11-27T15:13:18.000",
    "date_modified": "2021-11-27T15:13:18.000",
    "request_status": "Pending",
    "responsible_agency": "Department of Code Enforcement",
    "final_address": "2713 N Roman St",
    "address_councildis": "D",
    "status": "Pending",
    "rowid": "844347",
    "final_x": "3688212.75292",
    "final_y": "539015.543178",
    "longitude": "-90.04660814107022",
    "latitude": "29.975900290640247",
    "geocoded_column": {
      "latitude": "29.975900290640247",
      "longitude": "-90.04660814107022"
    }
  },
  {
    "service_request": "2021-844346",
    "request_type": "Trash/Recycling",
    "request_reason": "Request a Large Item Pick Up",
    "date_created": "2021-11-27T15:09:55.000",
    "date_modified": "2021-11-27T15:09:56.000",
    "request_status": "Pending",
    "responsible_agency": "Department of Sanitation",
    "final_address": "8326 Chef Menteur Hwy",
    "address_councildis": "E",
    "status": "Assigned to Contractor",
    "contractor": "Metro Disposal",
    "rowid": "844346",
    "final_x": "3706174.12689",
    "final_y": "553005.617687",
    "longitude": "-89.9893632249501",
    "latitude": "30.013800911153808",
    "geocoded_column": {
      "latitude": "30.013800911153808",
      "longitude": "-89.9893632249501"
    }
  },
  {
    "service_request": "2021-844345",
    "request_type": "Property Maintenance",
    "request_reason": "Property Maintenance",
    "date_created": "2021-11-27T14:45:00.000",
    "date_modified": "2021-11-27T14:47:57.000",
    "request_status": "Pending",
    "responsible_agency": "Department of Code Enforcement",
    "final_address": "4514 Eve St",
    "address_councildis": "B",
    "status": "Pending",
    "rowid": "844345",
    "final_x": "3669689.27674",
    "final_y": "531103.936002",
    "longitude": "-90.10537851867461",
    "latitude": "29.954704960861225",
    "geocoded_column": {
      "latitude": "29.954704960861225",
      "longitude": "-90.10537851867461"
    }
  },
  {
    "service_request": "2021-844344",
    "request_type": "Trash/Recycling",
    "request_reason": "Missed Trash Pick-Up",
    "date_created": "2021-11-27T14:29:32.000",
    "date_modified": "2021-11-27T14:29:33.000",
    "request_status": "Pending",
    "responsible_agency": "Department of Sanitation",
    "final_address": "3001 Pine St",
    "address_councildis": "B",
    "status": "Assigned to Contractor",
    "contractor": "Richards Disposal",
    "rowid": "844344",
    "final_x": "3667542.35994",
    "final_y": "532059.709379",
    "longitude": "-90.11212551393109",
    "latitude": "29.957396113212763",
    "geocoded_column": {
      "latitude": "29.957396113212763",
      "longitude": "-90.11212551393109"
    }
  },
  {
    "service_request": "2021-844343",
    "request_type": "Trash/Recycling",
    "request_reason": "Order Recycling Cart",
    "date_created": "2021-11-27T13:56:55.000",
    "date_modified": "2021-11-27T13:56:55.000",
    "request_status": "Pending",
    "responsible_agency": "Department of Sanitation",
    "final_address": "1620 Arts St",
    "address_councildis": "D",
    "status": "Pending",
    "rowid": "844343",
    "final_x": "3687008.96111",
    "final_y": "538504.117001",
    "longitude": "-90.05042813483196",
    "latitude": "29.974531163335868",
    "geocoded_column": {
      "latitude": "29.974531163335868",
      "longitude": "-90.05042813483196"
    }
  },
  {
    "service_request": "2021-844342",
    "request_type": "Trash/Recycling",
    "request_reason": "Missed Trash Pick-Up",
    "date_created": "2021-11-27T13:54:48.000",
    "date_modified": "2021-11-27T13:54:48.000",
    "request_status": "Pending",
    "responsible_agency": "Department of Sanitation",
    "final_address": "810 St Peter St",
    "address_councildis": "C",
    "status": "Assigned to Contractor",
    "contractor": "Empire Services",
    "rowid": "844342",
    "final_x": "3682152.30824",
    "final_y": "532701.074692",
    "longitude": "-90.065969319525",
    "latitude": "29.958723414588874",
    "geocoded_column": {
      "latitude": "29.958723414588874",
      "longitude": "-90.065969319525"
    }
  },
  {
    "service_request": "2021-844340",
    "request_type": "Safety & Permits",
    "request_reason": "Licenses & Permits",
    "date_created": "2021-11-27T13:35:09.000",
    "date_modified": "2021-11-27T13:35:09.000",
    "request_status": "Pending",
    "responsible_agency": "Safety and Permits",
    "final_address": "3024 Cleveland Ave",
    "address_councildis": "B",
    "status": "Pending",
    "rowid": "844340",
    "final_x": "3673858.15764",
    "final_y": "535604.035846",
    "longitude": "-90.09206084686781",
    "latitude": "29.96695522540006",
    "geocoded_column": {
      "latitude": "29.96695522540006",
      "longitude": "-90.09206084686781"
    }
  },
  {
    "service_request": "2021-844339",
    "request_type": "Property Maintenance",
    "request_reason": "Property Maintenance",
    "date_created": "2021-11-27T13:33:38.000",
    "date_modified": "2021-11-27T13:33:38.000",
    "request_status": "Pending",
    "responsible_agency": "Department of Code Enforcement",
    "final_address": "735 Elysian Fields Ave",
    "address_councildis": "C",
    "status": "Pending",
    "rowid": "844339",
    "final_x": "3685179.78601",
    "final_y": "535160.040646",
    "longitude": "-90.05632280671674",
    "latitude": "29.96539230206401",
    "geocoded_column": {
      "latitude": "29.96539230206401",
      "longitude": "-90.05632280671674"
    }
  },
  {
    "service_request": "2021-844338",
    "request_type": "Trash/Recycling",
    "request_reason": "Repair Trash Cart",
    "date_created": "2021-11-27T13:29:25.000",
    "date_modified": "2021-11-27T13:29:25.000",
    "request_status": "Pending",
    "responsible_agency": "Department of Sanitation",
    "final_address": "1925 Pleasure St",
    "address_councildis": "D",
    "status": "Assigned to Contractor",
    "contractor": "Metro Disposal",
    "rowid": "844338",
    "final_x": "3682268.48533",
    "final_y": "545006.581007",
    "longitude": "-90.06517240541672",
    "latitude": "29.992555745097967",
    "geocoded_column": {
      "latitude": "29.992555745097967",
      "longitude": "-90.06517240541672"
    }
  },
  {
    "service_request": "2021-844337",
    "request_type": "Trash/Recycling",
    "request_reason": "Missed Trash Pick-Up",
    "date_created": "2021-11-27T13:23:07.000",
    "date_modified": "2021-11-27T13:23:08.000",
    "request_status": "Pending",
    "responsible_agency": "Department of Sanitation",
    "final_address": "6065 General Meyer Ave",
    "address_councildis": "C",
    "status": "Assigned to Contractor",
    "contractor": "Richards Disposal",
    "rowid": "844337",
    "final_x": "3706429.86993",
    "final_y": "520953.953593",
    "longitude": "-89.98974264689541",
    "latitude": "29.925662328529434",
    "geocoded_column": {
      "latitude": "29.925662328529434",
      "longitude": "-89.98974264689541"
    }
  },
  {
    "service_request": "2021-844336",
    "request_type": "Traffic Signals/Signs/Striping/Streetlights",
    "request_reason": "Street Light Outage/Malfunction",
    "date_created": "2021-11-27T12:50:52.000",
    "date_modified": "2021-11-27T12:50:52.000",
    "request_status": "Pending",
    "responsible_agency": "Department of Public Works",
    "final_address": "5830 S Robertson St",
    "address_councildis": "A",
    "status": "Pending",
    "contractor": "Royal Engineering",
    "rowid": "844336",
    "final_x": "3666687.09281",
    "final_y": "524604.1479",
    "longitude": "-90.11507650434706",
    "latitude": "29.936920769132946",
    "geocoded_column": {
      "latitude": "29.936920769132946",
      "longitude": "-90.11507650434706"
    }
  },
  {
    "service_request": "2021-844335",
    "request_type": "Trash/Recycling",
    "request_reason": "Missed Trash Pick-Up",
    "date_created": "2021-11-27T12:37:46.000",
    "date_modified": "2021-11-27T13:01:20.000",
    "request_status": "Pending",
    "responsible_agency": "Department of Sanitation",
    "final_address": "8322 Edinburgh St",
    "address_councildis": "A",
    "status": "Assigned to Contractor",
    "contractor": "Richards Disposal",
    "rowid": "844335",
    "final_x": "3666795.24532",
    "final_y": "534991.36487",
    "longitude": "-90.1143862071696",
    "latitude": "29.965479073644108",
    "geocoded_column": {
      "latitude": "29.965479073644108",
      "longitude": "-90.1143862071696"
    }
  },
  {
    "service_request": "2021-844334",
    "request_type": "Trash/Recycling",
    "request_reason": "Repair Trash Cart",
    "date_created": "2021-11-27T12:36:31.000",
    "date_modified": "2021-11-27T13:01:23.000",
    "request_status": "Pending",
    "responsible_agency": "Department of Sanitation",
    "final_address": "8322 Edinburgh St",
    "address_councildis": "A",
    "status": "Assigned to Contractor",
    "contractor": "Richards Disposal",
    "rowid": "844334",
    "final_x": "3666795.24532",
    "final_y": "534991.36487",
    "longitude": "-90.1143862071696",
    "latitude": "29.965479073644108",
    "geocoded_column": {
      "latitude": "29.965479073644108",
      "longitude": "-90.1143862071696"
    }
  },
  {
    "service_request": "2021-844333",
    "request_type": "Safety & Permits",
    "request_reason": "Licenses & Permits",
    "date_created": "2021-11-27T12:14:44.000",
    "date_modified": "2021-11-27T13:01:25.000",
    "request_status": "Pending",
    "responsible_agency": "Safety and Permits",
    "final_address": "3024 Cleveland Ave",
    "address_councildis": "B",
    "status": "Pending",
    "rowid": "844333",
    "final_x": "3673858.15764",
    "final_y": "535604.035846",
    "longitude": "-90.09206084686781",
    "latitude": "29.96695522540006",
    "geocoded_column": {
      "latitude": "29.96695522540006",
      "longitude": "-90.09206084686781"
    }
  },
  {
    "service_request": "2021-844331",
    "request_type": "Abandoned Vehicles",
    "request_reason": "Abandoned/Junk Vehicles",
    "date_created": "2021-11-27T12:02:40.000",
    "date_modified": "2021-11-27T12:03:43.000",
    "request_status": "Pending",
    "responsible_agency": "Department of Public Works",
    "final_address": "2530 Bayou Rd",
    "address_councildis": "D",
    "status": "Pending",
    "rowid": "844331",
    "final_x": "3678622.8996",
    "final_y": "539249.958666",
    "longitude": "-90.07688752477883",
    "latitude": "29.976837476405496",
    "geocoded_column": {
      "latitude": "29.976837476405496",
      "longitude": "-90.07688752477883"
    }
  },
  {
    "service_request": "2021-844330",
    "request_type": "Roads/Drainage",
    "request_reason": "Street Flooding / Drainage",
    "date_created": "2021-11-27T11:57:45.000",
    "date_modified": "2021-11-27T12:01:01.000",
    "request_status": "Pending",
    "responsible_agency": "Department of Public Works",
    "final_address": "318 Country Club Dr, New Orleans, Louisiana, 70124",
    "address_councildis": "A",
    "status": "Pending",
    "rowid": "844330",
    "final_x": "3664631.70509",
    "final_y": "544215.660686",
    "longitude": "-90.12091037457805",
    "latitude": "29.99090591257426",
    "geocoded_column": {
      "latitude": "29.99090591257426",
      "longitude": "-90.12091037457805"
    }
  },
  {
    "service_request": "2021-844329",
    "request_type": "Trash/Recycling",
    "request_reason": "Request a Large Item Pick Up",
    "date_created": "2021-11-27T11:57:03.000",
    "date_modified": "2021-11-27T11:57:04.000",
    "request_status": "Pending",
    "responsible_agency": "Department of Sanitation",
    "final_address": "4510 N Rampart St",
    "address_councildis": "C",
    "status": "Assigned to Contractor",
    "contractor": "Metro Disposal",
    "rowid": "844329",
    "final_x": "3693310.82947",
    "final_y": "534433.941253",
    "longitude": "-90.0306715323598",
    "latitude": "29.963144110004453",
    "geocoded_column": {
      "latitude": "29.963144110004453",
      "longitude": "-90.0306715323598"
    }
  },
  {
    "service_request": "2021-844327",
    "request_type": "Property Maintenance",
    "request_reason": "Property Maintenance",
    "date_created": "2021-11-27T11:31:07.000",
    "date_modified": "2021-11-27T11:31:07.000",
    "request_status": "Pending",
    "responsible_agency": "Department of Code Enforcement",
    "final_address": "8713 Apricot St",
    "address_councildis": "A",
    "status": "Pending",
    "rowid": "844327",
    "final_x": "3664209.70708",
    "final_y": "534149.969733",
    "longitude": "-90.12257933529156",
    "latitude": "29.963240889482098",
    "geocoded_column": {
      "latitude": "29.963240889482098",
      "longitude": "-90.12257933529156"
    }
  },
  {
    "service_request": "2021-844326",
    "request_type": "Property Maintenance",
    "request_reason": "Property Maintenance",
    "date_created": "2021-11-27T11:29:52.000",
    "date_modified": "2021-11-27T11:29:52.000",
    "request_status": "Pending",
    "responsible_agency": "Department of Code Enforcement",
    "final_address": "8709 Apricot St",
    "address_councildis": "A",
    "status": "Pending",
    "rowid": "844326",
    "final_x": "3664259.74714",
    "final_y": "534115.447557",
    "longitude": "-90.12242246591732",
    "latitude": "29.963144510842227",
    "geocoded_column": {
      "latitude": "29.963144510842227",
      "longitude": "-90.12242246591732"
    }
  },
  {
    "service_request": "2021-844325",
    "request_type": "Property Maintenance",
    "request_reason": "Property Maintenance",
    "date_created": "2021-11-27T11:27:06.000",
    "date_modified": "2021-11-27T11:27:06.000",
    "request_status": "Pending",
    "responsible_agency": "Department of Code Enforcement",
    "final_address": "8705 Apple St",
    "address_councildis": "A",
    "status": "Pending",
    "rowid": "844325",
    "final_x": "3663748.4793",
    "final_y": "533609.898181",
    "longitude": "-90.12405384535765",
    "latitude": "29.96176926207977",
    "geocoded_column": {
      "latitude": "29.96176926207977",
      "longitude": "-90.12405384535765"
    }
  },
  {
    "service_request": "2021-844324",
    "request_type": "Traffic Signals/Signs/Striping/Streetlights",
    "request_reason": "Street Light Outage/Malfunction",
    "date_created": "2021-11-27T11:24:54.000",
    "date_modified": "2021-11-27T11:24:55.000",
    "request_status": "Pending",
    "responsible_agency": "Department of Public Works",
    "final_address": "5464 Patio Way",
    "address_councildis": "E",
    "status": "Pending",
    "contractor": "Royal Engineering",
    "rowid": "844324",
    "final_x": "3725680.05126",
    "final_y": "563929.456545",
    "longitude": "-89.92731194745909",
    "latitude": "30.04319350482201",
    "geocoded_column": {
      "latitude": "30.04319350482201",
      "longitude": "-89.92731194745909"
    }
  },
  {
    "service_request": "2021-844323",
    "request_type": "Parks & Parkways",
    "request_reason": "Tree Stump (removal, grind)",
    "date_created": "2021-11-27T11:13:39.000",
    "date_modified": "2021-11-27T11:13:39.000",
    "request_status": "Pending",
    "responsible_agency": "Department of Parks & Parkway",
    "final_address": "2815 St Claude Ave",
    "address_councildis": "C",
    "status": "Pending",
    "rowid": "844323",
    "final_x": "3687880.94134",
    "final_y": "536395.510151",
    "longitude": "-90.04774893386045",
    "latitude": "29.968706360800535",
    "geocoded_column": {
      "latitude": "29.968706360800535",
      "longitude": "-90.04774893386045"
    }
  },
  {
    "service_request": "2021-844321",
    "request_type": "Property Maintenance",
    "request_reason": "Property Maintenance",
    "date_created": "2021-11-27T10:27:28.000",
    "date_modified": "2021-11-27T10:27:28.000",
    "request_status": "Pending",
    "responsible_agency": "Department of Code Enforcement",
    "final_address": "8713 Apricot St",
    "address_councildis": "A",
    "status": "Pending",
    "rowid": "844321",
    "final_x": "3664209.70708",
    "final_y": "534149.969733",
    "longitude": "-90.12257933529156",
    "latitude": "29.963240889482098",
    "geocoded_column": {
      "latitude": "29.963240889482098",
      "longitude": "-90.12257933529156"
    }
  },
  {
    "service_request": "2021-844320",
    "request_type": "Property Maintenance",
    "request_reason": "Property Maintenance",
    "date_created": "2021-11-27T10:26:15.000",
    "date_modified": "2021-11-27T10:26:15.000",
    "request_status": "Pending",
    "responsible_agency": "Department of Code Enforcement",
    "final_address": "8709 Apricot St",
    "address_councildis": "A",
    "status": "Pending",
    "rowid": "844320",
    "final_x": "3664259.74714",
    "final_y": "534115.447557",
    "longitude": "-90.12242246591732",
    "latitude": "29.963144510842227",
    "geocoded_column": {
      "latitude": "29.963144510842227",
      "longitude": "-90.12242246591732"
    }
  },
  {
    "service_request": "2021-844319",
    "request_type": "Property Maintenance",
    "request_reason": "Property Maintenance",
    "date_created": "2021-11-27T10:25:04.000",
    "date_modified": "2021-11-27T10:25:04.000",
    "request_status": "Pending",
    "responsible_agency": "Department of Code Enforcement",
    "final_address": "8705 Apricot St",
    "address_councildis": "A",
    "status": "Pending",
    "rowid": "844319",
    "final_x": "3664241.11124",
    "final_y": "534121.595013",
    "longitude": "-90.12248111100676",
    "latitude": "29.963161955841667",
    "geocoded_column": {
      "latitude": "29.963161955841667",
      "longitude": "-90.12248111100676"
    }
  },
  {
    "service_request": "2021-844318",
    "request_type": "Trash/Recycling",
    "request_reason": "Request a Large Item Pick Up",
    "date_created": "2021-11-27T10:19:36.000",
    "date_modified": "2021-11-27T11:01:27.000",
    "request_status": "Pending",
    "responsible_agency": "Department of Sanitation",
    "final_address": "1108 Pine St, New Orleans, Louisiana, 70118",
    "address_councildis": "A",
    "status": "Assigned to Contractor",
    "contractor": "Richards Disposal",
    "rowid": "844318",
    "final_x": "3663747.09031",
    "final_y": "526469.149694",
    "longitude": "-90.12429616191316",
    "latitude": "29.942134552058455",
    "geocoded_column": {
      "latitude": "29.942134552058455",
      "longitude": "-90.12429616191316"
    }
  },
  {
    "service_request": "2021-844316",
    "request_type": "COVID-19",
    "request_reason": "COVID-19 Business Non-Compliance",
    "date_created": "2021-11-27T10:05:28.000",
    "date_modified": "2021-11-27T10:05:29.000",
    "request_status": "Pending",
    "responsible_agency": "Safety and Permits",
    "final_address": "3701 Bienville Ave",
    "address_councildis": "B",
    "status": "Pending",
    "rowid": "844316",
    "final_x": "3672842.58472",
    "final_y": "538098.550217",
    "longitude": "-90.09518291161093",
    "latitude": "29.9738445089137",
    "geocoded_column": {
      "latitude": "29.9738445089137",
      "longitude": "-90.09518291161093"
    }
  },
  {
    "service_request": "2021-844315",
    "request_type": "Trash/Recycling",
    "request_reason": "Missed Trash Pick-Up",
    "date_created": "2021-11-27T10:01:58.000",
    "date_modified": "2021-11-27T10:01:58.000",
    "request_status": "Pending",
    "responsible_agency": "Department of Sanitation",
    "final_address": "4730 Pontchartrain Blvd",
    "address_councildis": "A",
    "status": "Assigned to Contractor",
    "contractor": "Richards Disposal",
    "rowid": "844315",
    "final_x": "3667497.33172",
    "final_y": "538483.786121",
    "longitude": "-90.11205149100157",
    "latitude": "29.975061512618705",
    "geocoded_column": {
      "latitude": "29.975061512618705",
      "longitude": "-90.11205149100157"
    }
  },
  {
    "service_request": "2021-844314",
    "request_type": "Trash/Recycling",
    "request_reason": "Repair Trash Cart",
    "date_created": "2021-11-27T09:38:57.000",
    "date_modified": "2021-11-27T10:01:14.000",
    "request_status": "Pending",
    "responsible_agency": "Department of Sanitation",
    "final_address": "2350 Constance St",
    "address_councildis": "B",
    "status": "Assigned to Contractor",
    "contractor": "Richards Disposal",
    "rowid": "844314",
    "final_x": "3678434.75323",
    "final_y": "521261.503865",
    "longitude": "-90.07810411998217",
    "latitude": "29.92738092900358",
    "geocoded_column": {
      "latitude": "29.92738092900358",
      "longitude": "-90.07810411998217"
    }
  },
  {
    "service_request": "2021-844313",
    "request_type": "Traffic Signals/Signs/Striping/Streetlights",
    "request_reason": "Street Light Outage/Malfunction",
    "date_created": "2021-11-27T09:36:20.000",
    "date_modified": "2021-11-27T09:36:20.000",
    "request_status": "Pending",
    "responsible_agency": "Department of Public Works",
    "final_address": "4440 Elba St",
    "address_councildis": "B",
    "status": "Pending",
    "contractor": "Royal Engineering",
    "rowid": "844313",
    "final_x": "3669529.51956",
    "final_y": "530505.47533",
    "longitude": "-90.10590321445441",
    "latitude": "29.953064097288816",
    "geocoded_column": {
      "latitude": "29.953064097288816",
      "longitude": "-90.10590321445441"
    }
  },
  {
    "service_request": "2021-844312",
    "request_type": "Property Maintenance",
    "request_reason": "Property Maintenance",
    "date_created": "2021-11-27T09:22:56.000",
    "date_modified": "2021-11-27T09:22:56.000",
    "request_status": "Pending",
    "responsible_agency": "Department of Code Enforcement",
    "final_address": "3600 Loyola Ave",
    "address_councildis": "B",
    "status": "Pending",
    "rowid": "844312",
    "final_x": "3672740.19976",
    "final_y": "523210.975867",
    "longitude": "-90.09601398662733",
    "latitude": "29.932911650087114",
    "geocoded_column": {
      "latitude": "29.932911650087114",
      "longitude": "-90.09601398662733"
    }
  },
  {
    "service_request": "2021-844311",
    "request_type": "Health Related Questions",
    "request_reason": "Noise Ordinance Complaint",
    "date_created": "2021-11-27T09:22:37.000",
    "date_modified": "2021-11-27T09:22:37.000",
    "request_status": "Pending",
    "responsible_agency": "Health Department",
    "final_address": "3600 Loyola Ave",
    "address_councildis": "B",
    "status": "Pending",
    "rowid": "844311",
    "final_x": "3672740.19976",
    "final_y": "523210.975867",
    "longitude": "-90.09601398662733",
    "latitude": "29.932911650087114",
    "geocoded_column": {
      "latitude": "29.932911650087114",
      "longitude": "-90.09601398662733"
    }
  },
  {
    "service_request": "2021-844310",
    "request_type": "Traffic Signals/Signs/Striping/Streetlights",
    "request_reason": "Traffic Signal Malfunctioning/Damaged",
    "date_created": "2021-11-27T08:29:12.000",
    "date_modified": "2021-11-27T08:29:12.000",
    "request_status": "Pending",
    "responsible_agency": "Department of Public Works",
    "final_address": "AIRLINE HWY & PALM ST",
    "address_councildis": "A",
    "status": "Pending",
    "rowid": "844310",
    "final_x": "3664851.6",
    "final_y": "537228.48",
    "longitude": "-90.12044939856273",
    "latitude": "29.971687111152686",
    "geocoded_column": {
      "latitude": "29.971687111152686",
      "longitude": "-90.12044939856273"
    }
  },
  {
    "service_request": "2021-844309",
    "request_type": "Trash/Recycling",
    "request_reason": "Missed Trash Pick-Up",
    "date_created": "2021-11-27T08:28:12.000",
    "date_modified": "2021-11-27T08:28:13.000",
    "request_status": "Pending",
    "responsible_agency": "Department of Sanitation",
    "final_address": "3111 Jefferson Ave",
    "address_councildis": "B",
    "status": "Assigned to Contractor",
    "contractor": "Richards Disposal",
    "rowid": "844309",
    "final_x": "3668580.26958",
    "final_y": "526718.831678",
    "longitude": "-90.10902829395805",
    "latitude": "29.94267998562764",
    "geocoded_column": {
      "latitude": "29.94267998562764",
      "longitude": "-90.10902829395805"
    }
  },
  {
    "service_request": "2021-844308",
    "request_type": "Roads/Drainage",
    "request_reason": "Street Flooding / Drainage",
    "date_created": "2021-11-27T07:38:14.000",
    "date_modified": "2021-11-27T07:38:14.000",
    "request_status": "Pending",
    "responsible_agency": "Department of Public Works",
    "final_address": "3034 Dauphine St",
    "address_councildis": "C",
    "status": "Pending",
    "rowid": "844308",
    "final_x": "3688411.68022",
    "final_y": "534905.911814",
    "longitude": "-90.04612568057946",
    "latitude": "29.964594101652683",
    "geocoded_column": {
      "latitude": "29.964594101652683",
      "longitude": "-90.04612568057946"
    }
  },
  {
    "service_request": "2021-844307",
    "request_type": "Abandoned Vehicles",
    "request_reason": "Abandoned/Junk Vehicles",
    "date_created": "2021-11-27T06:51:25.000",
    "date_modified": "2021-11-27T07:01:41.000",
    "request_status": "Pending",
    "responsible_agency": "Department of Public Works",
    "final_address": "1600 Robert C. Blakes, Sr. Dr",
    "address_councildis": "B",
    "status": "Pending",
    "rowid": "844307",
    "final_x": "3678659.37141",
    "final_y": "525468.759229",
    "longitude": "-90.07724946560738",
    "latitude": "29.938942731926556",
    "geocoded_column": {
      "latitude": "29.938942731926556",
      "longitude": "-90.07724946560738"
    }
  },
  {
    "service_request": "2021-844306",
    "request_type": "COVID-19",
    "request_reason": "COVID-19 Business Non-Compliance",
    "date_created": "2021-11-27T06:13:17.000",
    "date_modified": "2021-11-27T07:01:44.000",
    "request_status": "Pending",
    "responsible_agency": "Safety and Permits",
    "final_address": "3222 Magazine St",
    "address_councildis": "B",
    "status": "Pending",
    "rowid": "844306",
    "final_x": "3675649.55995",
    "final_y": "519850.70124",
    "longitude": "-90.08694473347242",
    "latitude": "29.923585278688776",
    "geocoded_column": {
      "latitude": "29.923585278688776",
      "longitude": "-90.08694473347242"
    }
  },
  {
    "service_request": "2021-844305",
    "request_type": "Safety & Permits",
    "request_reason": "Licenses & Permits",
    "date_created": "2021-11-27T02:30:52.000",
    "date_modified": "2021-11-27T02:30:52.000",
    "request_status": "Pending",
    "responsible_agency": "Safety and Permits",
    "status": "Pending",
    "rowid": "844305",
    "longitude": "0.0",
    "latitude": "0.0",
    "geocoded_column": {
      "latitude": "0.0",
      "longitude": "0.0"
    }
  },
  {
    "service_request": "2021-844304",
    "request_type": "Trash/Recycling",
    "request_reason": "Repair Trash Cart",
    "date_created": "2021-11-27T00:31:59.000",
    "date_modified": "2021-11-27T00:32:00.000",
    "request_status": "Pending",
    "responsible_agency": "Department of Sanitation",
    "final_address": "3140 Laurel St",
    "address_councildis": "B",
    "status": "Assigned to Contractor",
    "contractor": "Richards Disposal",
    "rowid": "844304",
    "final_x": "3676219.84981",
    "final_y": "519362.989047",
    "longitude": "-90.0851613076406",
    "latitude": "29.922227158052625",
    "geocoded_column": {
      "latitude": "29.922227158052625",
      "longitude": "-90.0851613076406"
    }
  },
  {
    "service_request": "2021-844303",
    "request_type": "Safety & Permits",
    "request_reason": "Licenses & Permits",
    "date_created": "2021-11-27T00:30:32.000",
    "date_modified": "2021-11-27T00:30:32.000",
    "request_status": "Pending",
    "responsible_agency": "Safety and Permits",
    "final_address": "1931 St Claude Ave",
    "address_councildis": "C",
    "status": "Pending",
    "rowid": "844303",
    "final_x": "3684129.64098",
    "final_y": "536257.877191",
    "longitude": "-90.05960057173445",
    "latitude": "29.96844311212494",
    "geocoded_column": {
      "latitude": "29.96844311212494",
      "longitude": "-90.05960057173445"
    }
  },
  {
    "service_request": "2021-844302",
    "request_type": "Traffic Signals/Signs/Striping/Streetlights",
    "request_reason": "Street Light Outage/Malfunction",
    "date_created": "2021-11-26T22:33:59.000",
    "date_modified": "2021-11-26T22:33:59.000",
    "request_status": "Pending",
    "responsible_agency": "Department of Public Works",
    "final_address": "8140 Zimple St",
    "address_councildis": "A",
    "status": "Pending",
    "contractor": "Royal Engineering",
    "rowid": "844302",
    "final_x": "3661485.85178",
    "final_y": "528281.0416",
    "longitude": "-90.13137541337191",
    "latitude": "29.947182089602926",
    "geocoded_column": {
      "latitude": "29.947182089602926",
      "longitude": "-90.13137541337191"
    }
  },
  {
    "service_request": "2021-844301",
    "request_type": "Roads/Drainage",
    "request_reason": "Man hole cover issue",
    "date_created": "2021-11-26T21:29:27.000",
    "date_modified": "2021-11-26T22:01:16.000",
    "request_status": "Pending",
    "responsible_agency": "Department of Public Works",
    "final_address": "CANAL ST & BOURBON ST",
    "address_councildis": "C",
    "status": "Pending",
    "rowid": "844301",
    "final_x": "3680929.1",
    "final_y": "530923.88",
    "longitude": "-90.06989377240657",
    "latitude": "29.953873876006604",
    "geocoded_column": {
      "latitude": "29.953873876006604",
      "longitude": "-90.06989377240657"
    }
  },
  {
    "service_request": "2021-844300",
    "request_type": "Trash/Recycling",
    "request_reason": "Missed Trash Pick-Up",
    "date_created": "2021-11-26T21:13:25.000",
    "date_modified": "2021-11-26T22:01:22.000",
    "request_status": "Pending",
    "responsible_agency": "Department of Sanitation",
    "final_address": "5024 Magazine St",
    "address_councildis": "B",
    "status": "Assigned to Contractor",
    "contractor": "Richards Disposal",
    "rowid": "844300",
    "final_x": "3668425.89806",
    "final_y": "518543.107255",
    "longitude": "-90.10979131375458",
    "latitude": "29.92020388900644",
    "geocoded_column": {
      "latitude": "29.92020388900644",
      "longitude": "-90.10979131375458"
    }
  },
  {
    "service_request": "2021-844298",
    "request_type": "Traffic Signals/Signs/Striping/Streetlights",
    "request_reason": "Street Light Outage/Malfunction",
    "date_created": "2021-11-26T20:46:22.000",
    "date_modified": "2021-11-26T20:46:23.000",
    "request_status": "Pending",
    "responsible_agency": "Department of Public Works",
    "final_address": "2906 Hollygrove St",
    "address_councildis": "A",
    "status": "Pending",
    "contractor": "Royal Engineering",
    "rowid": "844298",
    "final_x": "3663739.28685",
    "final_y": "535106.914182",
    "longitude": "-90.12403298220822",
    "latitude": "29.96588583215864",
    "geocoded_column": {
      "latitude": "29.96588583215864",
      "longitude": "-90.12403298220822"
    }
  },