[
  {
    "service_request": "2023-1036682",
    "request_type": "Health Related Request",
    "request_reason": "Noise Ordinance Complaint",
    "date_created": "2023-09-20T00:58:44.000",
    "date_modified": "2023-09-20T00:58:44.000",
    "request_status": "Pending",
    "responsible_agency": "Health Department",
    "status": "Pending",
    "rowid": "1036682",
    "longitude": "0.0",
    "latitude": "0.0",
    "geocoded_column": {
      "latitude": "0.0",
      "longitude": "0.0"
    }
  },
  {
    "service_request": "2023-1036679",
    "request_type": "Abandoned Vehicles",
    "request_reason": "Abandoned/Junk Vehicles",
    "date_created": "2023-09-20T00:41:09.000",
    "date_modified": "2023-09-20T00:41:09.000",
    "request_status": "Pending",
    "responsible_agency": "Department of Public Works",
    "final_address": "901 Henry Clay Ave",
    "address_councildis": "A",
    "status": "Pending",
    "rowid": "1036679",
    "final_x": "3663987.1497",
    "final_y": "519913.049784",
    "longitude": "-90.12375674309207",
    "latitude": "29.924100384557992",
    "geocoded_column": {
      "latitude": "29.924100384557992",
      "longitude": "-90.12375674309207"
    }
  },
  {
    "service_request": "2023-1036678",
    "request_type": "Health Related Request",
    "request_reason": "Noise Ordinance Complaint",
    "date_created": "2023-09-20T00:39:24.000",
    "date_modified": "2023-09-20T00:39:24.000",
    "request_status": "Pending",
    "responsible_agency": "Health Department",
    "final_address": "1301 St Bernard Ave",
    "address_councildis": "C",
    "status": "Pending",
    "rowid": "1036678",
    "final_x": "3682919.3446",
    "final_y": "536532.769031",
    "longitude": "-90.06341312216362",
    "latitude": "29.969235907623844",
    "geocoded_column": {
      "latitude": "29.969235907623844",
      "longitude": "-90.06341312216362"
    }
  },
  {
    "service_request": "2023-1036677",
    "request_type": "Roads/Drainage",
    "request_reason": "Pothole",
    "date_created": "2023-09-19T23:47:02.000",
    "date_modified": "2023-09-19T23:47:02.000",
    "request_status": "Pending",
    "responsible_agency": "Department of Public Works",
    "final_address": "1822 Valence St",
    "address_councildis": "B",
    "status": "Pending",
    "rowid": "1036677",
    "final_x": "3669553.9922",
    "final_y": "521679.388921",
    "longitude": "-90.1061244201371",
    "latitude": "29.928794496383112",
    "geocoded_column": {
      "latitude": "29.928794496383112",
      "longitude": "-90.1061244201371"
    }
  },
  {
    "service_request": "2023-1036676",
    "request_type": "Roads/Drainage",
    "request_reason": "Pothole",
    "date_created": "2023-09-19T23:43:03.000",
    "date_modified": "2023-09-19T23:43:03.000",
    "request_status": "Pending",
    "responsible_agency": "Department of Public Works",
    "final_address": "1836 Valence St",
    "address_councildis": "B",
    "status": "Pending",
    "rowid": "1036676",
    "final_x": "3669548.88276",
    "final_y": "521749.076666",
    "longitude": "-90.10613819354518",
    "latitude": "29.928986265896693",
    "geocoded_column": {
      "latitude": "29.928986265896693",
      "longitude": "-90.10613819354518"
    }
  },
  {
    "service_request": "2023-1036675",
    "request_type": "Roads/Drainage",
    "request_reason": "Pothole",
    "date_created": "2023-09-19T23:37:41.000",
    "date_modified": "2023-09-19T23:37:41.000",
    "request_status": "Pending",
    "responsible_agency": "Department of Public Works",
    "final_address": "1839 Bordeaux St",
    "address_councildis": "B",
    "status": "Pending",
    "rowid": "1036675",
    "final_x": "3669329.85428",
    "final_y": "521753.37337",
    "longitude": "-90.10682947979618",
    "latitude": "29.92900452881874",
    "geocoded_column": {
      "latitude": "29.92900452881874",
      "longitude": "-90.10682947979618"
    }
  },
  {
    "service_request": "2023-1036674",
    "request_type": "Traffic Signals/Signs/Striping/Streetlights",
    "request_reason": "Traffic Sign Missing/Damaged",
    "date_created": "2023-09-19T23:15:59.000",
    "date_modified": "2023-09-19T23:15:59.000",
    "request_status": "Pending",
    "responsible_agency": "Department of Public Works",
    "final_address": "Bienville Avenue & North Rendon Street",
    "address_councildis": "B",
    "status": "Pending",
    "rowid": "1036674",
    "final_x": "3674068.90817",
    "final_y": "537084.55412",
    "longitude": "-90.09134461707663",
    "latitude": "29.971019870753675",
    "geocoded_column": {
      "latitude": "29.971019870753675",
      "longitude": "-90.09134461707663"
    }
  },
  {
    "service_request": "2023-1036673",
    "request_type": "Abandoned Vehicles",
    "request_reason": "Abandoned/Junk Vehicles",
    "date_created": "2023-09-19T22:34:12.000",
    "date_modified": "2023-09-19T22:34:12.000",
    "request_status": "Pending",
    "responsible_agency": "Department of Public Works",
    "final_address": "1705 Milan St",
    "address_councildis": "B",
    "status": "Pending",
    "rowid": "1036673",
    "final_x": "3671612.0987",
    "final_y": "521387.865273",
    "longitude": "-90.099637292902",
    "latitude": "29.927932129537197",
    "geocoded_column": {
      "latitude": "29.927932129537197",
      "longitude": "-90.099637292902"
    }
  },
  {
    "service_request": "2023-1036672",
    "request_type": "Trash/Recycling",
    "request_reason": "Request a Large Item Pick Up",
    "date_created": "2023-09-19T22:04:36.000",
    "date_modified": "2023-09-19T22:04:37.000",
    "request_status": "Pending",
    "responsible_agency": "Department of Sanitation",
    "final_address": "6469 Avenue A",
    "address_councildis": "A",
    "status": "Assigned to Contractor",
    "contractor": "IV Waste",
    "rowid": "1036672",
    "final_x": "3666034.98368",
    "final_y": "551221.322581",
    "longitude": "-90.11624268329584",
    "latitude": "30.01012816736987",
    "geocoded_column": {
      "latitude": "30.01012816736987",
      "longitude": "-90.11624268329584"
    }
  },
  {
    "service_request": "2023-1036671",
    "request_type": "Roads/Drainage",
    "request_reason": "Pothole",
    "date_created": "2023-09-19T21:36:43.000",
    "date_modified": "2023-09-19T21:36:43.000",
    "request_status": "Pending",
    "responsible_agency": "Department of Public Works",
    "final_address": "4315 Pitt St",
    "address_councildis": "B",
    "status": "Pending",
    "rowid": "1036671",
    "final_x": "3671135.74062",
    "final_y": "520647.281017",
    "longitude": "-90.10116618834792",
    "latitude": "29.92590985375874",
    "geocoded_column": {
      "latitude": "29.92590985375874",
      "longitude": "-90.10116618834792"
    }
  },
  {
    "service_request": "2023-1036670",
    "request_type": "Property Maintenance",
    "request_reason": "Property Maintenance",
    "date_created": "2023-09-19T21:28:25.000",
    "date_modified": "2023-09-19T21:28:25.000",
    "request_status": "Pending",
    "responsible_agency": "Department of Code Enforcement",
    "final_address": "1815 Adams St",
    "address_councildis": "A",
    "status": "Pending",
    "rowid": "1036670",
    "final_x": "3664591.64116",
    "final_y": "529013.347776",
    "longitude": "-90.12154477081245",
    "latitude": "29.94910574867119",
    "geocoded_column": {
      "latitude": "29.94910574867119",
      "longitude": "-90.12154477081245"
    }
  },
  {
    "service_request": "2023-1036669",
    "request_type": "Roads/Drainage",
    "request_reason": "Pothole",
    "date_created": "2023-09-19T21:28:21.000",
    "date_modified": "2023-09-19T21:28:21.000",
    "request_status": "Pending",
    "responsible_agency": "Department of Public Works",
    "final_address": "4200 BLK Perrier St",
    "address_councildis": "B",
    "status": "Pending",
    "rowid": "1036669",
    "final_x": "3671500.64253",
    "final_y": "520125.882108",
    "longitude": "-90.1000320136845",
    "latitude": "29.924465378806524",
    "geocoded_column": {
      "latitude": "29.924465378806524",
      "longitude": "-90.1000320136845"
    }
  },
  {
    "service_request": "2023-1036668",
    "request_type": "Trash/Recycling",
    "request_reason": "Return Trash Cart",
    "date_created": "2023-09-19T21:13:25.000",
    "date_modified": "2023-09-19T21:13:25.000",
    "request_status": "Pending",
    "responsible_agency": "Department of Sanitation",
    "final_address": "927 N Gayoso St",
    "address_councildis": "A",
    "status": "Assigned to Contractor",
    "contractor": "Richards Disposal",
    "rowid": "1036668",
    "final_x": "3676277.69525",
    "final_y": "538481.668297",
    "longitude": "-90.08432087605551",
    "latitude": "29.974795442392953",
    "geocoded_column": {
      "latitude": "29.974795442392953",
      "longitude": "-90.08432087605551"
    }
  },
  {
    "service_request": "2023-1036667",
    "request_type": "Trash/Recycling",
    "request_reason": "Request a Large Item Pick Up",
    "date_created": "2023-09-19T21:05:43.000",
    "date_modified": "2023-09-19T21:05:44.000",
    "request_status": "Pending",
    "responsible_agency": "Department of Sanitation",
    "final_address": "1434 Elysian Fields Ave",
    "address_councildis": "C",
    "status": "Assigned to Contractor",
    "contractor": "IV Waste",
    "rowid": "1036667",
    "final_x": "3684795.51637",
    "final_y": "537689.777352",
    "longitude": "-90.05744735551974",
    "latitude": "29.972359970096818",
    "geocoded_column": {
      "latitude": "29.972359970096818",
      "longitude": "-90.05744735551974"
    }
  },
  {
    "service_request": "2023-1036666",
    "request_type": "Trash/Recycling",
    "request_reason": "Request a Large Item Pick Up",
    "date_created": "2023-09-19T20:47:26.000",
    "date_modified": "2023-09-19T20:47:27.000",
    "request_status": "Pending",
    "responsible_agency": "Department of Sanitation",
    "final_address": "617 David St",
    "address_councildis": "A",
    "status": "Assigned to Contractor",
    "contractor": "Richards Disposal",
    "rowid": "1036666",
    "final_x": "3672047.77876",
    "final_y": "540096.798859",
    "longitude": "-90.09762503075697",
    "latitude": "29.97936260530238",
    "geocoded_column": {
      "latitude": "29.97936260530238",
      "longitude": "-90.09762503075697"
    }
  },
  {
    "service_request": "2023-1036665",
    "request_type": "Property Maintenance",
    "request_reason": "Property Maintenance",
    "date_created": "2023-09-19T20:44:22.000",
    "date_modified": "2023-09-19T20:44:22.000",
    "request_status": "Pending",
    "responsible_agency": "Department of Code Enforcement",
    "final_address": "2650 Piety St",
    "address_councildis": "D",
    "status": "Pending",
    "rowid": "1036665",
    "final_x": "3691321.84854",
    "final_y": "541859.457676",
    "longitude": "-90.03668712558792",
    "latitude": "29.98362367362341",
    "geocoded_column": {
      "latitude": "29.98362367362341",
      "longitude": "-90.03668712558792"
    }
  },
  {
    "service_request": "2023-1036664",
    "request_type": "Trash/Recycling",
    "request_reason": "Illegal Dumping",
    "date_created": "2023-09-19T20:38:58.000",
    "date_modified": "2023-09-19T20:38:58.000",
    "request_status": "Pending",
    "responsible_agency": "Department of Sanitation",
    "final_address": "1100 BLK Egania St",
    "address_councildis": "E",
    "status": "Pending",
    "rowid": "1036664",
    "final_x": "3696863.63248",
    "final_y": "534268.709794",
    "longitude": "-90.01945824419222",
    "latitude": "29.9625782440865",
    "geocoded_column": {
      "latitude": "29.9625782440865",
      "longitude": "-90.01945824419222"
    }
  },
  {
    "service_request": "2023-1036663",
    "request_type": "Roads/Drainage",
    "request_reason": "Pothole",
    "date_created": "2023-09-19T20:10:06.000",
    "date_modified": "2023-09-19T20:10:06.000",
    "request_status": "Pending",
    "responsible_agency": "Department of Public Works",
    "final_address": "4921 Carondelet St",
    "address_councildis": "B",
    "status": "Pending",
    "rowid": "1036663",
    "final_x": "3668879.53863",
    "final_y": "521160.194169",
    "longitude": "-90.10827106165362",
    "latitude": "29.927386721176084",
    "geocoded_column": {
      "latitude": "29.927386721176084",
      "longitude": "-90.10827106165362"
    }
  },
  {
    "service_request": "2023-1036662",
    "request_type": "Trash/Recycling",
    "request_reason": "Repair Trash Cart",
    "date_created": "2023-09-19T20:02:45.000",
    "date_modified": "2023-09-19T20:02:46.000",
    "request_status": "Pending",
    "responsible_agency": "Department of Sanitation",
    "final_address": "2125 Valmont St",
    "address_councildis": "B",
    "status": "Assigned to Contractor",
    "contractor": "Richards Disposal",
    "rowid": "1036662",
    "final_x": "3668159.09588",
    "final_y": "523375.013435",
    "longitude": "-90.1104707112209",
    "latitude": "29.933497927931707",
    "geocoded_column": {
      "latitude": "29.933497927931707",
      "longitude": "-90.1104707112209"
    }
  },
  {
    "service_request": "2023-1036661",
    "request_type": "Roads/Drainage",
    "request_reason": "Pothole",
    "date_created": "2023-09-19T20:02:43.000",
    "date_modified": "2023-09-19T20:02:43.000",
    "request_status": "Pending",
    "responsible_agency": "Department of Public Works",
    "final_address": "1700 BLK Upperline St",
    "address_councildis": "B",
    "status": "Pending",
    "rowid": "1036661",
    "final_x": "3669078.90557",
    "final_y": "521245.352638",
    "longitude": "-90.1076388324249",
    "latitude": "29.927615017382372",
    "geocoded_column": {
      "latitude": "29.927615017382372",
      "longitude": "-90.1076388324249"
    }
  },
  {
    "service_request": "2023-1036660",
    "request_type": "Trash/Recycling",
    "request_reason": "Missed Trash Pick-Up",
    "date_created": "2023-09-19T19:54:42.000",
    "date_modified": "2023-09-19T19:54:42.000",
    "request_status": "Pending",
    "responsible_agency": "Department of Sanitation",
    "final_address": "1309 Leontine St",
    "address_councildis": "B",
    "status": "Assigned to Contractor",
    "contractor": "Richards Disposal",
    "rowid": "1036660",
    "final_x": "3667402.1929",
    "final_y": "520074.555768",
    "longitude": "-90.11297119012383",
    "latitude": "29.92444490734079",
    "geocoded_column": {
      "latitude": "29.92444490734079",
      "longitude": "-90.11297119012383"
    }
  },
  {
    "service_request": "2023-1036659",
    "request_type": "Roads/Drainage",
    "request_reason": "Pothole",
    "date_created": "2023-09-19T19:46:22.000",
    "date_modified": "2023-09-19T19:46:22.000",
    "request_status": "Pending",
    "responsible_agency": "Department of Public Works",
    "final_address": "1407 Valence St",
    "address_councildis": "B",
    "status": "Pending",
    "rowid": "1036659",
    "final_x": "3669839.25287",
    "final_y": "520292.863992",
    "longitude": "-90.10527081865904",
    "latitude": "29.924973591096933",
    "geocoded_column": {
      "latitude": "29.924973591096933",
      "longitude": "-90.10527081865904"
    }
  },
  {
    "service_request": "2023-1036658",
    "request_type": "Abandoned Vehicles",
    "request_reason": "Vehicle Blocking Your Driveway",
    "date_created": "2023-09-19T19:44:48.000",
    "date_modified": "2023-09-19T19:44:48.000",
    "request_status": "Pending",
    "responsible_agency": "Department of Public Works",
    "final_address": "6350 Vicksburg St",
    "address_councildis": "A",
    "status": "Pending",
    "rowid": "1036658",
    "final_x": "3669000.229",
    "final_y": "549707.900372",
    "longitude": "-90.1069255257",
    "latitude": "30.005879849161886",
    "geocoded_column": {
      "latitude": "30.005879849161886",
      "longitude": "-90.1069255257"
    }
  },
  {
    "service_request": "2023-1036657",
    "request_type": "Trash/Recycling",
    "request_reason": "Replace Trash Cart",
    "date_created": "2023-09-19T19:33:25.000",
    "date_modified": "2023-09-19T19:33:25.000",
    "request_status": "Pending",
    "responsible_agency": "Department of Sanitation",
    "final_address": "430 S Clark St, New Orleans, Louisiana, 70119",
    "address_councildis": "B",
    "status": "Assigned to Contractor",
    "contractor": "Richards Disposal",
    "rowid": "1036657",
    "final_x": "3671986.14657",
    "final_y": "535781.305031",
    "longitude": "-90.09796663980953",
    "latitude": "29.967498284329285",
    "geocoded_column": {
      "latitude": "29.967498284329285",
      "longitude": "-90.09796663980953"
    }
  },
  {
    "service_request": "2023-1036656",
    "request_type": "Trash/Recycling",
    "request_reason": "Start Trash Service",
    "date_created": "2023-09-19T18:59:12.000",
    "date_modified": "2023-09-19T18:59:12.000",
    "request_status": "Pending",
    "responsible_agency": "Department of Sanitation",
    "final_address": "702 River Oaks Dr",
    "address_councildis": "C",
    "status": "Assigned to Contractor",
    "contractor": "Richards Disposal",
    "rowid": "1036656",
    "final_x": "3701522.6209",
    "final_y": "520052.737016",
    "longitude": "-90.00526620688225",
    "latitude": "29.92334160145821",
    "geocoded_column": {
      "latitude": "29.92334160145821",
      "longitude": "-90.00526620688225"
    }
  },
  {
    "service_request": "2023-1036655",
    "request_type": "Mosquito, Termite & Rodent Control",
    "request_reason": "Non-Rodent Complaint (Mice, Possums, Snakes)",
    "date_created": "2023-09-19T18:52:23.000",
    "date_modified": "2023-09-19T18:52:23.000",
    "request_status": "Pending",
    "responsible_agency": "Mosquito, Termite & Rodent Control Board",
    "final_address": "1249 Southlawn Blvd",
    "address_councildis": "C",
    "status": "Pending",
    "rowid": "1036655",
    "final_x": "3695123.08067",
    "final_y": "526848.09043",
    "longitude": "-90.02522216149036",
    "latitude": "29.942228897292413",
    "geocoded_column": {
      "latitude": "29.942228897292413",
      "longitude": "-90.02522216149036"
    }
  },
  {
    "service_request": "2023-1036654",
    "request_type": "Health Related Request",
    "request_reason": "Noise Ordinance Complaint",
    "date_created": "2023-09-19T18:51:36.000",
    "date_modified": "2023-09-19T18:51:36.000",
    "request_status": "Pending",
    "responsible_agency": "Health Department",
    "final_address": "4121 Laurel St",
    "address_councildis": "B",
    "status": "Pending",
    "rowid": "1036654",
    "final_x": "3672038.91643",
    "final_y": "518181.143478",
    "longitude": "-90.09839902524072",
    "latitude": "29.91910202610193",
    "geocoded_column": {
      "latitude": "29.91910202610193",
      "longitude": "-90.09839902524072"
    }
  },
  {
    "service_request": "2023-1036653",
    "request_type": "Trash/Recycling",
    "request_reason": "Illegal Dumping",
    "date_created": "2023-09-19T18:33:50.000",
    "date_modified": "2023-09-19T18:33:50.000",
    "request_status": "Pending",
    "responsible_agency": "Department of Sanitation",
    "final_address": "310 Huntlee Dr",
    "address_councildis": "C",
    "status": "Pending",
    "rowid": "1036653",
    "final_x": "3701984.30468",
    "final_y": "522556.674298",
    "longitude": "-90.00371713920508",
    "latitude": "29.93021184091118",
    "geocoded_column": {
      "latitude": "29.93021184091118",
      "longitude": "-90.00371713920508"
    }
  },
  {
    "service_request": "2023-1036652",
    "request_type": "Trash/Recycling",
    "request_reason": "Illegal Dumping",
    "date_created": "2023-09-19T18:30:12.000",
    "date_modified": "2023-09-19T18:30:12.000",
    "request_status": "Pending",
    "responsible_agency": "Department of Sanitation",
    "final_address": "1328 Ptolemy St A",
    "address_councildis": "C",
    "status": "Pending",
    "rowid": "1036652",
    "final_x": "3689575.33756",
    "final_y": "526037.831998",
    "longitude": "-90.04276636518014",
    "latitude": "29.94017394382683",
    "geocoded_column": {
      "latitude": "29.94017394382683",
      "longitude": "-90.04276636518014"
    }
  },
  {
    "service_request": "2023-1036651",
    "request_type": "Trash/Recycling",
    "request_reason": "Order Recycling Cart",
    "date_created": "2023-09-19T18:29:58.000",
    "date_modified": "2023-09-19T18:29:58.000",
    "request_status": "Pending",
    "responsible_agency": "Department of Sanitation",
    "final_address": "441 Crystal St",
    "address_councildis": "D",
    "status": "Pending",
    "rowid": "1036651",
    "final_x": "3668031.62817",
    "final_y": "556277.603418",
    "longitude": "-90.10976394134524",
    "latitude": "30.023972688418258",
    "geocoded_column": {
      "latitude": "30.023972688418258",
      "longitude": "-90.10976394134524"
    }
  },
  {
    "service_request": "2023-1036650",
    "request_type": "Trash/Recycling",
    "request_reason": "Illegal Dumping",
    "date_created": "2023-09-19T18:25:42.000",
    "date_modified": "2023-09-19T18:25:42.000",
    "request_status": "Pending",
    "responsible_agency": "Department of Sanitation",
    "final_address": "2400 BLK Murl St",
    "address_councildis": "C",
    "status": "Pending",
    "rowid": "1036650",
    "final_x": "3694985.5493",
    "final_y": "522016.874389",
    "longitude": "-90.02583042824475",
    "latitude": "29.92894902722893",
    "geocoded_column": {
      "latitude": "29.92894902722893",
      "longitude": "-90.02583042824475"
    }
  },
  {
    "service_request": "2023-1036649",
    "request_type": "Trash/Recycling",
    "request_reason": "Illegal Dumping",
    "date_created": "2023-09-19T18:21:11.000",
    "date_modified": "2023-09-19T18:21:11.000",
    "request_status": "Pending",
    "responsible_agency": "Department of Sanitation",
    "final_address": "1600 BLK Shirley Dr",
    "address_councildis": "C",
    "status": "Pending",
    "rowid": "1036649",
    "final_x": "3692990.93977",
    "final_y": "524303.616863",
    "longitude": "-90.03204500419623",
    "latitude": "29.93529922363505",
    "geocoded_column": {
      "latitude": "29.93529922363505",
      "longitude": "-90.03204500419623"
    }
  },
  {
    "service_request": "2023-1036648",
    "request_type": "Trash/Recycling",
    "request_reason": "Illegal Dumping",
    "date_created": "2023-09-19T18:18:45.000",
    "date_modified": "2023-09-19T18:18:45.000",
    "request_status": "Pending",
    "responsible_agency": "Department of Sanitation",
    "final_address": "1500 BLK Shirley Dr",
    "address_councildis": "C",
    "status": "Pending",
    "rowid": "1036648",
    "final_x": "3693036.77235",
    "final_y": "524301.609649",
    "longitude": "-90.0319003832838",
    "latitude": "29.935292273190925",
    "geocoded_column": {
      "latitude": "29.935292273190925",
      "longitude": "-90.0319003832838"
    }
  },
  {
    "service_request": "2023-1036647",
    "request_type": "Trash/Recycling",
    "request_reason": "Replace Trash Cart",
    "date_created": "2023-09-19T18:16:50.000",
    "date_modified": "2023-09-19T18:16:51.000",
    "request_status": "Pending",
    "responsible_agency": "Department of Sanitation",
    "status": "Assigned to Contractor",
    "rowid": "1036647",
    "longitude": "0.0",
    "latitude": "0.0",
    "geocoded_column": {
      "latitude": "0.0",
      "longitude": "0.0"
    }
  },
  {
    "service_request": "2023-1036646",
    "request_type": "Trash/Recycling",
    "request_reason": "Illegal Dumping",
    "date_created": "2023-09-19T18:15:31.000",
    "date_modified": "2023-09-19T18:15:31.000",
    "request_status": "Pending",
    "responsible_agency": "Department of Sanitation",
    "final_address": "800 BLK Socrates St",
    "address_councildis": "C",
    "status": "Pending",
    "rowid": "1036646",
    "final_x": "3688431.53189",
    "final_y": "526408.494543",
    "longitude": "-90.04636438326136",
    "latitude": "29.941228513740448",
    "geocoded_column": {
      "latitude": "29.941228513740448",
      "longitude": "-90.04636438326136"
    }
  },
  {
    "service_request": "2023-1036645",
    "request_type": "Traffic Signals/Signs/Striping/Streetlights",
    "request_reason": "Traffic Sign Missing/Damaged",
    "date_created": "2023-09-19T18:10:00.000",
    "date_modified": "2023-09-19T18:10:00.000",
    "request_status": "Pending",
    "responsible_agency": "Department of Public Works",
    "final_address": "PERDIDO ST & S MIRO ST",
    "address_councildis": "B",
    "status": "Pending",
    "rowid": "1036645",
    "final_x": "3675237.0",
    "final_y": "532158.18",
    "longitude": "-90.08782473966792",
    "latitude": "29.95743913806907",
    "geocoded_column": {
      "latitude": "29.95743913806907",
      "longitude": "-90.08782473966792"
    }
  },
  {
    "service_request": "2023-1036644",
    "request_type": "Abandoned Vehicles",
    "request_reason": "Abandoned/Junk Vehicles",
    "date_created": "2023-09-19T18:01:04.000",
    "date_modified": "2023-09-19T18:01:04.000",
    "request_status": "Pending",
    "responsible_agency": "Department of Public Works",
    "final_address": "3614 Banks St",
    "address_councildis": "B",
    "status": "Pending",
    "rowid": "1036644",
    "final_x": "3671717.03783",
    "final_y": "536269.662727",
    "longitude": "-90.09879987621706",
    "latitude": "29.968849078915447",
    "geocoded_column": {
      "latitude": "29.968849078915447",
      "longitude": "-90.09879987621706"
    }
  },
  {
    "service_request": "2023-1036643",
    "request_type": "Roads/Drainage",
    "request_reason": "Road Shoulder Repair",
    "date_created": "2023-09-19T17:59:37.000",
    "date_modified": "2023-09-19T17:59:37.000",
    "request_status": "Pending",
    "responsible_agency": "Department of Public Works",
    "final_address": "6050 Chestnut St",
    "address_councildis": "A",
    "status": "Pending",
    "rowid": "1036643",
    "final_x": "3664529.75725",
    "final_y": "519895.110968",
    "longitude": "-90.1220445138364",
    "latitude": "29.924035297418104",
    "geocoded_column": {
      "latitude": "29.924035297418104",
      "longitude": "-90.1220445138364"
    }
  },
  {
    "service_request": "2023-1036642",
    "request_type": "Abandoned Vehicles",
    "request_reason": "Abandoned/Junk Vehicles",
    "date_created": "2023-09-19T17:36:08.000",
    "date_modified": "2023-09-19T17:36:08.000",
    "request_status": "Pending",
    "responsible_agency": "Department of Public Works",
    "final_address": "4401 Majestic Oaks Dr",
    "address_councildis": "D",
    "status": "Pending",
    "rowid": "1036642",
    "final_x": "3698013.59946",
    "final_y": "552436.647382",
    "longitude": "-90.01516682565902",
    "latitude": "30.012497116015457",
    "geocoded_column": {
      "latitude": "30.012497116015457",
      "longitude": "-90.01516682565902"
    }
  },
  {
    "service_request": "2023-1036641",
    "request_type": "Trash/Recycling",
    "request_reason": "Order Trash Cart",
    "date_created": "2023-09-19T17:26:59.000",
    "date_modified": "2023-09-19T17:27:00.000",
    "request_status": "Pending",
    "responsible_agency": "Department of Sanitation",
    "final_address": "6030 Curran Rd",
    "address_councildis": "E",
    "status": "Assigned to Contractor",
    "contractor": "Waste Pro",
    "rowid": "1036641",
    "final_x": "3695325.24976",
    "final_y": "558801.798684",
    "longitude": "-90.02343057771718",
    "latitude": "30.030083639332595",
    "geocoded_column": {
      "latitude": "30.030083639332595",
      "longitude": "-90.02343057771718"
    }
  },
  {
    "service_request": "2023-1036640",
    "request_type": "Trash/Recycling",
    "request_reason": "Repair Recycling Cart",
    "date_created": "2023-09-19T17:09:16.000",
    "date_modified": "2023-09-19T17:09:16.000",
    "request_status": "Pending",
    "responsible_agency": "Department of Sanitation",
    "final_address": "5012 Perrier St",
    "address_councildis": "B",
    "status": "Pending",
    "rowid": "1036640",
    "final_x": "3668540.08628",
    "final_y": "519856.046712",
    "longitude": "-90.10938660652499",
    "latitude": "29.923810704330485",
    "geocoded_column": {
      "latitude": "29.923810704330485",
      "longitude": "-90.10938660652499"
    }
  },
  {
    "service_request": "2023-1036639",
    "request_type": "Trash/Recycling",
    "request_reason": "Repair Trash Cart",
    "date_created": "2023-09-19T17:07:11.000",
    "date_modified": "2023-09-19T17:10:26.000",
    "request_status": "Pending",
    "responsible_agency": "Department of Sanitation",
    "final_address": "5012 Perrier St",
    "address_councildis": "B",
    "status": "Assigned to Contractor",
    "contractor": "Richards Disposal",
    "rowid": "1036639",
    "final_x": "3668540.08628",
    "final_y": "519856.046712",
    "longitude": "-90.10938660652499",
    "latitude": "29.923810704330485",
    "geocoded_column": {
      "latitude": "29.923810704330485",
      "longitude": "-90.10938660652499"
    }
  },
  {
    "service_request": "2023-1036638",
    "request_type": "Roads/Drainage",
    "request_reason": "Pothole",
    "date_created": "2023-09-19T16:58:24.000",
    "date_modified": "2023-09-19T16:58:24.000",
    "request_status": "Pending",
    "responsible_agency": "Department of Public Works",
    "final_address": "7400 Freret St",
    "address_councildis": "A",
    "status": "Pending",
    "rowid": "1036638",
    "final_x": "3663199.31706",
    "final_y": "526259.013118",
    "longitude": "-90.12603259958138",
    "latitude": "29.94157262481918",
    "geocoded_column": {
      "latitude": "29.94157262481918",
      "longitude": "-90.12603259958138"
    }
  },
  {
    "service_request": "2023-1036637",
    "request_type": "Trash/Recycling",
    "request_reason": "Illegal Dumping",
    "date_created": "2023-09-19T16:54:46.000",
    "date_modified": "2023-09-19T16:54:46.000",
    "request_status": "Pending",
    "responsible_agency": "Department of Sanitation",
    "final_address": "3319 S Saratoga St",
    "address_councildis": "B",
    "status": "Pending",
    "rowid": "1036637",
    "final_x": "3673679.07912",
    "final_y": "523314.161723",
    "longitude": "-90.09304648353091",
    "latitude": "29.933167467191968",
    "geocoded_column": {
      "latitude": "29.933167467191968",
      "longitude": "-90.09304648353091"
    }
  },
  {
    "service_request": "2023-1036636",
    "request_type": "Trash/Recycling",
    "request_reason": "Illegal Dumping",
    "date_created": "2023-09-19T16:53:47.000",
    "date_modified": "2023-09-19T17:01:59.000",
    "request_status": "Pending",
    "responsible_agency": "Department of Sanitation",
    "final_address": "2104 Behrman Hwy",
    "address_councildis": "C",
    "status": "Pending",
    "rowid": "1036636",
    "final_x": "3691512.4408",
    "final_y": "521935.325498",
    "longitude": "-90.03679720919241",
    "latitude": "29.928833311006798",
    "geocoded_column": {
      "latitude": "29.928833311006798",
      "longitude": "-90.03679720919241"
    }
  },
  {
    "service_request": "2023-1036635",
    "request_type": "Trash/Recycling",
    "request_reason": "MIssed Recycling Pick-Up",
    "date_created": "2023-09-19T16:52:19.000",
    "date_modified": "2023-09-19T17:00:20.000",
    "request_status": "Pending",
    "responsible_agency": "Department of Sanitation",
    "final_address": "12410 Hayne Blvd",
    "address_councildis": "E",
    "status": "Assigned to Contractor",
    "contractor": "Waste Pro",
    "rowid": "1036635",
    "final_x": "3713592.44831",
    "final_y": "569722.376038",
    "longitude": "-89.96529481829668",
    "latitude": "30.05952396140663",
    "geocoded_column": {
      "latitude": "30.05952396140663",
      "longitude": "-89.96529481829668"
    }
  },
  {
    "service_request": "2023-1036634",
    "request_type": "Trash/Recycling",
    "request_reason": "Order Trash Cart",
    "date_created": "2023-09-19T16:51:07.000",
    "date_modified": "2023-09-19T16:58:47.000",
    "request_status": "Pending",
    "responsible_agency": "Department of Sanitation",
    "final_address": "2019 Feliciana St",
    "address_councildis": "D",
    "status": "Assigned to Contractor",
    "contractor": "IV Waste",
    "rowid": "1036634",
    "final_x": "3689688.58735",
    "final_y": "539590.571146",
    "longitude": "-90.04192658118832",
    "latitude": "29.977435761491343",
    "geocoded_column": {
      "latitude": "29.977435761491343",
      "longitude": "-90.04192658118832"
    }
  },
  {
    "service_request": "2023-1036633",
    "request_type": "Trash/Recycling",
    "request_reason": "Request a Large Item Pick Up",
    "date_created": "2023-09-19T16:50:29.000",
    "date_modified": "2023-09-19T16:58:00.000",
    "request_status": "Pending",
    "responsible_agency": "Department of Sanitation",
    "final_address": "911 Dufossat St",
    "address_councildis": "B",
    "status": "Assigned to Contractor",
    "contractor": "Richards Disposal",
    "rowid": "1036633",
    "final_x": "3668080.13857",
    "final_y": "518715.435703",
    "longitude": "-90.11087691206411",
    "latitude": "29.92068788538517",
    "geocoded_column": {
      "latitude": "29.92068788538517",
      "longitude": "-90.11087691206411"
    }
  },
  {
    "service_request": "2023-1036632",
    "request_type": "Abandoned Vehicles",
    "request_reason": "Abandoned/Junk Vehicles",
    "date_created": "2023-09-19T16:49:34.000",
    "date_modified": "2023-09-19T16:49:34.000",
    "request_status": "Pending",
    "responsible_agency": "Department of Public Works",
    "final_address": "2330 Odin St",
    "address_councildis": "D",
    "status": "Pending",
    "rowid": "1036632",
    "final_x": "3684687.42409",
    "final_y": "553084.021207",
    "longitude": "-90.05724728963838",
    "latitude": "30.014691953872422",
    "geocoded_column": {
      "latitude": "30.014691953872422",
      "longitude": "-90.05724728963838"
    }
  },
  {
    "service_request": "2023-1036631",
    "request_type": "Trash/Recycling",
    "request_reason": "Repair Trash Cart",
    "date_created": "2023-09-19T16:44:17.000",
    "date_modified": "2023-09-19T16:50:08.000",
    "request_status": "Pending",
    "responsible_agency": "Department of Sanitation",
    "final_address": "1339 Elizardi Blvd",
    "address_councildis": "C",
    "status": "Assigned to Contractor",
    "contractor": "Richards Disposal",
    "rowid": "1036631",
    "final_x": "3694644.66915",
    "final_y": "526169.43123",
    "longitude": "-90.02675703723179",
    "latitude": "29.94037782753487",
    "geocoded_column": {
      "latitude": "29.94037782753487",
      "longitude": "-90.02675703723179"
    }
  },
  {
    "service_request": "2023-1036630",
    "request_type": "Trash/Recycling",
    "request_reason": "Request a Large Item Pick Up",
    "date_created": "2023-09-19T16:42:14.000",
    "date_modified": "2023-09-19T16:47:10.000",
    "request_status": "Pending",
    "responsible_agency": "Department of Sanitation",
    "final_address": "5207 Constance St",
    "address_councildis": "B",
    "status": "Assigned to Contractor",
    "contractor": "Richards Disposal",
    "rowid": "1036630",
    "final_x": "3667954.62266",
    "final_y": "518278.92767",
    "longitude": "-90.11128780416517",
    "latitude": "29.919491307208716",
    "geocoded_column": {
      "latitude": "29.919491307208716",
      "longitude": "-90.11128780416517"
    }
  },
  {
    "service_request": "2023-1036629",
    "request_type": "Roads/Drainage",
    "request_reason": "Road Shoulder Repair",
    "date_created": "2023-09-19T16:39:55.000",
    "date_modified": "2023-09-19T16:39:55.000",
    "request_status": "Pending",
    "responsible_agency": "Department of Public Works",
    "final_address": "49 Yosemite Dr",
    "address_councildis": "C",
    "status": "Pending",
    "rowid": "1036629",
    "final_x": "3699832.25066",
    "final_y": "516800.617525",
    "longitude": "-90.01072052823787",
    "latitude": "29.91445314599435",
    "geocoded_column": {
      "latitude": "29.91445314599435",
      "longitude": "-90.01072052823787"
    }
  },
  {
    "service_request": "2023-1036628",
    "request_type": "Trash/Recycling",
    "request_reason": "Repair Trash Cart",
    "date_created": "2023-09-19T16:36:54.000",
    "date_modified": "2023-09-19T16:41:27.000",
    "request_status": "Pending",
    "responsible_agency": "Department of Sanitation",
    "final_address": "10830 Guildford Rd",
    "address_councildis": "E",
    "status": "Assigned to Contractor",
    "contractor": "Waste Pro",
    "rowid": "1036628",
    "final_x": "3711370.03557",
    "final_y": "563834.136481",
    "longitude": "-89.97254068747762",
    "latitude": "30.043406461877805",
    "geocoded_column": {
      "latitude": "30.043406461877805",
      "longitude": "-89.97254068747762"
    }
  },
  {
    "service_request": "2023-1036627",
    "request_type": "Traffic Signals/Signs/Striping/Streetlights",
    "request_reason": "Additional signage",
    "date_created": "2023-09-19T16:33:07.000",
    "date_modified": "2023-09-19T16:33:07.000",
    "request_status": "Pending",
    "responsible_agency": "Department of Public Works",
    "final_address": "7800 BLK Dominican St",
    "address_councildis": "A",
    "status": "Pending",
    "rowid": "1036627",
    "final_x": "3660775.84245",
    "final_y": "525655.392703",
    "longitude": "-90.13370398605363",
    "latitude": "29.93998284923941",
    "geocoded_column": {
      "latitude": "29.93998284923941",
      "longitude": "-90.13370398605363"
    }
  },
  {
    "service_request": "2023-1036626",
    "request_type": "Traffic Signals/Signs/Striping/Streetlights",
    "request_reason": "Street Light Outage/Malfunction",
    "date_created": "2023-09-19T16:30:44.000",
    "date_modified": "2023-09-19T16:34:15.000",
    "request_status": "Pending",
    "responsible_agency": "Department of Public Works",
    "final_address": "4842 Feliciana Dr",
    "address_councildis": "D",
    "status": "Assigned to Contractor",
    "contractor": "Legacy Professional Services",
    "rowid": "1036626",
    "final_x": "3690051.99011",
    "final_y": "550978.528597",
    "longitude": "-90.04037298865121",
    "latitude": "30.008737262692694",
    "geocoded_column": {
      "latitude": "30.008737262692694",
      "longitude": "-90.04037298865121"
    }
  },
  {
    "service_request": "2023-1036625",
    "request_type": "Trash/Recycling",
    "request_reason": "Replace Trash Cart",
    "date_created": "2023-09-19T16:26:38.000",
    "date_modified": "2023-09-19T16:29:18.000",
    "request_status": "Pending",
    "responsible_agency": "Department of Sanitation",
    "final_address": "7411 Seven Oaks Rd",
    "address_councildis": "E",
    "status": "Assigned to Contractor",
    "contractor": "Waste Pro",
    "rowid": "1036625",
    "final_x": "3712645.33157",
    "final_y": "565364.59229",
    "longitude": "-89.96845263907724",
    "latitude": "30.047572891377975",
    "geocoded_column": {
      "latitude": "30.047572891377975",
      "longitude": "-89.96845263907724"
    }
  },
  {
    "service_request": "2023-1036624",
    "request_type": "Trash/Recycling",
    "request_reason": "Request a Large Item Pick Up",
    "date_created": "2023-09-19T16:22:06.000",
    "date_modified": "2023-09-19T16:24:08.000",
    "request_status": "Pending",
    "responsible_agency": "Department of Sanitation",
    "final_address": "7824 Michigan St",
    "address_councildis": "E",
    "status": "Assigned to Contractor",
    "contractor": "Waste Pro",
    "rowid": "1036624",
    "final_x": "3711273.24274",
    "final_y": "567211.6465",
    "longitude": "-89.97271983982452",
    "latitude": "30.052696410095237",
    "geocoded_column": {
      "latitude": "30.052696410095237",
      "longitude": "-89.97271983982452"
    }
  },
  {
    "service_request": "2023-1036623",
    "request_type": "Roads/Drainage",
    "request_reason": "Service Cut",
    "date_created": "2023-09-19T16:17:46.000",
    "date_modified": "2023-09-19T16:17:46.000",
    "request_status": "Pending",
    "responsible_agency": "Department of Public Works",
    "final_address": "4111 S Galvez St",
    "address_councildis": "B",
    "status": "Pending",
    "rowid": "1036623",
    "final_x": "3670960.31201",
    "final_y": "527670.569535",
    "longitude": "-90.10148161928693",
    "latitude": "29.945226815151724",
    "geocoded_column": {
      "latitude": "29.945226815151724",
      "longitude": "-90.10148161928693"
    }
  },
  {
    "service_request": "2023-1036622",
    "request_type": "Trash/Recycling",
    "request_reason": "Replace Trash Cart",
    "date_created": "2023-09-19T16:17:02.000",
    "date_modified": "2023-09-19T16:17:21.000",
    "request_status": "Pending",
    "responsible_agency": "Department of Sanitation",
    "final_address": "1705 S Salcedo St",
    "address_councildis": "B",
    "status": "Assigned to Contractor",
    "contractor": "Richards Disposal",
    "rowid": "1036622",
    "final_x": "3670124.61716",
    "final_y": "530440.439618",
    "longitude": "-90.10402635433967",
    "latitude": "29.95286772870189",
    "geocoded_column": {
      "latitude": "29.95286772870189",
      "longitude": "-90.10402635433967"
    }
  },
  {
    "service_request": "2023-1036621",
    "request_type": "Trash/Recycling",
    "request_reason": "Repair Trash Cart",
    "date_created": "2023-09-19T16:09:30.000",
    "date_modified": "2023-09-19T16:09:31.000",
    "request_status": "Pending",
    "responsible_agency": "Department of Sanitation",
    "final_address": "1116 N Derbigny St",
    "address_councildis": "D",
    "status": "Assigned to Contractor",
    "contractor": "Richards Disposal",
    "rowid": "1036621",
    "final_x": "3680508.01096",
    "final_y": "536128.917191",
    "longitude": "-90.07104234108606",
    "latitude": "29.968198716628148",
    "geocoded_column": {
      "latitude": "29.968198716628148",
      "longitude": "-90.07104234108606"
    }
  },
  {
    "service_request": "2023-1036619",
    "request_type": "Roads/Drainage",
    "request_reason": "Pothole",
    "date_created": "2023-09-19T16:04:52.000",
    "date_modified": "2023-09-19T16:04:52.000",
    "request_status": "Pending",
    "responsible_agency": "Department of Public Works",
    "final_address": "1315 Peniston St",
    "address_councildis": "B",
    "status": "Pending",
    "rowid": "1036619",
    "final_x": "3673101.31451",
    "final_y": "520423.11276",
    "longitude": "-90.09496908964098",
    "latitude": "29.925235197927364",
    "geocoded_column": {
      "latitude": "29.925235197927364",
      "longitude": "-90.09496908964098"
    }
  },
  {
    "service_request": "2023-1036618",
    "request_type": "Trash/Recycling",
    "request_reason": "Request a Large Item Pick Up",
    "date_created": "2023-09-19T16:04:17.000",
    "date_modified": "2023-09-19T16:04:17.000",
    "request_status": "Closed",
    "responsible_agency": "Department of Sanitation",
    "final_address": "2635 Milan St",
    "address_councildis": "B",
    "status": "Resolved",
    "rowid": "1036618",
    "final_x": "3671266.26036",
    "final_y": "524719.861052",
    "longitude": "-90.1006158684819",
    "latitude": "29.93710427887458",
    "geocoded_column": {
      "latitude": "29.93710427887458",
      "longitude": "-90.1006158684819"
    }
  },
  {
    "service_request": "2023-1036617",
    "request_type": "Trash/Recycling",
    "request_reason": "Request a Large Item Pick Up",
    "date_created": "2023-09-19T15:59:50.000",
    "date_modified": "2023-09-19T15:59:50.000",
    "request_status": "Pending",
    "responsible_agency": "Department of Sanitation",
    "final_address": "4515 S Johnson St",
    "address_councildis": "B",
    "status": "Assigned to Contractor",
    "contractor": "Richards Disposal",
    "rowid": "1036617",
    "final_x": "3669684.01716",
    "final_y": "527200.219775",
    "longitude": "-90.10552720839407",
    "latitude": "29.94397117274045",
    "geocoded_column": {
      "latitude": "29.94397117274045",
      "longitude": "-90.10552720839407"
    }
  },
  {
    "service_request": "2023-1036616",
    "request_type": "Trash/Recycling",
    "request_reason": "Request a Large Item Pick Up",
    "date_created": "2023-09-19T15:58:19.000",
    "date_modified": "2023-09-19T15:58:19.000",
    "request_status": "Pending",
    "responsible_agency": "Department of Sanitation",
    "final_address": "4031 Athis Ct",
    "address_councildis": "D",
    "status": "Assigned to Contractor",
    "contractor": "IV Waste",
    "rowid": "1036616",
    "final_x": "3688451.64841",
    "final_y": "554623.349016",
    "longitude": "-90.0452995330909",
    "latitude": "30.01880873123938",
    "geocoded_column": {
      "latitude": "30.01880873123938",
      "longitude": "-90.0452995330909"
    }
  },
  {
    "service_request": "2023-1036615",
    "request_type": "Trash/Recycling",
    "request_reason": "Order Recycling Cart",
    "date_created": "2023-09-19T15:55:14.000",
    "date_modified": "2023-09-19T15:55:15.000",
    "request_status": "Pending",
    "responsible_agency": "Department of Sanitation",
    "final_address": "1208 Barracks St",
    "address_councildis": "C",
    "status": "Pending",
    "rowid": "1036615",
    "final_x": "3682297.37864",
    "final_y": "535377.025862",
    "longitude": "-90.06541772306224",
    "latitude": "29.966076951222913",
    "geocoded_column": {
      "latitude": "29.966076951222913",
      "longitude": "-90.06541772306224"
    }
  },
  {
    "service_request": "2023-1036614",
    "request_type": "Trash/Recycling",
    "request_reason": "Order Trash Cart",
    "date_created": "2023-09-19T15:54:49.000",
    "date_modified": "2023-09-19T15:54:49.000",
    "request_status": "Pending",
    "responsible_agency": "Department of Sanitation",
    "final_address": "1208 Barracks St",
    "address_councildis": "C",
    "status": "Assigned to Contractor",
    "contractor": "Richards Disposal",
    "rowid": "1036614",
    "final_x": "3682297.37864",
    "final_y": "535377.025862",
    "longitude": "-90.06541772306224",
    "latitude": "29.966076951222913",
    "geocoded_column": {
      "latitude": "29.966076951222913",
      "longitude": "-90.06541772306224"
    }
  },
  {
    "service_request": "2023-1036613",
    "request_type": "Trash/Recycling",
    "request_reason": "Request a Large Item Pick Up",
    "date_created": "2023-09-19T15:54:36.000",
    "date_modified": "2023-09-19T15:55:47.000",
    "request_status": "Pending",
    "responsible_agency": "Department of Sanitation",
    "final_address": "5601 Bellaire Dr",
    "address_councildis": "A",
    "status": "Assigned to Contractor",
    "contractor": "IV Waste",
    "rowid": "1036613",
    "final_x": "3664161.81364",
    "final_y": "545089.155791",
    "longitude": "-90.1223654959436",
    "latitude": "29.993321390373936",
    "geocoded_column": {
      "latitude": "29.993321390373936",
      "longitude": "-90.1223654959436"
    }
  },
  {
    "service_request": "2023-1036612",
    "request_type": "Roads/Drainage",
    "request_reason": "Pothole",
    "date_created": "2023-09-19T15:48:34.000",
    "date_modified": "2023-09-19T15:48:34.000",
    "request_status": "Pending",
    "responsible_agency": "Department of Public Works",
    "final_address": "4216 Chestnut St",
    "address_councildis": "B",
    "status": "Pending",
    "rowid": "1036612",
    "final_x": "3671574.31393",
    "final_y": "519539.203703",
    "longitude": "-90.09981939416457",
    "latitude": "29.922850019854593",
    "geocoded_column": {
      "latitude": "29.922850019854593",
      "longitude": "-90.09981939416457"
    }
  },
  {
    "service_request": "2023-1036611",
    "request_type": "Roads/Drainage",
    "request_reason": "Damaged Sidewalk",
    "date_created": "2023-09-19T15:46:06.000",
    "date_modified": "2023-09-19T15:46:06.000",
    "request_status": "Pending",
    "responsible_agency": "Department of Public Works",
    "final_address": "5923 Pitt St",
    "address_councildis": "A",
    "status": "Pending",
    "rowid": "1036611",
    "final_x": "3665490.05639",
    "final_y": "521140.942649",
    "longitude": "-90.11897149996602",
    "latitude": "29.92743299392239",
    "geocoded_column": {
      "latitude": "29.92743299392239",
      "longitude": "-90.11897149996602"
    }
  },
  {
    "service_request": "2023-1036610",
    "request_type": "Trash/Recycling",
    "request_reason": "Request a Large Item Pick Up",
    "date_created": "2023-09-19T15:45:12.000",
    "date_modified": "2023-09-19T15:45:12.000",
    "request_status": "Pending",
    "responsible_agency": "Department of Sanitation",
    "final_address": "4743 Gabriel Dr",
    "address_councildis": "E",
    "status": "Assigned to Contractor",
    "contractor": "Waste Pro",
    "rowid": "1036610",
    "final_x": "3708945.37918",
    "final_y": "555779.236633",
    "longitude": "-89.98050411256139",
    "latitude": "30.021337620275233",
    "geocoded_column": {
      "latitude": "30.021337620275233",
      "longitude": "-89.98050411256139"
    }
  },
  {
    "service_request": "2023-1036609",
    "request_type": "Trash/Recycling",
    "request_reason": "Order Recycling Cart",
    "date_created": "2023-09-19T15:43:37.000",
    "date_modified": "2023-09-19T15:43:38.000",
    "request_status": "Pending",
    "responsible_agency": "Department of Sanitation",
    "final_address": "1029 Broadway St",
    "address_councildis": "A",
    "status": "Pending",
    "rowid": "1036609",
    "final_x": "3663930.43354",
    "final_y": "526050.50771",
    "longitude": "-90.12373125784737",
    "latitude": "29.94097809967886",
    "geocoded_column": {
      "latitude": "29.94097809967886",
      "longitude": "-90.12373125784737"
    }
  },
  {
    "service_request": "2023-1036608",
    "request_type": "Roads/Drainage",
    "request_reason": "Pothole",
    "date_created": "2023-09-19T15:40:22.000",
    "date_modified": "2023-09-19T15:40:22.000",
    "request_status": "Pending",
    "responsible_agency": "Department of Public Works",
    "final_address": "1421 Constantinople St",
    "address_councildis": "B",
    "status": "Pending",
    "rowid": "1036608",
    "final_x": "3672433.24257",
    "final_y": "520667.657465",
    "longitude": "-90.09706965638372",
    "latitude": "29.925927453713577",
    "geocoded_column": {
      "latitude": "29.925927453713577",
      "longitude": "-90.09706965638372"
    }
  },
  {
    "service_request": "2023-1036607",
    "request_type": "Roads/Drainage",
    "request_reason": "Accessibility Ramps, Curbs and Sidewalk Repair",
    "date_created": "2023-09-19T15:39:34.000",
    "date_modified": "2023-09-19T15:39:35.000",
    "request_status": "Pending",
    "responsible_agency": "Department of Public Works",
    "final_address": "848 Harrison Ave",
    "address_councildis": "A",
    "status": "Pending",
    "rowid": "1036607",
    "final_x": "3669766.08046",
    "final_y": "549034.592147",
    "longitude": "-90.10452882573644",
    "latitude": "30.00400592568403",
    "geocoded_column": {
      "latitude": "30.00400592568403",
      "longitude": "-90.10452882573644"
    }
  },
  {
    "service_request": "2023-1036606",
    "request_type": "Abandoned Vehicles",
    "request_reason": "Abandoned/Junk Vehicles",
    "date_created": "2023-09-19T15:34:13.000",
    "date_modified": "2023-09-19T15:34:13.000",
    "request_status": "Pending",
    "responsible_agency": "Department of Public Works",
    "final_address": "100 BLK Harrison Ave",
    "address_councildis": "A",
    "status": "Pending",
    "rowid": "1036606",
    "final_x": "3666650.07053",
    "final_y": "549504.464755",
    "longitude": "-90.11435709344865",
    "latitude": "30.00538942719786",
    "geocoded_column": {
      "latitude": "30.00538942719786",
      "longitude": "-90.11435709344865"
    }
  },
  {
    "service_request": "2023-1036605",
    "request_type": "Roads/Drainage",
    "request_reason": "Pothole",
    "date_created": "2023-09-19T15:33:52.000",
    "date_modified": "2023-09-19T15:33:52.000",
    "request_status": "Pending",
    "responsible_agency": "Department of Public Works",
    "final_address": "1312 Milan St",
    "address_councildis": "B",
    "status": "Pending",
    "rowid": "1036605",
    "final_x": "3671625.82823",
    "final_y": "520286.919608",
    "longitude": "-90.09963137110304",
    "latitude": "29.92490447494246",
    "geocoded_column": {
      "latitude": "29.92490447494246",
      "longitude": "-90.09963137110304"
    }
  },
  {
    "service_request": "2023-1036604",
    "request_type": "Roads/Drainage",
    "request_reason": "Pothole",
    "date_created": "2023-09-19T15:32:50.000",
    "date_modified": "2023-09-19T15:32:50.000",
    "request_status": "Pending",
    "responsible_agency": "Department of Public Works",
    "final_address": "1201 Calhoun St",
    "address_councildis": "A",
    "status": "Pending",
    "rowid": "1036604",
    "final_x": "3664035.13204",
    "final_y": "521010.594233",
    "longitude": "-90.12356870064413",
    "latitude": "29.927116894640115",
    "geocoded_column": {
      "latitude": "29.927116894640115",
      "longitude": "-90.12356870064413"
    }
  },
  {
    "service_request": "2023-1036603",
    "request_type": "Abandoned Vehicles",
    "request_reason": "Abandoned/Junk Vehicles",
    "date_created": "2023-09-19T15:30:45.000",
    "date_modified": "2023-09-19T15:31:14.000",
    "request_status": "Pending",
    "responsible_agency": "Department of Public Works",
    "final_address": "HAYNE BLVD & LAMB RD",
    "address_councildis": "E",
    "status": "Pending",
    "rowid": "1036603",
    "final_x": "3696530.3",
    "final_y": "560647.58",
    "longitude": "-90.0195557622221",
    "latitude": "30.035120895592602",
    "geocoded_column": {
      "latitude": "30.035120895592602",
      "longitude": "-90.0195557622221"
    }
  },
  {
    "service_request": "2023-1036602",
    "request_type": "Parks & Parkways",
    "request_reason": "Request Tree Service (Right of Way/Public Property)",
    "date_created": "2023-09-19T15:28:23.000",
    "date_modified": "2023-09-19T15:28:23.000",
    "request_status": "Pending",
    "responsible_agency": "Department of Parks & Parkway",
    "final_address": "4526 S Carrollton Ave",
    "address_councildis": "A",
    "status": "Pending",
    "rowid": "1036602",
    "final_x": "3670578.17076",
    "final_y": "537536.282248",
    "longitude": "-90.10235352601076",
    "latitude": "29.972365546804415",
    "geocoded_column": {
      "latitude": "29.972365546804415",
      "longitude": "-90.10235352601076"
    }
  },
  {
    "service_request": "2023-1036601",
    "request_type": "Abandoned Vehicles",
    "request_reason": "Abandoned/Junk Vehicles",
    "date_created": "2023-09-19T15:27:56.000",
    "date_modified": "2023-09-19T15:27:56.000",
    "request_status": "Pending",
    "responsible_agency": "Department of Public Works",
    "final_address": "6300 BLK Bellaire Dr",
    "address_councildis": "A",
    "status": "Pending",
    "rowid": "1036601",
    "final_x": "3664433.74196",
    "final_y": "550418.473754",
    "longitude": "-90.12132844941182",
    "latitude": "30.00796728056933",
    "geocoded_column": {
      "latitude": "30.00796728056933",
      "longitude": "-90.12132844941182"
    }
  },
  {
    "service_request": "2023-1036600",
    "request_type": "Roads/Drainage",
    "request_reason": "Pothole",
    "date_created": "2023-09-19T15:26:33.000",
    "date_modified": "2023-09-19T15:26:33.000",
    "request_status": "Pending",
    "responsible_agency": "Department of Public Works",
    "final_address": "1423 General Pershing St",
    "address_councildis": "B",
    "status": "Pending",
    "rowid": "1036600",
    "final_x": "3671330.69185",
    "final_y": "520571.244024",
    "longitude": "-90.1005533659415",
    "latitude": "29.925695010510914",
    "geocoded_column": {
      "latitude": "29.925695010510914",
      "longitude": "-90.1005533659415"
    }
  },
  {
    "service_request": "2023-1036599",
    "request_type": "Trash/Recycling",
    "request_reason": "Request a Large Item Pick Up",
    "date_created": "2023-09-19T15:23:55.000",
    "date_modified": "2023-09-19T15:23:56.000",
    "request_status": "Pending",
    "responsible_agency": "Department of Sanitation",
    "final_address": "246 Pacific Ave",
    "address_councildis": "C",
    "status": "Assigned to Contractor",
    "contractor": "Richards Disposal",
    "rowid": "1036599",
    "final_x": "3688585.78531",
    "final_y": "530772.140994",
    "longitude": "-90.04572256358668",
    "latitude": "29.953222284682123",
    "geocoded_column": {
      "latitude": "29.953222284682123",
      "longitude": "-90.04572256358668"
    }
  },
  {
    "service_request": "2023-1036598",
    "request_type": "Trash/Recycling",
    "request_reason": "Order Recycling Cart",
    "date_created": "2023-09-19T15:23:31.000",
    "date_modified": "2023-09-19T15:23:31.000",
    "request_status": "Pending",
    "responsible_agency": "Department of Sanitation",
    "final_address": "5525 Warrington Dr",
    "address_councildis": "D",
    "status": "Pending",
    "rowid": "1036598",
    "final_x": "3680904.17743",
    "final_y": "553515.551895",
    "longitude": "-90.06918546247732",
    "latitude": "30.015993813983545",
    "geocoded_column": {
      "latitude": "30.015993813983545",
      "longitude": "-90.06918546247732"
    }
  },
  {
    "service_request": "2023-1036597",
    "request_type": "Trash/Recycling",
    "request_reason": "Order Trash Cart",
    "date_created": "2023-09-19T15:22:55.000",
    "date_modified": "2023-09-19T15:22:56.000",
    "request_status": "Pending",
    "responsible_agency": "Department of Sanitation",
    "final_address": "5525 Warrington Dr",
    "address_councildis": "D",
    "status": "Assigned to Contractor",
    "contractor": "IV Waste",
    "rowid": "1036597",
    "final_x": "3680904.17743",
    "final_y": "553515.551895",
    "longitude": "-90.06918546247732",
    "latitude": "30.015993813983545",
    "geocoded_column": {
      "latitude": "30.015993813983545",
      "longitude": "-90.06918546247732"
    }
  },
  {
    "service_request": "2023-1036596",
    "request_type": "Trash/Recycling",
    "request_reason": "Request a Large Item Pick Up",
    "date_created": "2023-09-19T15:22:17.000",
    "date_modified": "2023-09-19T15:22:18.000",
    "request_status": "Pending",
    "responsible_agency": "Department of Sanitation",
    "final_address": "2463 Oriole St",
    "address_councildis": "D",
    "status": "Assigned to Contractor",
    "contractor": "IV Waste",
    "rowid": "1036596",
    "final_x": "3685038.80994",
    "final_y": "558317.081372",
    "longitude": "-90.05595276332826",
    "latitude": "30.029070171679372",
    "geocoded_column": {
      "latitude": "30.029070171679372",
      "longitude": "-90.05595276332826"
    }
  },
  {
    "service_request": "2023-1036595",
    "request_type": "Roads/Drainage",
    "request_reason": "Road Shoulder Repair",
    "date_created": "2023-09-19T15:20:16.000",
    "date_modified": "2023-09-19T15:20:16.000",
    "request_status": "Pending",
    "responsible_agency": "Department of Public Works",
    "final_address": "73 Yosemite Dr",
    "address_councildis": "C",
    "status": "Pending",
    "rowid": "1036595",
    "final_x": "3699452.57335",
    "final_y": "516302.922868",
    "longitude": "-90.01193702778016",
    "latitude": "29.91309669950578",
    "geocoded_column": {
      "latitude": "29.91309669950578",
      "longitude": "-90.01193702778016"
    }
  },
  {
    "service_request": "2023-1036594",
    "request_type": "Trash/Recycling",
    "request_reason": "Order Trash Cart",
    "date_created": "2023-09-19T15:18:57.000",
    "date_modified": "2023-09-19T15:19:24.000",
    "request_status": "Pending",
    "responsible_agency": "Department of Sanitation",
    "final_address": "1800 Louisa St",
    "address_councildis": "D",
    "status": "Assigned to Contractor",
    "contractor": "IV Waste",
    "rowid": "1036594",
    "final_x": "3690188.16195",
    "final_y": "538534.132105",
    "longitude": "-90.04038641237028",
    "latitude": "29.974515437495494",
    "geocoded_column": {
      "latitude": "29.974515437495494",
      "longitude": "-90.04038641237028"
    }
  },
  {
    "service_request": "2023-1036593",
    "request_type": "Trash/Recycling",
    "request_reason": "Request a Large Item Pick Up",
    "date_created": "2023-09-19T15:17:53.000",
    "date_modified": "2023-09-19T15:18:56.000",
    "request_status": "Pending",
    "responsible_agency": "Department of Sanitation",
    "final_address": "2377 N Villere St",
    "address_councildis": "C",
    "status": "Assigned to Contractor",
    "contractor": "IV Waste",
    "rowid": "1036593",
    "final_x": "3686322.23913",
    "final_y": "537556.993608",
    "longitude": "-90.05263039759154",
    "latitude": "29.971948028886814",
    "geocoded_column": {
      "latitude": "29.971948028886814",
      "longitude": "-90.05263039759154"
    }
  },
  {
    "service_request": "2023-1036590",
    "request_type": "Trash/Recycling",
    "request_reason": "Request a Large Item Pick Up",
    "date_created": "2023-09-19T15:16:20.000",
    "date_modified": "2023-09-19T15:16:21.000",
    "request_status": "Pending",
    "responsible_agency": "Department of Sanitation",
    "final_address": "13435 Dwyer Blvd",
    "address_councildis": "E",
    "status": "Assigned to Contractor",
    "contractor": "Waste Pro",
    "rowid": "1036590",
    "final_x": "3725643.56102",
    "final_y": "561995.541919",
    "longitude": "-89.9275022575729",
    "latitude": "30.0378772708838",
    "geocoded_column": {
      "latitude": "30.0378772708838",
      "longitude": "-89.9275022575729"
    }
  },
  {
    "service_request": "2023-1036588",
    "request_type": "Trash/Recycling",
    "request_reason": "Request a Large Item Pick Up",
    "date_created": "2023-09-19T15:09:36.000",
    "date_modified": "2023-09-19T15:09:36.000",
    "request_status": "Pending",
    "responsible_agency": "Department of Sanitation",
    "final_address": "3317 Laurel St",
    "address_councildis": "B",
    "status": "Assigned to Contractor",
    "contractor": "Richards Disposal",
    "rowid": "1036588",
    "final_x": "3675499.24731",
    "final_y": "519146.403511",
    "longitude": "-90.08744338876099",
    "latitude": "29.92165318162446",
    "geocoded_column": {
      "latitude": "29.92165318162446",
      "longitude": "-90.08744338876099"
    }
  },
  {
    "service_request": "2023-1036587",
    "request_type": "Trash/Recycling",
    "request_reason": "Repair Trash Cart",
    "date_created": "2023-09-19T15:07:17.000",
    "date_modified": "2023-09-19T15:07:18.000",
    "request_status": "Pending",
    "responsible_agency": "Department of Sanitation",
    "final_address": "3820 Delachaise St",
    "address_councildis": "B",
    "status": "Assigned to Contractor",
    "contractor": "Richards Disposal",
    "rowid": "1036587",
    "final_x": "3671024.84967",
    "final_y": "528755.004288",
    "longitude": "-90.10124103671149",
    "latitude": "29.948206748067783",
    "geocoded_column": {
      "latitude": "29.948206748067783",
      "longitude": "-90.10124103671149"
    }
  },
  {
    "service_request": "2023-1036586",
    "request_type": "Trash/Recycling",
    "request_reason": "Request a Large Item Pick Up",
    "date_created": "2023-09-19T15:05:31.000",
    "date_modified": "2023-09-19T15:05:32.000",
    "request_status": "Pending",
    "responsible_agency": "Department of Sanitation",
    "final_address": "5336 Dryades St",
    "address_councildis": "B",
    "status": "Assigned to Contractor",
    "contractor": "Richards Disposal",
    "rowid": "1036586",
    "final_x": "3667609.66049",
    "final_y": "521793.283898",
    "longitude": "-90.11225846699281",
    "latitude": "29.929164787498774",
    "geocoded_column": {
      "latitude": "29.929164787498774",
      "longitude": "-90.11225846699281"
    }
  },
  {
    "service_request": "2023-1036585",
    "request_type": "Trash/Recycling",
    "request_reason": "Replace Trash Cart",
    "date_created": "2023-09-19T14:57:44.000",
    "date_modified": "2023-09-19T14:57:45.000",
    "request_status": "Pending",
    "responsible_agency": "Department of Sanitation",
    "final_address": "1420 Josephine St",
    "address_councildis": "B",
    "status": "Assigned to Contractor",
    "contractor": "Richards Disposal",
    "rowid": "1036585",
    "final_x": "3678394.19694",
    "final_y": "523247.331515",
    "longitude": "-90.07816347718871",
    "latitude": "29.932842527163476",
    "geocoded_column": {
      "latitude": "29.932842527163476",
      "longitude": "-90.07816347718871"
    }
  },
  {
    "service_request": "2023-1036584",
    "request_type": "Trash/Recycling",
    "request_reason": "Request a Large Item Pick Up",
    "date_created": "2023-09-19T14:55:09.000",
    "date_modified": "2023-09-19T14:55:10.000",
    "request_status": "Pending",
    "responsible_agency": "Department of Sanitation",
    "final_address": "4924 Marigny St",
    "address_councildis": "D",
    "status": "Assigned to Contractor",
    "contractor": "IV Waste",
    "rowid": "1036584",
    "final_x": "3684322.10095",
    "final_y": "550939.718101",
    "longitude": "-90.05847690922917",
    "latitude": "30.008807083408897",
    "geocoded_column": {
      "latitude": "30.008807083408897",
      "longitude": "-90.05847690922917"
    }
  },
  {
    "service_request": "2023-1036583",
    "request_type": "Traffic Signals/Signs/Striping/Streetlights",
    "request_reason": "Street Light Outage/Malfunction",
    "date_created": "2023-09-19T14:53:11.000",
    "date_modified": "2023-09-19T14:53:12.000",
    "request_status": "Pending",
    "responsible_agency": "Department of Public Works",
    "final_address": "4826 Gawain Dr",
    "address_councildis": "E",
    "status": "Assigned to Contractor",
    "contractor": "Legacy Professional Services",
    "rowid": "1036583",
    "final_x": "3706834.84043",
    "final_y": "556104.964378",
    "longitude": "-89.9871606845238",
    "latitude": "30.0223015912947",
    "geocoded_column": {
      "latitude": "30.0223015912947",
      "longitude": "-89.9871606845238"
    }
  },
  {
    "service_request": "2023-1036582",
    "request_type": "Parks & Parkways",
    "request_reason": "Request Tree Service (Right of Way/Public Property)",
    "date_created": "2023-09-19T14:43:35.000",
    "date_modified": "2023-09-19T14:43:35.000",
    "request_status": "Pending",
    "responsible_agency": "Department of Parks & Parkway",
    "final_address": "5717 Elysian Fields Ave",
    "address_councildis": "D",
    "status": "Pending",
    "rowid": "1036582",
    "final_x": "3683754.63356",
    "final_y": "554051.95708",
    "longitude": "-90.06016046982417",
    "latitude": "30.01738195429778",
    "geocoded_column": {
      "latitude": "30.01738195429778",
      "longitude": "-90.06016046982417"
    }
  },
  {
    "service_request": "2023-1036581",
    "request_type": "Trash/Recycling",
    "request_reason": "Repair Recycling Cart",
    "date_created": "2023-09-19T14:42:00.000",
    "date_modified": "2023-09-19T14:42:01.000",
    "request_status": "Pending",
    "responsible_agency": "Department of Sanitation",
    "final_address": "1467 N Dorgenois St",
    "address_councildis": "D",
    "status": "Pending",
    "rowid": "1036581",
    "final_x": "3679047.37538",
    "final_y": "539200.35329",
    "longitude": "-90.07554861610778",
    "latitude": "29.97668827367373",
    "geocoded_column": {
      "latitude": "29.97668827367373",
      "longitude": "-90.07554861610778"
    }
  },
  {
    "service_request": "2023-1036580",
    "request_type": "Traffic Signals/Signs/Striping/Streetlights",
    "request_reason": "Street Light Outage/Malfunction",
    "date_created": "2023-09-19T14:36:40.000",
    "date_modified": "2023-09-19T14:36:41.000",
    "request_status": "Pending",
    "responsible_agency": "Department of Public Works",
    "final_address": "5131 N Villere St",
    "address_councildis": "E",
    "status": "Assigned to Contractor",
    "contractor": "Legacy Professional Services",
    "rowid": "1036580",
    "final_x": "3696805.44407",
    "final_y": "535281.475782",
    "longitude": "-90.01960532662991",
    "latitude": "29.96536482508715",
    "geocoded_column": {
      "latitude": "29.96536482508715",
      "longitude": "-90.01960532662991"
    }
  },
  {
    "service_request": "2023-1036579",
    "request_type": "Abandoned Vehicles",
    "request_reason": "Abandoned/Junk Vehicles",
    "date_created": "2023-09-19T14:36:19.000",
    "date_modified": "2023-09-19T14:36:19.000",
    "request_status": "Pending",
    "responsible_agency": "Department of Public Works",
    "final_address": "5350 Pratt Dr",
    "address_councildis": "D",
    "status": "Pending",
    "rowid": "1036579",
    "final_x": "3680308.32155",
    "final_y": "552074.866582",
    "longitude": "-90.07111824376224",
    "latitude": "30.01205051288932",
    "geocoded_column": {
      "latitude": "30.01205051288932",
      "longitude": "-90.07111824376224"
    }
  },
  {
    "service_request": "2023-1036578",
    "request_type": "Trash/Recycling",
    "request_reason": "Replace Recycling Cart",
    "date_created": "2023-09-19T14:36:14.000",
    "date_modified": "2023-09-19T14:36:14.000",
    "request_status": "Pending",
    "responsible_agency": "Department of Sanitation",
    "status": "Pending",
    "rowid": "1036578",
    "longitude": "0.0",
    "latitude": "0.0",
    "geocoded_column": {
      "latitude": "0.0",
      "longitude": "0.0"
    }
  },
  {
    "service_request": "2023-1036576",
    "request_type": "Trash/Recycling",
    "request_reason": "Request a Large Item Pick Up",
    "date_created": "2023-09-19T14:31:14.000",
    "date_modified": "2023-09-19T14:57:09.000",
    "case_close_date": "2023-09-19T09:57:09.000",
    "request_status": "Closed",
    "responsible_agency": "Department of Sanitation",
    "final_address": "4727 Coronado Dr",
    "address_councildis": "E",
    "status": "Duplicate Request",
    "contractor": "Waste Pro",
    "contractor_action": "duplicate",
    "rowid": "1036576",
    "final_x": "3714197.70136",
    "final_y": "556483.288282",
    "longitude": "-89.96388181730057",
    "latitude": "30.02310193070143",
    "geocoded_column": {
      "latitude": "30.02310193070143",
      "longitude": "-89.96388181730057"
    }
  },
  {
    "service_request": "2023-1036575",
    "request_type": "Trash/Recycling",
    "request_reason": "Request a Large Item Pick Up",
    "date_created": "2023-09-19T14:31:00.000",
    "date_modified": "2023-09-19T14:31:01.000",
    "request_status": "Pending",
    "responsible_agency": "Department of Sanitation",
    "final_address": "1101 Marais St",
    "address_councildis": "C",
    "status": "Assigned to Contractor",
    "contractor": "Richards Disposal",
    "rowid": "1036575",
    "final_x": "3681448.98696",
    "final_y": "535219.707014",
    "longitude": "-90.06810240647127",
    "latitude": "29.965670164255112",
    "geocoded_column": {
      "latitude": "29.965670164255112",
      "longitude": "-90.06810240647127"
    }
  },
  {
    "service_request": "2023-1036574",
    "request_type": "Trash/Recycling",
    "request_reason": "Order Recycling Cart",
    "date_created": "2023-09-19T14:26:49.000",
    "date_modified": "2023-09-19T14:26:51.000",
    "request_status": "Pending",
    "responsible_agency": "Department of Sanitation",
    "final_address": "6870 Farwood Rd",
    "address_councildis": "E",
    "status": "Pending",
    "rowid": "1036574",
    "final_x": "3700684.21949",
    "final_y": "557289.131099",
    "longitude": "-90.0065516855711",
    "latitude": "30.025754848125956",
    "geocoded_column": {
      "latitude": "30.025754848125956",
      "longitude": "-90.0065516855711"
    }
  },
  {
    "service_request": "2023-1036573",
    "request_type": "Trash/Recycling",
    "request_reason": "MIssed Recycling Pick-Up",
    "date_created": "2023-09-19T14:18:53.000",
    "date_modified": "2023-09-19T14:18:54.000",
    "request_status": "Pending",
    "responsible_agency": "Department of Sanitation",
    "final_address": "2540 Esplanade Ave",
    "address_councildis": "D",
    "status": "Assigned to Contractor",
    "contractor": "Richards Disposal",
    "rowid": "1036573",
    "final_x": "3678320.94197",
    "final_y": "538729.288009",
    "longitude": "-90.0778592202657",
    "latitude": "29.975414912265574",
    "geocoded_column": {
      "latitude": "29.975414912265574",
      "longitude": "-90.0778592202657"
    }
  },
  {
    "service_request": "2023-1036572",
    "request_type": "Property Maintenance",
    "request_reason": "Property Maintenance",
    "date_created": "2023-09-19T14:16:06.000",
    "date_modified": "2023-09-19T14:16:07.000",
    "request_status": "Pending",
    "responsible_agency": "Department of Code Enforcement",
    "final_address": "1115 Independence St",
    "address_councildis": "C",
    "status": "Pending",
    "rowid": "1036572",
    "final_x": "3691039.06864",
    "final_y": "535714.996935",
    "longitude": "-90.03779971959094",
    "latitude": "29.96673738289594",
    "geocoded_column": {
      "latitude": "29.96673738289594",
      "longitude": "-90.03779971959094"
    }
  },
  {
    "service_request": "2023-1036571",
    "request_type": "Trash/Recycling",
    "request_reason": "MIssed Recycling Pick-Up",
    "date_created": "2023-09-19T14:15:55.000",
    "date_modified": "2023-09-19T14:15:56.000",
    "request_status": "Pending",
    "responsible_agency": "Department of Sanitation",
    "final_address": "1300 BLK N Broad St",
    "address_councildis": "D",
    "status": "Assigned to Contractor",
    "contractor": "Richards Disposal",
    "rowid": "1036571",
    "final_x": "3678095.64016",
    "final_y": "538769.277236",
    "longitude": "-90.07856940149249",
    "latitude": "29.975531654718296",
    "geocoded_column": {
      "latitude": "29.975531654718296",
      "longitude": "-90.07856940149249"
    }
  },
  {
    "service_request": "2023-1036570",
    "request_type": "Trash/Recycling",
    "request_reason": "Repair Trash Cart",
    "date_created": "2023-09-19T14:15:29.000",
    "date_modified": "2023-09-19T14:18:54.000",
    "request_status": "Pending",
    "responsible_agency": "Department of Sanitation",
    "final_address": "830 Turquoise St, New Orleans, Louisiana, 70124",
    "address_councildis": "D",
    "contractor": "IV Waste",
    "rowid": "1036570",
    "final_x": "3670493.67457",
    "final_y": "555076.542041",
    "longitude": "-90.10202510890842",
    "latitude": "30.020597679479895",
    "geocoded_column": {
      "latitude": "30.020597679479895",
      "longitude": "-90.10202510890842"
    }
  },
  {
    "service_request": "2023-1036569",
    "request_type": "Trash/Recycling",
    "request_reason": "Return Recycling Cart",
    "date_created": "2023-09-19T14:13:20.000",
    "date_modified": "2023-09-19T14:13:21.000",
    "request_status": "Pending",
    "responsible_agency": "Department of Sanitation",
    "final_address": "1013 Burdette St",
    "address_councildis": "A",
    "status": "Pending",
    "rowid": "1036569",
    "final_x": "3662432.46407",
    "final_y": "527161.892287",
    "longitude": "-90.12842374417713",
    "latitude": "29.944077449433962",
    "geocoded_column": {
      "latitude": "29.944077449433962",
      "longitude": "-90.12842374417713"
    }
  },
  {
    "service_request": "2023-1036568",
    "request_type": "Trash/Recycling",
    "request_reason": "Illegal Dumping",
    "date_created": "2023-09-19T14:11:55.000",
    "date_modified": "2023-09-19T14:11:56.000",
    "request_status": "Pending",
    "responsible_agency": "Department of Code Enforcement",
    "final_address": "5700 Wilton Dr",
    "address_councildis": "D",
    "status": "Pending",
    "rowid": "1036568",
    "final_x": "3681746.94805",
    "final_y": "553745.893463",
    "longitude": "-90.06651463800068",
    "latitude": "30.0166015767411",
    "geocoded_column": {
      "latitude": "30.0166015767411",
      "longitude": "-90.06651463800068"
    }
  },
  {
    "service_request": "2023-1036567",
    "request_type": "Trash/Recycling",
    "request_reason": "Repair Trash Cart",
    "date_created": "2023-09-19T14:06:41.000",
    "date_modified": "2023-09-19T14:06:42.000",
    "request_status": "Pending",
    "responsible_agency": "Department of Sanitation",
    "final_address": "6600 Louis Xiv St",
    "address_councildis": "A",
    "status": "Assigned to Contractor",
    "contractor": "IV Waste",
    "rowid": "1036567",
    "final_x": "3668357.75854",
    "final_y": "551464.466709",
    "longitude": "-90.10889594674029",
    "latitude": "30.01072868450671",
    "geocoded_column": {
      "latitude": "30.01072868450671",
      "longitude": "-90.10889594674029"
    }
  },
  {
    "service_request": "2023-1036566",
    "request_type": "Trash/Recycling",
    "request_reason": "Missed Trash Pick-Up",
    "date_created": "2023-09-19T14:03:43.000",
    "date_modified": "2023-09-19T14:06:46.000",
    "request_status": "Pending",
    "responsible_agency": "Department of Sanitation",
    "final_address": "7021 Wayside Dr",
    "address_councildis": "E",
    "status": "Assigned to Contractor",
    "contractor": "Waste Pro",
    "rowid": "1036566",
    "final_x": "3717762.22629",
    "final_y": "567773.500324",
    "longitude": "-89.95218883564827",
    "latitude": "30.05402781490846",
    "geocoded_column": {
      "latitude": "30.05402781490846",
      "longitude": "-89.95218883564827"
    }
  },
  {
    "service_request": "2023-1036565",
    "request_type": "Abandoned Vehicles",
    "request_reason": "Abandoned/Junk Vehicles",
    "date_created": "2023-09-19T14:02:31.000",
    "date_modified": "2023-09-19T14:02:31.000",
    "request_status": "Pending",
    "responsible_agency": "Department of Public Works",
    "final_address": "4229 S Carrollton Ave",
    "address_councildis": "A",
    "status": "Pending",
    "rowid": "1036565",
    "final_x": "3669621.5371",
    "final_y": "536823.259656",
    "longitude": "-90.10539888187017",
    "latitude": "29.970433197850983",
    "geocoded_column": {
      "latitude": "29.970433197850983",
      "longitude": "-90.10539888187017"
    }
  },
  {
    "service_request": "2023-1036564",
    "request_type": "Property Maintenance",
    "request_reason": "Property Maintenance",
    "date_created": "2023-09-19T13:53:24.000",
    "date_modified": "2023-09-19T13:53:24.000",
    "request_status": "Pending",
    "responsible_agency": "Department of Code Enforcement",
    "final_address": "827 St Charles Ave",
    "address_councildis": "B",
    "status": "Pending",
    "rowid": "1036564",
    "final_x": "3680295.83919",
    "final_y": "527806.738879",
    "longitude": "-90.07200169592296",
    "latitude": "29.945321969188562",
    "geocoded_column": {
      "latitude": "29.945321969188562",
      "longitude": "-90.07200169592296"
    }
  },
  {
    "service_request": "2023-1036563",
    "request_type": "Trash/Recycling",
    "request_reason": "Return Recycling Cart",
    "date_created": "2023-09-19T13:53:10.000",
    "date_modified": "2023-09-19T13:53:11.000",
    "request_status": "Pending",
    "responsible_agency": "Department of Sanitation",
    "final_address": "4111 General Meyer Ave",
    "address_councildis": "C",
    "status": "Pending",
    "rowid": "1036563",
    "final_x": "3699218.49162",
    "final_y": "524514.33446",
    "longitude": "-90.01237706972869",
    "latitude": "29.935682687623235",
    "geocoded_column": {
      "latitude": "29.935682687623235",
      "longitude": "-90.01237706972869"
    }
  },
  {
    "service_request": "2023-1036562",
    "request_type": "Trash/Recycling",
    "request_reason": "Order Recycling Cart",
    "date_created": "2023-09-19T13:52:53.000",
    "date_modified": "2023-09-19T13:52:54.000",
    "request_status": "Pending",
    "responsible_agency": "Department of Sanitation",
    "final_address": "3626 General Pershing St",
    "address_councildis": "B",
    "status": "Pending",
    "rowid": "1036562",
    "final_x": "3670486.72046",
    "final_y": "528078.000255",
    "longitude": "-90.10296308803453",
    "latitude": "29.946361107880033",
    "geocoded_column": {
      "latitude": "29.946361107880033",
      "longitude": "-90.10296308803453"
    }
  },
  {
    "service_request": "2023-1036561",
    "request_type": "Trash/Recycling",
    "request_reason": "Repair Trash Cart",
    "date_created": "2023-09-19T13:52:06.000",
    "date_modified": "2023-09-19T13:52:07.000",
    "request_status": "Pending",
    "responsible_agency": "Department of Sanitation",
    "final_address": "3626 General Pershing St",
    "address_councildis": "B",
    "status": "Assigned to Contractor",
    "contractor": "Richards Disposal",
    "rowid": "1036561",
    "final_x": "3670486.72046",
    "final_y": "528078.000255",
    "longitude": "-90.10296308803453",
    "latitude": "29.946361107880033",
    "geocoded_column": {
      "latitude": "29.946361107880033",
      "longitude": "-90.10296308803453"
    }
  },
  {
    "service_request": "2023-1036560",
    "request_type": "Trash/Recycling",
    "request_reason": "Request a Large Item Pick Up",
    "date_created": "2023-09-19T13:51:33.000",
    "date_modified": "2023-09-19T13:51:34.000",
    "request_status": "Pending",
    "responsible_agency": "Department of Sanitation",
    "final_address": "2124 Calhoun St, New Orleans, Louisiana, 70118",
    "address_councildis": "A",
    "status": "Assigned to Contractor",
    "contractor": "Richards Disposal",
    "rowid": "1036560",
    "final_x": "3665666.75104",
    "final_y": "524959.463997",
    "longitude": "-90.11828589457117",
    "latitude": "29.937927564694842",
    "geocoded_column": {
      "latitude": "29.937927564694842",
      "longitude": "-90.11828589457117"
    }
  },
  {
    "service_request": "2023-1036559",
    "request_type": "Roads/Drainage",
    "request_reason": "Pothole",
    "date_created": "2023-09-19T13:51:26.000",
    "date_modified": "2023-09-19T13:51:26.000",
    "request_status": "Pending",
    "responsible_agency": "Department of Public Works",
    "final_address": "1836 Valence St",
    "address_councildis": "B",
    "status": "Pending",
    "rowid": "1036559",
    "final_x": "3669548.88276",
    "final_y": "521749.076666",
    "longitude": "-90.10613819354518",
    "latitude": "29.928986265896693",
    "geocoded_column": {
      "latitude": "29.928986265896693",
      "longitude": "-90.10613819354518"
    }
  },
  {
    "service_request": "2023-1036558",
    "request_type": "Abandoned Vehicles",
    "request_reason": "Abandoned/Junk Vehicles",
    "date_created": "2023-09-19T13:50:45.000",
    "date_modified": "2023-09-19T13:50:45.000",
    "request_status": "Pending",
    "responsible_agency": "Department of Public Works",
    "final_address": "6500 BLK Fleur-de-lis Dr",
    "address_councildis": "A",
    "status": "Pending",
    "rowid": "1036558",
    "final_x": "3665429.89548",
    "final_y": "551962.039236",
    "longitude": "-90.11812956968055",
    "latitude": "30.012182538468664",
    "geocoded_column": {
      "latitude": "30.012182538468664",
      "longitude": "-90.11812956968055"
    }
  },
  {
    "service_request": "2023-1036557",
    "request_type": "Roads/Drainage",
    "request_reason": "Pothole",
    "date_created": "2023-09-19T13:48:31.000",
    "date_modified": "2023-09-19T13:48:31.000",
    "request_status": "Pending",
    "responsible_agency": "Department of Public Works",
    "final_address": "6026 Paris Ave",
    "address_councildis": "D",
    "status": "Pending",
    "rowid": "1036557",
    "final_x": "3678668.87189",
    "final_y": "554580.345112",
    "longitude": "-90.07621112501809",
    "latitude": "30.01898922915417",
    "geocoded_column": {
      "latitude": "30.01898922915417",
      "longitude": "-90.07621112501809"
    }
  },
  {
    "service_request": "2023-1036556",
    "request_type": "Traffic Signals/Signs/Striping/Streetlights",
    "request_reason": "Street Light Knocked Down/Leaning",
    "date_created": "2023-09-19T13:45:32.000",
    "date_modified": "2023-09-19T13:45:33.000",
    "request_status": "Pending",
    "responsible_agency": "Department of Public Works",
    "status": "Pending",
    "contractor": "Legacy Professional Services",
    "rowid": "1036556",
    "longitude": "0.0",
    "latitude": "0.0",
    "geocoded_column": {
      "latitude": "0.0",
      "longitude": "0.0"
    }
  },
  {
    "service_request": "2023-1036555",
    "request_type": "Roads/Drainage",
    "request_reason": "Man hole cover issue",
    "date_created": "2023-09-19T13:43:27.000",
    "date_modified": "2023-09-19T13:43:27.000",
    "request_status": "Pending",
    "responsible_agency": "Department of Public Works",
    "final_address": "1735 S Carrollton Ave",
    "address_councildis": "A",
    "status": "Pending",
    "rowid": "1036555",
    "final_x": "3663474.98208",
    "final_y": "529775.207681",
    "longitude": "-90.12504520247383",
    "latitude": "29.951233042216785",
    "geocoded_column": {
      "latitude": "29.951233042216785",
      "longitude": "-90.12504520247383"
    }
  },
  {
    "service_request": "2023-1036554",
    "request_type": "Trash/Recycling",
    "request_reason": "Repair Trash Cart",
    "date_created": "2023-09-19T13:43:06.000",
    "date_modified": "2023-09-19T17:21:13.000",
    "case_close_date": "2023-09-19T12:21:13.000",
    "request_status": "Closed",
    "responsible_agency": "Department of Sanitation",
    "final_address": "209 S Dupre St",
    "address_councildis": "B",
    "status": "Resolved",
    "contractor": "Richards Disposal",
    "contractor_action": "Completed",
    "rowid": "1036554",
    "final_x": "3674262.94728",
    "final_y": "535268.71335",
    "longitude": "-90.09079400141533",
    "latitude": "29.96602113811009",
    "geocoded_column": {
      "latitude": "29.96602113811009",
      "longitude": "-90.09079400141533"
    }
  },
  {
    "service_request": "2023-1036553",
    "request_type": "Traffic Signals/Signs/Striping/Streetlights",
    "request_reason": "Street Light Outage/Malfunction",
    "date_created": "2023-09-19T13:36:11.000",
    "date_modified": "2023-09-19T14:01:04.000",
    "request_status": "Pending",
    "responsible_agency": "Department of Public Works",
    "final_address": "2 sets of light posts are not working from 821 through 829 St. Charles Ave",
    "address_councildis": "B",
    "status": "Assigned to Contractor",
    "contractor": "Legacy Professional Services",
    "rowid": "1036553",
    "final_x": "3680302.39144",
    "final_y": "527835.437567",
    "longitude": "-90.0719800109387",
    "latitude": "29.945400682662537",
    "geocoded_column": {
      "latitude": "29.945400682662537",
      "longitude": "-90.0719800109387"
    }
  },
  {
    "service_request": "2023-1036552",
    "request_type": "Trash/Recycling",
    "request_reason": "MIssed Recycling Pick-Up",
    "date_created": "2023-09-19T13:35:44.000",
    "date_modified": "2023-09-19T13:35:44.000",
    "request_status": "Pending",
    "responsible_agency": "Department of Sanitation",
    "final_address": "815 N Villere St",
    "address_councildis": "C",
    "status": "Pending",
    "rowid": "1036552",
    "final_x": "3680579.09218",
    "final_y": "534588.803653",
    "longitude": "-90.07087145135482",
    "latitude": "29.963961778442698",
    "geocoded_column": {
      "latitude": "29.963961778442698",
      "longitude": "-90.07087145135482"
    }
  },
  {
    "service_request": "2023-1036549",
    "request_type": "Parks & Parkways",
    "request_reason": "Request Tree Service (Right of Way/Public Property)",
    "date_created": "2023-09-19T13:34:35.000",
    "date_modified": "2023-09-19T13:34:36.000",
    "request_status": "Pending",
    "responsible_agency": "Department of Parks & Parkway",
    "final_address": "6025 Elysian Fields Ave",
    "address_councildis": "D",
    "status": "Pending",
    "rowid": "1036549",
    "final_x": "3683644.61692",
    "final_y": "555178.468505",
    "longitude": "-90.06046853886082",
    "latitude": "30.02048280817224",
    "geocoded_column": {
      "latitude": "30.02048280817224",
      "longitude": "-90.06046853886082"
    }
  },
  {
    "service_request": "2023-1036548",
    "request_type": "Roads/Drainage",
    "request_reason": "Street Flooding / Drainage",
    "date_created": "2023-09-19T13:33:51.000",
    "date_modified": "2023-09-19T13:33:51.000",
    "request_status": "Pending",
    "responsible_agency": "Department of Public Works",
    "final_address": "6800 BLK Vicksburg St",
    "address_councildis": "A",
    "status": "Pending",
    "rowid": "1036548",
    "final_x": "3669388.94531",
    "final_y": "552966.900744",
    "longitude": "-90.10558715673858",
    "latitude": "30.01482950946204",
    "geocoded_column": {
      "latitude": "30.01482950946204",
      "longitude": "-90.10558715673858"
    }
  },
  {
    "service_request": "2023-1036547",
    "request_type": "Trash/Recycling",
    "request_reason": "Request a Large Item Pick Up",
    "date_created": "2023-09-19T13:32:08.000",
    "date_modified": "2023-09-19T13:32:08.000",
    "request_status": "Pending",
    "responsible_agency": "Department of Sanitation",
    "final_address": "1321 Lowerline St",
    "address_councildis": "A",
    "status": "Assigned to Contractor",
    "contractor": "Richards Disposal",
    "rowid": "1036547",
    "final_x": "3664045.46407",
    "final_y": "527211.930367",
    "longitude": "-90.12332936248116",
    "latitude": "29.944168300958193",
    "geocoded_column": {
      "latitude": "29.944168300958193",
      "longitude": "-90.12332936248116"
    }
  },
  {
    "service_request": "2023-1036546",
    "request_type": "Roads/Drainage",
    "request_reason": "Damaged Sidewalk",
    "date_created": "2023-09-19T13:30:30.000",
    "date_modified": "2023-09-19T13:37:34.000",
    "request_status": "Pending",
    "responsible_agency": "Department of Public Works",
    "final_address": "6735 Argonne Blvd, New Orleans, Louisiana, 70124",
    "address_councildis": "A",
    "rowid": "1036546",
    "final_x": "3670684.86919",
    "final_y": "552127.170838",
    "longitude": "-90.10152117299083",
    "latitude": "30.012482305336974",
    "geocoded_column": {
      "latitude": "30.012482305336974",
      "longitude": "-90.10152117299083"
    }
  },
  {
    "service_request": "2023-1036544",
    "request_type": "Roads/Drainage",
    "request_reason": "Street Flooding / Drainage",
    "date_created": "2023-09-19T13:28:29.000",
    "date_modified": "2023-09-19T13:28:29.000",
    "request_status": "Pending",
    "responsible_agency": "Department of Public Works",
    "final_address": "7601 Mackenzie St",
    "address_councildis": "E",
    "status": "Pending",
    "rowid": "1036544",
    "final_x": "3711190.53649",
    "final_y": "565901.213155",
    "longitude": "-89.973030419559",
    "latitude": "30.049095949592893",
    "geocoded_column": {
      "latitude": "30.049095949592893",
      "longitude": "-89.973030419559"
    }
  },
  {
    "service_request": "2023-1036543",
    "request_type": "Roads/Drainage",
    "request_reason": "Road Shoulder Repair",
    "date_created": "2023-09-19T13:27:56.000",
    "date_modified": "2023-09-19T13:27:56.000",
    "request_status": "Pending",
    "responsible_agency": "Department of Public Works",
    "final_address": "3611 Rue Nichole",
    "address_councildis": "C",
    "status": "Pending",
    "rowid": "1036543",
    "final_x": "3703936.42058",
    "final_y": "517311.340725",
    "longitude": "-89.99774767545854",
    "latitude": "29.915726560347572",
    "geocoded_column": {
      "latitude": "29.915726560347572",
      "longitude": "-89.99774767545854"
    }
  },
  {
    "service_request": "2023-1036542",
    "request_type": "Trash/Recycling",
    "request_reason": "Request a Large Item Pick Up",
    "date_created": "2023-09-19T13:26:36.000",
    "date_modified": "2023-09-19T13:26:37.000",
    "request_status": "Pending",
    "responsible_agency": "Department of Sanitation",
    "final_address": "7528 Berg Rd",
    "address_councildis": "E",
    "status": "Assigned to Contractor",
    "contractor": "Waste Pro",
    "rowid": "1036542",
    "final_x": "3712318.51179",
    "final_y": "566122.106851",
    "longitude": "-89.96945706319701",
    "latitude": "30.049666449498584",
    "geocoded_column": {
      "latitude": "30.049666449498584",
      "longitude": "-89.96945706319701"
    }
  },
  {
    "service_request": "2023-1036541",
    "request_type": "Traffic Signals/Signs/Striping/Streetlights",
    "request_reason": "Additional signage",
    "date_created": "2023-09-19T13:26:25.000",
    "date_modified": "2023-09-19T13:26:26.000",
    "request_status": "Pending",
    "responsible_agency": "Department of Public Works",
    "final_address": "2775 Mendez St",
    "address_councildis": "D",
    "status": "Pending",
    "rowid": "1036541",
    "final_x": "3687880.42703",
    "final_y": "553819.718359",
    "longitude": "-90.04713288701028",
    "latitude": "30.01661668746503",
    "geocoded_column": {
      "latitude": "30.01661668746503",
      "longitude": "-90.04713288701028"
    }
  },
  {
    "service_request": "2023-1036540",
    "request_type": "Trash/Recycling",
    "request_reason": "Missed Trash Pick-Up",
    "date_created": "2023-09-19T13:26:15.000",
    "date_modified": "2023-09-19T14:15:08.000",
    "case_close_date": "2023-09-19T09:15:08.000",
    "request_status": "Closed",
    "responsible_agency": "Department of Sanitation",
    "final_address": "3618 Havana St",
    "address_councildis": "D",
    "status": "Invalid Request",
    "contractor": "IV Waste",
    "contractor_action": "Invalid Pick-Up",
    "rowid": "1036540",
    "final_x": "3680733.91368",
    "final_y": "545761.100112",
    "longitude": "-90.06999355010905",
    "latitude": "29.994677016265904",
    "geocoded_column": {
      "latitude": "29.994677016265904",
      "longitude": "-90.06999355010905"
    }
  },
  {
    "service_request": "2023-1036538",
    "request_type": "Abandoned Vehicles",
    "request_reason": "Abandoned/Junk Vehicles",
    "date_created": "2023-09-19T13:24:24.000",
    "date_modified": "2023-09-19T13:24:24.000",
    "request_status": "Pending",
    "responsible_agency": "Department of Public Works",
    "final_address": "2473 N Johnson St",
    "address_councildis": "D",
    "status": "Pending",
    "rowid": "1036538",
    "final_x": "3686863.05135",
    "final_y": "539819.929546",
    "longitude": "-90.05084243967458",
    "latitude": "29.978153676085526",
    "geocoded_column": {
      "latitude": "29.978153676085526",
      "longitude": "-90.05084243967458"
    }
  },
  {
    "service_request": "2023-1036537",
    "request_type": "Trash/Recycling",
    "request_reason": "Order Trash Cart",
    "date_created": "2023-09-19T13:21:34.000",
    "date_modified": "2023-09-19T13:21:34.000",
    "request_status": "Pending",
    "responsible_agency": "Department of Sanitation",
    "final_address": "7105 Fig St",
    "address_councildis": "B",
    "status": "Assigned to Contractor",
    "contractor": "Richards Disposal",
    "rowid": "1036537",
    "final_x": "3667887.16193",
    "final_y": "531738.229699",
    "longitude": "-90.11104755762793",
    "latitude": "29.956502040670827",
    "geocoded_column": {
      "latitude": "29.956502040670827",
      "longitude": "-90.11104755762793"
    }
  },
  {
    "service_request": "2023-1036536",
    "request_type": "Trash/Recycling",
    "request_reason": "Request a Large Item Pick Up",
    "date_created": "2023-09-19T13:14:41.000",
    "date_modified": "2023-09-19T13:14:42.000",
    "request_status": "Pending",
    "responsible_agency": "Department of Sanitation",
    "final_address": "1510 Joseph St Unit C",
    "address_councildis": "A",
    "status": "Assigned to Contractor",
    "contractor": "Richards Disposal",
    "rowid": "1036536",
    "final_x": "3666646.58509",
    "final_y": "521640.654969",
    "longitude": "-90.11530384326572",
    "latitude": "29.92877329138904",
    "geocoded_column": {
      "latitude": "29.92877329138904",
      "longitude": "-90.11530384326572"
    }
  },
  {
    "service_request": "2023-1036535",
    "request_type": "Traffic Signals/Signs/Striping/Streetlights",
    "request_reason": "Traffic Signal Malfunctioning/Damaged",
    "date_created": "2023-09-19T13:10:42.000",
    "date_modified": "2023-09-19T13:10:43.000",
    "request_status": "Pending",
    "responsible_agency": "Department of Public Works",
    "final_address": "FRANKLIN AVE & N GALVEZ ST",
    "address_councildis": "D",
    "status": "Pending",
    "rowid": "1036535",
    "final_x": "3687667.3",
    "final_y": "540216.38",
    "longitude": "-90.04828829942392",
    "latitude": "29.97921899891152",
    "geocoded_column": {
      "latitude": "29.97921899891152",
      "longitude": "-90.04828829942392"
    }
  },
  {
    "service_request": "2023-1036534",
    "request_type": "Trash/Recycling",
    "request_reason": "Repair Trash Cart",
    "date_created": "2023-09-19T13:10:40.000",
    "date_modified": "2023-09-19T13:10:41.000",
    "request_status": "Pending",
    "responsible_agency": "Department of Sanitation",
    "final_address": "3600 Blair St",
    "address_councildis": "C",
    "status": "Assigned to Contractor",
    "contractor": "Richards Disposal",
    "rowid": "1036534",
    "final_x": "3709365.12491",
    "final_y": "517575.875382",
    "longitude": "-89.98060291527902",
    "latitude": "29.916278832319545",
    "geocoded_column": {
      "latitude": "29.916278832319545",
      "longitude": "-89.98060291527902"
    }
  },
  {
    "service_request": "2023-1036533",
    "request_type": "Trash/Recycling",
    "request_reason": "Return Recycling Cart",
    "date_created": "2023-09-19T13:07:18.000",
    "date_modified": "2023-09-19T13:07:18.000",
    "request_status": "Pending",
    "responsible_agency": "Department of Sanitation",
    "final_address": "4515 Prytania St",
    "address_councildis": "B",
    "status": "Pending",
    "rowid": "1036533",
    "final_x": "3670378.68999",
    "final_y": "520371.684856",
    "longitude": "-90.10356531642955",
    "latitude": "29.925174415204975",
    "geocoded_column": {
      "latitude": "29.925174415204975",
      "longitude": "-90.10356531642955"
    }
  },
  {
    "service_request": "2023-1036532",
    "request_type": "Roads/Drainage",
    "request_reason": "Damaged Sidewalk",
    "date_created": "2023-09-19T13:07:04.000",
    "date_modified": "2023-09-19T13:07:04.000",
    "request_status": "Pending",
    "responsible_agency": "Department of Public Works",
    "final_address": "3904 Buchanan St",
    "address_councildis": "D",
    "status": "Pending",
    "rowid": "1036532",
    "final_x": "3677307.8692",
    "final_y": "546483.491025",
    "longitude": "-90.08079107570376",
    "latitude": "29.996766756555516",
    "geocoded_column": {
      "latitude": "29.996766756555516",
      "longitude": "-90.08079107570376"
    }
  },