[
  {
    "service_request": "2023-983278",
    "request_type": "Traffic Signals/Signs/Striping/Streetlights",
    "request_reason": "Street Light Outage/Malfunction",
    "date_created": "2023-03-16T00:03:57.000",
    "date_modified": "2023-03-16T00:03:58.000",
    "request_status": "Pending",
    "responsible_agency": "Department of Public Works",
    "final_address": "344 Camp St",
    "address_councildis": "B",
    "status": "Assigned to Contractor",
    "contractor": "Legacy Professional Services",
    "rowid": "983278",
    "final_x": "3681226.95074",
    "final_y": "529538.247873",
    "longitude": "-90.06900155988403",
    "latitude": "29.95005482152158",
    "geocoded_column": {
      "latitude": "29.95005482152158",
      "longitude": "-90.06900155988403"
    }
  },
  {
    "service_request": "2023-983276",
    "request_type": "Traffic Signals/Signs/Striping/Streetlights",
    "request_reason": "Street Light Outage/Malfunction",
    "date_created": "2023-03-15T23:50:33.000",
    "date_modified": "2023-03-15T23:50:34.000",
    "request_status": "Pending",
    "responsible_agency": "Department of Public Works",
    "final_address": "4224 Banks St",
    "address_councildis": "A",
    "status": "Assigned to Contractor",
    "contractor": "Legacy Professional Services",
    "rowid": "983276",
    "final_x": "3669645.00788",
    "final_y": "537790.72564",
    "longitude": "-90.10529201272193",
    "latitude": "29.973092712951487",
    "geocoded_column": {
      "latitude": "29.973092712951487",
      "longitude": "-90.10529201272193"
    }
  },
  {
    "service_request": "2023-983275",
    "request_type": "Trash/Recycling",
    "request_reason": "Order Recycling Cart",
    "date_created": "2023-03-15T23:31:52.000",
    "date_modified": "2023-03-15T23:31:52.000",
    "request_status": "Pending",
    "responsible_agency": "Department of Sanitation",
    "final_address": "4344 Wellington Ave",
    "address_councildis": "D",
    "status": "Pending",
    "rowid": "983275",
    "final_x": "3677158.76584",
    "final_y": "548360.382162",
    "longitude": "-90.08119729537994",
    "latitude": "30.001932025236286",
    "geocoded_column": {
      "latitude": "30.001932025236286",
      "longitude": "-90.08119729537994"
    }
  },
  {
    "service_request": "2023-983274",
    "request_type": "Trash/Recycling",
    "request_reason": "Missed Trash Pick-Up",
    "date_created": "2023-03-15T23:27:44.000",
    "date_modified": "2023-03-15T23:27:44.000",
    "request_status": "Pending",
    "responsible_agency": "Department of Sanitation",
    "final_address": "7800 Means Ave",
    "address_councildis": "E",
    "status": "Assigned to Contractor",
    "contractor": "Waste Pro",
    "rowid": "983274",
    "final_x": "3707754.79691",
    "final_y": "565191.834146",
    "longitude": "-89.98391573959016",
    "latitude": "30.047257145229057",
    "geocoded_column": {
      "latitude": "30.047257145229057",
      "longitude": "-89.98391573959016"
    }
  },
  {
    "service_request": "2023-983273",
    "request_type": "Abandoned Vehicles",
    "request_reason": "Vehicle Blocking Your Driveway",
    "date_created": "2023-03-15T22:50:10.000",
    "date_modified": "2023-03-15T22:50:10.000",
    "request_status": "Pending",
    "responsible_agency": "Department of Public Works",
    "final_address": "3011 Chippewa St",
    "address_councildis": "B",
    "status": "Pending",
    "rowid": "983273",
    "final_x": "3677088.5531",
    "final_y": "519098.220343",
    "longitude": "-90.08242829184238",
    "latitude": "29.921473081295506",
    "geocoded_column": {
      "latitude": "29.921473081295506",
      "longitude": "-90.08242829184238"
    }
  },
  {
    "service_request": "2023-983272",
    "request_type": "Traffic Signals/Signs/Striping/Streetlights",
    "request_reason": "Street Light Outage/Malfunction",
    "date_created": "2023-03-15T22:29:12.000",
    "date_modified": "2023-03-15T22:29:13.000",
    "request_status": "Pending",
    "responsible_agency": "Department of Public Works",
    "final_address": "7727 Alabama St",
    "address_councildis": "D",
    "status": "Assigned to Contractor",
    "contractor": "Legacy Professional Services",
    "rowid": "983272",
    "final_x": "3694851.65859",
    "final_y": "558981.015004",
    "longitude": "-90.02492065266472",
    "latitude": "30.03059129382983",
    "geocoded_column": {
      "latitude": "30.03059129382983",
      "longitude": "-90.02492065266472"
    }
  },
  {
    "service_request": "2023-983268",
    "request_type": "Property Maintenance",
    "request_reason": "Property Maintenance",
    "date_created": "2023-03-15T21:29:43.000",
    "date_modified": "2023-03-15T21:29:43.000",
    "request_status": "Pending",
    "responsible_agency": "Department of Code Enforcement",
    "final_address": "4109 Prentiss Ave",
    "address_councildis": "D",
    "status": "Pending",
    "rowid": "983268",
    "final_x": "3688970.90755",
    "final_y": "554463.95548",
    "longitude": "-90.04366453215621",
    "latitude": "30.018354398442533",
    "geocoded_column": {
      "latitude": "30.018354398442533",
      "longitude": "-90.04366453215621"
    }
  },
  {
    "service_request": "2023-983267",
    "request_type": "Property Maintenance",
    "request_reason": "Property Maintenance",
    "date_created": "2023-03-15T21:28:58.000",
    "date_modified": "2023-03-15T21:28:58.000",
    "request_status": "Pending",
    "responsible_agency": "Department of Code Enforcement",
    "final_address": "5700 Campus Blvd",
    "address_councildis": "D",
    "status": "Pending",
    "rowid": "983267",
    "final_x": "3688816.27164",
    "final_y": "554389.254616",
    "longitude": "-90.04415577851262",
    "latitude": "30.018153783504978",
    "geocoded_column": {
      "latitude": "30.018153783504978",
      "longitude": "-90.04415577851262"
    }
  },
  {
    "service_request": "2023-983266",
    "request_type": "Property Maintenance",
    "request_reason": "Property Maintenance",
    "date_created": "2023-03-15T21:14:20.000",
    "date_modified": "2023-03-15T21:14:20.000",
    "request_status": "Pending",
    "responsible_agency": "Department of Code Enforcement",
    "final_address": "4601 Willow St",
    "address_councildis": "B",
    "status": "Pending",
    "rowid": "983266",
    "final_x": "3669610.03623",
    "final_y": "525394.442493",
    "longitude": "-90.10582186433365",
    "latitude": "29.939008049823215",
    "geocoded_column": {
      "latitude": "29.939008049823215",
      "longitude": "-90.10582186433365"
    }
  },
  {
    "service_request": "2023-983265",
    "request_type": "Roads/Drainage",
    "request_reason": "Debris in Roadway",
    "date_created": "2023-03-15T21:12:40.000",
    "date_modified": "2023-03-15T21:12:40.000",
    "request_status": "Pending",
    "responsible_agency": "Department of Public Works",
    "final_address": "725 General Taylor St",
    "address_councildis": "B",
    "status": "Pending",
    "rowid": "983265",
    "final_x": "3673276.32635",
    "final_y": "518478.40799",
    "longitude": "-90.09448300298435",
    "latitude": "29.919882680331078",
    "geocoded_column": {
      "latitude": "29.919882680331078",
      "longitude": "-90.09448300298435"
    }
  },
  {
    "service_request": "2023-983264",
    "request_type": "Roads/Drainage",
    "request_reason": "Damaged Sidewalk",
    "date_created": "2023-03-15T21:07:18.000",
    "date_modified": "2023-03-15T21:07:18.000",
    "request_status": "Pending",
    "responsible_agency": "Department of Public Works",
    "final_address": "618 Mandeville St",
    "address_councildis": "C",
    "status": "Pending",
    "rowid": "983264",
    "final_x": "3685874.0271",
    "final_y": "534734.066054",
    "longitude": "-90.05414544794766",
    "latitude": "29.96419972672197",
    "geocoded_column": {
      "latitude": "29.96419972672197",
      "longitude": "-90.05414544794766"
    }
  },
  {
    "service_request": "2023-983263",
    "request_type": "Trash/Recycling",
    "request_reason": "Request a Large Item Pick Up",
    "date_created": "2023-03-15T20:54:07.000",
    "date_modified": "2023-03-15T20:54:08.000",
    "request_status": "Pending",
    "responsible_agency": "Department of Sanitation",
    "final_address": "8420 Birch St",
    "address_councildis": "A",
    "status": "Assigned to Contractor",
    "contractor": "Richards Disposal",
    "rowid": "983263",
    "final_x": "3661969.74151",
    "final_y": "530213.794049",
    "longitude": "-90.12978348551644",
    "latitude": "29.952482572587627",
    "geocoded_column": {
      "latitude": "29.952482572587627",
      "longitude": "-90.12978348551644"
    }
  },
  {
    "service_request": "2023-983262",
    "request_type": "Trash/Recycling",
    "request_reason": "Order Recycling Cart",
    "date_created": "2023-03-15T20:49:27.000",
    "date_modified": "2023-03-15T20:49:27.000",
    "request_status": "Pending",
    "responsible_agency": "Department of Sanitation",
    "final_address": "7210 Willowbrae Dr",
    "address_councildis": "E",
    "status": "Pending",
    "rowid": "983262",
    "final_x": "3711038.29861",
    "final_y": "563471.462112",
    "longitude": "-89.97360270798242",
    "latitude": "30.04242008142289",
    "geocoded_column": {
      "latitude": "30.04242008142289",
      "longitude": "-89.97360270798242"
    }
  },
  {
    "service_request": "2023-983261",
    "request_type": "Trash/Recycling",
    "request_reason": "Order Recycling Cart",
    "date_created": "2023-03-15T20:47:26.000",
    "date_modified": "2023-03-15T20:47:26.000",
    "request_status": "Pending",
    "responsible_agency": "Department of Sanitation",
    "final_address": "5438 N Prieur St",
    "address_councildis": "E",
    "status": "Pending",
    "rowid": "983261",
    "final_x": "3698340.99421",
    "final_y": "536837.69332",
    "longitude": "-90.01469960594203",
    "latitude": "29.96959536797665",
    "geocoded_column": {
      "latitude": "29.96959536797665",
      "longitude": "-90.01469960594203"
    }
  },
  {
    "service_request": "2023-983260",
    "request_type": "Trash/Recycling",
    "request_reason": "MIssed Recycling Pick-Up",
    "date_created": "2023-03-15T20:35:39.000",
    "date_modified": "2023-03-15T20:35:39.000",
    "request_status": "Pending",
    "responsible_agency": "Department of Sanitation",
    "final_address": "1109 Erato St, New Orleans, Louisiana, 70130",
    "address_councildis": "B",
    "status": "Assigned to Contractor",
    "contractor": "Richards Disposal",
    "rowid": "983260",
    "final_x": "3680548.5597",
    "final_y": "525678.803517",
    "longitude": "-90.07127777710011",
    "latitude": "29.939463204473416",
    "geocoded_column": {
      "latitude": "29.939463204473416",
      "longitude": "-90.07127777710011"
    }
  },
  {
    "service_request": "2023-983259",
    "request_type": "Traffic Signals/Signs/Striping/Streetlights",
    "request_reason": "Street Light Outage/Malfunction",
    "date_created": "2023-03-15T20:26:52.000",
    "date_modified": "2023-03-15T20:26:53.000",
    "request_status": "Pending",
    "responsible_agency": "Department of Public Works",
    "final_address": "1608 Farragut St. New Orleans, LA. 70114",
    "address_councildis": "C",
    "status": "Assigned to Contractor",
    "contractor": "Legacy Professional Services",
    "rowid": "983259",
    "final_x": "3692360.5407",
    "final_y": "525317.676029",
    "longitude": "-90.03399886432288",
    "latitude": "29.93810721068446",
    "geocoded_column": {
      "latitude": "29.93810721068446",
      "longitude": "-90.03399886432288"
    }
  },
  {
    "service_request": "2023-983258",
    "request_type": "Trash/Recycling",
    "request_reason": "Missed Trash Pick-Up",
    "date_created": "2023-03-15T20:14:55.000",
    "date_modified": "2023-03-15T20:14:55.000",
    "request_status": "Pending",
    "responsible_agency": "Department of Sanitation",
    "final_address": "5828 Chatham Dr 70122. The block between Prentiss and Pressburg wasmissed.",
    "status": "Assigned to Contractor",
    "rowid": "983258",
    "longitude": "0.0",
    "latitude": "0.0",
    "geocoded_column": {
      "latitude": "0.0",
      "longitude": "0.0"
    }
  },
  {
    "service_request": "2023-983257",
    "request_type": "Traffic Signals/Signs/Striping/Streetlights",
    "request_reason": "Additional signage",
    "date_created": "2023-03-15T19:51:23.000",
    "date_modified": "2023-03-15T19:51:23.000",
    "request_status": "Pending",
    "responsible_agency": "Department of Public Works",
    "final_address": "438 S Hennessey St",
    "address_councildis": "A",
    "status": "Pending",
    "rowid": "983257",
    "final_x": "3669364.80999",
    "final_y": "537681.719752",
    "longitude": "-90.10618062232486",
    "latitude": "29.972801237592563",
    "geocoded_column": {
      "latitude": "29.972801237592563",
      "longitude": "-90.10618062232486"
    }
  },
  {
    "service_request": "2023-983256",
    "request_type": "Traffic Signals/Signs/Striping/Streetlights",
    "request_reason": "Street Name Sign Damaged or Missing",
    "date_created": "2023-03-15T19:49:57.000",
    "date_modified": "2023-03-15T19:49:57.000",
    "request_status": "Pending",
    "responsible_agency": "Department of Public Works",
    "final_address": "400 S Hennessey St",
    "address_councildis": "A",
    "status": "Pending",
    "rowid": "983256",
    "final_x": "3669552.60564",
    "final_y": "537924.683273",
    "longitude": "-90.10557930493242",
    "latitude": "29.973463774100505",
    "geocoded_column": {
      "latitude": "29.973463774100505",
      "longitude": "-90.10557930493242"
    }
  },
  {
    "service_request": "2023-983255",
    "request_type": "Trash/Recycling",
    "request_reason": "Dead Animal Pick Up",
    "date_created": "2023-03-15T19:47:15.000",
    "date_modified": "2023-03-15T19:47:15.000",
    "request_status": "Pending",
    "responsible_agency": "Department of Sanitation",
    "final_address": "BULLARD AVE & I 10 E SERVICE RD",
    "address_councildis": "E",
    "status": "Assigned to Contractor",
    "contractor": "Waste Pro",
    "rowid": "983255",
    "final_x": "3715302.8",
    "final_y": "564506.58",
    "longitude": "-89.96008615696502",
    "latitude": "30.045126400593563",
    "geocoded_column": {
      "latitude": "30.045126400593563",
      "longitude": "-89.96008615696502"
    }
  },
  {
    "service_request": "2023-983254",
    "request_type": "Abandoned Vehicles",
    "request_reason": "Abandoned/Junk Vehicles",
    "date_created": "2023-03-15T19:32:53.000",
    "date_modified": "2023-03-15T19:32:53.000",
    "request_status": "Pending",
    "responsible_agency": "Department of Public Works",
    "final_address": "3401 Canal St",
    "address_councildis": "B",
    "status": "Pending",
    "rowid": "983254",
    "final_x": "3673127.277",
    "final_y": "537063.858248",
    "longitude": "-90.09431912401561",
    "latitude": "29.970990994731785",
    "geocoded_column": {
      "latitude": "29.970990994731785",
      "longitude": "-90.09431912401561"
    }
  },
  {
    "service_request": "2023-983253",
    "request_type": "Trash/Recycling",
    "request_reason": "MIssed Recycling Pick-Up",
    "date_created": "2023-03-15T19:12:14.000",
    "date_modified": "2023-03-15T19:12:15.000",
    "request_status": "Pending",
    "responsible_agency": "Department of Sanitation",
    "final_address": "1825 Baronne St",
    "address_councildis": "B",
    "status": "Assigned to Contractor",
    "contractor": "Richards Disposal",
    "rowid": "983253",
    "final_x": "3677699.83714",
    "final_y": "525059.722493",
    "longitude": "-90.08029295013381",
    "latitude": "29.93784690327387",
    "geocoded_column": {
      "latitude": "29.93784690327387",
      "longitude": "-90.08029295013381"
    }
  },
  {
    "service_request": "2023-983252",
    "request_type": "Safety & Permits",
    "request_reason": "Safety & Permits Request (Cyber Incident Back Up)",
    "date_created": "2023-03-15T18:58:32.000",
    "date_modified": "2023-03-15T18:58:33.000",
    "request_status": "Pending",
    "responsible_agency": "Safety and Permits",
    "final_address": "1501 Burbank Dr",
    "address_councildis": "D",
    "status": "Pending",
    "rowid": "983252",
    "final_x": "3678382.22722",
    "final_y": "554369.49372",
    "longitude": "-90.07712412600742",
    "latitude": "30.018418108263035",
    "geocoded_column": {
      "latitude": "30.018418108263035",
      "longitude": "-90.07712412600742"
    }
  },
  {
    "service_request": "2023-983251",
    "request_type": "Trash/Recycling",
    "request_reason": "Request a Large Item Pick Up",
    "date_created": "2023-03-15T18:56:33.000",
    "date_modified": "2023-03-15T18:56:34.000",
    "request_status": "Pending",
    "responsible_agency": "Department of Sanitation",
    "final_address": "9211 Dwyer Rd",
    "address_councildis": "E",
    "status": "Assigned to Contractor",
    "contractor": "Waste Pro",
    "rowid": "983251",
    "final_x": "3708704.47044",
    "final_y": "557146.028955",
    "longitude": "-89.98121434939222",
    "latitude": "30.025103583869438",
    "geocoded_column": {
      "latitude": "30.025103583869438",
      "longitude": "-89.98121434939222"
    }
  },
  {
    "service_request": "2023-983250",
    "request_type": "Trash/Recycling",
    "request_reason": "Order Recycling Cart",
    "date_created": "2023-03-15T18:52:08.000",
    "date_modified": "2023-03-15T18:52:08.000",
    "request_status": "Pending",
    "responsible_agency": "Department of Sanitation",
    "final_address": "6964 Canal Blvd",
    "address_councildis": "A",
    "status": "Pending",
    "rowid": "983250",
    "final_x": "3668912.08775",
    "final_y": "553849.650199",
    "longitude": "-90.107063953249",
    "latitude": "30.01727079895317",
    "geocoded_column": {
      "latitude": "30.01727079895317",
      "longitude": "-90.107063953249"
    }
  },
  {
    "service_request": "2023-983249",
    "request_type": "Roads/Drainage",
    "request_reason": "Alley Way",
    "date_created": "2023-03-15T18:49:38.000",
    "date_modified": "2023-03-15T18:49:38.000",
    "request_status": "Pending",
    "responsible_agency": "Department of Public Works",
    "final_address": "6964 Canal Blvd",
    "address_councildis": "A",
    "status": "Pending",
    "rowid": "983249",
    "final_x": "3668912.08775",
    "final_y": "553849.650199",
    "longitude": "-90.107063953249",
    "latitude": "30.01727079895317",
    "geocoded_column": {
      "latitude": "30.01727079895317",
      "longitude": "-90.107063953249"
    }
  },
  {
    "service_request": "2023-983248",
    "request_type": "Trash/Recycling",
    "request_reason": "Request a Large Item Pick Up",
    "date_created": "2023-03-15T18:36:53.000",
    "date_modified": "2023-03-15T18:36:54.000",
    "request_status": "Pending",
    "responsible_agency": "Department of Sanitation",
    "final_address": "707 Nashville Ave",
    "address_councildis": "A",
    "status": "Assigned to Contractor",
    "contractor": "Richards Disposal",
    "rowid": "983248",
    "final_x": "3665522.55482",
    "final_y": "518729.996023",
    "longitude": "-90.1189495704744",
    "latitude": "29.92080270156744",
    "geocoded_column": {
      "latitude": "29.92080270156744",
      "longitude": "-90.1189495704744"
    }
  },
  {
    "service_request": "2023-983247",
    "request_type": "Safety & Permits",
    "request_reason": "Licenses & Permits",
    "date_created": "2023-03-15T18:23:59.000",
    "date_modified": "2023-03-15T18:23:59.000",
    "request_status": "Pending",
    "responsible_agency": "Safety and Permits",
    "final_address": "1775 Joseph Guillaume Pl",
    "address_councildis": "C",
    "status": "Pending",
    "rowid": "983247",
    "final_x": "3683462.43785",
    "final_y": "536121.270855",
    "longitude": "-90.06171241725919",
    "latitude": "29.96808786850646",
    "geocoded_column": {
      "latitude": "29.96808786850646",
      "longitude": "-90.06171241725919"
    }
  },
  {
    "service_request": "2023-983246",
    "request_type": "Trash/Recycling",
    "request_reason": "Illegal Dumping",
    "date_created": "2023-03-15T18:22:56.000",
    "date_modified": "2023-03-15T18:22:56.000",
    "request_status": "Pending",
    "responsible_agency": "Department of Sanitation",
    "final_address": "1775 Joseph Guillaume Pl",
    "address_councildis": "C",
    "status": "Pending",
    "rowid": "983246",
    "final_x": "3683462.43785",
    "final_y": "536121.270855",
    "longitude": "-90.06171241725919",
    "latitude": "29.96808786850646",
    "geocoded_column": {
      "latitude": "29.96808786850646",
      "longitude": "-90.06171241725919"
    }
  },
  {
    "service_request": "2023-983245",
    "request_type": "Trash/Recycling",
    "request_reason": "MIssed Recycling Pick-Up",
    "date_created": "2023-03-15T18:20:40.000",
    "date_modified": "2023-03-15T18:20:40.000",
    "request_status": "Pending",
    "responsible_agency": "Department of Sanitation",
    "final_address": "747 S Genois St",
    "address_councildis": "B",
    "status": "Assigned to Contractor",
    "contractor": "Richards Disposal",
    "rowid": "983245",
    "final_x": "3670901.85537",
    "final_y": "535018.57031",
    "longitude": "-90.10141675811427",
    "latitude": "29.965433118263814",
    "geocoded_column": {
      "latitude": "29.965433118263814",
      "longitude": "-90.10141675811427"
    }
  },
  {
    "service_request": "2023-983244",
    "request_type": "Trash/Recycling",
    "request_reason": "MIssed Recycling Pick-Up",
    "date_created": "2023-03-15T18:20:28.000",
    "date_modified": "2023-03-15T18:20:29.000",
    "request_status": "Pending",
    "responsible_agency": "Department of Sanitation",
    "final_address": "3212 Camp St",
    "address_councildis": "B",
    "status": "Assigned to Contractor",
    "contractor": "Richards Disposal",
    "rowid": "983244",
    "final_x": "3675486.57102",
    "final_y": "520206.083128",
    "longitude": "-90.087447032309",
    "latitude": "29.9245673382118",
    "geocoded_column": {
      "latitude": "29.9245673382118",
      "longitude": "-90.087447032309"
    }
  },
  {
    "service_request": "2023-983243",
    "request_type": "Trash/Recycling",
    "request_reason": "Missed Trash Pick-Up",
    "date_created": "2023-03-15T18:14:10.000",
    "date_modified": "2023-03-15T18:14:11.000",
    "request_status": "Pending",
    "responsible_agency": "Department of Sanitation",
    "final_address": "969 Polk St",
    "address_councildis": "A",
    "status": "Assigned to Contractor",
    "contractor": "IV Waste",
    "rowid": "983243",
    "final_x": "3670472.26631",
    "final_y": "547137.869009",
    "longitude": "-90.10236222751205",
    "latitude": "29.99876975551813",
    "geocoded_column": {
      "latitude": "29.99876975551813",
      "longitude": "-90.10236222751205"
    }
  },
  {
    "service_request": "2023-983242",
    "request_type": "Trash/Recycling",
    "request_reason": "Order Recycling Cart",
    "date_created": "2023-03-15T17:48:10.000",
    "date_modified": "2023-03-15T17:48:10.000",
    "request_status": "Pending",
    "responsible_agency": "Department of Sanitation",
    "final_address": "3311 St Ann St",
    "address_councildis": "A",
    "status": "Pending",
    "rowid": "983242",
    "final_x": "3674836.62312",
    "final_y": "538845.117961",
    "longitude": "-90.08885968234804",
    "latitude": "29.975837918563485",
    "geocoded_column": {
      "latitude": "29.975837918563485",
      "longitude": "-90.08885968234804"
    }
  },
  {
    "service_request": "2023-983241",
    "request_type": "Trash/Recycling",
    "request_reason": "Order Recycling Cart",
    "date_created": "2023-03-15T17:41:15.000",
    "date_modified": "2023-03-15T17:41:15.000",
    "request_status": "Pending",
    "responsible_agency": "Department of Sanitation",
    "final_address": "1601 First St",
    "address_councildis": "B",
    "status": "Pending",
    "rowid": "983241",
    "final_x": "3676917.86683",
    "final_y": "523335.422459",
    "longitude": "-90.08282110631377",
    "latitude": "29.9331291334023",
    "geocoded_column": {
      "latitude": "29.9331291334023",
      "longitude": "-90.08282110631377"
    }
  },
  {
    "service_request": "2023-983240",
    "request_type": "Trash/Recycling",
    "request_reason": "Order Trash Cart",
    "date_created": "2023-03-15T17:41:01.000",
    "date_modified": "2023-03-15T17:41:02.000",
    "request_status": "Pending",
    "responsible_agency": "Department of Sanitation",
    "final_address": "1601 First St",
    "address_councildis": "B",
    "status": "Assigned to Contractor",
    "contractor": "Richards Disposal",
    "rowid": "983240",
    "final_x": "3676917.86683",
    "final_y": "523335.422459",
    "longitude": "-90.08282110631377",
    "latitude": "29.9331291334023",
    "geocoded_column": {
      "latitude": "29.9331291334023",
      "longitude": "-90.08282110631377"
    }
  },
  {
    "service_request": "2023-983239",
    "request_type": "Traffic Signals/Signs/Striping/Streetlights",
    "request_reason": "Road Surface Marking Maintenance-Traffic Control",
    "date_created": "2023-03-15T17:38:16.000",
    "date_modified": "2023-03-15T17:38:16.000",
    "request_status": "Pending",
    "responsible_agency": "Department of Public Works",
    "final_address": "1737 St Bernard Ave",
    "address_councildis": "D",
    "status": "Pending",
    "rowid": "983239",
    "final_x": "3681893.21026",
    "final_y": "538577.068489",
    "longitude": "-90.06658235542236",
    "latitude": "29.97488825465776",
    "geocoded_column": {
      "latitude": "29.97488825465776",
      "longitude": "-90.06658235542236"
    }
  },
  {
    "service_request": "2023-983237",
    "request_type": "Trash/Recycling",
    "request_reason": "Replace Trash Cart",
    "date_created": "2023-03-15T17:29:02.000",
    "date_modified": "2023-03-15T17:29:03.000",
    "request_status": "Pending",
    "responsible_agency": "Department of Sanitation",
    "final_address": "4943 Cardenas Dr",
    "address_councildis": "E",
    "status": "Assigned to Contractor",
    "contractor": "Waste Pro",
    "rowid": "983237",
    "final_x": "3713624.65867",
    "final_y": "557604.730843",
    "longitude": "-89.96565019125255",
    "latitude": "30.02620427306748",
    "geocoded_column": {
      "latitude": "30.02620427306748",
      "longitude": "-89.96565019125255"
    }
  },
  {
    "service_request": "2023-983236",
    "request_type": "Traffic Signals/Signs/Striping/Streetlights",
    "request_reason": "Street Light Outage/Malfunction",
    "date_created": "2023-03-15T17:24:51.000",
    "date_modified": "2023-03-15T17:24:51.000",
    "request_status": "Pending",
    "responsible_agency": "Department of Public Works",
    "final_address": "VINCENT RD & CURRAN BLVD",
    "address_councildis": "E",
    "status": "Assigned to Contractor",
    "contractor": "Legacy Professional Services",
    "rowid": "983236",
    "final_x": "3718173.1",
    "final_y": "571914.18",
    "longitude": "-89.95073225935994",
    "latitude": "30.065399338708197",
    "geocoded_column": {
      "latitude": "30.065399338708197",
      "longitude": "-89.95073225935994"
    }
  },
  {
    "service_request": "2023-983235",
    "request_type": "Traffic Signals/Signs/Striping/Streetlights",
    "request_reason": "Street Light Outage/Malfunction",
    "date_created": "2023-03-15T17:24:20.000",
    "date_modified": "2023-03-15T17:25:59.000",
    "request_status": "Pending",
    "responsible_agency": "Department of Public Works",
    "final_address": "VINCENT RD & CURRAN BLVD",
    "address_councildis": "E",
    "status": "Assigned to Contractor",
    "contractor": "Legacy Professional Services",
    "rowid": "983235",
    "final_x": "3718173.1",
    "final_y": "571914.18",
    "longitude": "-89.95073225935994",
    "latitude": "30.065399338708197",
    "geocoded_column": {
      "latitude": "30.065399338708197",
      "longitude": "-89.95073225935994"
    }
  },
  {
    "service_request": "2023-983234",
    "request_type": "Trash/Recycling",
    "request_reason": "Missed Trash Pick-Up",
    "date_created": "2023-03-15T17:18:28.000",
    "date_modified": "2023-03-15T17:18:28.000",
    "request_status": "Pending",
    "responsible_agency": "Department of Sanitation",
    "final_address": "2601 Octavia St",
    "address_councildis": "A",
    "status": "Assigned to Contractor",
    "contractor": "Richards Disposal",
    "rowid": "983234",
    "final_x": "3667861.62593",
    "final_y": "525058.337597",
    "longitude": "-90.11135313751238",
    "latitude": "29.93813525580303",
    "geocoded_column": {
      "latitude": "29.93813525580303",
      "longitude": "-90.11135313751238"
    }
  },
  {
    "service_request": "2023-983233",
    "request_type": "Trash/Recycling",
    "request_reason": "Order Recycling Cart",
    "date_created": "2023-03-15T17:02:10.000",
    "date_modified": "2023-03-15T17:02:11.000",
    "request_status": "Pending",
    "responsible_agency": "Department of Sanitation",
    "final_address": "4918 Desire Dr",
    "address_councildis": "D",
    "status": "Pending",
    "rowid": "983233",
    "final_x": "3691575.64848",
    "final_y": "552025.517974",
    "longitude": "-90.03552180953606",
    "latitude": "30.011568734078658",
    "geocoded_column": {
      "latitude": "30.011568734078658",
      "longitude": "-90.03552180953606"
    }
  },
  {
    "service_request": "2023-983232",
    "request_type": "Safety & Permits",
    "request_reason": "Construction permit",
    "date_created": "2023-03-15T17:02:02.000",
    "date_modified": "2023-03-15T17:02:02.000",
    "request_status": "Pending",
    "responsible_agency": "Department of Code Enforcement",
    "final_address": "347 Opal St",
    "address_councildis": "D",
    "status": "Pending",
    "rowid": "983232",
    "final_x": "3667759.92186",
    "final_y": "555292.679641",
    "longitude": "-90.11065569276207",
    "latitude": "30.02127247300107",
    "geocoded_column": {
      "latitude": "30.02127247300107",
      "longitude": "-90.11065569276207"
    }
  },
  {
    "service_request": "2023-983231",
    "request_type": "Trash/Recycling",
    "request_reason": "Repair Trash Cart",
    "date_created": "2023-03-15T17:01:34.000",
    "date_modified": "2023-03-15T17:01:35.000",
    "request_status": "Pending",
    "responsible_agency": "Department of Sanitation",
    "final_address": "4918 Desire Dr",
    "address_councildis": "D",
    "status": "Assigned to Contractor",
    "contractor": "IV Waste",
    "rowid": "983231",
    "final_x": "3691575.64848",
    "final_y": "552025.517974",
    "longitude": "-90.03552180953606",
    "latitude": "30.011568734078658",
    "geocoded_column": {
      "latitude": "30.011568734078658",
      "longitude": "-90.03552180953606"
    }
  },
  {
    "service_request": "2023-983230",
    "request_type": "Trash/Recycling",
    "request_reason": "Repair Trash Cart",
    "date_created": "2023-03-15T16:56:46.000",
    "date_modified": "2023-03-15T16:57:45.000",
    "request_status": "Pending",
    "responsible_agency": "Department of Sanitation",
    "final_address": "2501 Robert St",
    "address_councildis": "B",
    "status": "Assigned to Contractor",
    "contractor": "Richards Disposal",
    "rowid": "983230",
    "final_x": "3668892.47207",
    "final_y": "524673.086588",
    "longitude": "-90.10811165807442",
    "latitude": "29.93704567093898",
    "geocoded_column": {
      "latitude": "29.93704567093898",
      "longitude": "-90.10811165807442"
    }
  },
  {
    "service_request": "2023-983229",
    "request_type": "Trash/Recycling",
    "request_reason": "Order Recycling Cart",
    "date_created": "2023-03-15T16:54:49.000",
    "date_modified": "2023-03-15T16:54:49.000",
    "request_status": "Pending",
    "responsible_agency": "Department of Sanitation",
    "final_address": "523 Dumaine St",
    "address_councildis": "C",
    "status": "Pending",
    "rowid": "983229",
    "final_x": "3683459.44309",
    "final_y": "532727.788164",
    "longitude": "-90.06184079416222",
    "latitude": "29.95875704914484",
    "geocoded_column": {
      "latitude": "29.95875704914484",
      "longitude": "-90.06184079416222"
    }
  },
  {
    "service_request": "2023-983228",
    "request_type": "Abandoned Vehicles",
    "request_reason": "Abandoned/Junk Vehicles",
    "date_created": "2023-03-15T16:53:02.000",
    "date_modified": "2023-03-15T16:53:02.000",
    "request_status": "Pending",
    "responsible_agency": "Department of Public Works",
    "final_address": "424 S Alexander St, New Orleans, Louisiana, 70119",
    "address_councildis": "A",
    "status": "Pending",
    "rowid": "983228",
    "final_x": "3669128.85652",
    "final_y": "537978.817033",
    "longitude": "-90.10691576716538",
    "latitude": "29.973625101554806",
    "geocoded_column": {
      "latitude": "29.973625101554806",
      "longitude": "-90.10691576716538"
    }
  },
  {
    "service_request": "2023-983227",
    "request_type": "Traffic Signals/Signs/Striping/Streetlights",
    "request_reason": "Street Light Outage/Malfunction",
    "date_created": "2023-03-15T16:50:13.000",
    "date_modified": "2023-03-15T16:50:13.000",
    "request_status": "Pending",
    "responsible_agency": "Department of Public Works",
    "final_address": "11011 Kinneil Rd",
    "address_councildis": "E",
    "status": "Assigned to Contractor",
    "contractor": "Legacy Professional Services",
    "rowid": "983227",
    "final_x": "3711532.60786",
    "final_y": "564456.228001",
    "longitude": "-89.9720035372635",
    "latitude": "30.04511165346418",
    "geocoded_column": {
      "latitude": "30.04511165346418",
      "longitude": "-89.9720035372635"
    }
  },
  {
    "service_request": "2023-983226",
    "request_type": "Abandoned Vehicles",
    "request_reason": "Abandoned/Junk Vehicles",
    "date_created": "2023-03-15T16:50:07.000",
    "date_modified": "2023-03-15T16:50:20.000",
    "request_status": "Pending",
    "responsible_agency": "Department of Public Works",
    "final_address": "1300 Moss St",
    "address_councildis": "A",
    "status": "Pending",
    "rowid": "983226",
    "final_x": "3675435.90683",
    "final_y": "540395.080587",
    "longitude": "-90.08691372309818",
    "latitude": "29.98008187407596",
    "geocoded_column": {
      "latitude": "29.98008187407596",
      "longitude": "-90.08691372309818"
    }
  },
  {
    "service_request": "2023-983224",
    "request_type": "Trash/Recycling",
    "request_reason": "Request a Large Item Pick Up",
    "date_created": "2023-03-15T16:47:56.000",
    "date_modified": "2023-03-15T16:47:57.000",
    "request_status": "Pending",
    "responsible_agency": "Department of Sanitation",
    "final_address": "1327 Saint Roch Ave, New Orleans, Louisiana, 70117",
    "status": "Assigned to Contractor",
    "rowid": "983224",
    "longitude": "0.0",
    "latitude": "0.0",
    "geocoded_column": {
      "latitude": "0.0",
      "longitude": "0.0"
    }
  },
  {
    "service_request": "2023-983223",
    "request_type": "Abandoned Vehicles",
    "request_reason": "Abandoned/Junk Vehicles",
    "date_created": "2023-03-15T16:44:17.000",
    "date_modified": "2023-03-15T16:45:33.000",
    "request_status": "Pending",
    "responsible_agency": "Department of Public Works",
    "final_address": "1332 Spain St",
    "address_councildis": "C",
    "status": "Pending",
    "rowid": "983223",
    "final_x": "3686025.54242",
    "final_y": "537402.308168",
    "longitude": "-90.05357286765826",
    "latitude": "29.97153181293759",
    "geocoded_column": {
      "latitude": "29.97153181293759",
      "longitude": "-90.05357286765826"
    }
  },
  {
    "service_request": "2023-983222",
    "request_type": "Abandoned Vehicles",
    "request_reason": "Abandoned/Junk Vehicles",
    "date_created": "2023-03-15T16:43:04.000",
    "date_modified": "2023-03-15T16:43:04.000",
    "request_status": "Pending",
    "responsible_agency": "Department of Public Works",
    "final_address": "727 Wagner St, New Orleans, Louisiana, 70114",
    "address_councildis": "C",
    "status": "Pending",
    "rowid": "983222",
    "final_x": "3690490.19792",
    "final_y": "528738.741184",
    "longitude": "-90.03978175484028",
    "latitude": "29.94757215499732",
    "geocoded_column": {
      "latitude": "29.94757215499732",
      "longitude": "-90.03978175484028"
    }
  },
  {
    "service_request": "2023-983221",
    "request_type": "Trash/Recycling",
    "request_reason": "Request a Large Item Pick Up",
    "date_created": "2023-03-15T16:43:00.000",
    "date_modified": "2023-03-15T16:43:02.000",
    "request_status": "Pending",
    "responsible_agency": "Department of Sanitation",
    "final_address": "3811 Dauphine St",
    "address_councildis": "C",
    "status": "Assigned to Contractor",
    "contractor": "IV Waste",
    "rowid": "983221",
    "final_x": "3691039.12579",
    "final_y": "534307.949125",
    "longitude": "-90.03784977656446",
    "latitude": "29.962868493183244",
    "geocoded_column": {
      "latitude": "29.962868493183244",
      "longitude": "-90.03784977656446"
    }
  },
  {
    "service_request": "2023-983220",
    "request_type": "Roads/Drainage",
    "request_reason": "Damaged Sidewalk",
    "date_created": "2023-03-15T16:42:14.000",
    "date_modified": "2023-03-15T16:42:14.000",
    "request_status": "Pending",
    "responsible_agency": "Department of Public Works",
    "final_address": "3623 St Ferdinand St",
    "address_councildis": "D",
    "status": "Pending",
    "rowid": "983220",
    "final_x": "3690040.19593",
    "final_y": "546486.092113",
    "longitude": "-90.04057037940096",
    "latitude": "29.996385069313863",
    "geocoded_column": {
      "latitude": "29.996385069313863",
      "longitude": "-90.04057037940096"
    }
  },
  {
    "service_request": "2023-983219",
    "request_type": "Traffic Signals/Signs/Striping/Streetlights",
    "request_reason": "Street Light Outage/Malfunction",
    "date_created": "2023-03-15T16:35:57.000",
    "date_modified": "2023-03-15T16:35:58.000",
    "request_status": "Pending",
    "responsible_agency": "Department of Public Works",
    "final_address": "123 Walnut St",
    "address_councildis": "A",
    "status": "Assigned to Contractor",
    "contractor": "Legacy Professional Services",
    "rowid": "983219",
    "final_x": "3660918.02195",
    "final_y": "520524.618232",
    "longitude": "-90.13342473179333",
    "latitude": "29.925870736132104",
    "geocoded_column": {
      "latitude": "29.925870736132104",
      "longitude": "-90.13342473179333"
    }
  },
  {
    "service_request": "2023-983218",
    "request_type": "Trash/Recycling",
    "request_reason": "Request a Large Item Pick Up",
    "date_created": "2023-03-15T16:35:12.000",
    "date_modified": "2023-03-15T16:35:12.000",
    "request_status": "Pending",
    "responsible_agency": "Department of Sanitation",
    "final_address": "1378 Annette St",
    "address_councildis": "C",
    "status": "Assigned to Contractor",
    "contractor": "IV Waste",
    "rowid": "983218",
    "final_x": "3683033.14312",
    "final_y": "537174.593352",
    "longitude": "-90.06303126741315",
    "latitude": "29.970997234000194",
    "geocoded_column": {
      "latitude": "29.970997234000194",
      "longitude": "-90.06303126741315"
    }
  },
  {
    "service_request": "2023-983217",
    "request_type": "Trash/Recycling",
    "request_reason": "Illegal Dumping",
    "date_created": "2023-03-15T16:32:50.000",
    "date_modified": "2023-03-15T16:32:50.000",
    "request_status": "Pending",
    "responsible_agency": "Department of Sanitation",
    "final_address": "901 Semmes St",
    "address_councildis": "C",
    "status": "Pending",
    "rowid": "983217",
    "final_x": "3688419.75241",
    "final_y": "524043.307772",
    "longitude": "-90.04648543585084",
    "latitude": "29.934725414132878",
    "geocoded_column": {
      "latitude": "29.934725414132878",
      "longitude": "-90.04648543585084"
    }
  },
  {
    "service_request": "2023-983216",
    "request_type": "Trash/Recycling",
    "request_reason": "Replace Trash Cart",
    "date_created": "2023-03-15T16:30:50.000",
    "date_modified": "2023-03-15T16:30:51.000",
    "request_status": "Pending",
    "responsible_agency": "Department of Sanitation",
    "final_address": "2625 Baronne St",
    "address_councildis": "B",
    "status": "Assigned to Contractor",
    "contractor": "Richards Disposal",
    "rowid": "983216",
    "final_x": "3675820.21659",
    "final_y": "523400.611707",
    "longitude": "-90.08628407765005",
    "latitude": "29.933341275807933",
    "geocoded_column": {
      "latitude": "29.933341275807933",
      "longitude": "-90.08628407765005"
    }
  },
  {
    "service_request": "2023-983215",
    "request_type": "Trash/Recycling",
    "request_reason": "Missed Trash Pick-Up",
    "date_created": "2023-03-15T16:29:07.000",
    "date_modified": "2023-03-15T16:29:07.000",
    "request_status": "Pending",
    "responsible_agency": "Department of Sanitation",
    "final_address": "4761 Sherwood Dr",
    "address_councildis": "E",
    "status": "Assigned to Contractor",
    "contractor": "Waste Pro",
    "rowid": "983215",
    "final_x": "3718066.68351",
    "final_y": "556995.856154",
    "longitude": "-89.95163730424949",
    "latitude": "30.024383577185148",
    "geocoded_column": {
      "latitude": "30.024383577185148",
      "longitude": "-89.95163730424949"
    }
  },
  {
    "service_request": "2023-983214",
    "request_type": "Trash/Recycling",
    "request_reason": "Request a Large Item Pick Up",
    "date_created": "2023-03-15T16:28:48.000",
    "date_modified": "2023-03-15T16:28:50.000",
    "request_status": "Pending",
    "responsible_agency": "Department of Sanitation",
    "final_address": "2422 Lark St",
    "address_councildis": "D",
    "status": "Assigned to Contractor",
    "contractor": "IV Waste",
    "rowid": "983214",
    "final_x": "3684835.087",
    "final_y": "557846.080027",
    "longitude": "-90.05661310403092",
    "latitude": "30.027781336340333",
    "geocoded_column": {
      "latitude": "30.027781336340333",
      "longitude": "-90.05661310403092"
    }
  },
  {
    "service_request": "2023-983213",
    "request_type": "Trash/Recycling",
    "request_reason": "MIssed Recycling Pick-Up",
    "date_created": "2023-03-15T16:28:32.000",
    "date_modified": "2023-03-15T16:28:32.000",
    "request_status": "Pending",
    "responsible_agency": "Department of Sanitation",
    "final_address": "7450 Seven Oaks Rd",
    "address_councildis": "E",
    "status": "Assigned to Contractor",
    "contractor": "Waste Pro",
    "rowid": "983213",
    "final_x": "3712355.66437",
    "final_y": "565476.035682",
    "longitude": "-89.96936394618264",
    "latitude": "30.04788879968247",
    "geocoded_column": {
      "latitude": "30.04788879968247",
      "longitude": "-89.96936394618264"
    }
  },
  {
    "service_request": "2023-983212",
    "request_type": "Abandoned Vehicles",
    "request_reason": "Abandoned/Junk Vehicles",
    "date_created": "2023-03-15T16:28:30.000",
    "date_modified": "2023-03-15T16:29:52.000",
    "request_status": "Pending",
    "responsible_agency": "Department of Public Works",
    "final_address": "3656 Franklin Ave",
    "address_councildis": "D",
    "status": "Pending",
    "rowid": "983212",
    "final_x": "3687011.89897",
    "final_y": "546581.034513",
    "longitude": "-90.05013318877405",
    "latitude": "29.99673972326452",
    "geocoded_column": {
      "latitude": "29.99673972326452",
      "longitude": "-90.05013318877405"
    }
  },
  {
    "service_request": "2023-983211",
    "request_type": "Abandoned Vehicles",
    "request_reason": "Abandoned/Junk Vehicles",
    "date_created": "2023-03-15T16:28:04.000",
    "date_modified": "2023-03-15T16:28:04.000",
    "request_status": "Pending",
    "responsible_agency": "Department of Public Works",
    "final_address": "727 Wagner St",
    "address_councildis": "C",
    "status": "Pending",
    "rowid": "983211",
    "final_x": "3690490.19792",
    "final_y": "528738.741184",
    "longitude": "-90.03978175484028",
    "latitude": "29.94757215499732",
    "geocoded_column": {
      "latitude": "29.94757215499732",
      "longitude": "-90.03978175484028"
    }
  },
  {
    "service_request": "2023-983210",
    "request_type": "Trash/Recycling",
    "request_reason": "Missed Trash Pick-Up",
    "date_created": "2023-03-15T16:27:23.000",
    "date_modified": "2023-03-15T16:27:24.000",
    "request_status": "Pending",
    "responsible_agency": "Department of Sanitation",
    "final_address": "4634 Gabriel Dr",
    "address_councildis": "E",
    "status": "Assigned to Contractor",
    "contractor": "Waste Pro",
    "rowid": "983210",
    "final_x": "3708884.86008",
    "final_y": "555027.255321",
    "longitude": "-89.98072338256253",
    "latitude": "30.019271929011495",
    "geocoded_column": {
      "latitude": "30.019271929011495",
      "longitude": "-89.98072338256253"
    }
  },
  {
    "service_request": "2023-983209",
    "request_type": "Trash/Recycling",
    "request_reason": "Request a Large Item Pick Up",
    "date_created": "2023-03-15T16:24:24.000",
    "date_modified": "2023-03-15T16:24:25.000",
    "request_status": "Pending",
    "responsible_agency": "Department of Sanitation",
    "final_address": "926 City Park Ave",
    "address_councildis": "A",
    "status": "Assigned to Contractor",
    "contractor": "Richards Disposal",
    "rowid": "983209",
    "final_x": "3672083.74811",
    "final_y": "541557.376972",
    "longitude": "-90.09746166962384",
    "latitude": "29.983377629690338",
    "geocoded_column": {
      "latitude": "29.983377629690338",
      "longitude": "-90.09746166962384"
    }
  },
  {
    "service_request": "2023-983208",
    "request_type": "Traffic Signals/Signs/Striping/Streetlights",
    "request_reason": "Street Light Outage/Malfunction",
    "date_created": "2023-03-15T16:23:14.000",
    "date_modified": "2023-03-15T16:23:15.000",
    "request_status": "Pending",
    "responsible_agency": "Department of Public Works",
    "final_address": "2310 Barracks St Apt A",
    "address_councildis": "D",
    "status": "Assigned to Contractor",
    "contractor": "Legacy Professional Services",
    "rowid": "983208",
    "final_x": "3679289.03938",
    "final_y": "537690.37876",
    "longitude": "-90.07483774452305",
    "latitude": "29.972529067902418",
    "geocoded_column": {
      "latitude": "29.972529067902418",
      "longitude": "-90.07483774452305"
    }
  },
  {
    "service_request": "2023-983206",
    "request_type": "Trash/Recycling",
    "request_reason": "Missed Trash Pick-Up",
    "date_created": "2023-03-15T16:14:05.000",
    "date_modified": "2023-03-15T16:14:05.000",
    "request_status": "Pending",
    "responsible_agency": "Department of Sanitation",
    "final_address": "11240 N Parkwood Ct",
    "address_councildis": "E",
    "status": "Assigned to Contractor",
    "contractor": "Waste Pro",
    "rowid": "983206",
    "final_x": "3716694.00005",
    "final_y": "559232.355164",
    "longitude": "-89.9558897337065",
    "latitude": "30.03057849684807",
    "geocoded_column": {
      "latitude": "30.03057849684807",
      "longitude": "-89.9558897337065"
    }
  },
  {
    "service_request": "2023-983205",
    "request_type": "Traffic Signals/Signs/Striping/Streetlights",
    "request_reason": "Road Surface Marking Maintenance-Traffic Control",
    "date_created": "2023-03-15T16:08:30.000",
    "date_modified": "2023-03-15T16:08:30.000",
    "request_status": "Pending",
    "responsible_agency": "Department of Public Works",
    "final_address": "I 10 W & I 610 W",
    "address_councildis": "A",
    "status": "Pending",
    "rowid": "983205",
    "final_x": "3664505.9",
    "final_y": "546049.48",
    "longitude": "-90.12124648946391",
    "latitude": "29.99595195125543",
    "geocoded_column": {
      "latitude": "29.99595195125543",
      "longitude": "-90.12124648946391"
    }
  },
  {
    "service_request": "2023-983204",
    "request_type": "Trash/Recycling",
    "request_reason": "Request a Large Item Pick Up",
    "date_created": "2023-03-15T16:08:17.000",
    "date_modified": "2023-03-15T16:08:17.000",
    "request_status": "Pending",
    "responsible_agency": "Department of Sanitation",
    "final_address": "4858 Ken Ct",
    "address_councildis": "C",
    "status": "Assigned to Contractor",
    "contractor": "Richards Disposal",
    "rowid": "983204",
    "final_x": "3702215.20765",
    "final_y": "518558.344887",
    "longitude": "-90.00313474927131",
    "latitude": "29.919210446905453",
    "geocoded_column": {
      "latitude": "29.919210446905453",
      "longitude": "-90.00313474927131"
    }
  },
  {
    "service_request": "2023-983203",
    "request_type": "Trash/Recycling",
    "request_reason": "Illegal Dumping",
    "date_created": "2023-03-15T16:07:17.000",
    "date_modified": "2023-03-15T16:07:17.000",
    "request_status": "Pending",
    "responsible_agency": "Department of Sanitation",
    "final_address": "1427 Lamanche St",
    "address_councildis": "E",
    "status": "Pending",
    "rowid": "983203",
    "final_x": "3698807.02512",
    "final_y": "535012.594694",
    "longitude": "-90.01329424975098",
    "latitude": "29.964562245973177",
    "geocoded_column": {
      "latitude": "29.964562245973177",
      "longitude": "-90.01329424975098"
    }
  },
  {
    "service_request": "2023-983202",
    "request_type": "Roads/Drainage",
    "request_reason": "Damaged Sidewalk",
    "date_created": "2023-03-15T16:06:37.000",
    "date_modified": "2023-03-15T16:06:37.000",
    "request_status": "Pending",
    "responsible_agency": "Department of Public Works",
    "final_address": "8549 Fordham Ct",
    "address_councildis": "E",
    "status": "Pending",
    "rowid": "983202",
    "final_x": "3705127.11742",
    "final_y": "560495.786462",
    "longitude": "-89.9923942657572",
    "latitude": "30.034429696158455",
    "geocoded_column": {
      "latitude": "30.034429696158455",
      "longitude": "-89.9923942657572"
    }
  },
  {
    "service_request": "2023-983201",
    "request_type": "Trash/Recycling",
    "request_reason": "Order Trash Cart",
    "date_created": "2023-03-15T16:02:08.000",
    "date_modified": "2023-03-15T16:02:09.000",
    "request_status": "Pending",
    "responsible_agency": "Department of Sanitation",
    "final_address": "2001 Franklin Ave",
    "address_councildis": "D",
    "status": "Assigned to Contractor",
    "contractor": "IV Waste",
    "rowid": "983201",
    "final_x": "3687734.57475",
    "final_y": "539891.799626",
    "longitude": "-90.04808731876183",
    "latitude": "29.978324442897257",
    "geocoded_column": {
      "latitude": "29.978324442897257",
      "longitude": "-90.04808731876183"
    }
  },
  {
    "service_request": "2023-983200",
    "request_type": "Abandoned Vehicles",
    "request_reason": "Abandoned/Junk Vehicles",
    "date_created": "2023-03-15T15:53:12.000",
    "date_modified": "2023-03-15T15:55:24.000",
    "request_status": "Pending",
    "responsible_agency": "Department of Public Works",
    "final_address": "605 N Tonti St",
    "address_councildis": "D",
    "status": "Pending",
    "rowid": "983200",
    "final_x": "3677534.98306",
    "final_y": "535822.782151",
    "longitude": "-90.08044186359544",
    "latitude": "29.967446670682214",
    "geocoded_column": {
      "latitude": "29.967446670682214",
      "longitude": "-90.08044186359544"
    }
  },
  {
    "service_request": "2023-983199",
    "request_type": "Roads/Drainage",
    "request_reason": "Pothole",
    "date_created": "2023-03-15T15:49:10.000",
    "date_modified": "2023-03-15T15:49:10.000",
    "request_status": "Pending",
    "responsible_agency": "Department of Public Works",
    "final_address": "7603 Gannon Rd",
    "address_councildis": "E",
    "status": "Pending",
    "rowid": "983199",
    "final_x": "3716683.72652",
    "final_y": "569598.730854",
    "longitude": "-89.95552830479546",
    "latitude": "30.059082145336166",
    "geocoded_column": {
      "latitude": "30.059082145336166",
      "longitude": "-89.95552830479546"
    }
  },
  {
    "service_request": "2023-983198",
    "request_type": "Trash/Recycling",
    "request_reason": "Illegal Dumping",
    "date_created": "2023-03-15T15:48:14.000",
    "date_modified": "2023-03-15T15:48:15.000",
    "request_status": "Pending",
    "responsible_agency": "Department of Code Enforcement",
    "final_address": "619 Washington Ave",
    "address_councildis": "B",
    "status": "Pending",
    "rowid": "983198",
    "final_x": "3678014.68149",
    "final_y": "519467.634807",
    "longitude": "-90.07949214759567",
    "latitude": "29.922461018453852",
    "geocoded_column": {
      "latitude": "29.922461018453852",
      "longitude": "-90.07949214759567"
    }
  },
  {
    "service_request": "2023-983197",
    "request_type": "Trash/Recycling",
    "request_reason": "Request a Large Item Pick Up",
    "date_created": "2023-03-15T15:44:50.000",
    "date_modified": "2023-03-15T15:45:52.000",
    "request_status": "Pending",
    "responsible_agency": "Department of Sanitation",
    "final_address": "4436 St Roch Ave",
    "address_councildis": "D",
    "status": "Assigned to Contractor",
    "contractor": "IV Waste",
    "rowid": "983197",
    "final_x": "3685297.82601",
    "final_y": "549242.111059",
    "longitude": "-90.05545409301882",
    "latitude": "30.004109394281322",
    "geocoded_column": {
      "latitude": "30.004109394281322",
      "longitude": "-90.05545409301882"
    }
  },
  {
    "service_request": "2023-983196",
    "request_type": "Trash/Recycling",
    "request_reason": "Request a Large Item Pick Up",
    "date_created": "2023-03-15T15:44:39.000",
    "date_modified": "2023-03-15T15:44:40.000",
    "request_status": "Pending",
    "responsible_agency": "Department of Sanitation",
    "final_address": "4103 Dauphine St",
    "address_councildis": "C",
    "status": "Assigned to Contractor",
    "contractor": "IV Waste",
    "rowid": "983196",
    "final_x": "3691872.43881",
    "final_y": "534108.790725",
    "longitude": "-90.0352254148652",
    "latitude": "29.962294945456158",
    "geocoded_column": {
      "latitude": "29.962294945456158",
      "longitude": "-90.0352254148652"
    }
  },
  {
    "service_request": "2023-983195",
    "request_type": "Trash/Recycling",
    "request_reason": "Repair Trash Cart",
    "date_created": "2023-03-15T15:42:41.000",
    "date_modified": "2023-03-15T15:42:42.000",
    "request_status": "Pending",
    "responsible_agency": "Department of Sanitation",
    "final_address": "2337 Oriole St",
    "address_councildis": "D",
    "status": "Assigned to Contractor",
    "contractor": "IV Waste",
    "rowid": "983195",
    "final_x": "3684352.09461",
    "final_y": "558199.521371",
    "longitude": "-90.05812689376464",
    "latitude": "30.028767957284263",
    "geocoded_column": {
      "latitude": "30.028767957284263",
      "longitude": "-90.05812689376464"
    }
  },
  {
    "service_request": "2023-983194",
    "request_type": "Trash/Recycling",
    "request_reason": "Order Trash Cart",
    "date_created": "2023-03-15T15:39:31.000",
    "date_modified": "2023-03-15T15:39:31.000",
    "request_status": "Pending",
    "responsible_agency": "Department of Sanitation",
    "final_address": "5950 Winchester Park Dr",
    "address_councildis": "E",
    "status": "Assigned to Contractor",
    "contractor": "Waste Pro",
    "rowid": "983194",
    "final_x": "3714523.44459",
    "final_y": "562879.15312",
    "longitude": "-89.9626107942039",
    "latitude": "30.040677294322176",
    "geocoded_column": {
      "latitude": "30.040677294322176",
      "longitude": "-89.9626107942039"
    }
  },
  {
    "service_request": "2023-983193",
    "request_type": "Trash/Recycling",
    "request_reason": "Order Trash Cart",
    "date_created": "2023-03-15T15:35:55.000",
    "date_modified": "2023-03-15T15:45:20.000",
    "request_status": "Pending",
    "responsible_agency": "Department of Sanitation",
    "final_address": "9015 Morrison Rd",
    "address_councildis": "E",
    "status": "Assigned to Contractor",
    "contractor": "Waste Pro",
    "rowid": "983193",
    "final_x": "3705994.47217",
    "final_y": "562164.155423",
    "longitude": "-89.98959149829138",
    "latitude": "30.038989115045116",
    "geocoded_column": {
      "latitude": "30.038989115045116",
      "longitude": "-89.98959149829138"
    }
  },
  {
    "service_request": "2023-983192",
    "request_type": "Trash/Recycling",
    "request_reason": "Order Trash Cart",
    "date_created": "2023-03-15T15:34:18.000",
    "date_modified": "2023-03-15T15:34:19.000",
    "request_status": "Pending",
    "responsible_agency": "Department of Sanitation",
    "final_address": "9015 Morrison Rd",
    "address_councildis": "E",
    "status": "Assigned to Contractor",
    "contractor": "Waste Pro",
    "rowid": "983192",
    "final_x": "3705994.47217",
    "final_y": "562164.155423",
    "longitude": "-89.98959149829138",
    "latitude": "30.038989115045116",
    "geocoded_column": {
      "latitude": "30.038989115045116",
      "longitude": "-89.98959149829138"
    }
  },
  {
    "service_request": "2023-983190",
    "request_type": "Roads/Drainage",
    "request_reason": "Street Subsidence (Sinking)",
    "date_created": "2023-03-15T15:29:40.000",
    "date_modified": "2023-03-15T15:29:41.000",
    "request_status": "Pending",
    "responsible_agency": "Department of Public Works",
    "final_address": "4135 Pauger St",
    "address_councildis": "D",
    "status": "Pending",
    "rowid": "983190",
    "final_x": "3682981.62984",
    "final_y": "547919.385234",
    "longitude": "-90.06281769659181",
    "latitude": "30.000543196012448",
    "geocoded_column": {
      "latitude": "30.000543196012448",
      "longitude": "-90.06281769659181"
    }
  },
  {
    "service_request": "2023-983189",
    "request_type": "Trash/Recycling",
    "request_reason": "Request a Large Item Pick Up",
    "date_created": "2023-03-15T15:29:12.000",
    "date_modified": "2023-03-15T15:29:13.000",
    "request_status": "Pending",
    "responsible_agency": "Department of Sanitation",
    "final_address": "Gladiolus St, New Orleans, Louisiana, 70122",
    "address_councildis": "D",
    "status": "Assigned to Contractor",
    "contractor": "IV Waste",
    "rowid": "983189",
    "final_x": "3685735.69257",
    "final_y": "547447.624529",
    "longitude": "-90.05413408598649",
    "latitude": "29.999161770128424",
    "geocoded_column": {
      "latitude": "29.999161770128424",
      "longitude": "-90.05413408598649"
    }
  },
  {
    "service_request": "2023-983188",
    "request_type": "Roads/Drainage",
    "request_reason": "Pothole",
    "date_created": "2023-03-15T15:28:14.000",
    "date_modified": "2023-03-15T15:28:14.000",
    "request_status": "Pending",
    "responsible_agency": "Department of Public Works",
    "final_address": "PAUGER ST & SENATE ST",
    "address_councildis": "D",
    "status": "Pending",
    "rowid": "983188",
    "final_x": "3682959.3",
    "final_y": "547634.98",
    "longitude": "-90.06289819944105",
    "latitude": "29.99976186428833",
    "geocoded_column": {
      "latitude": "29.99976186428833",
      "longitude": "-90.06289819944105"
    }
  },
  {
    "service_request": "2023-983187",
    "request_type": "Roads/Drainage",
    "request_reason": "Pothole",
    "date_created": "2023-03-15T15:26:50.000",
    "date_modified": "2023-03-15T15:26:50.000",
    "request_status": "Pending",
    "responsible_agency": "Department of Public Works",
    "final_address": "GENTILLY BLVD & CLERMONT DR",
    "address_councildis": "D",
    "status": "Pending",
    "rowid": "983187",
    "final_x": "3684548.64",
    "final_y": "548028.02",
    "longitude": "-90.05786359620261",
    "latitude": "30.000794034087622",
    "geocoded_column": {
      "latitude": "30.000794034087622",
      "longitude": "-90.05786359620261"
    }
  },
  {
    "service_request": "2023-983186",
    "request_type": "Traffic Signals/Signs/Striping/Streetlights",
    "request_reason": "Street Light Outage/Malfunction",
    "date_created": "2023-03-15T15:21:21.000",
    "date_modified": "2023-03-15T15:21:22.000",
    "request_status": "Pending",
    "responsible_agency": "Department of Public Works",
    "final_address": "3112 Fortin St",
    "address_councildis": "A",
    "status": "Assigned to Contractor",
    "contractor": "Legacy Professional Services",
    "rowid": "983186",
    "final_x": "3676504.94824",
    "final_y": "540922.971275",
    "longitude": "-90.08351905477869",
    "latitude": "29.981501372939235",
    "geocoded_column": {
      "latitude": "29.981501372939235",
      "longitude": "-90.08351905477869"
    }
  },
  {
    "service_request": "2023-983185",
    "request_type": "Trash/Recycling",
    "request_reason": "Order Trash Cart",
    "date_created": "2023-03-15T15:21:18.000",
    "date_modified": "2023-03-15T15:21:19.000",
    "request_status": "Pending",
    "responsible_agency": "Department of Sanitation",
    "final_address": "5922 Debore Dr",
    "address_councildis": "D",
    "status": "Assigned to Contractor",
    "contractor": "IV Waste",
    "rowid": "983185",
    "final_x": "3691162.8278",
    "final_y": "555817.215577",
    "longitude": "-90.03669051521288",
    "latitude": "30.022007340724947",
    "geocoded_column": {
      "latitude": "30.022007340724947",
      "longitude": "-90.03669051521288"
    }
  },
  {
    "service_request": "2023-983182",
    "request_type": "Trash/Recycling",
    "request_reason": "Order Recycling Cart",
    "date_created": "2023-03-15T15:19:11.000",
    "date_modified": "2023-03-15T15:19:12.000",
    "request_status": "Pending",
    "responsible_agency": "Department of Sanitation",
    "final_address": "6634 Lamb Rd",
    "address_councildis": "D",
    "status": "Pending",
    "rowid": "983182",
    "final_x": "3697969.04983",
    "final_y": "556107.899866",
    "longitude": "-90.01517414250412",
    "latitude": "30.02259307963211",
    "geocoded_column": {
      "latitude": "30.02259307963211",
      "longitude": "-90.01517414250412"
    }
  },
  {
    "service_request": "2023-983181",
    "request_type": "Trash/Recycling",
    "request_reason": "Order Trash Cart",
    "date_created": "2023-03-15T15:18:53.000",
    "date_modified": "2023-03-15T15:18:53.000",
    "request_status": "Pending",
    "responsible_agency": "Department of Sanitation",
    "final_address": "6634 Lamb Rd",
    "address_councildis": "D",
    "status": "Assigned to Contractor",
    "contractor": "Waste Pro",
    "rowid": "983181",
    "final_x": "3697969.04983",
    "final_y": "556107.899866",
    "longitude": "-90.01517414250412",
    "latitude": "30.02259307963211",
    "geocoded_column": {
      "latitude": "30.02259307963211",
      "longitude": "-90.01517414250412"
    }
  },
  {
    "service_request": "2023-983180",
    "request_type": "Trash/Recycling",
    "request_reason": "Repair Trash Cart",
    "date_created": "2023-03-15T15:15:55.000",
    "date_modified": "2023-03-15T15:15:56.000",
    "request_status": "Pending",
    "responsible_agency": "Department of Sanitation",
    "final_address": "13059 Chateau Ct",
    "address_councildis": "E",
    "status": "Assigned to Contractor",
    "contractor": "Waste Pro",
    "rowid": "983180",
    "final_x": "3724020.31295",
    "final_y": "562273.288607",
    "longitude": "-89.93262132177252",
    "latitude": "30.03869562044428",
    "geocoded_column": {
      "latitude": "30.03869562044428",
      "longitude": "-89.93262132177252"
    }
  },
  {
    "service_request": "2023-983179",
    "request_type": "Trash/Recycling",
    "request_reason": "Order Recycling Cart",
    "date_created": "2023-03-15T15:15:07.000",
    "date_modified": "2023-03-15T15:15:07.000",
    "request_status": "Pending",
    "responsible_agency": "Department of Sanitation",
    "final_address": "6534 Orleans Ave",
    "address_councildis": "A",
    "status": "Pending",
    "rowid": "983179",
    "final_x": "3671178.83022",
    "final_y": "550796.976021",
    "longitude": "-90.10000576260883",
    "latitude": "30.0088101286252",
    "geocoded_column": {
      "latitude": "30.0088101286252",
      "longitude": "-90.10000576260883"
    }
  },
  {
    "service_request": "2023-983178",
    "request_type": "Trash/Recycling",
    "request_reason": "Missed Trash Pick-Up",
    "date_created": "2023-03-15T15:10:31.000",
    "date_modified": "2023-03-15T15:10:32.000",
    "request_status": "Pending",
    "responsible_agency": "Department of Sanitation",
    "final_address": "7401 Seven Oaks Rd",
    "address_councildis": "E",
    "status": "Assigned to Contractor",
    "contractor": "Waste Pro",
    "rowid": "983178",
    "final_x": "3712687.76504",
    "final_y": "565311.228322",
    "longitude": "-89.96832053633358",
    "latitude": "30.04742477221815",
    "geocoded_column": {
      "latitude": "30.04742477221815",
      "longitude": "-89.96832053633358"
    }
  },
  {
    "service_request": "2023-983177",
    "request_type": "Roads/Drainage",
    "request_reason": "Pothole",
    "date_created": "2023-03-15T15:09:53.000",
    "date_modified": "2023-03-15T15:09:54.000",
    "request_status": "Pending",
    "responsible_agency": "Department of Public Works",
    "final_address": "2417 Bayou Rd",
    "address_councildis": "D",
    "status": "Pending",
    "rowid": "983177",
    "final_x": "3679081.63823",
    "final_y": "538630.771145",
    "longitude": "-90.0754601514175",
    "latitude": "29.975121085119735",
    "geocoded_column": {
      "latitude": "29.975121085119735",
      "longitude": "-90.0754601514175"
    }
  },
  {
    "service_request": "2023-983176",
    "request_type": "Trash/Recycling",
    "request_reason": "Missed Trash Pick-Up",
    "date_created": "2023-03-15T15:08:48.000",
    "date_modified": "2023-03-15T15:08:48.000",
    "request_status": "Pending",
    "responsible_agency": "Department of Sanitation",
    "final_address": "5530 Tullis Dr",
    "address_councildis": "C",
    "status": "Assigned to Contractor",
    "contractor": "Richards Disposal",
    "rowid": "983176",
    "final_x": "3704462.161",
    "final_y": "512191.112689",
    "longitude": "-89.9962768342056",
    "latitude": "29.901630822948086",
    "geocoded_column": {
      "latitude": "29.901630822948086",
      "longitude": "-89.9962768342056"
    }
  },
  {
    "service_request": "2023-983175",
    "request_type": "Roads/Drainage",
    "request_reason": "Road Shoulder Repair",
    "date_created": "2023-03-15T15:07:34.000",
    "date_modified": "2023-03-15T15:54:36.000",
    "request_status": "Pending",
    "responsible_agency": "Department of Public Works",
    "final_address": "3100 Toulouse St",
    "address_councildis": "A",
    "rowid": "983175",
    "final_x": "3675130.15688",
    "final_y": "537519.92756",
    "longitude": "-90.08797810651522",
    "latitude": "29.972185327696526",
    "geocoded_column": {
      "latitude": "29.972185327696526",
      "longitude": "-90.08797810651522"
    }
  },
  {
    "service_request": "2023-983174",
    "request_type": "Trash/Recycling",
    "request_reason": "Repair Trash Cart",
    "date_created": "2023-03-15T15:04:50.000",
    "date_modified": "2023-03-15T15:04:51.000",
    "request_status": "Pending",
    "responsible_agency": "Department of Sanitation",
    "final_address": "4224 Walmsley Ave",
    "address_councildis": "B",
    "status": "Assigned to Contractor",
    "contractor": "Richards Disposal",
    "rowid": "983174",
    "final_x": "3669893.42119",
    "final_y": "529840.516993",
    "longitude": "-90.10477668114004",
    "latitude": "29.951224956539303",
    "geocoded_column": {
      "latitude": "29.951224956539303",
      "longitude": "-90.10477668114004"
    }
  },
  {
    "service_request": "2023-983173",
    "request_type": "Trash/Recycling",
    "request_reason": "Request a Large Item Pick Up",
    "date_created": "2023-03-15T15:03:59.000",
    "date_modified": "2023-03-15T15:03:59.000",
    "request_status": "Pending",
    "responsible_agency": "Department of Sanitation",
    "final_address": "2931 St Claude Ave",
    "address_councildis": "C",
    "status": "Assigned to Contractor",
    "contractor": "IV Waste",
    "rowid": "983173",
    "final_x": "3688401.44431",
    "final_y": "536252.633159",
    "longitude": "-90.04611022881703",
    "latitude": "29.968297431309566",
    "geocoded_column": {
      "latitude": "29.968297431309566",
      "longitude": "-90.04611022881703"
    }
  },
  {
    "service_request": "2023-983172",
    "request_type": "Roads/Drainage",
    "request_reason": "Catch Basin - Broken/Damage",
    "date_created": "2023-03-15T15:02:32.000",
    "date_modified": "2023-03-15T15:02:32.000",
    "request_status": "Pending",
    "responsible_agency": "Department of Public Works",
    "final_address": "2800 Tulane Ave",
    "address_councildis": "B",
    "status": "Pending",
    "rowid": "983172",
    "final_x": "3673713.54017",
    "final_y": "533983.573253",
    "longitude": "-90.09257296344862",
    "latitude": "29.96250380495589",
    "geocoded_column": {
      "latitude": "29.96250380495589",
      "longitude": "-90.09257296344862"
    }
  },
  {
    "service_request": "2023-983171",
    "request_type": "Trash/Recycling",
    "request_reason": "Request a Large Item Pick Up",
    "date_created": "2023-03-15T14:57:00.000",
    "date_modified": "2023-03-15T14:57:00.000",
    "request_status": "Pending",
    "responsible_agency": "Department of Sanitation",
    "final_address": "2126 Columbus St",
    "address_councildis": "D",
    "status": "Assigned to Contractor",
    "contractor": "IV Waste",
    "rowid": "983171",
    "final_x": "3680124.72847",
    "final_y": "538388.835337",
    "longitude": "-90.07217421107279",
    "latitude": "29.974424318338926",
    "geocoded_column": {
      "latitude": "29.974424318338926",
      "longitude": "-90.07217421107279"
    }
  },
  {
    "service_request": "2023-983170",
    "request_type": "Trash/Recycling",
    "request_reason": "Missed Trash Pick-Up",
    "date_created": "2023-03-15T14:49:59.000",
    "date_modified": "2023-03-15T14:49:59.000",
    "request_status": "Pending",
    "responsible_agency": "Department of Sanitation",
    "final_address": "4801 Evangeline Dr",
    "address_councildis": "E",
    "status": "Assigned to Contractor",
    "contractor": "Waste Pro",
    "rowid": "983170",
    "final_x": "3709140.2172",
    "final_y": "556112.342938",
    "longitude": "-89.97987605158069",
    "latitude": "30.022247206080003",
    "geocoded_column": {
      "latitude": "30.022247206080003",
      "longitude": "-89.97987605158069"
    }
  },
  {
    "service_request": "2023-983169",
    "request_type": "Trash/Recycling",
    "request_reason": "Repair Trash Cart",
    "date_created": "2023-03-15T14:44:49.000",
    "date_modified": "2023-03-15T14:44:50.000",
    "request_status": "Pending",
    "responsible_agency": "Department of Sanitation",
    "final_address": "4717 Loyola Ave",
    "address_councildis": "B",
    "status": "Assigned to Contractor",
    "contractor": "Richards Disposal",
    "rowid": "983169",
    "final_x": "3669363.87822",
    "final_y": "522904.349947",
    "longitude": "-90.1066831761177",
    "latitude": "29.932168344872142",
    "geocoded_column": {
      "latitude": "29.932168344872142",
      "longitude": "-90.1066831761177"
    }
  },
  {
    "service_request": "2023-983168",
    "request_type": "Trash/Recycling",
    "request_reason": "Repair Trash Cart",
    "date_created": "2023-03-15T14:43:15.000",
    "date_modified": "2023-03-15T14:43:15.000",
    "request_status": "Pending",
    "responsible_agency": "Department of Sanitation",
    "final_address": "17 Newcomb Blvd",
    "address_councildis": "A",
    "status": "Assigned to Contractor",
    "contractor": "Richards Disposal",
    "rowid": "983168",
    "final_x": "3663771.05024",
    "final_y": "524977.729213",
    "longitude": "-90.1242702004067",
    "latitude": "29.938032925982707",
    "geocoded_column": {
      "latitude": "29.938032925982707",
      "longitude": "-90.1242702004067"
    }
  },
  {
    "service_request": "2023-983167",
    "request_type": "Roads/Drainage",
    "request_reason": "Street Subsidence (Sinking)",
    "date_created": "2023-03-15T14:42:09.000",
    "date_modified": "2023-03-15T14:42:10.000",
    "request_status": "Pending",
    "responsible_agency": "Department of Public Works",
    "final_address": "1ST ST & MAGAZINE ST",
    "address_councildis": "B",
    "status": "Pending",
    "rowid": "983167",
    "final_x": "3678080.3",
    "final_y": "521503.78",
    "longitude": "-90.07921467002753",
    "latitude": "29.928057781401485",
    "geocoded_column": {
      "latitude": "29.928057781401485",
      "longitude": "-90.07921467002753"
    }
  },
  {
    "service_request": "2023-983166",
    "request_type": "Mosquito, Termite & Rodent Control",
    "request_reason": "Rodent Complaint (Rats)",
    "date_created": "2023-03-15T14:37:05.000",
    "date_modified": "2023-03-15T14:37:05.000",
    "request_status": "Pending",
    "responsible_agency": "Mosquito, Termite & Rodent Control Board",
    "final_address": "1140 Frenchmen St",
    "address_councildis": "C",
    "status": "Pending",
    "rowid": "983166",
    "final_x": "3684532.95471",
    "final_y": "536589.508423",
    "longitude": "-90.05831523526206",
    "latitude": "29.96934264931081",
    "geocoded_column": {
      "latitude": "29.96934264931081",
      "longitude": "-90.05831523526206"
    }
  },
  {
    "service_request": "2023-983165",
    "request_type": "Trash/Recycling",
    "request_reason": "Return Trash Cart",
    "date_created": "2023-03-15T14:29:40.000",
    "date_modified": "2023-03-15T14:29:41.000",
    "request_status": "Pending",
    "responsible_agency": "Department of Sanitation",
    "final_address": "4901 Hauck Dr",
    "address_councildis": "E",
    "status": "Assigned to Contractor",
    "contractor": "Waste Pro",
    "rowid": "983165",
    "final_x": "3714566.1877",
    "final_y": "557378.631835",
    "longitude": "-89.96268365305812",
    "latitude": "30.025551656244847",
    "geocoded_column": {
      "latitude": "30.025551656244847",
      "longitude": "-89.96268365305812"
    }
  },
  {
    "service_request": "2023-983164",
    "request_type": "Trash/Recycling",
    "request_reason": "Request a Large Item Pick Up",
    "date_created": "2023-03-15T14:28:25.000",
    "date_modified": "2023-03-15T14:28:26.000",
    "request_status": "Pending",
    "responsible_agency": "Department of Sanitation",
    "final_address": "4410 San Marco Rd",
    "address_councildis": "E",
    "status": "Assigned to Contractor",
    "contractor": "Waste Pro",
    "rowid": "983164",
    "final_x": "3762388.79657",
    "final_y": "572774.260905",
    "longitude": "-89.81092881839653",
    "latitude": "30.066223056541155",
    "geocoded_column": {
      "latitude": "30.066223056541155",
      "longitude": "-89.81092881839653"
    }
  },
  {
    "service_request": "2023-983163",
    "request_type": "Trash/Recycling",
    "request_reason": "Missed Trash Pick-Up",
    "date_created": "2023-03-15T14:22:00.000",
    "date_modified": "2023-03-15T14:22:01.000",
    "request_status": "Pending",
    "responsible_agency": "Department of Sanitation",
    "final_address": "2655 Myrtle St",
    "address_councildis": "D",
    "status": "Assigned to Contractor",
    "contractor": "IV Waste",
    "rowid": "983163",
    "final_x": "3687597.69884",
    "final_y": "546139.667408",
    "longitude": "-90.04829831993592",
    "latitude": "29.995508071510248",
    "geocoded_column": {
      "latitude": "29.995508071510248",
      "longitude": "-90.04829831993592"
    }
  },
  {
    "service_request": "2023-983162",
    "request_type": "Trash/Recycling",
    "request_reason": "Replace Trash Cart",
    "date_created": "2023-03-15T14:19:43.000",
    "date_modified": "2023-03-15T14:19:44.000",
    "request_status": "Pending",
    "responsible_agency": "Department of Sanitation",
    "final_address": "3300 BLK N Galvez St",
    "address_councildis": "D",
    "status": "Assigned to Contractor",
    "contractor": "IV Waste",
    "rowid": "983162",
    "final_x": "3690945.23651",
    "final_y": "539510.131397",
    "longitude": "-90.03796054949514",
    "latitude": "29.977175577844516",
    "geocoded_column": {
      "latitude": "29.977175577844516",
      "longitude": "-90.03796054949514"
    }
  },
  {
    "service_request": "2023-983161",
    "request_type": "Trash/Recycling",
    "request_reason": "Repair Trash Cart",
    "date_created": "2023-03-15T14:18:49.000",
    "date_modified": "2023-03-15T14:19:49.000",
    "request_status": "Pending",
    "responsible_agency": "Department of Sanitation",
    "final_address": "531 St Maurice Ave",
    "address_councildis": "E",
    "status": "Assigned to Contractor",
    "contractor": "Waste Pro",
    "rowid": "983161",
    "final_x": "3699144.24266",
    "final_y": "531337.943682",
    "longitude": "-90.01236312645716",
    "latitude": "29.95444757656007",
    "geocoded_column": {
      "latitude": "29.95444757656007",
      "longitude": "-90.01236312645716"
    }
  },
  {
    "service_request": "2023-983160",
    "request_type": "Trash/Recycling",
    "request_reason": "Return Recycling Cart",
    "date_created": "2023-03-15T14:17:39.000",
    "date_modified": "2023-03-15T14:17:39.000",
    "request_status": "Pending",
    "responsible_agency": "Department of Sanitation",
    "final_address": "7827 Green St",
    "address_councildis": "A",
    "status": "Pending",
    "rowid": "983160",
    "final_x": "3663821.56109",
    "final_y": "529106.595584",
    "longitude": "-90.12397315431738",
    "latitude": "29.949384520977173",
    "geocoded_column": {
      "latitude": "29.949384520977173",
      "longitude": "-90.12397315431738"
    }
  },
  {
    "service_request": "2023-983159",
    "request_type": "Trash/Recycling",
    "request_reason": "Request a Large Item Pick Up",
    "date_created": "2023-03-15T14:12:58.000",
    "date_modified": "2023-03-15T14:12:59.000",
    "request_status": "Pending",
    "responsible_agency": "Department of Sanitation",
    "final_address": "9811 Andover Dr",
    "address_councildis": "E",
    "status": "Assigned to Contractor",
    "contractor": "Waste Pro",
    "rowid": "983159",
    "final_x": "3708838.9194",
    "final_y": "562086.434527",
    "longitude": "-89.98060522074948",
    "latitude": "30.038683387079317",
    "geocoded_column": {
      "latitude": "30.038683387079317",
      "longitude": "-89.98060522074948"
    }
  },
  {
    "service_request": "2023-983158",
    "request_type": "Traffic Signals/Signs/Striping/Streetlights",
    "request_reason": "Street Light Outage/Malfunction",
    "date_created": "2023-03-15T14:12:23.000",
    "date_modified": "2023-03-15T14:12:24.000",
    "request_status": "Pending",
    "responsible_agency": "Department of Public Works",
    "final_address": "514 Chartres St",
    "address_councildis": "C",
    "status": "Assigned to Contractor",
    "contractor": "Legacy Professional Services",
    "rowid": "983158",
    "final_x": "3682488.70556",
    "final_y": "531745.176259",
    "longitude": "-90.06494047780967",
    "latitude": "29.95608478444616",
    "geocoded_column": {
      "latitude": "29.95608478444616",
      "longitude": "-90.06494047780967"
    }
  },
  {
    "service_request": "2023-983157",
    "request_type": "Trash/Recycling",
    "request_reason": "Order Recycling Cart",
    "date_created": "2023-03-15T14:09:48.000",
    "date_modified": "2023-03-15T14:09:48.000",
    "request_status": "Pending",
    "responsible_agency": "Department of Sanitation",
    "final_address": "3539 St Charles Ave",
    "address_councildis": "B",
    "status": "Pending",
    "rowid": "983157",
    "final_x": "3673541.31304",
    "final_y": "521322.244025",
    "longitude": "-90.09354944179029",
    "latitude": "29.92769443684785",
    "geocoded_column": {
      "latitude": "29.92769443684785",
      "longitude": "-90.09354944179029"
    }
  },
  {
    "service_request": "2023-983156",
    "request_type": "Abandoned Vehicles",
    "request_reason": "Abandoned/Junk Vehicles",
    "date_created": "2023-03-15T14:07:06.000",
    "date_modified": "2023-03-15T14:10:44.000",
    "request_status": "Closed",
    "responsible_agency": "Department of Public Works",
    "final_address": "14000 BLK Curran Rd",
    "address_councildis": "E",
    "status": "Resolved",
    "rowid": "983156",
    "final_x": "3718600.35509",
    "final_y": "572299.363719",
    "longitude": "-89.94936696467765",
    "latitude": "30.066444250354763",
    "geocoded_column": {
      "latitude": "30.066444250354763",
      "longitude": "-89.94936696467765"
    }
  },
  {
    "service_request": "2023-983155",
    "request_type": "Trash/Recycling",
    "request_reason": "Missed Trash Pick-Up",
    "date_created": "2023-03-15T14:06:49.000",
    "date_modified": "2023-03-15T14:06:50.000",
    "request_status": "Pending",
    "responsible_agency": "Department of Sanitation",
    "final_address": "4101 Pressburg St",
    "address_councildis": "D",
    "status": "Assigned to Contractor",
    "contractor": "IV Waste",
    "rowid": "983155",
    "final_x": "3688663.86255",
    "final_y": "555073.652057",
    "longitude": "-90.04461301169181",
    "latitude": "30.0200403364495",
    "geocoded_column": {
      "latitude": "30.0200403364495",
      "longitude": "-90.04461301169181"
    }
  },
  {
    "service_request": "2023-983154",
    "request_type": "Trash/Recycling",
    "request_reason": "Request a Large Item Pick Up",
    "date_created": "2023-03-15T14:04:07.000",
    "date_modified": "2023-03-15T14:04:08.000",
    "request_status": "Pending",
    "responsible_agency": "Department of Sanitation",
    "final_address": "9 Tennyson Pl",
    "address_councildis": "C",
    "status": "Assigned to Contractor",
    "contractor": "Richards Disposal",
    "rowid": "983154",
    "final_x": "3704830.2931",
    "final_y": "517427.244406",
    "longitude": "-89.99492202165032",
    "latitude": "29.916016576643006",
    "geocoded_column": {
      "latitude": "29.916016576643006",
      "longitude": "-89.99492202165032"
    }
  },
  {
    "service_request": "2023-983153",
    "request_type": "Trash/Recycling",
    "request_reason": "Request a Large Item Pick Up",
    "date_created": "2023-03-15T13:59:02.000",
    "date_modified": "2023-03-15T13:59:02.000",
    "request_status": "Pending",
    "responsible_agency": "Department of Sanitation",
    "final_address": "8535 Spruce St",
    "address_councildis": "A",
    "status": "Assigned to Contractor",
    "contractor": "Richards Disposal",
    "rowid": "983153",
    "final_x": "3662614.20787",
    "final_y": "531634.090115",
    "longitude": "-90.12770135756159",
    "latitude": "29.95636929876156",
    "geocoded_column": {
      "latitude": "29.95636929876156",
      "longitude": "-90.12770135756159"
    }
  },
  {
    "service_request": "2023-983152",
    "request_type": "Roads/Drainage",
    "request_reason": "Pothole",
    "date_created": "2023-03-15T13:55:45.000",
    "date_modified": "2023-03-15T13:55:46.000",
    "request_status": "Pending",
    "responsible_agency": "Department of Public Works",
    "final_address": "949 Chapelle St",
    "address_councildis": "A",
    "status": "Pending",
    "rowid": "983152",
    "final_x": "3670809.50356",
    "final_y": "552554.240214",
    "longitude": "-90.10111288646921",
    "latitude": "30.013652910351684",
    "geocoded_column": {
      "latitude": "30.013652910351684",
      "longitude": "-90.10111288646921"
    }
  },
  {
    "service_request": "2023-983151",
    "request_type": "Trash/Recycling",
    "request_reason": "Order Trash Cart",
    "date_created": "2023-03-15T13:46:07.000",
    "date_modified": "2023-03-15T13:46:08.000",
    "request_status": "Pending",
    "responsible_agency": "Department of Sanitation",
    "final_address": "7511 E Oak Ridge Ct",
    "address_councildis": "E",
    "status": "Assigned to Contractor",
    "contractor": "Waste Pro",
    "rowid": "983151",
    "final_x": "3713919.25349",
    "final_y": "568001.507429",
    "longitude": "-89.96432680920913",
    "latitude": "30.054781547016095",
    "geocoded_column": {
      "latitude": "30.054781547016095",
      "longitude": "-89.96432680920913"
    }
  },
  {
    "service_request": "2023-983150",
    "request_type": "Trash/Recycling",
    "request_reason": "Return Trash Cart",
    "date_created": "2023-03-15T13:44:57.000",
    "date_modified": "2023-03-15T13:44:58.000",
    "request_status": "Pending",
    "responsible_agency": "Department of Sanitation",
    "final_address": "872 Taft Pl",
    "address_councildis": "A",
    "status": "Assigned to Contractor",
    "contractor": "Richards Disposal",
    "rowid": "983150",
    "final_x": "3673893.83963",
    "final_y": "539943.680266",
    "longitude": "-90.09179967151103",
    "latitude": "29.978886710978752",
    "geocoded_column": {
      "latitude": "29.978886710978752",
      "longitude": "-90.09179967151103"
    }
  },
  {
    "service_request": "2023-983149",
    "request_type": "Trash/Recycling",
    "request_reason": "Repair Trash Cart",
    "date_created": "2023-03-15T13:44:21.000",
    "date_modified": "2023-03-15T13:44:22.000",
    "request_status": "Pending",
    "responsible_agency": "Department of Sanitation",
    "final_address": "5438 N Rampart St",
    "address_councildis": "E",
    "status": "Assigned to Contractor",
    "contractor": "Waste Pro",
    "rowid": "983149",
    "final_x": "3697350.15875",
    "final_y": "533415.78234",
    "longitude": "-90.01795278847887",
    "latitude": "29.960217647694172",
    "geocoded_column": {
      "latitude": "29.960217647694172",
      "longitude": "-90.01795278847887"
    }
  },
  {
    "service_request": "2023-983148",
    "request_type": "Trash/Recycling",
    "request_reason": "Order Recycling Cart",
    "date_created": "2023-03-15T13:44:09.000",
    "date_modified": "2023-03-15T13:44:10.000",
    "request_status": "Pending",
    "responsible_agency": "Department of Sanitation",
    "final_address": "4867 Warren Dr",
    "address_councildis": "E",
    "status": "Pending",
    "rowid": "983148",
    "final_x": "3713459.17675",
    "final_y": "556980.647066",
    "longitude": "-89.96619661719211",
    "latitude": "30.02449371969391",
    "geocoded_column": {
      "latitude": "30.02449371969391",
      "longitude": "-89.96619661719211"
    }
  },
  {
    "service_request": "2023-983147",
    "request_type": "Trash/Recycling",
    "request_reason": "Replace Trash Cart",
    "date_created": "2023-03-15T13:43:37.000",
    "date_modified": "2023-03-15T13:43:38.000",
    "request_status": "Pending",
    "responsible_agency": "Department of Sanitation",
    "final_address": "4867 Warren Dr",
    "address_councildis": "E",
    "status": "Assigned to Contractor",
    "contractor": "Waste Pro",
    "rowid": "983147",
    "final_x": "3713459.17675",
    "final_y": "556980.647066",
    "longitude": "-89.96619661719211",
    "latitude": "30.02449371969391",
    "geocoded_column": {
      "latitude": "30.02449371969391",
      "longitude": "-89.96619661719211"
    }
  },
  {
    "service_request": "2023-983146",
    "request_type": "Trash/Recycling",
    "request_reason": "Request a Large Item Pick Up",
    "date_created": "2023-03-15T13:43:17.000",
    "date_modified": "2023-03-15T13:43:18.000",
    "request_status": "Pending",
    "responsible_agency": "Department of Sanitation",
    "final_address": "5438 N Rampart St",
    "address_councildis": "E",
    "status": "Assigned to Contractor",
    "contractor": "Waste Pro",
    "rowid": "983146",
    "final_x": "3697350.15875",
    "final_y": "533415.78234",
    "longitude": "-90.01795278847887",
    "latitude": "29.960217647694172",
    "geocoded_column": {
      "latitude": "29.960217647694172",
      "longitude": "-90.01795278847887"
    }
  },
  {
    "service_request": "2023-983145",
    "request_type": "Roads/Drainage",
    "request_reason": "Pothole",
    "date_created": "2023-03-15T13:30:21.000",
    "date_modified": "2023-03-15T14:17:38.000",
    "request_status": "Pending",
    "responsible_agency": "Department of Public Works",
    "final_address": "2655 Prentiss Ave",
    "address_councildis": "D",
    "status": "Inspected",
    "rowid": "983145",
    "final_x": "3687035.82185",
    "final_y": "554171.295384",
    "longitude": "-90.0497890307537",
    "latitude": "30.01760943586043",
    "geocoded_column": {
      "latitude": "30.01760943586043",
      "longitude": "-90.0497890307537"
    }
  },
  {
    "service_request": "2023-983144",
    "request_type": "Trash/Recycling",
    "request_reason": "Missed Trash Pick-Up",
    "date_created": "2023-03-15T13:30:09.000",
    "date_modified": "2023-03-15T13:30:10.000",
    "request_status": "Pending",
    "responsible_agency": "Department of Sanitation",
    "final_address": "4220 Darby St",
    "address_councildis": "E",
    "status": "Assigned to Contractor",
    "contractor": "Waste Pro",
    "rowid": "983144",
    "final_x": "3711724.86181",
    "final_y": "553782.870103",
    "longitude": "-89.97179675663008",
    "latitude": "30.01575786920723",
    "geocoded_column": {
      "latitude": "30.01575786920723",
      "longitude": "-89.97179675663008"
    }
  },
  {
    "service_request": "2023-983143",
    "request_type": "Abandoned Vehicles",
    "request_reason": "Abandoned/Junk Vehicles",
    "date_created": "2023-03-15T13:23:15.000",
    "date_modified": "2023-03-15T13:23:15.000",
    "request_status": "Pending",
    "responsible_agency": "Department of Public Works",
    "final_address": "13259 Curran Rd",
    "address_councildis": "E",
    "status": "Pending",
    "rowid": "983143",
    "final_x": "3716029.90732",
    "final_y": "570206.068007",
    "longitude": "-89.95757190197561",
    "latitude": "30.0607736717501",
    "geocoded_column": {
      "latitude": "30.0607736717501",
      "longitude": "-89.95757190197561"
    }
  },
  {
    "service_request": "2023-983142",
    "request_type": "Roads/Drainage",
    "request_reason": "Pothole",
    "date_created": "2023-03-15T13:23:06.000",
    "date_modified": "2023-03-15T13:23:50.000",
    "case_close_date": "2023-03-15T08:23:50.000",
    "request_status": "Closed",
    "responsible_agency": "Department of Public Works",
    "final_address": "1200 BLK Iberville St",
    "address_councildis": "C",
    "status": "Resolved",
    "rowid": "983142",
    "final_x": "3679945.91665",
    "final_y": "532155.681539",
    "longitude": "-90.0729554770619",
    "latitude": "29.957290686273428",
    "geocoded_column": {
      "latitude": "29.957290686273428",
      "longitude": "-90.0729554770619"
    }
  },
  {
    "service_request": "2023-983140",
    "request_type": "Abandoned Vehicles",
    "request_reason": "Abandoned/Junk Vehicles",
    "date_created": "2023-03-15T13:15:00.000",
    "date_modified": "2023-03-15T13:15:00.000",
    "request_status": "Pending",
    "responsible_agency": "Department of Public Works",
    "final_address": "13259 Curran Rd",
    "address_councildis": "E",
    "status": "Pending",
    "rowid": "983140",
    "final_x": "3716029.90732",
    "final_y": "570206.068007",
    "longitude": "-89.95757190197561",
    "latitude": "30.0607736717501",
    "geocoded_column": {
      "latitude": "30.0607736717501",
      "longitude": "-89.95757190197561"
    }
  },
  {
    "service_request": "2023-983139",
    "request_type": "Trash/Recycling",
    "request_reason": "Repair Trash Cart",
    "date_created": "2023-03-15T13:14:04.000",
    "date_modified": "2023-03-15T13:14:05.000",
    "request_status": "Pending",
    "responsible_agency": "Department of Sanitation",
    "final_address": "3654 Timber Bluff Ln",
    "address_councildis": "C",
    "status": "Assigned to Contractor",
    "contractor": "Richards Disposal",
    "rowid": "983139",
    "final_x": "3704089.36938",
    "final_y": "510834.925295",
    "longitude": "-89.99750322869716",
    "latitude": "29.89791372250601",
    "geocoded_column": {
      "latitude": "29.89791372250601",
      "longitude": "-89.99750322869716"
    }
  },
  {
    "service_request": "2023-983138",
    "request_type": "Trash/Recycling",
    "request_reason": "Request a Large Item Pick Up",
    "date_created": "2023-03-15T13:07:32.000",
    "date_modified": "2023-03-15T14:21:33.000",
    "case_close_date": "2023-03-15T09:21:33.000",
    "request_status": "Closed",
    "responsible_agency": "Department of Sanitation",
    "final_address": "1802 Music St",
    "address_councildis": "D",
    "status": "Assigned to Contractor",
    "contractor": "IV Waste",
    "contractor_action": "Completed",
    "rowid": "983138",
    "final_x": "3686609.83906",
    "final_y": "539063.988298",
    "longitude": "-90.05166887807557",
    "latitude": "29.976082894001667",
    "geocoded_column": {
      "latitude": "29.976082894001667",
      "longitude": "-90.05166887807557"
    }
  },
  {
    "service_request": "2023-983137",
    "request_type": "Roads/Drainage",
    "request_reason": "Man hole cover issue",
    "date_created": "2023-03-15T13:07:25.000",
    "date_modified": "2023-03-15T13:07:25.000",
    "request_status": "Pending",
    "responsible_agency": "Department of Public Works",
    "final_address": "1501 Napoleon Ave",
    "address_councildis": "B",
    "status": "Pending",
    "rowid": "983137",
    "final_x": "3670970.04583",
    "final_y": "520612.199864",
    "longitude": "-90.10169042938571",
    "latitude": "29.925818290073597",
    "geocoded_column": {
      "latitude": "29.925818290073597",
      "longitude": "-90.10169042938571"
    }
  },
  {
    "service_request": "2023-983136",
    "request_type": "Trash/Recycling",
    "request_reason": "Order Trash Cart",
    "date_created": "2023-03-15T13:05:01.000",
    "date_modified": "2023-03-15T13:05:01.000",
    "request_status": "Pending",
    "responsible_agency": "Department of Sanitation",
    "final_address": "1828 Onzaga St",
    "address_councildis": "D",
    "status": "Assigned to Contractor",
    "contractor": "IV Waste",
    "rowid": "983136",
    "final_x": "3681621.11164",
    "final_y": "538625.744137",
    "longitude": "-90.06744001287738",
    "latitude": "29.97503036426133",
    "geocoded_column": {
      "latitude": "29.97503036426133",
      "longitude": "-90.06744001287738"
    }
  },
  {
    "service_request": "2023-983135",
    "request_type": "Trash/Recycling",
    "request_reason": "Request a Large Item Pick Up",
    "date_created": "2023-03-15T13:04:49.000",
    "date_modified": "2023-03-15T13:04:50.000",
    "request_status": "Pending",
    "responsible_agency": "Department of Sanitation",
    "final_address": "4714 General Meyer Ave",
    "address_councildis": "C",
    "status": "Assigned to Contractor",
    "contractor": "Richards Disposal",
    "rowid": "983135",
    "final_x": "3701548.8081",
    "final_y": "523584.224379",
    "longitude": "-90.00505431995528",
    "latitude": "29.933051134778076",
    "geocoded_column": {
      "latitude": "29.933051134778076",
      "longitude": "-90.00505431995528"
    }
  },
  {
    "service_request": "2023-983134",
    "request_type": "Traffic Signals/Signs/Striping/Streetlights",
    "request_reason": "Traffic Sign Missing/Damaged",
    "date_created": "2023-03-15T13:00:57.000",
    "date_modified": "2023-03-15T13:00:58.000",
    "request_status": "Pending",
    "responsible_agency": "Department of Public Works",
    "final_address": "BARONNE ST & MARTIN LUTHER KING JR BLVD",
    "address_councildis": "B",
    "status": "Pending",
    "rowid": "983134",
    "final_x": "3678451.6",
    "final_y": "526055.41",
    "longitude": "-90.07788513131113",
    "latitude": "29.940562088644302",
    "geocoded_column": {
      "latitude": "29.940562088644302",
      "longitude": "-90.07788513131113"
    }
  },
  {
    "service_request": "2023-983133",
    "request_type": "Traffic Signals/Signs/Striping/Streetlights",
    "request_reason": "Street Light Knocked Down/Leaning",
    "date_created": "2023-03-15T12:59:18.000",
    "date_modified": "2023-03-15T12:59:19.000",
    "request_status": "Pending",
    "responsible_agency": "Department of Public Works",
    "final_address": "9100 Chef Menteur Hwy",
    "address_councildis": "E",
    "status": "Pending",
    "contractor": "Legacy Professional Services",
    "rowid": "983133",
    "final_x": "3709219.40542",
    "final_y": "553548.058391",
    "longitude": "-89.97972155546024",
    "latitude": "30.01519384899914",
    "geocoded_column": {
      "latitude": "30.01519384899914",
      "longitude": "-89.97972155546024"
    }
  },
  {
    "service_request": "2023-983132",
    "request_type": "Traffic Signals/Signs/Striping/Streetlights",
    "request_reason": "Street Light Outage/Malfunction",
    "date_created": "2023-03-15T12:56:47.000",
    "date_modified": "2023-03-15T12:56:48.000",
    "request_status": "Pending",
    "responsible_agency": "Department of Public Works",
    "final_address": "14207 Chef Menteur Hwy",
    "address_councildis": "E",
    "status": "Assigned to Contractor",
    "contractor": "Legacy Professional Services",
    "rowid": "983132",
    "final_x": "3729629.10406",
    "final_y": "561253.699038",
    "longitude": "-89.91493617537868",
    "latitude": "30.035702456778928",
    "geocoded_column": {
      "latitude": "30.035702456778928",
      "longitude": "-89.91493617537868"
    }
  },
  {
    "service_request": "2023-983131",
    "request_type": "Safety & Permits",
    "request_reason": "Licenses & Permits",
    "date_created": "2023-03-15T12:56:13.000",
    "date_modified": "2023-03-15T12:58:08.000",
    "request_status": "Pending",
    "responsible_agency": "Safety and Permits",
    "final_address": "1417 Baronne St",
    "address_councildis": "B",
    "status": "Pending",
    "rowid": "983131",
    "final_x": "3678466.11515",
    "final_y": "526177.481982",
    "longitude": "-90.07783508169229",
    "latitude": "29.940897308885692",
    "geocoded_column": {
      "latitude": "29.940897308885692",
      "longitude": "-90.07783508169229"
    }
  },
  {
    "service_request": "2023-983130",
    "request_type": "Property Maintenance",
    "request_reason": "Property Maintenance",
    "date_created": "2023-03-15T12:55:02.000",
    "date_modified": "2023-03-15T12:55:03.000",
    "request_status": "Pending",
    "responsible_agency": "Department of Code Enforcement",
    "final_address": "1417 Baronne St",
    "address_councildis": "B",
    "status": "Pending",
    "rowid": "983130",
    "final_x": "3678466.11515",
    "final_y": "526177.481982",
    "longitude": "-90.07783508169229",
    "latitude": "29.940897308885692",
    "geocoded_column": {
      "latitude": "29.940897308885692",
      "longitude": "-90.07783508169229"
    }
  },