[
  {
    "service_request": "2026-1289669",
    "request_type": "Tree Service",
    "request_reason": "Tree Trim",
    "date_created": "2026-06-10T23:14:19.000",
    "date_modified": "2026-06-10T23:14:21.000",
    "request_status": "Pending",
    "responsible_agency": "Department of Parks & Parkways",
    "final_address": "4936 Mirabeau Ave",
    "address_councildis": "D",
    "status": "Pending",
    "rowid": "1289669",
    "final_x": "3692040.7103",
    "final_y": "551964.279574",
    "longitude": "-90.03405468585083",
    "latitude": "30.011385859489266",
    "geocoded_column": {
      "latitude": "30.011385859489266",
      "longitude": "-90.03405468585083"
    }
  },
  {
    "service_request": "2026-1289668",
    "request_type": "Streetlights",
    "request_reason": "Streetlight Outage/Malfunction",
    "date_created": "2026-06-10T22:28:18.000",
    "date_modified": "2026-06-10T22:28:20.000",
    "request_status": "Pending",
    "responsible_agency": "Department of Public Works",
    "final_address": "14184 Willowbrook Dr",
    "address_councildis": "E",
    "status": "Pending",
    "rowid": "1289668",
    "final_x": "3724859.38195",
    "final_y": "564263.925601",
    "longitude": "-89.92989261995228",
    "latitude": "30.044140819575695",
    "geocoded_column": {
      "latitude": "30.044140819575695",
      "longitude": "-89.92989261995228"
    }
  },
  {
    "service_request": "2026-1289667",
    "request_type": "Utility Poles",
    "request_reason": "Wires Sagging/Hanging Low",
    "date_created": "2026-06-10T22:09:02.000",
    "date_modified": "2026-06-10T22:09:04.000",
    "request_status": "Pending",
    "responsible_agency": "Utility Company Collective",
    "final_address": "2231 Franklin Ave",
    "address_councildis": "D",
    "status": "Pending",
    "rowid": "1289667",
    "final_x": "3687654.03862",
    "final_y": "540852.866891",
    "longitude": "-90.04830763933131",
    "latitude": "29.980969521508282",
    "geocoded_column": {
      "latitude": "29.980969521508282",
      "longitude": "-90.04830763933131"
    }
  },
  {
    "service_request": "2026-1289666",
    "request_type": "Trash/Recycling",
    "request_reason": "Request a Large Item Pick Up",
    "date_created": "2026-06-10T22:05:52.000",
    "date_modified": "2026-06-10T22:05:54.000",
    "request_status": "Pending",
    "responsible_agency": "Department of Sanitation",
    "final_address": "5107 Pitt St",
    "address_councildis": "B",
    "status": "Assigned to Contractor",
    "contractor": "IV Waste",
    "rowid": "1289666",
    "final_x": "3668316.35598",
    "final_y": "520449.994296",
    "longitude": "-90.1100728287341",
    "latitude": "29.92545044132492",
    "geocoded_column": {
      "latitude": "29.92545044132492",
      "longitude": "-90.1100728287341"
    }
  },
  {
    "service_request": "2026-1289665",
    "request_type": "Trash/Recycling",
    "request_reason": "Request a Large Item Pick Up",
    "date_created": "2026-06-10T21:55:16.000",
    "date_modified": "2026-06-10T21:55:18.000",
    "request_status": "Pending",
    "responsible_agency": "Department of Sanitation",
    "final_address": "1724 N Robertson St",
    "address_councildis": "C",
    "status": "Assigned to Contractor",
    "contractor": "IV Waste",
    "rowid": "1289665",
    "final_x": "3683242.28751",
    "final_y": "537603.186632",
    "longitude": "-90.06235574921246",
    "latitude": "29.972169339820468",
    "geocoded_column": {
      "latitude": "29.972169339820468",
      "longitude": "-90.06235574921246"
    }
  },
  {
    "service_request": "2026-1289664",
    "request_type": "Abandoned Vehicles",
    "request_reason": "Abandoned/Junk Vehicles",
    "date_created": "2026-06-10T21:54:30.000",
    "date_modified": "2026-06-10T21:54:32.000",
    "request_status": "Pending",
    "responsible_agency": "Department of Public Works",
    "final_address": "4920 Loyola Ave",
    "address_councildis": "B",
    "status": "Pending",
    "rowid": "1289664",
    "final_x": "3668948.35201",
    "final_y": "522817.365243",
    "longitude": "-90.10799789218213",
    "latitude": "29.93194138963263",
    "geocoded_column": {
      "latitude": "29.93194138963263",
      "longitude": "-90.10799789218213"
    }
  },
  {
    "service_request": "2026-1289663",
    "request_type": "Street and Traffic Signs",
    "request_reason": "Street Name Sign Damaged or Missing",
    "date_created": "2026-06-10T21:51:33.000",
    "date_modified": "2026-06-10T21:51:35.000",
    "request_status": "Pending",
    "responsible_agency": "Department of Public Works",
    "final_address": "IBERVILLE ST & DAUPHINE ST",
    "address_councildis": "C",
    "status": "Pending",
    "rowid": "1289663",
    "final_x": "3680877.4",
    "final_y": "531445.48",
    "longitude": "-90.07003886142438",
    "latitude": "29.955309666966254",
    "geocoded_column": {
      "latitude": "29.955309666966254",
      "longitude": "-90.07003886142438"
    }
  },
  {
    "service_request": "2026-1289662",
    "request_type": "Safety & Permits",
    "request_reason": "Licenses & Permits",
    "date_created": "2026-06-10T21:33:06.000",
    "date_modified": "2026-06-10T21:33:09.000",
    "request_status": "Pending",
    "responsible_agency": "Safety and Permits",
    "final_address": "2802 Dante St",
    "address_councildis": "A",
    "status": "Pending",
    "rowid": "1289662",
    "final_x": "3665307.81837",
    "final_y": "533186.256068",
    "longitude": "-90.11914386012397",
    "latitude": "29.960559042648583",
    "geocoded_column": {
      "latitude": "29.960559042648583",
      "longitude": "-90.11914386012397"
    }
  },
  {
    "service_request": "2026-1289661",
    "request_type": "Streetlights",
    "request_reason": "Streetlight Outage/Malfunction",
    "date_created": "2026-06-10T21:14:38.000",
    "date_modified": "2026-06-10T21:14:41.000",
    "request_status": "Pending",
    "responsible_agency": "Department of Public Works",
    "final_address": "305 S Cortez St",
    "address_councildis": "A",
    "status": "Pending",
    "rowid": "1289661",
    "final_x": "3671520.89601",
    "final_y": "536946.340872",
    "longitude": "-90.09939629282685",
    "latitude": "29.97071552541736",
    "geocoded_column": {
      "latitude": "29.97071552541736",
      "longitude": "-90.09939629282685"
    }
  },
  {
    "service_request": "2026-1289660",
    "request_type": "Trash/Recycling",
    "request_reason": "Replace Trash Cart",
    "date_created": "2026-06-10T21:03:51.000",
    "date_modified": "2026-06-10T21:03:52.000",
    "request_status": "Pending",
    "responsible_agency": "Department of Sanitation",
    "final_address": "6677 Vicksburg St",
    "address_councildis": "A",
    "status": "Assigned to Contractor",
    "contractor": "IV Waste",
    "rowid": "1289660",
    "final_x": "3669379.59911",
    "final_y": "551859.472534",
    "longitude": "-90.10565417478043",
    "latitude": "30.011784747765525",
    "geocoded_column": {
      "latitude": "30.011784747765525",
      "longitude": "-90.10565417478043"
    }
  },
  {
    "service_request": "2026-1289659",
    "request_type": "Trash/Recycling",
    "request_reason": "Replace Trash Cart",
    "date_created": "2026-06-10T21:00:02.000",
    "date_modified": "2026-06-10T21:00:05.000",
    "request_status": "Pending",
    "responsible_agency": "Department of Sanitation",
    "final_address": "246 Audubon Blvd",
    "address_councildis": "A",
    "status": "Assigned to Contractor",
    "contractor": "IV Waste",
    "rowid": "1289659",
    "final_x": "3666447.64999",
    "final_y": "528967.632192",
    "longitude": "-90.11568605014573",
    "latitude": "29.94892594380154",
    "geocoded_column": {
      "latitude": "29.94892594380154",
      "longitude": "-90.11568605014573"
    }
  },
  {
    "service_request": "2026-1289658",
    "request_type": "Trash/Recycling",
    "request_reason": "Missed Trash Pick-Up",
    "date_created": "2026-06-10T20:42:17.000",
    "date_modified": "2026-06-10T20:42:19.000",
    "request_status": "Pending",
    "responsible_agency": "Department of Sanitation",
    "final_address": "2622 Wisteria St",
    "address_councildis": "D",
    "status": "Assigned to Contractor",
    "contractor": "IV Waste",
    "rowid": "1289658",
    "final_x": "3687193.10825",
    "final_y": "548364.808658",
    "longitude": "-90.04949762541622",
    "latitude": "30.001638876296827",
    "geocoded_column": {
      "latitude": "30.001638876296827",
      "longitude": "-90.04949762541622"
    }
  },
  {
    "service_request": "2026-1289657",
    "request_type": "Trash/Recycling",
    "request_reason": "Request a Large Item Pick Up",
    "date_created": "2026-06-10T20:24:00.000",
    "date_modified": "2026-06-10T20:24:03.000",
    "request_status": "Pending",
    "responsible_agency": "Department of Sanitation",
    "final_address": "406 Huntlee Dr",
    "address_councildis": "C",
    "status": "Assigned to Contractor",
    "contractor": "Richards Disposal",
    "rowid": "1289657",
    "final_x": "3701914.01079",
    "final_y": "522270.241594",
    "longitude": "-90.00394953480962",
    "latitude": "29.929426493034768",
    "geocoded_column": {
      "latitude": "29.929426493034768",
      "longitude": "-90.00394953480962"
    }
  },
  {
    "service_request": "2026-1289656",
    "request_type": "Trash/Recycling",
    "request_reason": "Illegal Dumping",
    "date_created": "2026-06-10T20:13:21.000",
    "date_modified": "2026-06-10T20:13:22.000",
    "request_status": "Pending",
    "responsible_agency": "Department of Sanitation",
    "final_address": "1200 N Prieur St",
    "address_councildis": "C",
    "status": "Pending",
    "rowid": "1289656",
    "final_x": "3680113.57167",
    "final_y": "536768.944968",
    "longitude": "-90.07226575162032",
    "latitude": "29.969970515424865",
    "geocoded_column": {
      "latitude": "29.969970515424865",
      "longitude": "-90.07226575162032"
    }
  },
  {
    "service_request": "2026-1289655",
    "request_type": "Trash/Recycling",
    "request_reason": "Request a Large Item Pick Up",
    "date_created": "2026-06-10T20:11:51.000",
    "date_modified": "2026-06-10T20:11:53.000",
    "request_status": "Pending",
    "responsible_agency": "Department of Sanitation",
    "final_address": "721 Congress St",
    "address_councildis": "C",
    "status": "Assigned to Contractor",
    "contractor": "IV Waste",
    "rowid": "1289655",
    "final_x": "3690417.79017",
    "final_y": "534241.143173",
    "longitude": "-90.03981425045859",
    "latitude": "29.962704101323272",
    "geocoded_column": {
      "latitude": "29.962704101323272",
      "longitude": "-90.03981425045859"
    }
  },
  {
    "service_request": "2026-1289654",
    "request_type": "Trash/Recycling",
    "request_reason": "Illegal Dumping",
    "date_created": "2026-06-10T20:11:33.000",
    "date_modified": "2026-06-10T20:11:34.000",
    "request_status": "Pending",
    "responsible_agency": "Department of Sanitation",
    "final_address": "1220 N Prieur St",
    "address_councildis": "C",
    "status": "Pending",
    "rowid": "1289654",
    "final_x": "3680215.38165",
    "final_y": "536826.495688",
    "longitude": "-90.07194222503591",
    "latitude": "29.970125678794645",
    "geocoded_column": {
      "latitude": "29.970125678794645",
      "longitude": "-90.07194222503591"
    }
  },
  {
    "service_request": "2026-1289653",
    "request_type": "Trash/Recycling",
    "request_reason": "Illegal Dumping",
    "date_created": "2026-06-10T20:11:33.000",
    "date_modified": "2026-06-10T20:11:34.000",
    "request_status": "Pending",
    "responsible_agency": "Department of Sanitation",
    "final_address": "1220 N Prieur St",
    "address_councildis": "C",
    "status": "Pending",
    "rowid": "1289653",
    "final_x": "3680215.38165",
    "final_y": "536826.495688",
    "longitude": "-90.07194222503591",
    "latitude": "29.970125678794645",
    "geocoded_column": {
      "latitude": "29.970125678794645",
      "longitude": "-90.07194222503591"
    }
  },
  {
    "service_request": "2026-1289652",
    "request_type": "Trash/Recycling",
    "request_reason": "Request a Large Item Pick Up",
    "date_created": "2026-06-10T20:10:24.000",
    "date_modified": "2026-06-10T20:10:26.000",
    "request_status": "Pending",
    "responsible_agency": "Department of Sanitation",
    "final_address": "721 Congress St",
    "address_councildis": "C",
    "status": "Assigned to Contractor",
    "contractor": "IV Waste",
    "rowid": "1289652",
    "final_x": "3690417.79017",
    "final_y": "534241.143173",
    "longitude": "-90.03981425045859",
    "latitude": "29.962704101323272",
    "geocoded_column": {
      "latitude": "29.962704101323272",
      "longitude": "-90.03981425045859"
    }
  },
  {
    "service_request": "2026-1289651",
    "request_type": "Trash/Recycling",
    "request_reason": "Request a Large Item Pick Up",
    "date_created": "2026-06-10T20:07:53.000",
    "date_modified": "2026-06-10T20:07:55.000",
    "request_status": "Pending",
    "responsible_agency": "Department of Sanitation",
    "final_address": "923 Port St",
    "address_councildis": "C",
    "status": "Assigned to Contractor",
    "contractor": "IV Waste",
    "rowid": "1289651",
    "final_x": "3687292.54959",
    "final_y": "535784.599815",
    "longitude": "-90.0496287186683",
    "latitude": "29.967044709195868",
    "geocoded_column": {
      "latitude": "29.967044709195868",
      "longitude": "-90.0496287186683"
    }
  },
  {
    "service_request": "2026-1289650",
    "request_type": "Trash/Recycling",
    "request_reason": "Order Trash Cart",
    "date_created": "2026-06-10T20:05:55.000",
    "date_modified": "2026-06-10T20:05:57.000",
    "request_status": "Pending",
    "responsible_agency": "Department of Sanitation",
    "final_address": "733 Harmony St",
    "address_councildis": "B",
    "status": "Assigned to Contractor",
    "contractor": "IV Waste",
    "rowid": "1289650",
    "final_x": "3676396.50273",
    "final_y": "518908.208823",
    "longitude": "-90.08461933113075",
    "latitude": "29.92097136666449",
    "geocoded_column": {
      "latitude": "29.92097136666449",
      "longitude": "-90.08461933113075"
    }
  },
  {
    "service_request": "2026-1289649",
    "request_type": "Streetlights",
    "request_reason": "Streetlight Outage/Malfunction",
    "date_created": "2026-06-10T20:02:21.000",
    "date_modified": "2026-06-10T20:02:22.000",
    "request_status": "Pending",
    "responsible_agency": "Department of Public Works",
    "final_address": "7418 Chef Menteur Hwy",
    "address_councildis": "E",
    "status": "Pending",
    "rowid": "1289649",
    "final_x": "3702787.00727",
    "final_y": "552270.623318",
    "longitude": "-90.0000917226478",
    "latitude": "30.011888758797934",
    "geocoded_column": {
      "latitude": "30.011888758797934",
      "longitude": "-90.0000917226478"
    }
  },
  {
    "service_request": "2026-1289648",
    "request_type": "Streetlights",
    "request_reason": "Streetlight Outage/Malfunction",
    "date_created": "2026-06-10T19:57:52.000",
    "date_modified": "2026-06-10T19:57:54.000",
    "request_status": "Pending",
    "responsible_agency": "Department of Public Works",
    "final_address": "6324 Chef Menteur Hwy",
    "address_councildis": "E",
    "status": "Pending",
    "rowid": "1289648",
    "final_x": "3698361.32567",
    "final_y": "551369.806869",
    "longitude": "-90.01410701701765",
    "latitude": "30.00955270210462",
    "geocoded_column": {
      "latitude": "30.00955270210462",
      "longitude": "-90.01410701701765"
    }
  },
  {
    "service_request": "2026-1289647",
    "request_type": "Property Maintenance",
    "request_reason": "Property Maintenance",
    "date_created": "2026-06-10T19:53:37.000",
    "date_modified": "2026-06-10T19:53:38.000",
    "request_status": "Pending",
    "responsible_agency": "Department of Code Enforcement",
    "final_address": "4920 Pentland Dr",
    "address_councildis": "E",
    "status": "Pending",
    "rowid": "1289647",
    "final_x": "3718608.52505",
    "final_y": "558015.602779",
    "longitude": "-89.94988629963272",
    "latitude": "30.027169495462754",
    "geocoded_column": {
      "latitude": "30.027169495462754",
      "longitude": "-89.94988629963272"
    }
  },
  {
    "service_request": "2026-1289646",
    "request_type": "Trash/Recycling",
    "request_reason": "Damaged Caused By Contractor",
    "date_created": "2026-06-10T19:52:38.000",
    "date_modified": "2026-06-10T19:52:40.000",
    "request_status": "Pending",
    "responsible_agency": "Department of Sanitation",
    "final_address": "3827 Peach Tree Ct",
    "address_councildis": "C",
    "status": "Assigned to Contractor",
    "contractor": "Richards Disposal",
    "rowid": "1289646",
    "final_x": "3703990.91934",
    "final_y": "512519.688561",
    "longitude": "-89.99775194472795",
    "latitude": "29.902549406712566",
    "geocoded_column": {
      "latitude": "29.902549406712566",
      "longitude": "-89.99775194472795"
    }
  },
  {
    "service_request": "2026-1289645",
    "request_type": "Street and Traffic Signs",
    "request_reason": "Street Name Sign Damaged or Missing",
    "date_created": "2026-06-10T19:39:59.000",
    "date_modified": "2026-06-10T19:40:00.000",
    "request_status": "Pending",
    "responsible_agency": "Department of Public Works",
    "final_address": "CONTI ST & DAUPHINE ST",
    "address_councildis": "C",
    "status": "Pending",
    "rowid": "1289645",
    "final_x": "3681318.4",
    "final_y": "532024.98",
    "longitude": "-90.06862614899319",
    "latitude": "29.956889719071757",
    "geocoded_column": {
      "latitude": "29.956889719071757",
      "longitude": "-90.06862614899319"
    }
  },
  {
    "service_request": "2026-1289644",
    "request_type": "Trash/Recycling",
    "request_reason": "Repair Trash Cart",
    "date_created": "2026-06-10T19:39:47.000",
    "date_modified": "2026-06-10T19:39:48.000",
    "request_status": "Pending",
    "responsible_agency": "Department of Sanitation",
    "final_address": "1228 Cambronne St",
    "address_councildis": "A",
    "status": "Assigned to Contractor",
    "contractor": "IV Waste",
    "rowid": "1289644",
    "final_x": "3661302.00704",
    "final_y": "529306.519361",
    "longitude": "-90.1319219350396",
    "latitude": "29.95000712672728",
    "geocoded_column": {
      "latitude": "29.95000712672728",
      "longitude": "-90.1319219350396"
    }
  },
  {
    "service_request": "2026-1289643",
    "request_type": "Street and Traffic Signs",
    "request_reason": "Street Name Sign Damaged or Missing",
    "date_created": "2026-06-10T19:38:28.000",
    "date_modified": "2026-06-10T19:38:29.000",
    "request_status": "Pending",
    "responsible_agency": "Department of Public Works",
    "final_address": "BIENVILLE ST & DAUPHINE ST",
    "address_councildis": "C",
    "status": "Pending",
    "rowid": "1289643",
    "final_x": "3681094.2",
    "final_y": "531733.68",
    "longitude": "-90.06934424812331",
    "latitude": "29.956095545211625",
    "geocoded_column": {
      "latitude": "29.956095545211625",
      "longitude": "-90.06934424812331"
    }
  },
  {
    "service_request": "2026-1289642",
    "request_type": "Trash/Recycling",
    "request_reason": "Replace Trash Cart",
    "date_created": "2026-06-10T19:38:26.000",
    "date_modified": "2026-06-10T19:38:29.000",
    "request_status": "Pending",
    "responsible_agency": "Department of Sanitation",
    "final_address": "3993 S Front St",
    "address_councildis": "B",
    "status": "Assigned to Contractor",
    "contractor": "IV Waste",
    "rowid": "1289642",
    "final_x": "3672704.029",
    "final_y": "517393.301301",
    "longitude": "-90.09632644752156",
    "latitude": "29.916915983460342",
    "geocoded_column": {
      "latitude": "29.916915983460342",
      "longitude": "-90.09632644752156"
    }
  },
  {
    "service_request": "2026-1289641",
    "request_type": "Mosquito, Termite & Rodent Control",
    "request_reason": "Mosquito Complaint",
    "date_created": "2026-06-10T19:38:16.000",
    "date_modified": "2026-06-10T19:38:19.000",
    "request_status": "Pending",
    "responsible_agency": "Mosquito, Termite & Rodent Control Board",
    "final_address": "932 Pleasant St",
    "address_councildis": "B",
    "status": "Pending",
    "rowid": "1289641",
    "final_x": "3675727.43009",
    "final_y": "519434.186295",
    "longitude": "-90.08671323018118",
    "latitude": "29.922437667530556",
    "geocoded_column": {
      "latitude": "29.922437667530556",
      "longitude": "-90.08671323018118"
    }
  },
  {
    "service_request": "2026-1289640",
    "request_type": "Mosquito, Termite & Rodent Control",
    "request_reason": "Non-Rodent Complaint (Possums & Snakes)",
    "date_created": "2026-06-10T19:27:20.000",
    "date_modified": "2026-06-10T19:27:21.000",
    "request_status": "Pending",
    "responsible_agency": "Mosquito, Termite & Rodent Control Board",
    "final_address": "4440 Bienville Ave",
    "address_councildis": "A",
    "status": "Pending",
    "rowid": "1289640",
    "final_x": "3670179.27463",
    "final_y": "539942.641098",
    "longitude": "-90.10353174697467",
    "latitude": "29.97899399836528",
    "geocoded_column": {
      "latitude": "29.97899399836528",
      "longitude": "-90.10353174697467"
    }
  },
  {
    "service_request": "2026-1289639",
    "request_type": "Trash/Recycling",
    "request_reason": "Replace Trash Cart",
    "date_created": "2026-06-10T19:23:09.000",
    "date_modified": "2026-06-10T19:23:11.000",
    "request_status": "Pending",
    "responsible_agency": "Department of Sanitation",
    "final_address": "7934 Danube Rd",
    "address_councildis": "E",
    "status": "Assigned to Contractor",
    "contractor": "Waste Pro",
    "rowid": "1289639",
    "final_x": "3698922.92586",
    "final_y": "561175.11459",
    "longitude": "-90.01197550021803",
    "latitude": "30.036495763941346",
    "geocoded_column": {
      "latitude": "30.036495763941346",
      "longitude": "-90.01197550021803"
    }
  },
  {
    "service_request": "2026-1289638",
    "request_type": "Road Striping",
    "request_reason": "Lane Striping or other Pavement Markings",
    "date_created": "2026-06-10T19:12:39.000",
    "date_modified": "2026-06-10T19:12:41.000",
    "request_status": "Pending",
    "responsible_agency": "Department of Public Works",
    "final_address": "1340 Florida Ave",
    "address_councildis": "D",
    "status": "Pending",
    "rowid": "1289638",
    "final_x": "3678294.11912",
    "final_y": "544601.111887",
    "longitude": "-90.07774072321902",
    "latitude": "29.991561195695034",
    "geocoded_column": {
      "latitude": "29.991561195695034",
      "longitude": "-90.07774072321902"
    }
  },
  {
    "service_request": "2026-1289637",
    "request_type": "Trash/Recycling",
    "request_reason": "Request a Large Item Pick Up",
    "date_created": "2026-06-10T19:02:22.000",
    "date_modified": "2026-06-10T19:02:23.000",
    "request_status": "Pending",
    "responsible_agency": "Department of Sanitation",
    "final_address": "2327 Valmont St",
    "address_councildis": "B",
    "status": "Assigned to Contractor",
    "contractor": "IV Waste",
    "rowid": "1289637",
    "final_x": "3668322.27105",
    "final_y": "524178.40582",
    "longitude": "-90.10992849514429",
    "latitude": "29.93570221018063",
    "geocoded_column": {
      "latitude": "29.93570221018063",
      "longitude": "-90.10992849514429"
    }
  },
  {
    "service_request": "2026-1289636",
    "request_type": "Trash/Recycling",
    "request_reason": "Request a Large Item Pick Up",
    "date_created": "2026-06-10T18:54:33.000",
    "date_modified": "2026-06-10T18:54:36.000",
    "request_status": "Pending",
    "responsible_agency": "Department of Sanitation",
    "final_address": "4760 Werner Dr",
    "address_councildis": "E",
    "status": "Assigned to Contractor",
    "contractor": "Waste Pro",
    "rowid": "1289636",
    "final_x": "3704713.45124",
    "final_y": "555469.126937",
    "longitude": "-89.99388718696147",
    "latitude": "30.020621641739034",
    "geocoded_column": {
      "latitude": "30.020621641739034",
      "longitude": "-89.99388718696147"
    }
  },
  {
    "service_request": "2026-1289635",
    "request_type": "Property Maintenance",
    "request_reason": "Property Maintenance",
    "date_created": "2026-06-10T18:50:51.000",
    "date_modified": "2026-06-10T18:50:53.000",
    "request_status": "Pending",
    "responsible_agency": "Department of Code Enforcement",
    "final_address": "4768 Werner Dr",
    "address_councildis": "E",
    "status": "Pending",
    "rowid": "1289635",
    "final_x": "3704708.48362",
    "final_y": "555518.685977",
    "longitude": "-89.99390105255692",
    "latitude": "30.020758069645126",
    "geocoded_column": {
      "latitude": "30.020758069645126",
      "longitude": "-89.99390105255692"
    }
  },
  {
    "service_request": "2026-1289634",
    "request_type": "Trash/Recycling",
    "request_reason": "Replace Recycling Cart",
    "date_created": "2026-06-10T18:47:40.000",
    "date_modified": "2026-06-10T18:47:42.000",
    "request_status": "Pending",
    "responsible_agency": "Department of Sanitation",
    "final_address": "2555 Hudson Pl",
    "address_councildis": "C",
    "status": "Pending",
    "rowid": "1289634",
    "final_x": "3703354.88798",
    "final_y": "521662.837113",
    "longitude": "-89.99942330768387",
    "latitude": "29.92771029773381",
    "geocoded_column": {
      "latitude": "29.92771029773381",
      "longitude": "-89.99942330768387"
    }
  },
  {
    "service_request": "2026-1289633",
    "request_type": "Property Maintenance",
    "request_reason": "Property Maintenance",
    "date_created": "2026-06-10T18:39:34.000",
    "date_modified": "2026-06-10T18:39:39.000",
    "request_status": "Pending",
    "responsible_agency": "Department of Code Enforcement",
    "final_address": "7810 Green St",
    "address_councildis": "A",
    "status": "Pending",
    "rowid": "1289633",
    "final_x": "3663872.74003",
    "final_y": "528950.652672",
    "longitude": "-90.12381675626048",
    "latitude": "29.94895424285982",
    "geocoded_column": {
      "latitude": "29.94895424285982",
      "longitude": "-90.12381675626048"
    }
  },
  {
    "service_request": "2026-1289632",
    "request_type": "Trash/Recycling",
    "request_reason": "Replace Trash Cart",
    "date_created": "2026-06-10T18:37:43.000",
    "date_modified": "2026-06-10T18:37:44.000",
    "request_status": "Pending",
    "responsible_agency": "Department of Sanitation",
    "final_address": "5614 St Charles Ave",
    "address_councildis": "A",
    "status": "Assigned to Contractor",
    "contractor": "IV Waste",
    "rowid": "1289632",
    "final_x": "3666616.4722",
    "final_y": "521864.574522",
    "longitude": "-90.1153913903475",
    "latitude": "29.929389879307138",
    "geocoded_column": {
      "latitude": "29.929389879307138",
      "longitude": "-90.1153913903475"
    }
  },
  {
    "service_request": "2026-1289631",
    "request_type": "Trash/Recycling",
    "request_reason": "Request a Large Item Pick Up",
    "date_created": "2026-06-10T18:34:15.000",
    "date_modified": "2026-06-10T18:34:17.000",
    "request_status": "Pending",
    "responsible_agency": "Department of Sanitation",
    "final_address": "4641 Murano Rd",
    "address_councildis": "E",
    "status": "Assigned to Contractor",
    "contractor": "Waste Pro",
    "rowid": "1289631",
    "final_x": "3761556.66064",
    "final_y": "574237.20113",
    "longitude": "-89.81349791075753",
    "latitude": "30.070275840367778",
    "geocoded_column": {
      "latitude": "30.070275840367778",
      "longitude": "-89.81349791075753"
    }
  },
  {
    "service_request": "2026-1289630",
    "request_type": "Trash/Recycling",
    "request_reason": "Replace Recycling Cart",
    "date_created": "2026-06-10T18:11:14.000",
    "date_modified": "2026-06-10T18:11:17.000",
    "request_status": "Pending",
    "responsible_agency": "Department of Sanitation",
    "final_address": "416 S Olympia St",
    "address_councildis": "A",
    "status": "Pending",
    "rowid": "1289630",
    "final_x": "3668591.19188",
    "final_y": "538483.697481",
    "longitude": "-90.10859678922827",
    "latitude": "29.97502916585339",
    "geocoded_column": {
      "latitude": "29.97502916585339",
      "longitude": "-90.10859678922827"
    }
  },
  {
    "service_request": "2026-1289629",
    "request_type": "Trash/Recycling",
    "request_reason": "Replace Trash Cart",
    "date_created": "2026-06-10T18:06:21.000",
    "date_modified": "2026-06-10T18:06:23.000",
    "request_status": "Pending",
    "responsible_agency": "Department of Sanitation",
    "final_address": "1440 Marigny St",
    "address_councildis": "C",
    "status": "Assigned to Contractor",
    "contractor": "IV Waste",
    "rowid": "1289629",
    "final_x": "3685268.38121",
    "final_y": "537754.12276",
    "longitude": "-90.05595170360328",
    "latitude": "29.972522411237836",
    "geocoded_column": {
      "latitude": "29.972522411237836",
      "longitude": "-90.05595170360328"
    }
  },
  {
    "service_request": "2026-1289628",
    "request_type": "Streetlights",
    "request_reason": "Streetlight Outage/Malfunction",
    "date_created": "2026-06-10T18:01:25.000",
    "date_modified": "2026-06-10T18:01:27.000",
    "request_status": "Pending",
    "responsible_agency": "Department of Public Works",
    "final_address": "325 S Olympia St",
    "address_councildis": "A",
    "status": "Pending",
    "rowid": "1289628",
    "final_x": "3668754.08814",
    "final_y": "538821.133257",
    "longitude": "-90.10807092341003",
    "latitude": "29.975952212219614",
    "geocoded_column": {
      "latitude": "29.975952212219614",
      "longitude": "-90.10807092341003"
    }
  },
  {
    "service_request": "2026-1289627",
    "request_type": "Trash/Recycling",
    "request_reason": "Missed Trash Pick-Up",
    "date_created": "2026-06-10T17:53:41.000",
    "date_modified": "2026-06-10T17:53:44.000",
    "request_status": "Pending",
    "responsible_agency": "Department of Sanitation",
    "final_address": "6208 Pasteur Blvd",
    "address_councildis": "D",
    "status": "Assigned to Contractor",
    "contractor": "IV Waste",
    "rowid": "1289627",
    "final_x": "3682704.07957",
    "final_y": "555823.972441",
    "longitude": "-90.06341774471564",
    "latitude": "30.022286401700363",
    "geocoded_column": {
      "latitude": "30.022286401700363",
      "longitude": "-90.06341774471564"
    }
  },
  {
    "service_request": "2026-1289626",
    "request_type": "Street and Traffic Signs",
    "request_reason": "Stop Sign Missing or Damaged",
    "date_created": "2026-06-10T17:49:47.000",
    "date_modified": "2026-06-10T17:49:49.000",
    "request_status": "Pending",
    "responsible_agency": "Department of Public Works",
    "final_address": "4200 BLK Cleveland Ave",
    "address_councildis": "A",
    "status": "Pending",
    "rowid": "1289626",
    "final_x": "3670183.32364",
    "final_y": "538505.977238",
    "longitude": "-90.10356765745723",
    "latitude": "29.975043539116776",
    "geocoded_column": {
      "latitude": "29.975043539116776",
      "longitude": "-90.10356765745723"
    }
  },
  {
    "service_request": "2026-1289625",
    "request_type": "Trash/Recycling",
    "request_reason": "Request a Large Item Pick Up",
    "date_created": "2026-06-10T17:48:18.000",
    "date_modified": "2026-06-10T17:48:21.000",
    "request_status": "Pending",
    "responsible_agency": "Department of Sanitation",
    "final_address": "3952 Louisiana Avenue Prkwy",
    "address_councildis": "B",
    "status": "Assigned to Contractor",
    "contractor": "IV Waste",
    "rowid": "1289625",
    "final_x": "3671018.15227",
    "final_y": "529403.338753",
    "longitude": "-90.10124017169149",
    "latitude": "29.949989653214892",
    "geocoded_column": {
      "latitude": "29.949989653214892",
      "longitude": "-90.10124017169149"
    }
  },
  {
    "service_request": "2026-1289624",
    "request_type": "Trash/Recycling",
    "request_reason": "Repair Trash Cart",
    "date_created": "2026-06-10T17:38:24.000",
    "date_modified": "2026-06-10T17:38:25.000",
    "request_status": "Pending",
    "responsible_agency": "Department of Sanitation",
    "final_address": "5415 St Ferdinand Dr",
    "address_councildis": "D",
    "status": "Assigned to Contractor",
    "contractor": "IV Waste",
    "rowid": "1289624",
    "final_x": "3689055.04982",
    "final_y": "553234.506263",
    "longitude": "-90.04344240408513",
    "latitude": "30.014971264308564",
    "geocoded_column": {
      "latitude": "30.014971264308564",
      "longitude": "-90.04344240408513"
    }
  },
  {
    "service_request": "2026-1289623",
    "request_type": "Street and Traffic Signs",
    "request_reason": "Stop Sign Missing or Damaged",
    "date_created": "2026-06-10T17:38:10.000",
    "date_modified": "2026-06-10T17:38:13.000",
    "request_status": "Pending",
    "responsible_agency": "Department of Public Works",
    "final_address": "500 Burgundy St",
    "address_councildis": "C",
    "status": "Pending",
    "rowid": "1289623",
    "final_x": "3681279.89724",
    "final_y": "532527.39546",
    "longitude": "-90.06873021945324",
    "latitude": "29.958272359383002",
    "geocoded_column": {
      "latitude": "29.958272359383002",
      "longitude": "-90.06873021945324"
    }
  },
  {
    "service_request": "2026-1289622",
    "request_type": "Trash/Recycling",
    "request_reason": "Start Trash Service",
    "date_created": "2026-06-10T17:34:03.000",
    "date_modified": "2026-06-10T17:34:05.000",
    "request_status": "Pending",
    "responsible_agency": "Department of Sanitation",
    "final_address": "5751 Carlisle Ct",
    "address_councildis": "C",
    "status": "Assigned to Contractor",
    "contractor": "Richards Disposal",
    "rowid": "1289622",
    "final_x": "3704919.01047",
    "final_y": "516478.791989",
    "longitude": "-89.99467697155762",
    "latitude": "29.91340580934551",
    "geocoded_column": {
      "latitude": "29.91340580934551",
      "longitude": "-89.99467697155762"
    }
  },
  {
    "service_request": "2026-1289621",
    "request_type": "Trash/Recycling",
    "request_reason": "Missed Trash Pick-Up",
    "date_created": "2026-06-10T17:31:21.000",
    "date_modified": "2026-06-10T17:45:12.000",
    "request_status": "Pending",
    "responsible_agency": "Department of Sanitation",
    "final_address": "6232 Pasteur Blvd",
    "address_councildis": "D",
    "status": "Assigned to Contractor",
    "contractor": "IV Waste",
    "rowid": "1289621",
    "final_x": "3682675.01589",
    "final_y": "556126.53705",
    "longitude": "-90.06349898388004",
    "latitude": "30.023119228761402",
    "geocoded_column": {
      "latitude": "30.023119228761402",
      "longitude": "-90.06349898388004"
    }
  },
  {
    "service_request": "2026-1289620",
    "request_type": "Abandoned Vehicles",
    "request_reason": "Abandoned/Junk Vehicles",
    "date_created": "2026-06-10T17:25:27.000",
    "date_modified": "2026-06-10T17:25:29.000",
    "request_status": "Pending",
    "responsible_agency": "Department of Public Works",
    "final_address": "4614 Owens Blvd",
    "address_councildis": "D",
    "status": "Pending",
    "rowid": "1289620",
    "final_x": "3676350.38325",
    "final_y": "549293.757907",
    "longitude": "-90.08371891017364",
    "latitude": "30.00452274293229",
    "geocoded_column": {
      "latitude": "30.00452274293229",
      "longitude": "-90.08371891017364"
    }
  },
  {
    "service_request": "2026-1289619",
    "request_type": "Trash/Recycling",
    "request_reason": "Repair Recycling Cart",
    "date_created": "2026-06-10T17:23:51.000",
    "date_modified": "2026-06-10T17:23:53.000",
    "request_status": "Pending",
    "responsible_agency": "Department of Sanitation",
    "final_address": "443 Audubon St",
    "address_councildis": "A",
    "status": "Pending",
    "rowid": "1289619",
    "final_x": "3662394.62656",
    "final_y": "523226.991675",
    "longitude": "-90.12867382168234",
    "latitude": "29.933258814712353",
    "geocoded_column": {
      "latitude": "29.933258814712353",
      "longitude": "-90.12867382168234"
    }
  },
  {
    "service_request": "2026-1289618",
    "request_type": "Mosquito, Termite & Rodent Control",
    "request_reason": "Termite Complaint",
    "date_created": "2026-06-10T17:12:09.000",
    "date_modified": "2026-06-10T17:12:11.000",
    "request_status": "Pending",
    "responsible_agency": "Mosquito, Termite & Rodent Control Board",
    "final_address": "2430 Aubry St",
    "address_councildis": "D",
    "status": "Pending",
    "rowid": "1289618",
    "final_x": "3680387.00795",
    "final_y": "540502.350987",
    "longitude": "-90.07127234992419",
    "latitude": "29.980227813394304",
    "geocoded_column": {
      "latitude": "29.980227813394304",
      "longitude": "-90.07127234992419"
    }
  },
  {
    "service_request": "2026-1289617",
    "request_type": "Trash/Recycling",
    "request_reason": "Request a Large Item Pick Up",
    "date_created": "2026-06-10T17:11:17.000",
    "date_modified": "2026-06-10T17:11:21.000",
    "request_status": "Pending",
    "responsible_agency": "Department of Sanitation",
    "final_address": "4501 S Derbigny St",
    "address_councildis": "B",
    "status": "Assigned to Contractor",
    "contractor": "IV Waste",
    "rowid": "1289617",
    "final_x": "3669877.10721",
    "final_y": "526238.727102",
    "longitude": "-90.1049501120689",
    "latitude": "29.941321689486728",
    "geocoded_column": {
      "latitude": "29.941321689486728",
      "longitude": "-90.1049501120689"
    }
  },
  {
    "service_request": "2026-1289616",
    "request_type": "Trash/Recycling",
    "request_reason": "Request a Large Item Pick Up",
    "date_created": "2026-06-10T17:10:04.000",
    "date_modified": "2026-06-10T17:10:06.000",
    "request_status": "Pending",
    "responsible_agency": "Department of Sanitation",
    "final_address": "5910 N Derbigny St",
    "address_councildis": "E",
    "status": "Assigned to Contractor",
    "contractor": "Waste Pro",
    "rowid": "1289616",
    "final_x": "3699794.18928",
    "final_y": "535620.240262",
    "longitude": "-90.01015471874594",
    "latitude": "29.966201746327954",
    "geocoded_column": {
      "latitude": "29.966201746327954",
      "longitude": "-90.01015471874594"
    }
  },
  {
    "service_request": "2026-1289615",
    "request_type": "Trash/Recycling",
    "request_reason": "Return Trash Cart",
    "date_created": "2026-06-10T17:04:40.000",
    "date_modified": "2026-06-10T17:04:42.000",
    "request_status": "Pending",
    "responsible_agency": "Department of Sanitation",
    "final_address": "3833 State Street Dr",
    "address_councildis": "B",
    "status": "Assigned to Contractor",
    "contractor": "IV Waste",
    "rowid": "1289615",
    "final_x": "3668168.36365",
    "final_y": "529787.780545",
    "longitude": "-90.11022535394572",
    "latitude": "29.951130693254548",
    "geocoded_column": {
      "latitude": "29.951130693254548",
      "longitude": "-90.11022535394572"
    }
  },
  {
    "service_request": "2026-1289614",
    "request_type": "Property Maintenance",
    "request_reason": "Property Maintenance",
    "date_created": "2026-06-10T17:03:45.000",
    "date_modified": "2026-06-10T17:03:46.000",
    "request_status": "Pending",
    "responsible_agency": "Department of Code Enforcement",
    "final_address": "2100 Mirabeau Ave",
    "address_councildis": "D",
    "status": "Pending",
    "rowid": "1289614",
    "final_x": "3683132.25295",
    "final_y": "550564.339092",
    "longitude": "-90.06224918013726",
    "latitude": "30.007811273564865",
    "geocoded_column": {
      "latitude": "30.007811273564865",
      "longitude": "-90.06224918013726"
    }
  },
  {
    "service_request": "2026-1289613",
    "request_type": "Roads and Streets",
    "request_reason": "Pothole",
    "date_created": "2026-06-10T16:58:23.000",
    "date_modified": "2026-06-10T16:58:24.000",
    "request_status": "Pending",
    "responsible_agency": "Department of Public Works",
    "final_address": "6479 Colbert St",
    "address_councildis": "A",
    "status": "Pending",
    "rowid": "1289613",
    "final_x": "3667813.36084",
    "final_y": "550739.410773",
    "longitude": "-90.11064036020993",
    "latitude": "30.00875101887176",
    "geocoded_column": {
      "latitude": "30.00875101887176",
      "longitude": "-90.11064036020993"
    }
  },
  {
    "service_request": "2026-1289612",
    "request_type": "Trash/Recycling",
    "request_reason": "Repair Trash Cart",
    "date_created": "2026-06-10T16:43:09.000",
    "date_modified": "2026-06-10T16:43:10.000",
    "request_status": "Pending",
    "responsible_agency": "Department of Sanitation",
    "final_address": "4436 Jeanne Marie Pl",
    "address_councildis": "D",
    "status": "Assigned to Contractor",
    "contractor": "IV Waste",
    "rowid": "1289612",
    "final_x": "3678433.78907",
    "final_y": "548905.652563",
    "longitude": "-90.07715047145628",
    "latitude": "30.003392952489357",
    "geocoded_column": {
      "latitude": "30.003392952489357",
      "longitude": "-90.07715047145628"
    }
  },
  {
    "service_request": "2026-1289610",
    "request_type": "Mosquito, Termite & Rodent Control",
    "request_reason": "Mosquito Complaint",
    "date_created": "2026-06-10T16:41:13.000",
    "date_modified": "2026-06-10T16:41:14.000",
    "request_status": "Pending",
    "responsible_agency": "Mosquito, Termite & Rodent Control Board",
    "final_address": "2132 Second St",
    "address_councildis": "B",
    "status": "Pending",
    "rowid": "1289610",
    "final_x": "3675541.91822",
    "final_y": "524731.476028",
    "longitude": "-90.0871169545331",
    "latitude": "29.93700904339676",
    "geocoded_column": {
      "latitude": "29.93700904339676",
      "longitude": "-90.0871169545331"
    }
  },
  {
    "service_request": "2026-1289609",
    "request_type": "Trash/Recycling",
    "request_reason": "Request a Large Item Pick Up",
    "date_created": "2026-06-10T16:40:42.000",
    "date_modified": "2026-06-10T16:40:46.000",
    "request_status": "Pending",
    "responsible_agency": "Department of Sanitation",
    "final_address": "1735 Amelia St",
    "address_councildis": "B",
    "status": "Assigned to Contractor",
    "contractor": "IV Waste",
    "rowid": "1289609",
    "final_x": "3673012.43054",
    "final_y": "521827.451962",
    "longitude": "-90.09520176751317",
    "latitude": "29.92909932025146",
    "geocoded_column": {
      "latitude": "29.92909932025146",
      "longitude": "-90.09520176751317"
    }
  },
  {
    "service_request": "2026-1289608",
    "request_type": "Roads and Streets",
    "request_reason": "Debris in Driving Lanes",
    "date_created": "2026-06-10T16:39:11.000",
    "date_modified": "2026-06-10T16:39:14.000",
    "request_status": "Pending",
    "responsible_agency": "Department of Public Works",
    "final_address": "N CLAIBORNE AVE & ST ANN ST",
    "address_councildis": "C",
    "status": "Pending",
    "rowid": "1289608",
    "final_x": "3679929.5",
    "final_y": "534929.08",
    "longitude": "-90.07291098296162",
    "latitude": "29.964917085782087",
    "geocoded_column": {
      "latitude": "29.964917085782087",
      "longitude": "-90.07291098296162"
    }
  },
  {
    "service_request": "2026-1289607",
    "request_type": "Roads and Streets",
    "request_reason": "Pothole",
    "date_created": "2026-06-10T16:36:02.000",
    "date_modified": "2026-06-10T16:36:03.000",
    "request_status": "Pending",
    "responsible_agency": "Department of Public Works",
    "final_address": "1400 BLK N Claiborne Ave",
    "address_councildis": "C",
    "status": "Pending",
    "rowid": "1289607",
    "final_x": "3681452.41823",
    "final_y": "536695.204941",
    "longitude": "-90.06804011745635",
    "latitude": "29.969727172126397",
    "geocoded_column": {
      "latitude": "29.969727172126397",
      "longitude": "-90.06804011745635"
    }
  },
  {
    "service_request": "2026-1289606",
    "request_type": "Trash/Recycling",
    "request_reason": "Request a Large Item Pick Up",
    "date_created": "2026-06-10T16:31:15.000",
    "date_modified": "2026-06-10T16:31:17.000",
    "request_status": "Pending",
    "responsible_agency": "Department of Sanitation",
    "final_address": "3912 Jennifer St",
    "address_councildis": "C",
    "status": "Assigned to Contractor",
    "contractor": "Richards Disposal",
    "rowid": "1289606",
    "final_x": "3709652.74347",
    "final_y": "516410.115893",
    "longitude": "-89.97973855230296",
    "latitude": "29.913064060355516",
    "geocoded_column": {
      "latitude": "29.913064060355516",
      "longitude": "-89.97973855230296"
    }
  },
  {
    "service_request": "2026-1289605",
    "request_type": "Trash/Recycling",
    "request_reason": "Repair Recycling Cart",
    "date_created": "2026-06-10T16:30:46.000",
    "date_modified": "2026-06-10T16:30:47.000",
    "request_status": "Pending",
    "responsible_agency": "Department of Sanitation",
    "final_address": "2200 Beck St",
    "address_councildis": "C",
    "status": "Pending",
    "rowid": "1289605",
    "final_x": "3700485.52061",
    "final_y": "522834.191483",
    "longitude": "-90.00843839983466",
    "latitude": "29.93102265331765",
    "geocoded_column": {
      "latitude": "29.93102265331765",
      "longitude": "-90.00843839983466"
    }
  },
  {
    "service_request": "2026-1289604",
    "request_type": "Tree Service",
    "request_reason": "Tree Trim",
    "date_created": "2026-06-10T16:26:27.000",
    "date_modified": "2026-06-10T16:26:45.000",
    "request_status": "Pending",
    "responsible_agency": "Department of Parks & Parkways",
    "final_address": "4601 Painters St",
    "address_councildis": "D",
    "status": "Pending",
    "rowid": "1289604",
    "final_x": "3686363.42466",
    "final_y": "549661.881748",
    "longitude": "-90.0520728551003",
    "latitude": "30.005230891754046",
    "geocoded_column": {
      "latitude": "30.005230891754046",
      "longitude": "-90.0520728551003"
    }
  },
  {
    "service_request": "2026-1289603",
    "request_type": "Trash/Recycling",
    "request_reason": "Repair Trash Cart",
    "date_created": "2026-06-10T16:26:13.000",
    "date_modified": "2026-06-10T16:26:15.000",
    "request_status": "Pending",
    "responsible_agency": "Department of Sanitation",
    "final_address": "2200 Beck St",
    "address_councildis": "C",
    "status": "Assigned to Contractor",
    "contractor": "Richards Disposal",
    "rowid": "1289603",
    "final_x": "3700485.52061",
    "final_y": "522834.191483",
    "longitude": "-90.00843839983466",
    "latitude": "29.93102265331765",
    "geocoded_column": {
      "latitude": "29.93102265331765",
      "longitude": "-90.00843839983466"
    }
  },
  {
    "service_request": "2026-1289602",
    "request_type": "Trash/Recycling",
    "request_reason": "Request a Large Item Pick Up",
    "date_created": "2026-06-10T16:25:25.000",
    "date_modified": "2026-06-10T16:25:50.000",
    "request_status": "Pending",
    "responsible_agency": "Department of Sanitation",
    "final_address": "7531 Horizon Dr",
    "address_councildis": "E",
    "status": "Assigned to Contractor",
    "contractor": "Waste Pro",
    "rowid": "1289602",
    "final_x": "3725417.4144",
    "final_y": "569770.891302",
    "longitude": "-89.92791554241909",
    "latitude": "30.05926386453752",
    "geocoded_column": {
      "latitude": "30.05926386453752",
      "longitude": "-89.92791554241909"
    }
  },
  {
    "service_request": "2026-1289601",
    "request_type": "Trash/Recycling",
    "request_reason": "Request a Large Item Pick Up",
    "date_created": "2026-06-10T16:22:45.000",
    "date_modified": "2026-06-10T16:22:46.000",
    "request_status": "Pending",
    "responsible_agency": "Department of Sanitation",
    "final_address": "4838 Stemway Dr",
    "address_councildis": "D",
    "status": "Assigned to Contractor",
    "contractor": "Waste Pro",
    "rowid": "1289601",
    "final_x": "3696792.52291",
    "final_y": "554737.975192",
    "longitude": "-90.01894132379844",
    "latitude": "30.01886346857524",
    "geocoded_column": {
      "latitude": "30.01886346857524",
      "longitude": "-90.01894132379844"
    }
  },
  {
    "service_request": "2026-1289600",
    "request_type": "General Services",
    "request_reason": "General Service Request",
    "date_created": "2026-06-10T16:18:12.000",
    "date_modified": "2026-06-10T16:18:14.000",
    "request_status": "Pending",
    "responsible_agency": "Orleans Parish Communication District",
    "final_address": "7501 Bullard Ave",
    "address_councildis": "E",
    "status": "Pending",
    "rowid": "1289600",
    "final_x": "3713187.07032",
    "final_y": "567454.149988",
    "longitude": "-89.96666169261695",
    "latitude": "30.053300570521774",
    "geocoded_column": {
      "latitude": "30.053300570521774",
      "longitude": "-89.96666169261695"
    }
  },
  {
    "service_request": "2026-1289599",
    "request_type": "New Orleans Recreation Development Commission (NORDC)",
    "request_reason": "Facilities and Parks Maintenance/Clean Up",
    "date_created": "2026-06-10T16:09:27.000",
    "date_modified": "2026-06-10T16:09:28.000",
    "request_status": "Pending",
    "responsible_agency": "New Orleans Recreation Development Commission",
    "final_address": "0 BLK Spanish Fort Blvd",
    "address_councildis": "D",
    "status": "Pending",
    "rowid": "1289599",
    "final_x": "3674102.23444",
    "final_y": "555961.156238",
    "longitude": "-90.09059280569217",
    "latitude": "30.022922932958",
    "geocoded_column": {
      "latitude": "30.022922932958",
      "longitude": "-90.09059280569217"
    }
  },
  {
    "service_request": "2026-1289598",
    "request_type": "Streetlights",
    "request_reason": "Streetlight Outage/Malfunction",
    "date_created": "2026-06-10T16:08:06.000",
    "date_modified": "2026-06-10T16:08:08.000",
    "request_status": "Pending",
    "responsible_agency": "Department of Public Works",
    "final_address": "1262 Granada Dr",
    "address_councildis": "D",
    "status": "Pending",
    "rowid": "1289598",
    "final_x": "3677217.91963",
    "final_y": "550430.957076",
    "longitude": "-90.08093892742778",
    "latitude": "30.007623592780465",
    "geocoded_column": {
      "latitude": "30.007623592780465",
      "longitude": "-90.08093892742778"
    }
  },
  {
    "service_request": "2026-1289597",
    "request_type": "Property Maintenance",
    "request_reason": "Property Maintenance",
    "date_created": "2026-06-10T16:07:38.000",
    "date_modified": "2026-06-10T16:07:39.000",
    "request_status": "Pending",
    "responsible_agency": "Department of Code Enforcement",
    "final_address": "East Oak Ridge Court & South Oak Ridge Court",
    "address_councildis": "E",
    "status": "Pending",
    "rowid": "1289597",
    "final_x": "3713906.73445",
    "final_y": "567922.828645",
    "longitude": "-89.96436934987393",
    "latitude": "30.054565623839885",
    "geocoded_column": {
      "latitude": "30.054565623839885",
      "longitude": "-89.96436934987393"
    }
  },
  {
    "service_request": "2026-1289596",
    "request_type": "Parks & Grass Service",
    "request_reason": "Request Grass Cutting Service (City Owned Property)",
    "date_created": "2026-06-10T16:06:17.000",
    "date_modified": "2026-06-10T16:06:19.000",
    "request_status": "Pending",
    "responsible_agency": "Department of Parks & Parkways",
    "final_address": "CURRAN BLVD & HONEYSUCKLE LN",
    "address_councildis": "E",
    "status": "Pending",
    "rowid": "1289596",
    "final_x": "3713262.7",
    "final_y": "567987.88",
    "longitude": "-89.96640252484707",
    "latitude": "30.054765629449747",
    "geocoded_column": {
      "latitude": "30.054765629449747",
      "longitude": "-89.96640252484707"
    }
  },
  {
    "service_request": "2026-1289595",
    "request_type": "Property Maintenance",
    "request_reason": "Property Maintenance",
    "date_created": "2026-06-10T16:05:59.000",
    "date_modified": "2026-06-10T16:06:01.000",
    "request_status": "Pending",
    "responsible_agency": "Department of Code Enforcement",
    "final_address": "2524 Philip St",
    "address_councildis": "B",
    "status": "Pending",
    "rowid": "1289595",
    "final_x": "3675180.21089",
    "final_y": "526252.715966",
    "longitude": "-90.0882066980209",
    "latitude": "29.941202766816215",
    "geocoded_column": {
      "latitude": "29.941202766816215",
      "longitude": "-90.0882066980209"
    }
  },
  {
    "service_request": "2026-1289594",
    "request_type": "Trash/Recycling",
    "request_reason": "Request a Large Item Pick Up",
    "date_created": "2026-06-10T16:05:02.000",
    "date_modified": "2026-06-10T16:05:04.000",
    "request_status": "Pending",
    "responsible_agency": "Department of Sanitation",
    "final_address": "2331 Terpsichore St",
    "address_councildis": "B",
    "status": "Assigned to Contractor",
    "contractor": "IV Waste",
    "rowid": "1289594",
    "final_x": "3676297.80705",
    "final_y": "527084.981374",
    "longitude": "-90.08464959949258",
    "latitude": "29.94345778196578",
    "geocoded_column": {
      "latitude": "29.94345778196578",
      "longitude": "-90.08464959949258"
    }
  },
  {
    "service_request": "2026-1289593",
    "request_type": "Trash/Recycling",
    "request_reason": "Return Trash Cart",
    "date_created": "2026-06-10T16:03:11.000",
    "date_modified": "2026-06-10T16:03:12.000",
    "request_status": "Pending",
    "responsible_agency": "Department of Sanitation",
    "final_address": "S GENOIS ST & CLIO ST",
    "address_councildis": "B",
    "status": "Assigned to Contractor",
    "contractor": "IV Waste",
    "rowid": "1289593",
    "final_x": "3669473.7",
    "final_y": "532809.38",
    "longitude": "-90.10600154769614",
    "latitude": "29.95940072012548",
    "geocoded_column": {
      "latitude": "29.95940072012548",
      "longitude": "-90.10600154769614"
    }
  },
  {
    "service_request": "2026-1289592",
    "request_type": "Trash/Recycling",
    "request_reason": "Request a Large Item Pick Up",
    "date_created": "2026-06-10T16:02:08.000",
    "date_modified": "2026-06-10T16:02:09.000",
    "request_status": "Pending",
    "responsible_agency": "Department of Sanitation",
    "final_address": "2728 Pauger St",
    "address_councildis": "D",
    "status": "Assigned to Contractor",
    "contractor": "IV Waste",
    "rowid": "1289592",
    "final_x": "3683555.88265",
    "final_y": "539765.85697",
    "longitude": "-90.06128954113953",
    "latitude": "29.978106361362904",
    "geocoded_column": {
      "latitude": "29.978106361362904",
      "longitude": "-90.06128954113953"
    }
  },
  {
    "service_request": "2026-1289591",
    "request_type": "Trash/Recycling",
    "request_reason": "Return Recycling Cart",
    "date_created": "2026-06-10T16:01:46.000",
    "date_modified": "2026-06-10T16:01:48.000",
    "request_status": "Pending",
    "responsible_agency": "Department of Sanitation",
    "final_address": "4537 LaSalle St",
    "address_councildis": "B",
    "status": "Pending",
    "rowid": "1289591",
    "final_x": "3669859.47962",
    "final_y": "523672.215867",
    "longitude": "-90.10509262270168",
    "latitude": "29.93426513175574",
    "geocoded_column": {
      "latitude": "29.93426513175574",
      "longitude": "-90.10509262270168"
    }
  },
  {
    "service_request": "2026-1289590",
    "request_type": "Abandoned Vehicles",
    "request_reason": "Abandoned/Junk Vehicles",
    "date_created": "2026-06-10T16:00:58.000",
    "date_modified": "2026-06-10T16:01:00.000",
    "request_status": "Pending",
    "responsible_agency": "Department of Public Works",
    "final_address": "WRIGHT RD & IVY LN",
    "address_councildis": "E",
    "status": "Pending",
    "rowid": "1289590",
    "final_x": "3715896.9",
    "final_y": "559783.78",
    "longitude": "-89.95838764532883",
    "latitude": "30.03212101738671",
    "geocoded_column": {
      "latitude": "30.03212101738671",
      "longitude": "-89.95838764532883"
    }
  },
  {
    "service_request": "2026-1289589",
    "request_type": "Trash/Recycling",
    "request_reason": "Request a Large Item Pick Up",
    "date_created": "2026-06-10T15:59:57.000",
    "date_modified": "2026-06-10T15:59:59.000",
    "request_status": "Pending",
    "responsible_agency": "Department of Sanitation",
    "final_address": "2708 OReilly St",
    "address_councildis": "D",
    "status": "Assigned to Contractor",
    "contractor": "IV Waste",
    "rowid": "1289589",
    "final_x": "3679599.81359",
    "final_y": "541589.619404",
    "longitude": "-90.0737208918672",
    "latitude": "29.983241240394232",
    "geocoded_column": {
      "latitude": "29.983241240394232",
      "longitude": "-90.0737208918672"
    }
  },
  {
    "service_request": "2026-1289588",
    "request_type": "Trash/Recycling",
    "request_reason": "Repair Trash Cart",
    "date_created": "2026-06-10T15:58:44.000",
    "date_modified": "2026-06-10T15:58:46.000",
    "request_status": "Pending",
    "responsible_agency": "Department of Sanitation",
    "final_address": "1213 S Genois St",
    "address_councildis": "B",
    "status": "Assigned to Contractor",
    "contractor": "IV Waste",
    "rowid": "1289588",
    "final_x": "3669381.7442",
    "final_y": "532721.595012",
    "longitude": "-90.10629489169555",
    "latitude": "29.95916204840434",
    "geocoded_column": {
      "latitude": "29.95916204840434",
      "longitude": "-90.10629489169555"
    }
  },
  {
    "service_request": "2026-1289587",
    "request_type": "Trash/Recycling",
    "request_reason": "Request a Large Item Pick Up",
    "date_created": "2026-06-10T15:58:05.000",
    "date_modified": "2026-06-10T15:58:07.000",
    "request_status": "Pending",
    "responsible_agency": "Department of Sanitation",
    "final_address": "4806 N Tonti St",
    "address_councildis": "E",
    "status": "Assigned to Contractor",
    "contractor": "Waste Pro",
    "rowid": "1289587",
    "final_x": "3696426.03312",
    "final_y": "538908.945354",
    "longitude": "-90.02067225070635",
    "latitude": "29.975351024812685",
    "geocoded_column": {
      "latitude": "29.975351024812685",
      "longitude": "-90.02067225070635"
    }
  },
  {
    "service_request": "2026-1289586",
    "request_type": "Abandoned Vehicles",
    "request_reason": "Abandoned/Junk Vehicles",
    "date_created": "2026-06-10T15:57:25.000",
    "date_modified": "2026-06-10T15:57:28.000",
    "request_status": "Pending",
    "responsible_agency": "Department of Public Works",
    "final_address": "WRIGHT RD & IVY LN",
    "address_councildis": "E",
    "status": "Pending",
    "rowid": "1289586",
    "final_x": "3715896.9",
    "final_y": "559783.78",
    "longitude": "-89.95838764532883",
    "latitude": "30.03212101738671",
    "geocoded_column": {
      "latitude": "30.03212101738671",
      "longitude": "-89.95838764532883"
    }
  },
  {
    "service_request": "2026-1289585",
    "request_type": "Trash/Recycling",
    "request_reason": "Request a Large Item Pick Up",
    "date_created": "2026-06-10T15:54:02.000",
    "date_modified": "2026-06-10T15:54:04.000",
    "request_status": "Pending",
    "responsible_agency": "Department of Sanitation",
    "final_address": "1917 Laharpe St",
    "address_councildis": "D",
    "status": "Assigned to Contractor",
    "contractor": "IV Waste",
    "rowid": "1289585",
    "final_x": "3681013.47157",
    "final_y": "538245.547721",
    "longitude": "-90.06937234141368",
    "latitude": "29.974003400266135",
    "geocoded_column": {
      "latitude": "29.974003400266135",
      "longitude": "-90.06937234141368"
    }
  },
  {
    "service_request": "2026-1289584",
    "request_type": "Roads and Streets",
    "request_reason": "Pothole",
    "date_created": "2026-06-10T15:53:18.000",
    "date_modified": "2026-06-10T15:53:20.000",
    "request_status": "Pending",
    "responsible_agency": "Department of Public Works",
    "final_address": "4100 BLK Orleans Ave",
    "address_councildis": "A",
    "status": "Pending",
    "rowid": "1289584",
    "final_x": "3672212.65521",
    "final_y": "540560.162106",
    "longitude": "-90.09708849515505",
    "latitude": "29.98063180607939",
    "geocoded_column": {
      "latitude": "29.98063180607939",
      "longitude": "-90.09708849515505"
    }
  },
  {
    "service_request": "2026-1289583",
    "request_type": "Trash/Recycling",
    "request_reason": "Order Trash Cart",
    "date_created": "2026-06-10T15:53:13.000",
    "date_modified": "2026-06-10T15:53:15.000",
    "request_status": "Pending",
    "responsible_agency": "Department of Sanitation",
    "final_address": "2402 Magic St",
    "address_councildis": "C",
    "status": "Assigned to Contractor",
    "contractor": "IV Waste",
    "rowid": "1289583",
    "final_x": "3677576.04642",
    "final_y": "535960.774023",
    "longitude": "-90.08030741924608",
    "latitude": "29.96782486668684",
    "geocoded_column": {
      "latitude": "29.96782486668684",
      "longitude": "-90.08030741924608"
    }
  },
  {
    "service_request": "2026-1289582",
    "request_type": "Trash/Recycling",
    "request_reason": "Request a Large Item Pick Up",
    "date_created": "2026-06-10T15:52:24.000",
    "date_modified": "2026-06-10T15:52:26.000",
    "request_status": "Pending",
    "responsible_agency": "Department of Sanitation",
    "final_address": "1621 N Villere St",
    "address_councildis": "C",
    "status": "Assigned to Contractor",
    "contractor": "IV Waste",
    "rowid": "1289582",
    "final_x": "3682689.67586",
    "final_y": "537332.025736",
    "longitude": "-90.06411047339378",
    "latitude": "29.971440584077534",
    "geocoded_column": {
      "latitude": "29.971440584077534",
      "longitude": "-90.06411047339378"
    }
  },
  {
    "service_request": "2026-1289581",
    "request_type": "Trash/Recycling",
    "request_reason": "Request a Large Item Pick Up",
    "date_created": "2026-06-10T15:52:15.000",
    "date_modified": "2026-06-10T15:52:16.000",
    "request_status": "Pending",
    "responsible_agency": "Department of Sanitation",
    "final_address": "5000 N Prieur St",
    "address_councildis": "E",
    "status": "Assigned to Contractor",
    "contractor": "Waste Pro",
    "rowid": "1289581",
    "final_x": "3696820.63101",
    "final_y": "537159.73076",
    "longitude": "-90.01948935629362",
    "latitude": "29.97052887698136",
    "geocoded_column": {
      "latitude": "29.97052887698136",
      "longitude": "-90.01948935629362"
    }
  },
  {
    "service_request": "2026-1289580",
    "request_type": "Trash/Recycling",
    "request_reason": "Request a Large Item Pick Up",
    "date_created": "2026-06-10T15:50:57.000",
    "date_modified": "2026-06-10T15:50:59.000",
    "request_status": "Pending",
    "responsible_agency": "Department of Sanitation",
    "final_address": "3213 Jackson Ave",
    "address_councildis": "B",
    "status": "Assigned to Contractor",
    "contractor": "IV Waste",
    "rowid": "1289580",
    "final_x": "3673903.69236",
    "final_y": "528634.993856",
    "longitude": "-90.0921554420644",
    "latitude": "29.94779132782646",
    "geocoded_column": {
      "latitude": "29.94779132782646",
      "longitude": "-90.0921554420644"
    }
  },
  {
    "service_request": "2026-1289579",
    "request_type": "Safety & Permits",
    "request_reason": "Licenses & Permits",
    "date_created": "2026-06-10T15:47:45.000",
    "date_modified": "2026-06-10T15:50:07.000",
    "request_status": "Pending",
    "responsible_agency": "Safety and Permits",
    "final_address": "3419 Franklin Ave",
    "address_councildis": "D",
    "status": "Pending",
    "rowid": "1289579",
    "final_x": "3687236.39606",
    "final_y": "545721.996304",
    "longitude": "-90.0494544220944",
    "latitude": "29.99437076263192",
    "geocoded_column": {
      "latitude": "29.99437076263192",
      "longitude": "-90.0494544220944"
    }
  },
  {
    "service_request": "2026-1289578",
    "request_type": "Roads and Streets",
    "request_reason": "Street Subsidence (Sinking)",
    "date_created": "2026-06-10T15:47:41.000",
    "date_modified": "2026-06-10T15:47:43.000",
    "request_status": "Pending",
    "responsible_agency": "Sewerage & Water Board",
    "final_address": "1300 BLK S Norman C Francis Pkwy",
    "address_councildis": "B",
    "status": "Pending",
    "rowid": "1289578",
    "final_x": "3669965.18694",
    "final_y": "531985.703861",
    "longitude": "-90.10447743805948",
    "latitude": "29.957121398559668",
    "geocoded_column": {
      "latitude": "29.957121398559668",
      "longitude": "-90.10447743805948"
    }
  },
  {
    "service_request": "2026-1289577",
    "request_type": "Roads and Streets",
    "request_reason": "Sidewalk Damaged or Missing",
    "date_created": "2026-06-10T15:41:41.000",
    "date_modified": "2026-06-10T15:41:44.000",
    "request_status": "Pending",
    "responsible_agency": "Department of Public Works",
    "final_address": "2834 Laurel St",
    "address_councildis": "B",
    "status": "Pending",
    "rowid": "1289577",
    "final_x": "3677248.75739",
    "final_y": "520025.161528",
    "longitude": "-90.08189064040052",
    "latitude": "29.924017059756583",
    "geocoded_column": {
      "latitude": "29.924017059756583",
      "longitude": "-90.08189064040052"
    }
  },
  {
    "service_request": "2026-1289576",
    "request_type": "Property Maintenance",
    "request_reason": "Property Maintenance",
    "date_created": "2026-06-10T15:39:42.000",
    "date_modified": "2026-06-10T15:40:27.000",
    "request_status": "Pending",
    "responsible_agency": "Department of Code Enforcement",
    "final_address": "1467 Senate St",
    "address_councildis": "D",
    "status": "Pending",
    "rowid": "1289576",
    "final_x": "3678664.48622",
    "final_y": "547362.049553",
    "longitude": "-90.07647515255229",
    "latitude": "29.999141636182273",
    "geocoded_column": {
      "latitude": "29.999141636182273",
      "longitude": "-90.07647515255229"
    }
  },
  {
    "service_request": "2026-1289575",
    "request_type": "Streetlights",
    "request_reason": "Streetlight Outage/Malfunction",
    "date_created": "2026-06-10T15:39:18.000",
    "date_modified": "2026-06-10T15:39:19.000",
    "request_status": "Pending",
    "responsible_agency": "Department of Public Works",
    "final_address": "324 Red Allen Way",
    "address_councildis": "C",
    "status": "Pending",
    "rowid": "1289575",
    "final_x": "3686341.11292",
    "final_y": "528717.912384",
    "longitude": "-90.05288273745644",
    "latitude": "29.94764302347239",
    "geocoded_column": {
      "latitude": "29.94764302347239",
      "longitude": "-90.05288273745644"
    }
  },
  {
    "service_request": "2026-1289574",
    "request_type": "Trash/Recycling",
    "request_reason": "Request a Large Item Pick Up",
    "date_created": "2026-06-10T15:39:01.000",
    "date_modified": "2026-06-10T15:39:02.000",
    "request_status": "Pending",
    "responsible_agency": "Department of Sanitation",
    "final_address": "14201 Intrepid St",
    "address_councildis": "E",
    "status": "Assigned to Contractor",
    "contractor": "Waste Pro",
    "rowid": "1289574",
    "final_x": "3726411.61145",
    "final_y": "571191.055784",
    "longitude": "-89.92471782132979",
    "latitude": "30.063135147876878",
    "geocoded_column": {
      "latitude": "30.063135147876878",
      "longitude": "-89.92471782132979"
    }
  },
  {
    "service_request": "2026-1289572",
    "request_type": "Trash/Recycling",
    "request_reason": "Request a Large Item Pick Up",
    "date_created": "2026-06-10T15:36:27.000",
    "date_modified": "2026-06-10T15:41:03.000",
    "request_status": "Pending",
    "responsible_agency": "Department of Sanitation",
    "final_address": "324 Red Allen Way",
    "address_councildis": "C",
    "status": "Assigned to Contractor",
    "contractor": "Richards Disposal",
    "rowid": "1289572",
    "final_x": "3686341.11292",
    "final_y": "528717.912384",
    "longitude": "-90.05288273745644",
    "latitude": "29.94764302347239",
    "geocoded_column": {
      "latitude": "29.94764302347239",
      "longitude": "-90.05288273745644"
    }
  },
  {
    "service_request": "2026-1289571",
    "request_type": "Roads and Streets",
    "request_reason": "Pothole",
    "date_created": "2026-06-10T15:31:23.000",
    "date_modified": "2026-06-10T15:31:24.000",
    "request_status": "Pending",
    "responsible_agency": "Department of Public Works",
    "final_address": "3205 Banks St",
    "address_councildis": "B",
    "status": "Pending",
    "rowid": "1289571",
    "final_x": "3673126.81038",
    "final_y": "535366.648902",
    "longitude": "-90.09437855348081",
    "latitude": "29.9663242553118",
    "geocoded_column": {
      "latitude": "29.9663242553118",
      "longitude": "-90.09437855348081"
    }
  },
  {
    "service_request": "2026-1289570",
    "request_type": "Tree Service",
    "request_reason": "Dead or Dying Tree",
    "date_created": "2026-06-10T15:29:07.000",
    "date_modified": "2026-06-10T15:29:09.000",
    "request_status": "Pending",
    "responsible_agency": "Department of Parks & Parkways",
    "final_address": "2930 Magazine St",
    "address_councildis": "B",
    "status": "Pending",
    "rowid": "1289570",
    "final_x": "3676435.33141",
    "final_y": "520366.97068",
    "longitude": "-90.08444657891441",
    "latitude": "29.924981327227307",
    "geocoded_column": {
      "latitude": "29.924981327227307",
      "longitude": "-90.08444657891441"
    }
  },
  {
    "service_request": "2026-1289569",
    "request_type": "Roads and Streets",
    "request_reason": "Curb Damage",
    "date_created": "2026-06-10T15:28:01.000",
    "date_modified": "2026-06-10T15:28:03.000",
    "request_status": "Pending",
    "responsible_agency": "Department of Public Works",
    "final_address": "8220 Spruce St",
    "address_councildis": "A",
    "status": "Pending",
    "rowid": "1289569",
    "final_x": "3663427.22381",
    "final_y": "530784.030722",
    "longitude": "-90.12516241371935",
    "latitude": "29.954008364201478",
    "geocoded_column": {
      "latitude": "29.954008364201478",
      "longitude": "-90.12516241371935"
    }
  },
  {
    "service_request": "2026-1289568",
    "request_type": "Drainage",
    "request_reason": "Catch Basin Not Draining",
    "date_created": "2026-06-10T15:27:30.000",
    "date_modified": "2026-06-10T15:27:32.000",
    "request_status": "Pending",
    "responsible_agency": "Sewerage & Water Board",
    "final_address": "13220 St Helena Pl",
    "address_councildis": "E",
    "status": "Pending",
    "rowid": "1289568",
    "final_x": "3726755.30784",
    "final_y": "564399.097185",
    "longitude": "-89.92389548294817",
    "latitude": "30.044448498567743",
    "geocoded_column": {
      "latitude": "30.044448498567743",
      "longitude": "-89.92389548294817"
    }
  },
  {
    "service_request": "2026-1289567",
    "request_type": "Tree Service",
    "request_reason": "Street or Sidewalk Blocked",
    "date_created": "2026-06-10T15:26:10.000",
    "date_modified": "2026-06-10T15:26:11.000",
    "request_status": "Pending",
    "responsible_agency": "Department of Parks & Parkways",
    "final_address": "900 BLK S Norman C Francis Pkwy",
    "address_councildis": "B",
    "status": "Pending",
    "rowid": "1289567",
    "final_x": "3670878.26287",
    "final_y": "533430.952939",
    "longitude": "-90.10154515925657",
    "latitude": "29.96106839708348",
    "geocoded_column": {
      "latitude": "29.96106839708348",
      "longitude": "-90.10154515925657"
    }
  },
  {
    "service_request": "2026-1289566",
    "request_type": "General Services",
    "request_reason": "General Service Request",
    "date_created": "2026-06-10T15:24:48.000",
    "date_modified": "2026-06-10T15:24:50.000",
    "request_status": "Pending",
    "responsible_agency": "Orleans Parish Communication District",
    "final_address": "1938 Stephen Girard St",
    "address_councildis": "D",
    "status": "Pending",
    "rowid": "1289566",
    "final_x": "3682089.08796",
    "final_y": "548624.135315",
    "longitude": "-90.06561266110566",
    "latitude": "30.002508188187832",
    "geocoded_column": {
      "latitude": "30.002508188187832",
      "longitude": "-90.06561266110566"
    }
  },
  {
    "service_request": "2026-1289565",
    "request_type": "Trash/Recycling",
    "request_reason": "Repair Recycling Cart",
    "date_created": "2026-06-10T15:23:21.000",
    "date_modified": "2026-06-10T15:23:23.000",
    "request_status": "Pending",
    "responsible_agency": "Department of Sanitation",
    "final_address": "200 S Cortez St",
    "address_councildis": "A",
    "status": "Pending",
    "rowid": "1289565",
    "final_x": "3671822.57447",
    "final_y": "537203.155656",
    "longitude": "-90.09843481257035",
    "latitude": "29.971412743150843",
    "geocoded_column": {
      "latitude": "29.971412743150843",
      "longitude": "-90.09843481257035"
    }
  },
  {
    "service_request": "2026-1289564",
    "request_type": "Trash/Recycling",
    "request_reason": "Request a Large Item Pick Up",
    "date_created": "2026-06-10T15:21:45.000",
    "date_modified": "2026-06-10T15:21:47.000",
    "request_status": "Pending",
    "responsible_agency": "Department of Sanitation",
    "final_address": "2014 Mazant St",
    "address_councildis": "D",
    "status": "Assigned to Contractor",
    "contractor": "IV Waste",
    "rowid": "1289564",
    "final_x": "3692925.60982",
    "final_y": "538733.738569",
    "longitude": "-90.03173376555685",
    "latitude": "29.974979066475015",
    "geocoded_column": {
      "latitude": "29.974979066475015",
      "longitude": "-90.03173376555685"
    }
  },
  {
    "service_request": "2026-1289563",
    "request_type": "Trash/Recycling",
    "request_reason": "Request a Large Item Pick Up",
    "date_created": "2026-06-10T15:16:14.000",
    "date_modified": "2026-06-10T15:16:16.000",
    "request_status": "Pending",
    "responsible_agency": "Department of Sanitation",
    "final_address": "2528 N Roman St",
    "address_councildis": "D",
    "status": "Assigned to Contractor",
    "contractor": "IV Waste",
    "rowid": "1289563",
    "final_x": "3687239.0118",
    "final_y": "539041.907594",
    "longitude": "-90.04968255332341",
    "latitude": "29.976002814081493",
    "geocoded_column": {
      "latitude": "29.976002814081493",
      "longitude": "-90.04968255332341"
    }
  },
  {
    "service_request": "2026-1289562",
    "request_type": "Trash/Recycling",
    "request_reason": "Missed Trash Pick-Up",
    "date_created": "2026-06-10T15:14:26.000",
    "date_modified": "2026-06-10T15:21:05.000",
    "request_status": "Pending",
    "responsible_agency": "Department of Sanitation",
    "final_address": "11661 Old Gentilly Rd",
    "address_councildis": "E",
    "status": "Assigned to Contractor",
    "contractor": "Waste Pro",
    "rowid": "1289562",
    "final_x": "3719152.06764",
    "final_y": "553541.794455",
    "longitude": "-89.94833964925374",
    "latitude": "30.014850252037007",
    "geocoded_column": {
      "latitude": "30.014850252037007",
      "longitude": "-89.94833964925374"
    }
  },
  {
    "service_request": "2026-1289561",
    "request_type": "General Services",
    "request_reason": "General Service Request",
    "date_created": "2026-06-10T15:12:47.000",
    "date_modified": "2026-06-10T15:12:49.000",
    "request_status": "Pending",
    "responsible_agency": "Orleans Parish Communication District",
    "final_address": "1200 BLK Bourbon St",
    "address_councildis": "C",
    "status": "Pending",
    "rowid": "1289561",
    "final_x": "3683477.82625",
    "final_y": "534274.382354",
    "longitude": "-90.06172854722628",
    "latitude": "29.963009092049766",
    "geocoded_column": {
      "latitude": "29.963009092049766",
      "longitude": "-90.06172854722628"
    }
  },
  {
    "service_request": "2026-1289560",
    "request_type": "Trash/Recycling",
    "request_reason": "Request a Large Item Pick Up",
    "date_created": "2026-06-10T15:11:14.000",
    "date_modified": "2026-06-10T15:11:25.000",
    "request_status": "Pending",
    "responsible_agency": "Department of Sanitation",
    "final_address": "7041 Mayo Rd",
    "address_councildis": "E",
    "status": "Assigned to Contractor",
    "contractor": "Waste Pro",
    "rowid": "1289560",
    "final_x": "3701677.21252",
    "final_y": "558947.826524",
    "longitude": "-90.00335314884884",
    "latitude": "30.03028396705292",
    "geocoded_column": {
      "latitude": "30.03028396705292",
      "longitude": "-90.00335314884884"
    }
  },
  {
    "service_request": "2026-1289559",
    "request_type": "Trash/Recycling",
    "request_reason": "Illegal Dumping",
    "date_created": "2026-06-10T15:10:43.000",
    "date_modified": "2026-06-10T15:10:45.000",
    "request_status": "Pending",
    "responsible_agency": "Department of Sanitation",
    "final_address": "1871 N Roman St",
    "address_councildis": "D",
    "status": "Pending",
    "rowid": "1289559",
    "final_x": "3683521.29205",
    "final_y": "538809.535113",
    "longitude": "-90.06143231735946",
    "latitude": "29.975477865970344",
    "geocoded_column": {
      "latitude": "29.975477865970344",
      "longitude": "-90.06143231735946"
    }
  },
  {
    "service_request": "2026-1289558",
    "request_type": "Homeless Related Request",
    "request_reason": "Homeless Encampment Complaint",
    "date_created": "2026-06-10T15:10:25.000",
    "date_modified": "2026-06-10T15:32:39.000",
    "case_close_date": "2026-06-10T10:32:38.000",
    "request_status": "Closed",
    "responsible_agency": "Office Of Homeless Services And Strategy",
    "final_address": "900 Napoleon Ave",
    "address_councildis": "B",
    "status": "Resolved",
    "rowid": "1289558",
    "final_x": "3670816.23329",
    "final_y": "518803.454263",
    "longitude": "-90.10223731581735",
    "latitude": "29.920849360685466",
    "geocoded_column": {
      "latitude": "29.920849360685466",
      "longitude": "-90.10223731581735"
    }
  },
  {
    "service_request": "2026-1289557",
    "request_type": "Trash/Recycling",
    "request_reason": "Request a Large Item Pick Up",
    "date_created": "2026-06-10T15:04:43.000",
    "date_modified": "2026-06-10T15:04:45.000",
    "request_status": "Pending",
    "responsible_agency": "Department of Sanitation",
    "final_address": "7719 Scottwood Dr",
    "address_councildis": "E",
    "status": "Assigned to Contractor",
    "contractor": "Waste Pro",
    "rowid": "1289557",
    "final_x": "3717052.47666",
    "final_y": "571201.73572",
    "longitude": "-89.95430174746073",
    "latitude": "30.06347754580379",
    "geocoded_column": {
      "latitude": "30.06347754580379",
      "longitude": "-89.95430174746073"
    }
  },
  {
    "service_request": "2026-1289556",
    "request_type": "Trash/Recycling",
    "request_reason": "Request a Large Item Pick Up",
    "date_created": "2026-06-10T15:02:32.000",
    "date_modified": "2026-06-10T15:02:33.000",
    "request_status": "Pending",
    "responsible_agency": "Department of Sanitation",
    "final_address": "4532 S Saratoga St",
    "address_councildis": "B",
    "status": "Assigned to Contractor",
    "contractor": "IV Waste",
    "rowid": "1289556",
    "final_x": "3669993.19655",
    "final_y": "522539.567418",
    "longitude": "-90.10470882219427",
    "latitude": "29.93114677032884",
    "geocoded_column": {
      "latitude": "29.93114677032884",
      "longitude": "-90.10470882219427"
    }
  },
  {
    "service_request": "2026-1289555",
    "request_type": "Trash/Recycling",
    "request_reason": "Replace Trash Cart",
    "date_created": "2026-06-10T15:01:07.000",
    "date_modified": "2026-06-10T15:01:09.000",
    "request_status": "Pending",
    "responsible_agency": "Department of Sanitation",
    "final_address": "2012 Audubon St",
    "address_councildis": "A",
    "status": "Assigned to Contractor",
    "contractor": "IV Waste",
    "rowid": "1289555",
    "final_x": "3666044.04391",
    "final_y": "528809.820416",
    "longitude": "-90.11696570340644",
    "latitude": "29.948503799651753",
    "geocoded_column": {
      "latitude": "29.948503799651753",
      "longitude": "-90.11696570340644"
    }
  },
  {
    "service_request": "2026-1289554",
    "request_type": "Trash/Recycling",
    "request_reason": "Request a Large Item Pick Up",
    "date_created": "2026-06-10T15:00:21.000",
    "date_modified": "2026-06-10T15:00:24.000",
    "request_status": "Pending",
    "responsible_agency": "Department of Sanitation",
    "final_address": "1519 Flood St",
    "address_councildis": "E",
    "status": "Assigned to Contractor",
    "contractor": "Waste Pro",
    "rowid": "1289554",
    "final_x": "3698183.32586",
    "final_y": "535478.863494",
    "longitude": "-90.01524689696497",
    "latitude": "29.96586406069553",
    "geocoded_column": {
      "latitude": "29.96586406069553",
      "longitude": "-90.01524689696497"
    }
  },
  {
    "service_request": "2026-1289553",
    "request_type": "Trash/Recycling",
    "request_reason": "Replace Recycling Cart",
    "date_created": "2026-06-10T14:58:57.000",
    "date_modified": "2026-06-10T14:58:58.000",
    "request_status": "Pending",
    "responsible_agency": "Department of Sanitation",
    "final_address": "6885 Catina St",
    "address_councildis": "A",
    "status": "Pending",
    "rowid": "1289553",
    "final_x": "3667145.95917",
    "final_y": "553398.528599",
    "longitude": "-90.11265941022431",
    "latitude": "30.01608222610727",
    "geocoded_column": {
      "latitude": "30.01608222610727",
      "longitude": "-90.11265941022431"
    }
  },
  {
    "service_request": "2026-1289552",
    "request_type": "Roads and Streets",
    "request_reason": "Pothole",
    "date_created": "2026-06-10T14:58:27.000",
    "date_modified": "2026-06-10T14:58:28.000",
    "request_status": "Pending",
    "responsible_agency": "Department of Public Works",
    "final_address": "1810 Dumaine St",
    "address_councildis": "C",
    "status": "Pending",
    "rowid": "1289552",
    "final_x": "3679800.90107",
    "final_y": "535439.414278",
    "longitude": "-90.07329936818945",
    "latitude": "29.966324219725237",
    "geocoded_column": {
      "latitude": "29.966324219725237",
      "longitude": "-90.07329936818945"
    }
  },
  {
    "service_request": "2026-1289551",
    "request_type": "Mosquito, Termite & Rodent Control",
    "request_reason": "Mosquito Complaint",
    "date_created": "2026-06-10T14:55:18.000",
    "date_modified": "2026-06-10T14:55:19.000",
    "request_status": "Pending",
    "responsible_agency": "Mosquito, Termite & Rodent Control Board",
    "final_address": "8423 Hickory St",
    "address_councildis": "A",
    "status": "Pending",
    "rowid": "1289551",
    "final_x": "3662466.77792",
    "final_y": "530815.12973",
    "longitude": "-90.1281940930222",
    "latitude": "29.954121687129657",
    "geocoded_column": {
      "latitude": "29.954121687129657",
      "longitude": "-90.1281940930222"
    }
  },
  {
    "service_request": "2026-1289550",
    "request_type": "Mosquito, Termite & Rodent Control",
    "request_reason": "Rodent Complaint (Mice & Rats)",
    "date_created": "2026-06-10T14:54:36.000",
    "date_modified": "2026-06-10T14:54:37.000",
    "request_status": "Pending",
    "responsible_agency": "Mosquito, Termite & Rodent Control Board",
    "final_address": "8423 Hickory St",
    "address_councildis": "A",
    "status": "Pending",
    "rowid": "1289550",
    "final_x": "3662466.77792",
    "final_y": "530815.12973",
    "longitude": "-90.1281940930222",
    "latitude": "29.954121687129657",
    "geocoded_column": {
      "latitude": "29.954121687129657",
      "longitude": "-90.1281940930222"
    }
  },
  {
    "service_request": "2026-1289549",
    "request_type": "Property Maintenance",
    "request_reason": "Property Maintenance",
    "date_created": "2026-06-10T14:53:27.000",
    "date_modified": "2026-06-10T14:53:28.000",
    "request_status": "Pending",
    "responsible_agency": "Department of Code Enforcement",
    "final_address": "8423 Hickory St",
    "address_councildis": "A",
    "status": "Pending",
    "rowid": "1289549",
    "final_x": "3662466.77792",
    "final_y": "530815.12973",
    "longitude": "-90.1281940930222",
    "latitude": "29.954121687129657",
    "geocoded_column": {
      "latitude": "29.954121687129657",
      "longitude": "-90.1281940930222"
    }
  },
  {
    "service_request": "2026-1289548",
    "request_type": "Roads and Streets",
    "request_reason": "Street Subsidence (Sinking)",
    "date_created": "2026-06-10T14:52:49.000",
    "date_modified": "2026-06-10T14:52:50.000",
    "request_status": "Pending",
    "responsible_agency": "Sewerage & Water Board",
    "final_address": "3600 BLK General De Gaulle Dr",
    "address_councildis": "C",
    "status": "Pending",
    "rowid": "1289548",
    "final_x": "3697315.86222",
    "final_y": "519928.938276",
    "longitude": "-90.01854976710058",
    "latitude": "29.923134594450143",
    "geocoded_column": {
      "latitude": "29.923134594450143",
      "longitude": "-90.01854976710058"
    }
  },
  {
    "service_request": "2026-1289547",
    "request_type": "Property Maintenance",
    "request_reason": "Property Maintenance",
    "date_created": "2026-06-10T14:50:54.000",
    "date_modified": "2026-06-10T14:50:55.000",
    "request_status": "Pending",
    "responsible_agency": "Department of Code Enforcement",
    "final_address": "8423 Hickory St",
    "address_councildis": "A",
    "status": "Pending",
    "rowid": "1289547",
    "final_x": "3662466.77792",
    "final_y": "530815.12973",
    "longitude": "-90.1281940930222",
    "latitude": "29.954121687129657",
    "geocoded_column": {
      "latitude": "29.954121687129657",
      "longitude": "-90.1281940930222"
    }
  },
  {
    "service_request": "2026-1289546",
    "request_type": "Trash/Recycling",
    "request_reason": "Replace Trash Cart",
    "date_created": "2026-06-10T14:48:54.000",
    "date_modified": "2026-06-10T14:48:56.000",
    "request_status": "Pending",
    "responsible_agency": "Department of Sanitation",
    "final_address": "650 Allen Toussaint Blvd",
    "address_councildis": "A",
    "status": "Assigned to Contractor",
    "contractor": "IV Waste",
    "rowid": "1289546",
    "final_x": "3668947.05908",
    "final_y": "554616.2694",
    "longitude": "-90.10692753246823",
    "latitude": "30.019377700885574",
    "geocoded_column": {
      "latitude": "30.019377700885574",
      "longitude": "-90.10692753246823"
    }
  },
  {
    "service_request": "2026-1289545",
    "request_type": "Trash/Recycling",
    "request_reason": "Replace Trash Cart",
    "date_created": "2026-06-10T14:48:49.000",
    "date_modified": "2026-06-10T14:48:51.000",
    "request_status": "Pending",
    "responsible_agency": "Department of Sanitation",
    "final_address": "317 Pine St",
    "address_councildis": "A",
    "status": "Assigned to Contractor",
    "contractor": "IV Waste",
    "rowid": "1289545",
    "final_x": "3661712.99507",
    "final_y": "523308.661115",
    "longitude": "-90.13082299434936",
    "latitude": "29.933503067139988",
    "geocoded_column": {
      "latitude": "29.933503067139988",
      "longitude": "-90.13082299434936"
    }
  },
  {
    "service_request": "2026-1289544",
    "request_type": "Property Maintenance",
    "request_reason": "Property Maintenance",
    "date_created": "2026-06-10T14:47:37.000",
    "date_modified": "2026-06-10T14:47:39.000",
    "request_status": "Pending",
    "responsible_agency": "Department of Code Enforcement",
    "final_address": "1808 Allen St",
    "address_councildis": "D",
    "status": "Pending",
    "rowid": "1289544",
    "final_x": "3682423.56706",
    "final_y": "538787.522761",
    "longitude": "-90.06489999797404",
    "latitude": "29.97545079830909",
    "geocoded_column": {
      "latitude": "29.97545079830909",
      "longitude": "-90.06489999797404"
    }
  },
  {
    "service_request": "2026-1289543",
    "request_type": "Trash/Recycling",
    "request_reason": "Return Trash Cart",
    "date_created": "2026-06-10T14:44:27.000",
    "date_modified": "2026-06-10T14:44:31.000",
    "request_status": "Pending",
    "responsible_agency": "Department of Sanitation",
    "final_address": "4122 S Derbigny St",
    "address_councildis": "B",
    "status": "Assigned to Contractor",
    "contractor": "IV Waste",
    "rowid": "1289543",
    "final_x": "3671184.52603",
    "final_y": "526301.388798",
    "longitude": "-90.10082020259362",
    "latitude": "29.94145538460403",
    "geocoded_column": {
      "latitude": "29.94145538460403",
      "longitude": "-90.10082020259362"
    }
  },
  {
    "service_request": "2026-1289542",
    "request_type": "Streetlights",
    "request_reason": "Streetlight Outage/Malfunction",
    "date_created": "2026-06-10T14:43:38.000",
    "date_modified": "2026-06-10T14:43:39.000",
    "request_status": "Pending",
    "responsible_agency": "Department of Public Works",
    "final_address": "7800 Windward Ct",
    "address_councildis": "E",
    "status": "Pending",
    "rowid": "1289542",
    "final_x": "3715355.30847",
    "final_y": "569976.94423",
    "longitude": "-89.95971294959146",
    "latitude": "30.06016592962825",
    "geocoded_column": {
      "latitude": "30.06016592962825",
      "longitude": "-89.95971294959146"
    }
  },
  {
    "service_request": "2026-1289541",
    "request_type": "Drainage",
    "request_reason": "Catch Basin Not Draining",
    "date_created": "2026-06-10T14:42:59.000",
    "date_modified": "2026-06-10T14:43:01.000",
    "request_status": "Pending",
    "responsible_agency": "Sewerage & Water Board",
    "final_address": "3301 Bienville Ave",
    "address_councildis": "B",
    "status": "Pending",
    "rowid": "1289541",
    "final_x": "3674080.97998",
    "final_y": "537158.226888",
    "longitude": "-90.09130397065829",
    "latitude": "29.971222086097352",
    "geocoded_column": {
      "latitude": "29.971222086097352",
      "longitude": "-90.09130397065829"
    }
  },
  {
    "service_request": "2026-1289540",
    "request_type": "Trash/Recycling",
    "request_reason": "Change Size of Trash Cart",
    "date_created": "2026-06-10T14:42:56.000",
    "date_modified": "2026-06-10T14:43:11.000",
    "request_status": "Pending",
    "responsible_agency": "Department of Sanitation",
    "final_address": "127 Sherwood Forest Dr",
    "address_councildis": "A",
    "status": "Assigned to Contractor",
    "contractor": "IV Waste",
    "rowid": "1289540",
    "final_x": "3673238.7691",
    "final_y": "541051.862156",
    "longitude": "-90.09383077539772",
    "latitude": "29.98195333229853",
    "geocoded_column": {
      "latitude": "29.98195333229853",
      "longitude": "-90.09383077539772"
    }
  },
  {
    "service_request": "2026-1289539",
    "request_type": "Trash/Recycling",
    "request_reason": "Request a Large Item Pick Up",
    "date_created": "2026-06-10T14:39:42.000",
    "date_modified": "2026-06-10T14:39:43.000",
    "request_status": "Pending",
    "responsible_agency": "Department of Sanitation",
    "final_address": "1122 Spain St",
    "address_councildis": "C",
    "status": "Assigned to Contractor",
    "contractor": "IV Waste",
    "rowid": "1289539",
    "final_x": "3686085.89698",
    "final_y": "536660.713927",
    "longitude": "-90.05340842072972",
    "latitude": "29.969490833797458",
    "geocoded_column": {
      "latitude": "29.969490833797458",
      "longitude": "-90.05340842072972"
    }
  },
  {
    "service_request": "2026-1289538",
    "request_type": "Trash/Recycling",
    "request_reason": "Return Trash Cart",
    "date_created": "2026-06-10T14:37:49.000",
    "date_modified": "2026-06-10T14:37:52.000",
    "request_status": "Pending",
    "responsible_agency": "Department of Sanitation",
    "final_address": "1731 Robert St",
    "address_councildis": "B",
    "status": "Assigned to Contractor",
    "contractor": "IV Waste",
    "rowid": "1289538",
    "final_x": "3668862.75591",
    "final_y": "522061.457978",
    "longitude": "-90.10829362352045",
    "latitude": "29.929865402796192",
    "geocoded_column": {
      "latitude": "29.929865402796192",
      "longitude": "-90.10829362352045"
    }
  },
  {
    "service_request": "2026-1289537",
    "request_type": "Trash/Recycling",
    "request_reason": "Request a Large Item Pick Up",
    "date_created": "2026-06-10T14:36:49.000",
    "date_modified": "2026-06-10T14:36:50.000",
    "request_status": "Pending",
    "responsible_agency": "Department of Sanitation",
    "final_address": "13018 Cherbourg St",
    "address_councildis": "E",
    "status": "Assigned to Contractor",
    "contractor": "Waste Pro",
    "rowid": "1289537",
    "final_x": "3723947.68185",
    "final_y": "560864.729246",
    "longitude": "-89.93290525718156",
    "latitude": "30.034825101458203",
    "geocoded_column": {
      "latitude": "30.034825101458203",
      "longitude": "-89.93290525718156"
    }
  },
  {
    "service_request": "2026-1289536",
    "request_type": "Trash/Recycling",
    "request_reason": "Request a Large Item Pick Up",
    "date_created": "2026-06-10T14:36:09.000",
    "date_modified": "2026-06-10T14:36:10.000",
    "request_status": "Pending",
    "responsible_agency": "Department of Sanitation",
    "final_address": "7717 Unity Dr",
    "address_councildis": "E",
    "status": "Assigned to Contractor",
    "contractor": "Waste Pro",
    "rowid": "1289536",
    "final_x": "3711965.34398",
    "final_y": "567275.855332",
    "longitude": "-89.97052991155094",
    "latitude": "30.052850343045428",
    "geocoded_column": {
      "latitude": "30.052850343045428",
      "longitude": "-89.97052991155094"
    }
  },
  {
    "service_request": "2026-1289535",
    "request_type": "Trash/Recycling",
    "request_reason": "Order Recycling Cart",
    "date_created": "2026-06-10T14:31:21.000",
    "date_modified": "2026-06-10T14:31:22.000",
    "request_status": "Pending",
    "responsible_agency": "Department of Sanitation",
    "final_address": "1314 Adams St",
    "address_councildis": "A",
    "status": "Pending",
    "rowid": "1289535",
    "final_x": "3663358.1209",
    "final_y": "527765.918079",
    "longitude": "-90.12548107099623",
    "latitude": "29.94571152985379",
    "geocoded_column": {
      "latitude": "29.94571152985379",
      "longitude": "-90.12548107099623"
    }
  },
  {
    "service_request": "2026-1289534",
    "request_type": "Abandoned Vehicles",
    "request_reason": "Abandoned/Junk Vehicles",
    "date_created": "2026-06-10T14:28:38.000",
    "date_modified": "2026-06-10T14:28:39.000",
    "request_status": "Pending",
    "responsible_agency": "Department of Public Works",
    "final_address": "3805 Magnolia St",
    "address_councildis": "B",
    "status": "Pending",
    "rowid": "1289534",
    "final_x": "3671807.02497",
    "final_y": "524916.366524",
    "longitude": "-90.09890195596995",
    "latitude": "29.937628597496246",
    "geocoded_column": {
      "latitude": "29.937628597496246",
      "longitude": "-90.09890195596995"
    }
  },
  {
    "service_request": "2026-1289533",
    "request_type": "Trash/Recycling",
    "request_reason": "Order Trash Cart",
    "date_created": "2026-06-10T14:28:03.000",
    "date_modified": "2026-06-10T14:28:05.000",
    "request_status": "Pending",
    "responsible_agency": "Department of Sanitation",
    "final_address": "1314 Adams St",
    "address_councildis": "A",
    "status": "Assigned to Contractor",
    "contractor": "IV Waste",
    "rowid": "1289533",
    "final_x": "3663358.1209",
    "final_y": "527765.918079",
    "longitude": "-90.12548107099623",
    "latitude": "29.94571152985379",
    "geocoded_column": {
      "latitude": "29.94571152985379",
      "longitude": "-90.12548107099623"
    }
  },
  {
    "service_request": "2026-1289532",
    "request_type": "Trash/Recycling",
    "request_reason": "Request a Large Item Pick Up",
    "date_created": "2026-06-10T14:27:43.000",
    "date_modified": "2026-06-10T14:27:45.000",
    "request_status": "Pending",
    "responsible_agency": "Department of Sanitation",
    "final_address": "3412 N Rampart St",
    "address_councildis": "C",
    "status": "Assigned to Contractor",
    "contractor": "IV Waste",
    "rowid": "1289532",
    "final_x": "3690198.6728",
    "final_y": "535213.194502",
    "longitude": "-90.0404715572179",
    "latitude": "29.965383702174115",
    "geocoded_column": {
      "latitude": "29.965383702174115",
      "longitude": "-90.0404715572179"
    }
  },
  {
    "service_request": "2026-1289531",
    "request_type": "New Orleans Recreation Development Commission (NORDC)",
    "request_reason": "Facilities and Parks Maintenance/Clean Up",
    "date_created": "2026-06-10T14:25:28.000",
    "date_modified": "2026-06-10T14:25:53.000",
    "request_status": "Pending",
    "responsible_agency": "New Orleans Recreation Development Commission",
    "final_address": "2500 BLK Filmore Ave",
    "address_councildis": "D",
    "status": "Pending",
    "rowid": "1289531",
    "final_x": "3686189.73749",
    "final_y": "552547.050861",
    "longitude": "-90.05251968354762",
    "latitude": "30.013169393263706",
    "geocoded_column": {
      "latitude": "30.013169393263706",
      "longitude": "-90.05251968354762"
    }
  },
  {
    "service_request": "2026-1289530",
    "request_type": "Trash/Recycling",
    "request_reason": "Replace Recycling Cart",
    "date_created": "2026-06-10T14:23:11.000",
    "date_modified": "2026-06-10T14:23:13.000",
    "request_status": "Pending",
    "responsible_agency": "Department of Sanitation",
    "final_address": "6013 Pasteur Blvd",
    "address_councildis": "D",
    "status": "Pending",
    "rowid": "1289530",
    "final_x": "3682860.11432",
    "final_y": "554939.329368",
    "longitude": "-90.06295570433441",
    "latitude": "30.019849202172026",
    "geocoded_column": {
      "latitude": "30.019849202172026",
      "longitude": "-90.06295570433441"
    }
  },
  {
    "service_request": "2026-1289529",
    "request_type": "Trash/Recycling",
    "request_reason": "Request a Large Item Pick Up",
    "date_created": "2026-06-10T14:21:45.000",
    "date_modified": "2026-06-10T14:21:46.000",
    "request_status": "Pending",
    "responsible_agency": "Department of Sanitation",
    "final_address": "5921 Timoleon St",
    "address_councildis": "D",
    "status": "Assigned to Contractor",
    "contractor": "Waste Pro",
    "rowid": "1289529",
    "final_x": "3696339.74243",
    "final_y": "552230.160342",
    "longitude": "-90.02046273087626",
    "latitude": "30.011982194617598",
    "geocoded_column": {
      "latitude": "30.011982194617598",
      "longitude": "-90.02046273087626"
    }
  },