[
  {
    "service_request": "2023-1047593",
    "request_type": "Roads/Drainage",
    "request_reason": "Pothole",
    "date_created": "2023-11-02T00:41:34.000",
    "date_modified": "2023-11-02T00:41:34.000",
    "request_status": "Pending",
    "responsible_agency": "Department of Public Works",
    "final_address": "4200 Perrier St",
    "address_councildis": "B",
    "status": "Pending",
    "rowid": "1047593",
    "final_x": "3671579.76411",
    "final_y": "520095.16844",
    "longitude": "-90.09978329705561",
    "latitude": "29.924378584144126",
    "geocoded_column": {
      "latitude": "29.924378584144126",
      "longitude": "-90.09978329705561"
    }
  },
  {
    "service_request": "2023-1047592",
    "request_type": "Safety & Permits",
    "request_reason": "Licenses & Permits",
    "date_created": "2023-11-02T00:20:44.000",
    "date_modified": "2023-11-02T00:20:44.000",
    "request_status": "Pending",
    "responsible_agency": "Safety and Permits",
    "final_address": "3614 Urquhart St",
    "address_councildis": "D",
    "status": "Pending",
    "rowid": "1047592",
    "final_x": "3691020.71472",
    "final_y": "536240.568903",
    "longitude": "-90.03783891571983",
    "latitude": "29.968183091503818",
    "geocoded_column": {
      "latitude": "29.968183091503818",
      "longitude": "-90.03783891571983"
    }
  },
  {
    "service_request": "2023-1047591",
    "request_type": "Roads/Drainage",
    "request_reason": "Pothole",
    "date_created": "2023-11-02T00:20:19.000",
    "date_modified": "2023-11-02T00:20:19.000",
    "request_status": "Pending",
    "responsible_agency": "Department of Public Works",
    "final_address": "1223 Delachaise St",
    "address_councildis": "B",
    "status": "Pending",
    "rowid": "1047591",
    "final_x": "3674476.66977",
    "final_y": "520020.18828",
    "longitude": "-90.09064131740695",
    "latitude": "29.924086342136867",
    "geocoded_column": {
      "latitude": "29.924086342136867",
      "longitude": "-90.09064131740695"
    }
  },
  {
    "service_request": "2023-1047590",
    "request_type": "Trash/Recycling",
    "request_reason": "Request a Large Item Pick Up",
    "date_created": "2023-11-01T23:06:41.000",
    "date_modified": "2023-11-01T23:06:42.000",
    "request_status": "Pending",
    "responsible_agency": "Department of Sanitation",
    "final_address": "903 Walker St",
    "address_councildis": "A",
    "status": "Assigned to Contractor",
    "contractor": "IV Waste",
    "rowid": "1047590",
    "final_x": "3670498.69095",
    "final_y": "553909.152983",
    "longitude": "-90.10204889519325",
    "latitude": "30.01738762696542",
    "geocoded_column": {
      "latitude": "30.01738762696542",
      "longitude": "-90.10204889519325"
    }
  },
  {
    "service_request": "2023-1047589",
    "request_type": "Property Maintenance",
    "request_reason": "Property Maintenance",
    "date_created": "2023-11-01T22:57:46.000",
    "date_modified": "2023-11-01T22:57:46.000",
    "request_status": "Pending",
    "responsible_agency": "Department of Code Enforcement",
    "final_address": "7801 Freret St",
    "address_councildis": "A",
    "status": "Pending",
    "rowid": "1047589",
    "final_x": "3662318.45223",
    "final_y": "527160.405695",
    "longitude": "-90.12878376246688",
    "latitude": "29.9440766578488",
    "geocoded_column": {
      "latitude": "29.9440766578488",
      "longitude": "-90.12878376246688"
    }
  },
  {
    "service_request": "2023-1047588",
    "request_type": "Property Maintenance",
    "request_reason": "Property Maintenance",
    "date_created": "2023-11-01T22:43:11.000",
    "date_modified": "2023-11-01T22:43:11.000",
    "request_status": "Pending",
    "responsible_agency": "Department of Code Enforcement",
    "final_address": "7801 Freret St",
    "address_councildis": "A",
    "status": "Pending",
    "rowid": "1047588",
    "final_x": "3662318.45223",
    "final_y": "527160.405695",
    "longitude": "-90.12878376246688",
    "latitude": "29.9440766578488",
    "geocoded_column": {
      "latitude": "29.9440766578488",
      "longitude": "-90.12878376246688"
    }
  },
  {
    "service_request": "2023-1047587",
    "request_type": "Roads/Drainage",
    "request_reason": "Pothole",
    "date_created": "2023-11-01T22:18:33.000",
    "date_modified": "2023-11-01T22:18:33.000",
    "request_status": "Pending",
    "responsible_agency": "Department of Public Works",
    "final_address": "6215 Hurst St",
    "address_councildis": "A",
    "status": "Pending",
    "rowid": "1047587",
    "final_x": "3664668.32039",
    "final_y": "522243.373626",
    "longitude": "-90.12152872358996",
    "latitude": "29.93048825206563",
    "geocoded_column": {
      "latitude": "29.93048825206563",
      "longitude": "-90.12152872358996"
    }
  },
  {
    "service_request": "2023-1047586",
    "request_type": "Roads/Drainage",
    "request_reason": "Pothole",
    "date_created": "2023-11-01T22:15:36.000",
    "date_modified": "2023-11-01T22:15:36.000",
    "request_status": "Pending",
    "responsible_agency": "Department of Public Works",
    "final_address": "6025 Coliseum St",
    "address_councildis": "A",
    "status": "Pending",
    "rowid": "1047586",
    "final_x": "3664796.34074",
    "final_y": "520310.32268",
    "longitude": "-90.12118913565936",
    "latitude": "29.92516924769698",
    "geocoded_column": {
      "latitude": "29.92516924769698",
      "longitude": "-90.12118913565936"
    }
  },
  {
    "service_request": "2023-1047585",
    "request_type": "Roads/Drainage",
    "request_reason": "Pothole",
    "date_created": "2023-11-01T22:11:29.000",
    "date_modified": "2023-11-01T22:11:29.000",
    "request_status": "Pending",
    "responsible_agency": "Department of Public Works",
    "final_address": "5822 Chestnut St",
    "address_councildis": "A",
    "status": "Pending",
    "rowid": "1047585",
    "final_x": "3665470.50669",
    "final_y": "519673.469368",
    "longitude": "-90.11908230406746",
    "latitude": "29.923398474042003",
    "geocoded_column": {
      "latitude": "29.923398474042003",
      "longitude": "-90.11908230406746"
    }
  },
  {
    "service_request": "2023-1047584",
    "request_type": "Traffic Signals/Signs/Striping/Streetlights",
    "request_reason": "Street Light Outage/Malfunction",
    "date_created": "2023-11-01T22:03:50.000",
    "date_modified": "2023-11-01T22:03:50.000",
    "request_status": "Pending",
    "responsible_agency": "Department of Public Works",
    "final_address": "3561 Rue Denise",
    "address_councildis": "C",
    "status": "Assigned to Contractor",
    "contractor": "Legacy Professional Services",
    "rowid": "1047584",
    "final_x": "3704214.48554",
    "final_y": "517431.326966",
    "longitude": "-89.99686558577795",
    "latitude": "29.9160475663106",
    "geocoded_column": {
      "latitude": "29.9160475663106",
      "longitude": "-89.99686558577795"
    }
  },
  {
    "service_request": "2023-1047583",
    "request_type": "Traffic Signals/Signs/Striping/Streetlights",
    "request_reason": "Street Light Outage/Malfunction",
    "date_created": "2023-11-01T21:47:34.000",
    "date_modified": "2023-11-01T21:47:34.000",
    "request_status": "Pending",
    "responsible_agency": "Department of Public Works",
    "final_address": "1016 Desire St",
    "address_councildis": "C",
    "status": "Assigned to Contractor",
    "contractor": "Legacy Professional Services",
    "rowid": "1047583",
    "final_x": "3690081.89078",
    "final_y": "535426.835206",
    "longitude": "-90.04083273789982",
    "latitude": "29.965974761873937",
    "geocoded_column": {
      "latitude": "29.965974761873937",
      "longitude": "-90.04083273789982"
    }
  },
  {
    "service_request": "2023-1047582",
    "request_type": "Trash/Recycling",
    "request_reason": "Replace Trash Cart",
    "date_created": "2023-11-01T21:46:19.000",
    "date_modified": "2023-11-01T21:46:20.000",
    "request_status": "Pending",
    "responsible_agency": "Department of Sanitation",
    "final_address": "817 Harmony St",
    "address_councildis": "B",
    "status": "Assigned to Contractor",
    "contractor": "Richards Disposal",
    "rowid": "1047582",
    "final_x": "3676255.76833",
    "final_y": "519162.107703",
    "longitude": "-90.08505483546676",
    "latitude": "29.921673723213996",
    "geocoded_column": {
      "latitude": "29.921673723213996",
      "longitude": "-90.08505483546676"
    }
  },
  {
    "service_request": "2023-1047581",
    "request_type": "Trash/Recycling",
    "request_reason": "Request a Large Item Pick Up",
    "date_created": "2023-11-01T20:24:15.000",
    "date_modified": "2023-11-01T20:24:16.000",
    "request_status": "Pending",
    "responsible_agency": "Department of Sanitation",
    "final_address": "1024 N Miro St",
    "address_councildis": "D",
    "status": "Assigned to Contractor",
    "contractor": "Richards Disposal",
    "rowid": "1047581",
    "final_x": "3678913.70568",
    "final_y": "536937.283272",
    "longitude": "-90.07604921295058",
    "latitude": "29.970469643461314",
    "geocoded_column": {
      "latitude": "29.970469643461314",
      "longitude": "-90.07604921295058"
    }
  },
  {
    "service_request": "2023-1047580",
    "request_type": "Trash/Recycling",
    "request_reason": "Replace Trash Cart",
    "date_created": "2023-11-01T20:21:09.000",
    "date_modified": "2023-11-01T20:21:09.000",
    "request_status": "Pending",
    "responsible_agency": "Department of Sanitation",
    "final_address": "9418 Palmetto St",
    "address_councildis": "A",
    "status": "Assigned to Contractor",
    "contractor": "Richards Disposal",
    "rowid": "1047580",
    "final_x": "3664570.0704",
    "final_y": "538309.592841",
    "longitude": "-90.12130240022599",
    "latitude": "29.974668003446567",
    "geocoded_column": {
      "latitude": "29.974668003446567",
      "longitude": "-90.12130240022599"
    }
  },
  {
    "service_request": "2023-1047579",
    "request_type": "Trash/Recycling",
    "request_reason": "Replace Trash Cart",
    "date_created": "2023-11-01T19:40:20.000",
    "date_modified": "2023-11-01T19:40:21.000",
    "request_status": "Pending",
    "responsible_agency": "Department of Sanitation",
    "final_address": "616 Bellecastle St",
    "address_councildis": "B",
    "status": "Assigned to Contractor",
    "contractor": "Richards Disposal",
    "rowid": "1047579",
    "final_x": "3667627.83508",
    "final_y": "517723.556918",
    "longitude": "-90.1123379931836",
    "latitude": "29.91797379127887",
    "geocoded_column": {
      "latitude": "29.91797379127887",
      "longitude": "-90.1123379931836"
    }
  },
  {
    "service_request": "2023-1047578",
    "request_type": "Traffic Signals/Signs/Striping/Streetlights",
    "request_reason": "Street Light Outage/Malfunction",
    "date_created": "2023-11-01T19:34:38.000",
    "date_modified": "2023-11-01T19:34:38.000",
    "request_status": "Pending",
    "responsible_agency": "Department of Public Works",
    "final_address": "871 Topaz St",
    "address_councildis": "D",
    "status": "Assigned to Contractor",
    "contractor": "Legacy Professional Services",
    "rowid": "1047578",
    "final_x": "3670730.00161",
    "final_y": "556772.790298",
    "longitude": "-90.10122075241216",
    "latitude": "30.025254770092427",
    "geocoded_column": {
      "latitude": "30.025254770092427",
      "longitude": "-90.10122075241216"
    }
  },
  {
    "service_request": "2023-1047577",
    "request_type": "Roads/Drainage",
    "request_reason": "Man hole cover issue",
    "date_created": "2023-11-01T19:18:01.000",
    "date_modified": "2023-11-01T19:18:01.000",
    "request_status": "Pending",
    "responsible_agency": "Department of Public Works",
    "final_address": "0 BLK Cypress Grove Ct",
    "address_councildis": "C",
    "status": "Pending",
    "rowid": "1047577",
    "final_x": "3705067.07146",
    "final_y": "512009.546635",
    "longitude": "-89.99437448645769",
    "latitude": "29.901112155377316",
    "geocoded_column": {
      "latitude": "29.901112155377316",
      "longitude": "-89.99437448645769"
    }
  },
  {
    "service_request": "2023-1047576",
    "request_type": "Trash/Recycling",
    "request_reason": "Replace Trash Cart",
    "date_created": "2023-11-01T19:00:48.000",
    "date_modified": "2023-11-01T19:00:48.000",
    "request_status": "Pending",
    "responsible_agency": "Department of Sanitation",
    "final_address": "2023 Sere St",
    "address_councildis": "D",
    "status": "Assigned to Contractor",
    "contractor": "IV Waste",
    "rowid": "1047576",
    "final_x": "3683253.11304",
    "final_y": "545887.069328",
    "longitude": "-90.062031296189",
    "latitude": "29.99494677397635",
    "geocoded_column": {
      "latitude": "29.99494677397635",
      "longitude": "-90.062031296189"
    }
  },
  {
    "service_request": "2023-1047575",
    "request_type": "Trash/Recycling",
    "request_reason": "Request a Large Item Pick Up",
    "date_created": "2023-11-01T18:57:35.000",
    "date_modified": "2023-11-01T18:57:36.000",
    "request_status": "Pending",
    "responsible_agency": "Department of Sanitation",
    "final_address": "2023 Sere St",
    "address_councildis": "D",
    "status": "Assigned to Contractor",
    "contractor": "IV Waste",
    "rowid": "1047575",
    "final_x": "3683253.11304",
    "final_y": "545887.069328",
    "longitude": "-90.062031296189",
    "latitude": "29.99494677397635",
    "geocoded_column": {
      "latitude": "29.99494677397635",
      "longitude": "-90.062031296189"
    }
  },
  {
    "service_request": "2023-1047574",
    "request_type": "Trash/Recycling",
    "request_reason": "MIssed Recycling Pick-Up",
    "date_created": "2023-11-01T18:51:54.000",
    "date_modified": "2023-11-01T18:51:55.000",
    "request_status": "Pending",
    "responsible_agency": "Department of Sanitation",
    "final_address": "10115 Pressburg St",
    "address_councildis": "E",
    "status": "Assigned to Contractor",
    "contractor": "Waste Pro",
    "rowid": "1047574",
    "final_x": "3712841.14648",
    "final_y": "557229.241947",
    "longitude": "-89.96814010482213",
    "latitude": "30.025197518417823",
    "geocoded_column": {
      "latitude": "30.025197518417823",
      "longitude": "-89.96814010482213"
    }
  },
  {
    "service_request": "2023-1047573",
    "request_type": "Abandoned Vehicles",
    "request_reason": "Vehicle Blocking Your Driveway",
    "date_created": "2023-11-01T18:38:29.000",
    "date_modified": "2023-11-01T18:38:29.000",
    "request_status": "Pending",
    "responsible_agency": "Department of Public Works",
    "final_address": "2126 St Claude Ave",
    "address_councildis": "C",
    "status": "Pending",
    "rowid": "1047573",
    "final_x": "3684831.87906",
    "final_y": "536256.896263",
    "longitude": "-90.05738290732741",
    "latitude": "29.968418931916105",
    "geocoded_column": {
      "latitude": "29.968418931916105",
      "longitude": "-90.05738290732741"
    }
  },
  {
    "service_request": "2023-1047572",
    "request_type": "Trash/Recycling",
    "request_reason": "MIssed Recycling Pick-Up",
    "date_created": "2023-11-01T18:30:27.000",
    "date_modified": "2023-11-01T18:30:28.000",
    "request_status": "Pending",
    "responsible_agency": "Department of Sanitation",
    "final_address": "4622 Conti St",
    "address_councildis": "A",
    "status": "Assigned to Contractor",
    "contractor": "Richards Disposal",
    "rowid": "1047572",
    "final_x": "3669940.52295",
    "final_y": "540635.219083",
    "longitude": "-90.10426235527699",
    "latitude": "29.980905396650964",
    "geocoded_column": {
      "latitude": "29.980905396650964",
      "longitude": "-90.10426235527699"
    }
  },
  {
    "service_request": "2023-1047571",
    "request_type": "Trash/Recycling",
    "request_reason": "Request a Large Item Pick Up",
    "date_created": "2023-11-01T18:18:29.000",
    "date_modified": "2023-11-01T18:18:30.000",
    "request_status": "Pending",
    "responsible_agency": "Department of Sanitation",
    "final_address": "828 N Gayoso St",
    "address_councildis": "A",
    "status": "Assigned to Contractor",
    "contractor": "Richards Disposal",
    "rowid": "1047571",
    "final_x": "3676108.93595",
    "final_y": "538139.744009",
    "longitude": "-90.08486562675591",
    "latitude": "29.97386032456357",
    "geocoded_column": {
      "latitude": "29.97386032456357",
      "longitude": "-90.08486562675591"
    }
  },
  {
    "service_request": "2023-1047570",
    "request_type": "Traffic Signals/Signs/Striping/Streetlights",
    "request_reason": "Street Light Outage/Malfunction",
    "date_created": "2023-11-01T18:14:28.000",
    "date_modified": "2023-11-01T18:14:29.000",
    "request_status": "Pending",
    "responsible_agency": "Department of Public Works",
    "final_address": "829 Solomon Pl",
    "address_councildis": "A",
    "status": "Assigned to Contractor",
    "contractor": "Legacy Professional Services",
    "rowid": "1047570",
    "final_x": "3672423.69204",
    "final_y": "540912.174027",
    "longitude": "-90.0964099457429",
    "latitude": "29.981593456293794",
    "geocoded_column": {
      "latitude": "29.981593456293794",
      "longitude": "-90.0964099457429"
    }
  },
  {
    "service_request": "2023-1047569",
    "request_type": "Trash/Recycling",
    "request_reason": "Replace Trash Cart",
    "date_created": "2023-11-01T18:00:23.000",
    "date_modified": "2023-11-01T18:00:24.000",
    "request_status": "Pending",
    "responsible_agency": "Department of Sanitation",
    "final_address": "2733 Urquhart St",
    "address_councildis": "C",
    "status": "Assigned to Contractor",
    "contractor": "IV Waste",
    "rowid": "1047569",
    "final_x": "3687871.30083",
    "final_y": "537090.87284",
    "longitude": "-90.04775474106192",
    "latitude": "29.97061866224472",
    "geocoded_column": {
      "latitude": "29.97061866224472",
      "longitude": "-90.04775474106192"
    }
  },
  {
    "service_request": "2023-1047568",
    "request_type": "Trash/Recycling",
    "request_reason": "Missed Trash Pick-Up",
    "date_created": "2023-11-01T17:59:36.000",
    "date_modified": "2023-11-01T17:59:36.000",
    "request_status": "Pending",
    "responsible_agency": "Department of Sanitation",
    "final_address": "3620 Clermont Dr",
    "address_councildis": "D",
    "status": "Assigned to Contractor",
    "contractor": "IV Waste",
    "rowid": "1047568",
    "final_x": "3685766.77474",
    "final_y": "545758.830608",
    "longitude": "-90.0540954571272",
    "latitude": "29.99451723937093",
    "geocoded_column": {
      "latitude": "29.99451723937093",
      "longitude": "-90.0540954571272"
    }
  },
  {
    "service_request": "2023-1047567",
    "request_type": "Trash/Recycling",
    "request_reason": "Repair Recycling Cart",
    "date_created": "2023-11-01T17:57:34.000",
    "date_modified": "2023-11-01T17:57:34.000",
    "request_status": "Pending",
    "responsible_agency": "Department of Sanitation",
    "final_address": "2733 Urquhart St",
    "address_councildis": "C",
    "status": "Pending",
    "rowid": "1047567",
    "final_x": "3687871.30083",
    "final_y": "537090.87284",
    "longitude": "-90.04775474106192",
    "latitude": "29.97061866224472",
    "geocoded_column": {
      "latitude": "29.97061866224472",
      "longitude": "-90.04775474106192"
    }
  },
  {
    "service_request": "2023-1047566",
    "request_type": "Traffic Signals/Signs/Striping/Streetlights",
    "request_reason": "Street Light Knocked Down/Leaning",
    "date_created": "2023-11-01T17:57:00.000",
    "date_modified": "2023-11-01T17:57:01.000",
    "request_status": "Pending",
    "responsible_agency": "Department of Public Works",
    "final_address": "760 Harrison Ave",
    "address_councildis": "A",
    "status": "Pending",
    "contractor": "Legacy Professional Services",
    "rowid": "1047566",
    "final_x": "3669127.11316",
    "final_y": "549118.469139",
    "longitude": "-90.10654460468272",
    "latitude": "30.004255384142354",
    "geocoded_column": {
      "latitude": "30.004255384142354",
      "longitude": "-90.10654460468272"
    }
  },
  {
    "service_request": "2023-1047565",
    "request_type": "Trash/Recycling",
    "request_reason": "Replace Trash Cart",
    "date_created": "2023-11-01T17:48:08.000",
    "date_modified": "2023-11-01T17:48:09.000",
    "request_status": "Pending",
    "responsible_agency": "Department of Sanitation",
    "final_address": "7822 Burthe St",
    "address_councildis": "A",
    "status": "Assigned to Contractor",
    "contractor": "Richards Disposal",
    "rowid": "1047565",
    "final_x": "3661922.51469",
    "final_y": "526935.552958",
    "longitude": "-90.13004130918614",
    "latitude": "29.943469823333242",
    "geocoded_column": {
      "latitude": "29.943469823333242",
      "longitude": "-90.13004130918614"
    }
  },
  {
    "service_request": "2023-1047564",
    "request_type": "Abandoned Vehicles",
    "request_reason": "Abandoned/Junk Vehicles",
    "date_created": "2023-11-01T17:42:13.000",
    "date_modified": "2023-11-01T17:42:13.000",
    "request_status": "Pending",
    "responsible_agency": "Department of Public Works",
    "final_address": "419 Warrington Dr",
    "address_councildis": "D",
    "status": "Pending",
    "rowid": "1047564",
    "final_x": "3681532.24296",
    "final_y": "548357.110738",
    "longitude": "-90.06738112447675",
    "latitude": "30.00179089428868",
    "geocoded_column": {
      "latitude": "30.00179089428868",
      "longitude": "-90.06738112447675"
    }
  },
  {
    "service_request": "2023-1047563",
    "request_type": "Trash/Recycling",
    "request_reason": "Replace Trash Cart",
    "date_created": "2023-11-01T17:41:45.000",
    "date_modified": "2023-11-01T17:41:46.000",
    "request_status": "Pending",
    "responsible_agency": "Department of Sanitation",
    "final_address": "7822 Burthe St",
    "address_councildis": "A",
    "status": "Assigned to Contractor",
    "contractor": "Richards Disposal",
    "rowid": "1047563",
    "final_x": "3661922.51469",
    "final_y": "526935.552958",
    "longitude": "-90.13004130918614",
    "latitude": "29.943469823333242",
    "geocoded_column": {
      "latitude": "29.943469823333242",
      "longitude": "-90.13004130918614"
    }
  },
  {
    "service_request": "2023-1047562",
    "request_type": "Abandoned Vehicles",
    "request_reason": "Abandoned/Junk Vehicles",
    "date_created": "2023-11-01T17:41:28.000",
    "date_modified": "2023-11-01T17:41:28.000",
    "request_status": "Pending",
    "responsible_agency": "Department of Public Works",
    "final_address": "10200 Almonaster Ave",
    "address_councildis": "E",
    "status": "Pending",
    "rowid": "1047562",
    "final_x": "3713684.56383",
    "final_y": "551626.395989",
    "longitude": "-89.96568637555853",
    "latitude": "30.00976423388402",
    "geocoded_column": {
      "latitude": "30.00976423388402",
      "longitude": "-89.96568637555853"
    }
  },
  {
    "service_request": "2023-1047561",
    "request_type": "Abandoned Vehicles",
    "request_reason": "Abandoned/Junk Vehicles",
    "date_created": "2023-11-01T17:37:35.000",
    "date_modified": "2023-11-01T17:37:35.000",
    "request_status": "Pending",
    "responsible_agency": "Department of Public Works",
    "final_address": "419 Warrington Dr",
    "address_councildis": "D",
    "status": "Pending",
    "rowid": "1047561",
    "final_x": "3681532.24296",
    "final_y": "548357.110738",
    "longitude": "-90.06738112447675",
    "latitude": "30.00179089428868",
    "geocoded_column": {
      "latitude": "30.00179089428868",
      "longitude": "-90.06738112447675"
    }
  },
  {
    "service_request": "2023-1047560",
    "request_type": "Trash/Recycling",
    "request_reason": "MIssed Recycling Pick-Up",
    "date_created": "2023-11-01T17:35:10.000",
    "date_modified": "2023-11-01T17:35:11.000",
    "request_status": "Pending",
    "responsible_agency": "Department of Sanitation",
    "final_address": "5519 Mandeville St",
    "address_councildis": "D",
    "status": "Assigned to Contractor",
    "contractor": "IV Waste",
    "rowid": "1047560",
    "final_x": "3684466.70697",
    "final_y": "553273.918743",
    "longitude": "-90.0579379691521",
    "latitude": "30.015220859538296",
    "geocoded_column": {
      "latitude": "30.015220859538296",
      "longitude": "-90.0579379691521"
    }
  },
  {
    "service_request": "2023-1047559",
    "request_type": "Trash/Recycling",
    "request_reason": "MIssed Recycling Pick-Up",
    "date_created": "2023-11-01T17:07:40.000",
    "date_modified": "2023-11-01T17:07:41.000",
    "request_status": "Pending",
    "responsible_agency": "Department of Sanitation",
    "final_address": "2118 Freret St",
    "address_councildis": "B",
    "status": "Assigned to Contractor",
    "contractor": "Richards Disposal",
    "rowid": "1047559",
    "final_x": "3675801.34357",
    "final_y": "526418.156094",
    "longitude": "-90.08623997872645",
    "latitude": "29.941639099133855",
    "geocoded_column": {
      "latitude": "29.941639099133855",
      "longitude": "-90.08623997872645"
    }
  },
  {
    "service_request": "2023-1047558",
    "request_type": "Traffic Signals/Signs/Striping/Streetlights",
    "request_reason": "Street Light Outage/Malfunction",
    "date_created": "2023-11-01T16:58:41.000",
    "date_modified": "2023-11-01T16:58:41.000",
    "request_status": "Pending",
    "responsible_agency": "Department of Public Works",
    "final_address": "2330 Audubon St",
    "address_councildis": "A",
    "status": "Assigned to Contractor",
    "contractor": "Legacy Professional Services",
    "rowid": "1047558",
    "final_x": "3666724.6274",
    "final_y": "529844.042689",
    "longitude": "-90.11478208148004",
    "latitude": "29.95132769178241",
    "geocoded_column": {
      "latitude": "29.95132769178241",
      "longitude": "-90.11478208148004"
    }
  },
  {
    "service_request": "2023-1047557",
    "request_type": "Abandoned Vehicles",
    "request_reason": "Abandoned/Junk Vehicles",
    "date_created": "2023-11-01T16:43:50.000",
    "date_modified": "2023-11-01T16:43:50.000",
    "request_status": "Pending",
    "responsible_agency": "Department of Public Works",
    "final_address": "10200 BLK Almonaster Ave",
    "address_councildis": "E",
    "status": "Inspected",
    "rowid": "1047557",
    "final_x": "3714488.88923",
    "final_y": "551896.847109",
    "longitude": "-89.96313503455288",
    "latitude": "30.010481447366526",
    "geocoded_column": {
      "latitude": "30.010481447366526",
      "longitude": "-89.96313503455288"
    }
  },
  {
    "service_request": "2023-1047556",
    "request_type": "Roads/Drainage",
    "request_reason": "Street Subsidence (Sinking)",
    "date_created": "2023-11-01T16:43:41.000",
    "date_modified": "2023-11-01T16:43:41.000",
    "request_status": "Pending",
    "responsible_agency": "Department of Public Works",
    "final_address": "5000 BLK Woodland Dr",
    "address_councildis": "C",
    "status": "Pending",
    "rowid": "1047556",
    "final_x": "3705930.68521",
    "final_y": "513156.456414",
    "longitude": "-89.99160663002222",
    "latitude": "29.90423798908856",
    "geocoded_column": {
      "latitude": "29.90423798908856",
      "longitude": "-89.99160663002222"
    }
  },
  {
    "service_request": "2023-1047555",
    "request_type": "Trash/Recycling",
    "request_reason": "Dead Animal Pick Up",
    "date_created": "2023-11-01T16:42:32.000",
    "date_modified": "2023-11-01T16:42:33.000",
    "request_status": "Pending",
    "responsible_agency": "Department of Sanitation",
    "final_address": "BELLAIRE DR & 20TH ST",
    "address_councildis": "A",
    "status": "Assigned to Contractor",
    "contractor": "IV Waste",
    "rowid": "1047555",
    "final_x": "3664350.9",
    "final_y": "549075.78",
    "longitude": "-90.1216350311632",
    "latitude": "30.00427774578591",
    "geocoded_column": {
      "latitude": "30.00427774578591",
      "longitude": "-90.1216350311632"
    }
  },
  {
    "service_request": "2023-1047554",
    "request_type": "Trash/Recycling",
    "request_reason": "MIssed Recycling Pick-Up",
    "date_created": "2023-11-01T16:39:11.000",
    "date_modified": "2023-11-01T16:39:12.000",
    "request_status": "Pending",
    "responsible_agency": "Department of Sanitation",
    "final_address": "917 Thalia St",
    "address_councildis": "B",
    "status": "Assigned to Contractor",
    "contractor": "Richards Disposal",
    "rowid": "1047554",
    "final_x": "3681183.92591",
    "final_y": "525116.528957",
    "longitude": "-90.06929142583014",
    "latitude": "29.937897878712683",
    "geocoded_column": {
      "latitude": "29.937897878712683",
      "longitude": "-90.06929142583014"
    }
  },
  {
    "service_request": "2023-1047553",
    "request_type": "Trash/Recycling",
    "request_reason": "Request a Large Item Pick Up",
    "date_created": "2023-11-01T16:35:45.000",
    "date_modified": "2023-11-01T16:35:46.000",
    "request_status": "Pending",
    "responsible_agency": "Department of Sanitation",
    "final_address": "2311 New York St",
    "address_councildis": "D",
    "status": "Assigned to Contractor",
    "contractor": "IV Waste",
    "rowid": "1047553",
    "final_x": "3684253.86274",
    "final_y": "556730.918234",
    "longitude": "-90.05848893406198",
    "latitude": "30.02473284887242",
    "geocoded_column": {
      "latitude": "30.02473284887242",
      "longitude": "-90.05848893406198"
    }
  },
  {
    "service_request": "2023-1047552",
    "request_type": "Trash/Recycling",
    "request_reason": "MIssed Recycling Pick-Up",
    "date_created": "2023-11-01T16:34:06.000",
    "date_modified": "2023-11-01T16:34:07.000",
    "request_status": "Pending",
    "responsible_agency": "Department of Sanitation",
    "final_address": "1013 Thalia St",
    "address_councildis": "B",
    "status": "Assigned to Contractor",
    "contractor": "Richards Disposal",
    "rowid": "1047552",
    "final_x": "3680797.64757",
    "final_y": "525202.070909",
    "longitude": "-90.07050796174185",
    "latitude": "29.938144802079158",
    "geocoded_column": {
      "latitude": "29.938144802079158",
      "longitude": "-90.07050796174185"
    }
  },
  {
    "service_request": "2023-1047551",
    "request_type": "Trash/Recycling",
    "request_reason": "Request a Large Item Pick Up",
    "date_created": "2023-11-01T16:32:42.000",
    "date_modified": "2023-11-01T16:32:43.000",
    "request_status": "Pending",
    "responsible_agency": "Department of Sanitation",
    "final_address": "2205 Cadiz St",
    "address_councildis": "B",
    "status": "Assigned to Contractor",
    "contractor": "Richards Disposal",
    "rowid": "1047551",
    "final_x": "3669925.26689",
    "final_y": "522987.895803",
    "longitude": "-90.10490809464825",
    "latitude": "29.9323815322331",
    "geocoded_column": {
      "latitude": "29.9323815322331",
      "longitude": "-90.10490809464825"
    }
  },
  {
    "service_request": "2023-1047550",
    "request_type": "Roads/Drainage",
    "request_reason": "Accessibility Ramps, Curbs and Sidewalk Repair",
    "date_created": "2023-11-01T16:29:36.000",
    "date_modified": "2023-11-01T16:29:36.000",
    "request_status": "Pending",
    "responsible_agency": "Department of Public Works",
    "final_address": "1014 Royal St",
    "address_councildis": "C",
    "status": "Pending",
    "rowid": "1047550",
    "final_x": "3683326.92757",
    "final_y": "533427.8937",
    "longitude": "-90.06223471938472",
    "latitude": "29.960686142393584",
    "geocoded_column": {
      "latitude": "29.960686142393584",
      "longitude": "-90.06223471938472"
    }
  },
  {
    "service_request": "2023-1047549",
    "request_type": "Trash/Recycling",
    "request_reason": "Missed Trash Pick-Up",
    "date_created": "2023-11-01T16:29:05.000",
    "date_modified": "2023-11-01T16:29:06.000",
    "request_status": "Pending",
    "responsible_agency": "Department of Sanitation",
    "final_address": "9300 Old Gentilly Rd",
    "address_councildis": "E",
    "status": "Assigned to Contractor",
    "contractor": "Waste Pro",
    "rowid": "1047549",
    "final_x": "3710091.88523",
    "final_y": "552534.677014",
    "longitude": "-89.97700285581125",
    "latitude": "30.012379074212465",
    "geocoded_column": {
      "latitude": "30.012379074212465",
      "longitude": "-89.97700285581125"
    }
  },
  {
    "service_request": "2023-1047548",
    "request_type": "Parks & Parkways",
    "request_reason": "Request Tree Service (Right of Way/Public Property)",
    "date_created": "2023-11-01T16:26:02.000",
    "date_modified": "2023-11-01T16:32:40.000",
    "request_status": "Pending",
    "responsible_agency": "Department of Parks & Parkway",
    "final_address": "1530 N Broad St",
    "address_councildis": "D",
    "status": "Pending",
    "rowid": "1047548",
    "final_x": "3678866.30549",
    "final_y": "539706.909898",
    "longitude": "-90.07610293722115",
    "latitude": "29.978086593306006",
    "geocoded_column": {
      "latitude": "29.978086593306006",
      "longitude": "-90.07610293722115"
    }
  },
  {
    "service_request": "2023-1047547",
    "request_type": "Trash/Recycling",
    "request_reason": "Request a Large Item Pick Up",
    "date_created": "2023-11-01T16:24:04.000",
    "date_modified": "2023-11-01T16:24:05.000",
    "request_status": "Pending",
    "responsible_agency": "Department of Sanitation",
    "final_address": "1832 S Chippewa St",
    "address_councildis": "B",
    "status": "Assigned to Contractor",
    "contractor": "Richards Disposal",
    "rowid": "1047547",
    "final_x": "3680917.35285",
    "final_y": "521906.340666",
    "longitude": "-90.07024473748844",
    "latitude": "29.929079004769246",
    "geocoded_column": {
      "latitude": "29.929079004769246",
      "longitude": "-90.07024473748844"
    }
  },
  {
    "service_request": "2023-1047546",
    "request_type": "Parks & Parkways",
    "request_reason": "Request Tree Service (Right of Way/Public Property)",
    "date_created": "2023-11-01T16:20:03.000",
    "date_modified": "2023-11-01T16:20:04.000",
    "request_status": "Pending",
    "responsible_agency": "Department of Parks & Parkway",
    "final_address": "7977 Edgelake Ct",
    "address_councildis": "E",
    "status": "Pending",
    "rowid": "1047546",
    "final_x": "3702643.0842",
    "final_y": "562252.662751",
    "longitude": "-90.00017950415797",
    "latitude": "30.039340115622934",
    "geocoded_column": {
      "latitude": "30.039340115622934",
      "longitude": "-90.00017950415797"
    }
  },
  {
    "service_request": "2023-1047545",
    "request_type": "Trash/Recycling",
    "request_reason": "MIssed Recycling Pick-Up",
    "date_created": "2023-11-01T16:17:48.000",
    "date_modified": "2023-11-01T16:17:49.000",
    "request_status": "Pending",
    "responsible_agency": "Department of Sanitation",
    "final_address": "4961 Nottingham Dr",
    "address_councildis": "E",
    "status": "Assigned to Contractor",
    "contractor": "Waste Pro",
    "rowid": "1047545",
    "final_x": "3716361.28831",
    "final_y": "558002.050459",
    "longitude": "-89.95698779480526",
    "latitude": "30.027206644206462",
    "geocoded_column": {
      "latitude": "30.027206644206462",
      "longitude": "-89.95698779480526"
    }
  },
  {
    "service_request": "2023-1047544",
    "request_type": "Trash/Recycling",
    "request_reason": "Request a Large Item Pick Up",
    "date_created": "2023-11-01T16:15:54.000",
    "date_modified": "2023-11-01T16:15:55.000",
    "request_status": "Pending",
    "responsible_agency": "Department of Sanitation",
    "final_address": "2256 N Prieur St",
    "address_councildis": "D",
    "status": "Assigned to Contractor",
    "contractor": "IV Waste",
    "rowid": "1047544",
    "final_x": "3685359.35036",
    "final_y": "539262.701194",
    "longitude": "-90.05561128015276",
    "latitude": "29.976667685427977",
    "geocoded_column": {
      "latitude": "29.976667685427977",
      "longitude": "-90.05561128015276"
    }
  },
  {
    "service_request": "2023-1047543",
    "request_type": "Trash/Recycling",
    "request_reason": "Repair Trash Cart",
    "date_created": "2023-11-01T16:15:20.000",
    "date_modified": "2023-11-01T16:15:21.000",
    "request_status": "Pending",
    "responsible_agency": "Department of Sanitation",
    "final_address": "3740 Mansfield Ave",
    "address_councildis": "C",
    "status": "Assigned to Contractor",
    "contractor": "Richards Disposal",
    "rowid": "1047543",
    "final_x": "3708961.49707",
    "final_y": "517139.345077",
    "longitude": "-89.98189316502413",
    "latitude": "29.915091622159395",
    "geocoded_column": {
      "latitude": "29.915091622159395",
      "longitude": "-89.98189316502413"
    }
  },
  {
    "service_request": "2023-1047542",
    "request_type": "Trash/Recycling",
    "request_reason": "Request a Large Item Pick Up",
    "date_created": "2023-11-01T16:14:20.000",
    "date_modified": "2023-11-01T16:14:21.000",
    "request_status": "Pending",
    "responsible_agency": "Department of Sanitation",
    "final_address": "3501 Calhoun St",
    "address_councildis": "A",
    "status": "Assigned to Contractor",
    "contractor": "Richards Disposal",
    "rowid": "1047542",
    "final_x": "3667757.96116",
    "final_y": "529431.421057",
    "longitude": "-90.11153320295753",
    "latitude": "29.950162860097414",
    "geocoded_column": {
      "latitude": "29.950162860097414",
      "longitude": "-90.11153320295753"
    }
  },
  {
    "service_request": "2023-1047541",
    "request_type": "Trash/Recycling",
    "request_reason": "Repair Trash Cart",
    "date_created": "2023-11-01T16:09:54.000",
    "date_modified": "2023-11-01T16:09:55.000",
    "request_status": "Pending",
    "responsible_agency": "Department of Sanitation",
    "final_address": "402 Thayer St",
    "address_councildis": "C",
    "status": "Assigned to Contractor",
    "contractor": "Richards Disposal",
    "rowid": "1047541",
    "final_x": "3689606.92745",
    "final_y": "530219.140161",
    "longitude": "-90.04251791876429",
    "latitude": "29.95167013162122",
    "geocoded_column": {
      "latitude": "29.95167013162122",
      "longitude": "-90.04251791876429"
    }
  },
  {
    "service_request": "2023-1047540",
    "request_type": "Trash/Recycling",
    "request_reason": "Missed Trash Pick-Up",
    "date_created": "2023-11-01T16:09:00.000",
    "date_modified": "2023-11-01T16:09:00.000",
    "request_status": "Pending",
    "responsible_agency": "Department of Sanitation",
    "final_address": "828 Mazant St",
    "address_councildis": "C",
    "status": "Assigned to Contractor",
    "contractor": "IV Waste",
    "rowid": "1047540",
    "final_x": "3691848.5647",
    "final_y": "534308.383621",
    "longitude": "-90.03529366551307",
    "latitude": "29.962844499614675",
    "geocoded_column": {
      "latitude": "29.962844499614675",
      "longitude": "-90.03529366551307"
    }
  },
  {
    "service_request": "2023-1047539",
    "request_type": "Trash/Recycling",
    "request_reason": "Request a Large Item Pick Up",
    "date_created": "2023-11-01T16:07:34.000",
    "date_modified": "2023-11-01T16:07:35.000",
    "request_status": "Pending",
    "responsible_agency": "Department of Sanitation",
    "final_address": "7915 Drum St",
    "address_councildis": "E",
    "status": "Assigned to Contractor",
    "contractor": "Waste Pro",
    "rowid": "1047539",
    "final_x": "3700045.26736",
    "final_y": "561485.215647",
    "longitude": "-90.00841736271329",
    "latitude": "30.037312786209515",
    "geocoded_column": {
      "latitude": "30.037312786209515",
      "longitude": "-90.00841736271329"
    }
  },
  {
    "service_request": "2023-1047538",
    "request_type": "Traffic Signals/Signs/Striping/Streetlights",
    "request_reason": "Traffic Sign Missing/Damaged",
    "date_created": "2023-11-01T16:05:58.000",
    "date_modified": "2023-11-01T16:05:58.000",
    "request_status": "Pending",
    "responsible_agency": "Department of Public Works",
    "final_address": "BANKS ST & S SALCEDO ST",
    "address_councildis": "B",
    "status": "Pending",
    "rowid": "1047538",
    "final_x": "3673333.1",
    "final_y": "535095.28",
    "longitude": "-90.09373636430375",
    "latitude": "29.965571947289828",
    "geocoded_column": {
      "latitude": "29.965571947289828",
      "longitude": "-90.09373636430375"
    }
  },
  {
    "service_request": "2023-1047537",
    "request_type": "Roads/Drainage",
    "request_reason": "Pothole",
    "date_created": "2023-11-01T16:02:09.000",
    "date_modified": "2023-11-01T16:02:09.000",
    "request_status": "Pending",
    "responsible_agency": "Department of Public Works",
    "final_address": "BIRCH ST & BROADWAY ST",
    "address_councildis": "A",
    "status": "Pending",
    "rowid": "1047537",
    "final_x": "3664947.0",
    "final_y": "527677.98",
    "longitude": "-90.1204673724462",
    "latitude": "29.94542357944676",
    "geocoded_column": {
      "latitude": "29.94542357944676",
      "longitude": "-90.1204673724462"
    }
  },
  {
    "service_request": "2023-1047536",
    "request_type": "Roads/Drainage",
    "request_reason": "Pothole",
    "date_created": "2023-11-01T16:00:16.000",
    "date_modified": "2023-11-01T16:00:17.000",
    "request_status": "Pending",
    "responsible_agency": "Department of Public Works",
    "final_address": "Leonidas Street & South Claiborne Avenue",
    "address_councildis": "A",
    "status": "Pending",
    "rowid": "1047536",
    "final_x": "3663561.67111",
    "final_y": "532773.568644",
    "longitude": "-90.1246716160918",
    "latitude": "29.959475048478655",
    "geocoded_column": {
      "latitude": "29.959475048478655",
      "longitude": "-90.1246716160918"
    }
  },
  {
    "service_request": "2023-1047535",
    "request_type": "Traffic Signals/Signs/Striping/Streetlights",
    "request_reason": "Traffic Signal Malfunctioning/Damaged",
    "date_created": "2023-11-01T15:59:05.000",
    "date_modified": "2023-11-01T15:59:06.000",
    "request_status": "Pending",
    "responsible_agency": "Department of Public Works",
    "final_address": "Leonidas Street & South Claiborne Avenue",
    "address_councildis": "A",
    "status": "Pending",
    "rowid": "1047535",
    "final_x": "3663561.67111",
    "final_y": "532773.568644",
    "longitude": "-90.1246716160918",
    "latitude": "29.959475048478655",
    "geocoded_column": {
      "latitude": "29.959475048478655",
      "longitude": "-90.1246716160918"
    }
  },
  {
    "service_request": "2023-1047534",
    "request_type": "Roads/Drainage",
    "request_reason": "Pothole",
    "date_created": "2023-11-01T15:58:56.000",
    "date_modified": "2023-11-01T15:58:56.000",
    "request_status": "Pending",
    "responsible_agency": "Department of Public Works",
    "final_address": "1421 Constantinople St",
    "address_councildis": "B",
    "status": "Pending",
    "rowid": "1047534",
    "final_x": "3672433.24257",
    "final_y": "520667.657465",
    "longitude": "-90.09706965638372",
    "latitude": "29.925927453713577",
    "geocoded_column": {
      "latitude": "29.925927453713577",
      "longitude": "-90.09706965638372"
    }
  },
  {
    "service_request": "2023-1047533",
    "request_type": "Trash/Recycling",
    "request_reason": "MIssed Recycling Pick-Up",
    "date_created": "2023-11-01T15:53:00.000",
    "date_modified": "2023-11-01T15:53:01.000",
    "request_status": "Pending",
    "responsible_agency": "Department of Sanitation",
    "final_address": "4626 Camelot Dr",
    "address_councildis": "E",
    "status": "Assigned to Contractor",
    "contractor": "Waste Pro",
    "rowid": "1047533",
    "final_x": "3708370.26264",
    "final_y": "554907.672216",
    "longitude": "-89.98235377503471",
    "latitude": "30.01895981471352",
    "geocoded_column": {
      "latitude": "30.01895981471352",
      "longitude": "-89.98235377503471"
    }
  },
  {
    "service_request": "2023-1047532",
    "request_type": "Traffic Signals/Signs/Striping/Streetlights",
    "request_reason": "Street Light Outage/Malfunction",
    "date_created": "2023-11-01T15:52:27.000",
    "date_modified": "2023-11-01T15:54:04.000",
    "request_status": "Pending",
    "responsible_agency": "Department of Public Works",
    "final_address": "8100 BLK Hayne Blvd",
    "address_councildis": "E",
    "status": "Assigned to Contractor",
    "contractor": "Legacy Professional Services",
    "rowid": "1047532",
    "final_x": "3702299.51302",
    "final_y": "563077.133804",
    "longitude": "-90.00123499160543",
    "latitude": "30.041618074087776",
    "geocoded_column": {
      "latitude": "30.041618074087776",
      "longitude": "-90.00123499160543"
    }
  },
  {
    "service_request": "2023-1047531",
    "request_type": "Roads/Drainage",
    "request_reason": "Pothole",
    "date_created": "2023-11-01T15:51:28.000",
    "date_modified": "2023-11-01T15:51:28.000",
    "request_status": "Pending",
    "responsible_agency": "Department of Public Works",
    "final_address": "4216 Chestnut St",
    "address_councildis": "B",
    "status": "Pending",
    "rowid": "1047531",
    "final_x": "3671574.31393",
    "final_y": "519539.203703",
    "longitude": "-90.09981939416457",
    "latitude": "29.922850019854593",
    "geocoded_column": {
      "latitude": "29.922850019854593",
      "longitude": "-90.09981939416457"
    }
  },
  {
    "service_request": "2023-1047530",
    "request_type": "Parks & Parkways",
    "request_reason": "Request Tree Service (Right of Way/Public Property)",
    "date_created": "2023-11-01T15:49:26.000",
    "date_modified": "2023-11-01T15:49:26.000",
    "request_status": "Pending",
    "responsible_agency": "Department of Parks & Parkway",
    "final_address": "7919 Willow St",
    "address_councildis": "A",
    "status": "Pending",
    "rowid": "1047530",
    "final_x": "3662926.16397",
    "final_y": "528505.553792",
    "longitude": "-90.12682031898166",
    "latitude": "29.947757804071237",
    "geocoded_column": {
      "latitude": "29.947757804071237",
      "longitude": "-90.12682031898166"
    }
  },
  {
    "service_request": "2023-1047529",
    "request_type": "Trash/Recycling",
    "request_reason": "Replace Trash Cart",
    "date_created": "2023-11-01T15:42:53.000",
    "date_modified": "2023-11-01T15:42:54.000",
    "request_status": "Pending",
    "responsible_agency": "Department of Sanitation",
    "final_address": "1133 Simon Bolivar Ave",
    "address_councildis": "B",
    "status": "Assigned to Contractor",
    "contractor": "Richards Disposal",
    "rowid": "1047529",
    "final_x": "3677815.01698",
    "final_y": "527660.255423",
    "longitude": "-90.07983950337493",
    "latitude": "29.944994044962048",
    "geocoded_column": {
      "latitude": "29.944994044962048",
      "longitude": "-90.07983950337493"
    }
  },
  {
    "service_request": "2023-1047528",
    "request_type": "Trash/Recycling",
    "request_reason": "MIssed Recycling Pick-Up",
    "date_created": "2023-11-01T15:40:17.000",
    "date_modified": "2023-11-01T15:40:18.000",
    "request_status": "Pending",
    "responsible_agency": "Department of Sanitation",
    "final_address": "4735 Citrus Dr",
    "address_councildis": "E",
    "status": "Assigned to Contractor",
    "contractor": "Waste Pro",
    "rowid": "1047528",
    "final_x": "3710860.75589",
    "final_y": "555734.933081",
    "longitude": "-89.97445377013526",
    "latitude": "30.02115348433167",
    "geocoded_column": {
      "latitude": "30.02115348433167",
      "longitude": "-89.97445377013526"
    }
  },
  {
    "service_request": "2023-1047527",
    "request_type": "Roads/Drainage",
    "request_reason": "Street Subsidence (Sinking)",
    "date_created": "2023-11-01T15:39:23.000",
    "date_modified": "2023-11-01T15:39:23.000",
    "request_status": "Pending",
    "responsible_agency": "Department of Public Works",
    "final_address": "11235 Lake Forest Blvd",
    "address_councildis": "E",
    "status": "Pending",
    "rowid": "1047527",
    "final_x": "3716022.91871",
    "final_y": "561662.083743",
    "longitude": "-89.95791817494204",
    "latitude": "30.037281438664227",
    "geocoded_column": {
      "latitude": "30.037281438664227",
      "longitude": "-89.95791817494204"
    }
  },
  {
    "service_request": "2023-1047526",
    "request_type": "Roads/Drainage",
    "request_reason": "Pothole",
    "date_created": "2023-11-01T15:38:10.000",
    "date_modified": "2023-11-01T15:38:10.000",
    "request_status": "Pending",
    "responsible_agency": "Department of Public Works",
    "final_address": "1312 Milan St",
    "address_councildis": "B",
    "status": "Pending",
    "rowid": "1047526",
    "final_x": "3671625.82823",
    "final_y": "520286.919608",
    "longitude": "-90.09963137110304",
    "latitude": "29.92490447494246",
    "geocoded_column": {
      "latitude": "29.92490447494246",
      "longitude": "-90.09963137110304"
    }
  },
  {
    "service_request": "2023-1047525",
    "request_type": "Traffic Signals/Signs/Striping/Streetlights",
    "request_reason": "Street Name Sign Damaged or Missing",
    "date_created": "2023-11-01T15:36:46.000",
    "date_modified": "2023-11-01T15:36:46.000",
    "request_status": "Pending",
    "responsible_agency": "Department of Public Works",
    "final_address": "4646 Donna Dr",
    "address_councildis": "E",
    "status": "Pending",
    "rowid": "1047525",
    "final_x": "3710978.98891",
    "final_y": "555411.736153",
    "longitude": "-89.97409230475408",
    "latitude": "30.02026096337242",
    "geocoded_column": {
      "latitude": "30.02026096337242",
      "longitude": "-89.97409230475408"
    }
  },
  {
    "service_request": "2023-1047524",
    "request_type": "Roads/Drainage",
    "request_reason": "Damaged Sidewalk",
    "date_created": "2023-11-01T15:34:43.000",
    "date_modified": "2023-11-01T15:34:43.000",
    "request_status": "Pending",
    "responsible_agency": "Department of Public Works",
    "final_address": "6517 Maumus Ave",
    "address_councildis": "C",
    "status": "Pending",
    "rowid": "1047524",
    "final_x": "3707956.78001",
    "final_y": "516625.427957",
    "longitude": "-89.98508347364522",
    "latitude": "29.913711073563572",
    "geocoded_column": {
      "latitude": "29.913711073563572",
      "longitude": "-89.98508347364522"
    }
  },
  {
    "service_request": "2023-1047523",
    "request_type": "Trash/Recycling",
    "request_reason": "Missed Trash Pick-Up",
    "date_created": "2023-11-01T15:34:29.000",
    "date_modified": "2023-11-01T17:09:47.000",
    "case_close_date": "2023-11-01T12:09:47.000",
    "request_status": "Closed",
    "responsible_agency": "Department of Sanitation",
    "final_address": "4801 Evangeline Dr",
    "address_councildis": "E",
    "status": "Invalid Request",
    "contractor": "Waste Pro",
    "contractor_action": "Invalid Pick-Up",
    "rowid": "1047523",
    "final_x": "3709140.2172",
    "final_y": "556112.342938",
    "longitude": "-89.97987605158069",
    "latitude": "30.022247206080003",
    "geocoded_column": {
      "latitude": "30.022247206080003",
      "longitude": "-89.97987605158069"
    }
  },
  {
    "service_request": "2023-1047522",
    "request_type": "Abandoned Vehicles",
    "request_reason": "Abandoned/Junk Vehicles",
    "date_created": "2023-11-01T15:32:51.000",
    "date_modified": "2023-11-01T15:32:51.000",
    "request_status": "Pending",
    "responsible_agency": "Department of Public Works",
    "final_address": "858 Camp St",
    "address_councildis": "B",
    "status": "Pending",
    "rowid": "1047522",
    "final_x": "3680713.65455",
    "final_y": "527447.728767",
    "longitude": "-90.07069501105437",
    "latitude": "29.94432215833679",
    "geocoded_column": {
      "latitude": "29.94432215833679",
      "longitude": "-90.07069501105437"
    }
  },
  {
    "service_request": "2023-1047521",
    "request_type": "Trash/Recycling",
    "request_reason": "Illegal Dumping",
    "date_created": "2023-11-01T15:28:40.000",
    "date_modified": "2023-11-01T15:28:41.000",
    "request_status": "Pending",
    "responsible_agency": "Department of Sanitation",
    "final_address": "NAPOLEON AVE & MAGAZINE ST",
    "address_councildis": "B",
    "status": "Pending",
    "rowid": "1047521",
    "final_x": "3671097.2",
    "final_y": "518798.38",
    "longitude": "-90.10135060208529",
    "latitude": "29.920827104580972",
    "geocoded_column": {
      "latitude": "29.920827104580972",
      "longitude": "-90.10135060208529"
    }
  },
  {
    "service_request": "2023-1047520",
    "request_type": "Trash/Recycling",
    "request_reason": "Order Trash Cart",
    "date_created": "2023-11-01T15:24:23.000",
    "date_modified": "2023-11-01T15:24:24.000",
    "request_status": "Pending",
    "responsible_agency": "Department of Sanitation",
    "final_address": "8919 Marks St",
    "address_councildis": "A",
    "status": "Assigned to Contractor",
    "contractor": "Richards Disposal",
    "rowid": "1047520",
    "final_x": "3666703.85869",
    "final_y": "538025.333129",
    "longitude": "-90.11457289435167",
    "latitude": "29.973824150580345",
    "geocoded_column": {
      "latitude": "29.973824150580345",
      "longitude": "-90.11457289435167"
    }
  },
  {
    "service_request": "2023-1047519",
    "request_type": "Trash/Recycling",
    "request_reason": "Order Trash Cart",
    "date_created": "2023-11-01T15:24:02.000",
    "date_modified": "2023-11-01T15:24:03.000",
    "request_status": "Pending",
    "responsible_agency": "Department of Sanitation",
    "final_address": "8917 Marks St",
    "address_councildis": "A",
    "status": "Assigned to Contractor",
    "contractor": "Richards Disposal",
    "rowid": "1047519",
    "final_x": "3666713.64077",
    "final_y": "538020.036873",
    "longitude": "-90.11454217819339",
    "latitude": "29.973809301551167",
    "geocoded_column": {
      "latitude": "29.973809301551167",
      "longitude": "-90.11454217819339"
    }
  },
  {
    "service_request": "2023-1047518",
    "request_type": "Trash/Recycling",
    "request_reason": "Order Trash Cart",
    "date_created": "2023-11-01T15:23:54.000",
    "date_modified": "2023-11-01T15:23:55.000",
    "request_status": "Pending",
    "responsible_agency": "Department of Sanitation",
    "final_address": "1235 St Ferdinand St",
    "address_councildis": "C",
    "status": "Assigned to Contractor",
    "contractor": "IV Waste",
    "rowid": "1047518",
    "final_x": "3687907.42102",
    "final_y": "536947.785096",
    "longitude": "-90.04764573992072",
    "latitude": "29.970224106721783",
    "geocoded_column": {
      "latitude": "29.970224106721783",
      "longitude": "-90.04764573992072"
    }
  },
  {
    "service_request": "2023-1047516",
    "request_type": "Trash/Recycling",
    "request_reason": "MIssed Recycling Pick-Up",
    "date_created": "2023-11-01T15:14:38.000",
    "date_modified": "2023-11-01T15:14:39.000",
    "request_status": "Pending",
    "responsible_agency": "Department of Sanitation",
    "final_address": "4900 Evangeline Dr",
    "address_councildis": "E",
    "status": "Assigned to Contractor",
    "contractor": "Waste Pro",
    "rowid": "1047516",
    "final_x": "3708938.18468",
    "final_y": "556587.994458",
    "longitude": "-89.98049667413356",
    "latitude": "30.023561622105962",
    "geocoded_column": {
      "latitude": "30.023561622105962",
      "longitude": "-89.98049667413356"
    }
  },
  {
    "service_request": "2023-1047515",
    "request_type": "Trash/Recycling",
    "request_reason": "Request a Large Item Pick Up",
    "date_created": "2023-11-01T15:13:04.000",
    "date_modified": "2023-11-01T15:20:04.000",
    "request_status": "Pending",
    "responsible_agency": "Department of Sanitation",
    "final_address": "1101 Allen Toussaint Blvd",
    "address_councildis": "D",
    "status": "Assigned to Contractor",
    "contractor": "IV Waste",
    "rowid": "1047515",
    "final_x": "3674407.58241",
    "final_y": "554638.361752",
    "longitude": "-90.08967333902207",
    "latitude": "30.019276615003367",
    "geocoded_column": {
      "latitude": "30.019276615003367",
      "longitude": "-90.08967333902207"
    }
  },
  {
    "service_request": "2023-1047514",
    "request_type": "Trash/Recycling",
    "request_reason": "Request a Large Item Pick Up",
    "date_created": "2023-11-01T15:09:35.000",
    "date_modified": "2023-11-01T15:09:37.000",
    "request_status": "Pending",
    "responsible_agency": "Department of Sanitation",
    "final_address": "10122 Pressburg St",
    "address_councildis": "E",
    "status": "Assigned to Contractor",
    "contractor": "Waste Pro",
    "rowid": "1047514",
    "final_x": "3712919.15198",
    "final_y": "557087.803162",
    "longitude": "-89.96789894774632",
    "latitude": "30.024806061955424",
    "geocoded_column": {
      "latitude": "30.024806061955424",
      "longitude": "-89.96789894774632"
    }
  },
  {
    "service_request": "2023-1047513",
    "request_type": "Traffic Signals/Signs/Striping/Streetlights",
    "request_reason": "Street Light Outage/Malfunction",
    "date_created": "2023-11-01T15:07:00.000",
    "date_modified": "2023-11-01T15:07:01.000",
    "request_status": "Pending",
    "responsible_agency": "Department of Public Works",
    "final_address": "GIROD ST & MAGAZINE ST",
    "address_councildis": "B",
    "status": "Assigned to Contractor",
    "contractor": "Legacy Professional Services",
    "rowid": "1047513",
    "final_x": "3681315.7",
    "final_y": "528356.38",
    "longitude": "-90.06876252096752",
    "latitude": "29.946802389304505",
    "geocoded_column": {
      "latitude": "29.946802389304505",
      "longitude": "-90.06876252096752"
    }
  },
  {
    "service_request": "2023-1047512",
    "request_type": "Trash/Recycling",
    "request_reason": "Return Recycling Cart",
    "date_created": "2023-11-01T14:59:12.000",
    "date_modified": "2023-11-01T14:59:13.000",
    "request_status": "Pending",
    "responsible_agency": "Department of Sanitation",
    "final_address": "2519 Myrtle St",
    "address_councildis": "D",
    "status": "Pending",
    "rowid": "1047512",
    "final_x": "3686697.28258",
    "final_y": "546068.834768",
    "longitude": "-90.0511451479415",
    "latitude": "29.995341042314802",
    "geocoded_column": {
      "latitude": "29.995341042314802",
      "longitude": "-90.0511451479415"
    }
  },
  {
    "service_request": "2023-1047511",
    "request_type": "Trash/Recycling",
    "request_reason": "Illegal Dumping",
    "date_created": "2023-11-01T14:55:08.000",
    "date_modified": "2023-11-01T14:55:08.000",
    "request_status": "Pending",
    "responsible_agency": "Department of Sanitation",
    "final_address": "8701 Curran Rd",
    "address_councildis": "E",
    "status": "Pending",
    "rowid": "1047511",
    "final_x": "3704377.19562",
    "final_y": "562767.795104",
    "longitude": "-89.99468022444094",
    "latitude": "30.04070093640636",
    "geocoded_column": {
      "latitude": "30.04070093640636",
      "longitude": "-89.99468022444094"
    }
  },
  {
    "service_request": "2023-1047510",
    "request_type": "Trash/Recycling",
    "request_reason": "Illegal Dumping",
    "date_created": "2023-11-01T14:53:37.000",
    "date_modified": "2023-11-01T14:53:38.000",
    "request_status": "Pending",
    "responsible_agency": "Department of Sanitation",
    "final_address": "I 510 S & LAKE FOREST BLVD",
    "address_councildis": "E",
    "status": "Pending",
    "rowid": "1047510",
    "final_x": "3721849.53",
    "final_y": "563782.6",
    "longitude": "-89.93942347403858",
    "latitude": "30.042918393447007",
    "geocoded_column": {
      "latitude": "30.042918393447007",
      "longitude": "-89.93942347403858"
    }
  },
  {
    "service_request": "2023-1047509",
    "request_type": "Trash/Recycling",
    "request_reason": "Request a Large Item Pick Up",
    "date_created": "2023-11-01T14:44:09.000",
    "date_modified": "2023-11-01T14:44:09.000",
    "request_status": "Pending",
    "responsible_agency": "Department of Sanitation",
    "final_address": "4408 Dodt Ave",
    "address_councildis": "E",
    "status": "Assigned to Contractor",
    "contractor": "Waste Pro",
    "rowid": "1047509",
    "final_x": "3705542.14654",
    "final_y": "553419.154455",
    "longitude": "-89.99134463924374",
    "latitude": "30.014958345232625",
    "geocoded_column": {
      "latitude": "30.014958345232625",
      "longitude": "-89.99134463924374"
    }
  },
  {
    "service_request": "2023-1047508",
    "request_type": "Trash/Recycling",
    "request_reason": "Missed Trash Pick-Up",
    "date_created": "2023-11-01T14:43:06.000",
    "date_modified": "2023-11-01T15:33:37.000",
    "case_close_date": "2023-11-01T10:33:37.000",
    "request_status": "Closed",
    "responsible_agency": "Department of Sanitation",
    "final_address": "1023 Montegut St",
    "address_councildis": "C",
    "status": "Invalid Request",
    "contractor": "IV Waste",
    "contractor_action": "Invalid Pick-Up",
    "rowid": "1047508",
    "final_x": "3688411.93641",
    "final_y": "535912.951367",
    "longitude": "-90.04608914549385",
    "latitude": "29.96736310107317",
    "geocoded_column": {
      "latitude": "29.96736310107317",
      "longitude": "-90.04608914549385"
    }
  },
  {
    "service_request": "2023-1047507",
    "request_type": "Trash/Recycling",
    "request_reason": "Order Recycling Cart",
    "date_created": "2023-11-01T14:36:11.000",
    "date_modified": "2023-11-01T14:36:12.000",
    "request_status": "Pending",
    "responsible_agency": "Department of Sanitation",
    "final_address": "1638 Arts St",
    "address_councildis": "D",
    "status": "Pending",
    "rowid": "1047507",
    "final_x": "3686997.99119",
    "final_y": "538640.983497",
    "longitude": "-90.05045794089182",
    "latitude": "29.97490783583867",
    "geocoded_column": {
      "latitude": "29.97490783583867",
      "longitude": "-90.05045794089182"
    }
  },
  {
    "service_request": "2023-1047506",
    "request_type": "Trash/Recycling",
    "request_reason": "Order Recycling Cart",
    "date_created": "2023-11-01T14:24:34.000",
    "date_modified": "2023-11-01T14:24:35.000",
    "request_status": "Pending",
    "responsible_agency": "Department of Sanitation",
    "final_address": "13537 St Marie Ct",
    "address_councildis": "E",
    "status": "Pending",
    "rowid": "1047506",
    "final_x": "3723957.44108",
    "final_y": "569326.141542",
    "longitude": "-89.93254753095215",
    "latitude": "30.058090146489892",
    "geocoded_column": {
      "latitude": "30.058090146489892",
      "longitude": "-89.93254753095215"
    }
  },
  {
    "service_request": "2023-1047505",
    "request_type": "Traffic Signals/Signs/Striping/Streetlights",
    "request_reason": "Traffic Signal Malfunctioning/Damaged",
    "date_created": "2023-11-01T14:22:24.000",
    "date_modified": "2023-11-01T14:22:24.000",
    "request_status": "Pending",
    "responsible_agency": "Department of Public Works",
    "final_address": "GENERAL DE GAULLE DR & SHIRLEY DR",
    "address_councildis": "C",
    "status": "Pending",
    "rowid": "1047505",
    "final_x": "3692845.5",
    "final_y": "522160.88",
    "longitude": "-90.03258094731892",
    "latitude": "29.929411966767006",
    "geocoded_column": {
      "latitude": "29.929411966767006",
      "longitude": "-90.03258094731892"
    }
  },
  {
    "service_request": "2023-1047504",
    "request_type": "Abandoned Vehicles",
    "request_reason": "Abandoned/Junk Vehicles",
    "date_created": "2023-11-01T14:19:27.000",
    "date_modified": "2023-11-01T14:19:27.000",
    "request_status": "Pending",
    "responsible_agency": "Department of Public Works",
    "final_address": "2910 Toulouse St",
    "address_councildis": "A",
    "status": "Pending",
    "rowid": "1047504",
    "final_x": "3675553.76424",
    "final_y": "537195.325896",
    "longitude": "-90.08665143546986",
    "latitude": "29.97128011749538",
    "geocoded_column": {
      "latitude": "29.97128011749538",
      "longitude": "-90.08665143546986"
    }
  },
  {
    "service_request": "2023-1047503",
    "request_type": "Traffic Signals/Signs/Striping/Streetlights",
    "request_reason": "Street Light Outage/Malfunction",
    "date_created": "2023-11-01T14:11:52.000",
    "date_modified": "2023-11-01T14:11:53.000",
    "request_status": "Pending",
    "responsible_agency": "Department of Public Works",
    "final_address": "722 Soniat St",
    "address_councildis": "B",
    "status": "Assigned to Contractor",
    "contractor": "Legacy Professional Services",
    "rowid": "1047503",
    "final_x": "3668235.97364",
    "final_y": "518057.930038",
    "longitude": "-90.11040716167551",
    "latitude": "29.91887537954068",
    "geocoded_column": {
      "latitude": "29.91887537954068",
      "longitude": "-90.11040716167551"
    }
  },
  {
    "service_request": "2023-1047502",
    "request_type": "Trash/Recycling",
    "request_reason": "Replace Trash Cart",
    "date_created": "2023-11-01T14:10:01.000",
    "date_modified": "2023-11-01T14:10:02.000",
    "request_status": "Pending",
    "responsible_agency": "Department of Sanitation",
    "final_address": "2322 Constance St",
    "address_councildis": "B",
    "status": "Assigned to Contractor",
    "contractor": "Richards Disposal",
    "rowid": "1047502",
    "final_x": "3678630.86792",
    "final_y": "521391.334201",
    "longitude": "-90.07748054280532",
    "latitude": "29.927732011290953",
    "geocoded_column": {
      "latitude": "29.927732011290953",
      "longitude": "-90.07748054280532"
    }
  },
  {
    "service_request": "2023-1047498",
    "request_type": "Trash/Recycling",
    "request_reason": "Return Recycling Cart",
    "date_created": "2023-11-01T13:59:57.000",
    "date_modified": "2023-11-01T13:59:58.000",
    "request_status": "Pending",
    "responsible_agency": "Department of Sanitation",
    "final_address": "1650 Robert St",
    "address_councildis": "B",
    "status": "Pending",
    "rowid": "1047498",
    "final_x": "3668640.66234",
    "final_y": "521325.055225",
    "longitude": "-90.10901957626567",
    "latitude": "29.927847056918182",
    "geocoded_column": {
      "latitude": "29.927847056918182",
      "longitude": "-90.10901957626567"
    }
  },
  {
    "service_request": "2023-1047497",
    "request_type": "Trash/Recycling",
    "request_reason": "Repair Trash Cart",
    "date_created": "2023-11-01T13:55:34.000",
    "date_modified": "2023-11-01T13:56:27.000",
    "request_status": "Pending",
    "responsible_agency": "Department of Sanitation",
    "final_address": "1431 Moss St",
    "address_councildis": "A",
    "status": "Assigned to Contractor",
    "contractor": "Richards Disposal",
    "rowid": "1047497",
    "final_x": "3674312.16795",
    "final_y": "540956.401675",
    "longitude": "-90.09044373499935",
    "latitude": "29.981658877782987",
    "geocoded_column": {
      "latitude": "29.981658877782987",
      "longitude": "-90.09044373499935"
    }
  },
  {
    "service_request": "2023-1047496",
    "request_type": "Health Related Request",
    "request_reason": "Noise Ordinance Complaint",
    "date_created": "2023-11-01T13:47:37.000",
    "date_modified": "2023-11-01T13:47:37.000",
    "request_status": "Pending",
    "responsible_agency": "Health Department",
    "final_address": "7412 Lakeshore Dr",
    "address_councildis": "D",
    "status": "Pending",
    "rowid": "1047496",
    "final_x": "3666834.90644",
    "final_y": "556350.731994",
    "longitude": "-90.11354290644564",
    "latitude": "30.024208849408627",
    "geocoded_column": {
      "latitude": "30.024208849408627",
      "longitude": "-90.11354290644564"
    }
  },
  {
    "service_request": "2023-1047495",
    "request_type": "Trash/Recycling",
    "request_reason": "Return Recycling Cart",
    "date_created": "2023-11-01T13:43:31.000",
    "date_modified": "2023-11-01T13:43:32.000",
    "request_status": "Pending",
    "responsible_agency": "Department of Sanitation",
    "final_address": "4837 Wright Rd",
    "address_councildis": "E",
    "status": "Pending",
    "rowid": "1047495",
    "final_x": "3716742.67736",
    "final_y": "557417.869787",
    "longitude": "-89.95580484588316",
    "latitude": "30.025587778700288",
    "geocoded_column": {
      "latitude": "30.025587778700288",
      "longitude": "-89.95580484588316"
    }
  },
  {
    "service_request": "2023-1047494",
    "request_type": "Traffic Signals/Signs/Striping/Streetlights",
    "request_reason": "Traffic Signal Malfunctioning/Damaged",
    "date_created": "2023-11-01T13:36:25.000",
    "date_modified": "2023-11-01T13:36:25.000",
    "request_status": "Pending",
    "responsible_agency": "Department of Public Works",
    "final_address": "5107 Dryades St",
    "address_councildis": "B",
    "status": "Pending",
    "rowid": "1047494",
    "final_x": "3668327.39854",
    "final_y": "521870.612282",
    "longitude": "-90.10999009292964",
    "latitude": "29.929356365141565",
    "geocoded_column": {
      "latitude": "29.929356365141565",
      "longitude": "-90.10999009292964"
    }
  },
  {
    "service_request": "2023-1047492",
    "request_type": "Trash/Recycling",
    "request_reason": "MIssed Recycling Pick-Up",
    "date_created": "2023-11-01T13:32:46.000",
    "date_modified": "2023-11-01T15:58:47.000",
    "case_close_date": "2023-11-01T10:58:47.000",
    "request_status": "Closed",
    "responsible_agency": "Department of Sanitation",
    "final_address": "620 Soraparu St",
    "address_councildis": "B",
    "status": "Resolved",
    "contractor": "Richards Disposal",
    "contractor_action": "Completed",
    "rowid": "1047492",
    "final_x": "3679239.42933",
    "final_y": "520277.98508",
    "longitude": "-90.0755980373529",
    "latitude": "29.924652310462665",
    "geocoded_column": {
      "latitude": "29.924652310462665",
      "longitude": "-90.0755980373529"
    }
  },
  {
    "service_request": "2023-1047491",
    "request_type": "Parks & Parkways",
    "request_reason": "Request Tree Service (Right of Way/Public Property)",
    "date_created": "2023-11-01T13:32:37.000",
    "date_modified": "2023-11-01T13:32:38.000",
    "request_status": "Pending",
    "responsible_agency": "Department of Parks & Parkway",
    "final_address": "5001 Perlita St",
    "address_councildis": "D",
    "status": "Pending",
    "rowid": "1047491",
    "final_x": "3678824.21403",
    "final_y": "550600.930068",
    "longitude": "-90.07585828364795",
    "latitude": "30.008042585289",
    "geocoded_column": {
      "latitude": "30.008042585289",
      "longitude": "-90.07585828364795"
    }
  },
  {
    "service_request": "2023-1047490",
    "request_type": "Roads/Drainage",
    "request_reason": "Pothole",
    "date_created": "2023-11-01T13:31:53.000",
    "date_modified": "2023-11-01T13:31:53.000",
    "request_status": "Pending",
    "responsible_agency": "Department of Public Works",
    "final_address": "5033 Danneel St",
    "address_councildis": "B",
    "status": "Pending",
    "rowid": "1047490",
    "final_x": "3668544.85998",
    "final_y": "522233.055802",
    "longitude": "-90.10929138308764",
    "latitude": "29.930346583532017",
    "geocoded_column": {
      "latitude": "29.930346583532017",
      "longitude": "-90.10929138308764"
    }
  },
  {
    "service_request": "2023-1047489",
    "request_type": "Safety & Permits",
    "request_reason": "Safety & Permits Request (Cyber Incident Back Up)",
    "date_created": "2023-11-01T13:30:24.000",
    "date_modified": "2023-11-01T13:30:24.000",
    "request_status": "Pending",
    "responsible_agency": "Safety and Permits",
    "final_address": "1114 Cadiz St",
    "address_councildis": "B",
    "status": "Pending",
    "rowid": "1047489",
    "final_x": "3670184.70298",
    "final_y": "519581.656952",
    "longitude": "-90.1042044245664",
    "latitude": "29.923007813084876",
    "geocoded_column": {
      "latitude": "29.923007813084876",
      "longitude": "-90.1042044245664"
    }
  },
  {
    "service_request": "2023-1047488",
    "request_type": "Trash/Recycling",
    "request_reason": "Repair Trash Cart",
    "date_created": "2023-11-01T13:28:31.000",
    "date_modified": "2023-11-01T13:28:32.000",
    "request_status": "Pending",
    "responsible_agency": "Department of Sanitation",
    "final_address": "1400 Calhoun St",
    "address_councildis": "A",
    "status": "Assigned to Contractor",
    "contractor": "Richards Disposal",
    "rowid": "1047488",
    "final_x": "3664223.96167",
    "final_y": "521676.592953",
    "longitude": "-90.1229504034107",
    "latitude": "29.928942698287965",
    "geocoded_column": {
      "latitude": "29.928942698287965",
      "longitude": "-90.1229504034107"
    }
  },
  {
    "service_request": "2023-1047487",
    "request_type": "Roads/Drainage",
    "request_reason": "Road Shoulder Repair",
    "date_created": "2023-11-01T13:28:23.000",
    "date_modified": "2023-11-01T13:28:23.000",
    "request_status": "Pending",
    "responsible_agency": "Department of Public Works",
    "final_address": "4726 Danneel St",
    "address_councildis": "B",
    "status": "Pending",
    "rowid": "1047487",
    "final_x": "3669365.26324",
    "final_y": "522125.33817",
    "longitude": "-90.10670513030526",
    "latitude": "29.930026270988865",
    "geocoded_column": {
      "latitude": "29.930026270988865",
      "longitude": "-90.10670513030526"
    }
  },
  {
    "service_request": "2023-1047486",
    "request_type": "EMS",
    "request_reason": "EMS Lost & Found",
    "date_created": "2023-11-01T13:24:44.000",
    "date_modified": "2023-11-01T13:24:45.000",
    "request_status": "Pending",
    "responsible_agency": "Emergency Medical Services",
    "status": "Pending",
    "rowid": "1047486",
    "longitude": "0.0",
    "latitude": "0.0",
    "geocoded_column": {
      "latitude": "0.0",
      "longitude": "0.0"
    }
  },
  {
    "service_request": "2023-1047485",
    "request_type": "Trash/Recycling",
    "request_reason": "Request a Large Item Pick Up",
    "date_created": "2023-11-01T13:24:41.000",
    "date_modified": "2023-11-01T13:24:42.000",
    "request_status": "Pending",
    "responsible_agency": "Department of Sanitation",
    "final_address": "2829 Burgundy St",
    "address_councildis": "C",
    "status": "Assigned to Contractor",
    "contractor": "IV Waste",
    "rowid": "1047485",
    "final_x": "3687759.79939",
    "final_y": "535498.875334",
    "longitude": "-90.04816326552141",
    "latitude": "29.96624466466092",
    "geocoded_column": {
      "latitude": "29.96624466466092",
      "longitude": "-90.04816326552141"
    }
  },
  {
    "service_request": "2023-1047484",
    "request_type": "Trash/Recycling",
    "request_reason": "Repair Trash Cart",
    "date_created": "2023-11-01T13:21:42.000",
    "date_modified": "2023-11-01T13:21:43.000",
    "request_status": "Pending",
    "responsible_agency": "Department of Sanitation",
    "final_address": "4648 Laine Ave",
    "address_councildis": "E",
    "status": "Assigned to Contractor",
    "contractor": "Waste Pro",
    "rowid": "1047484",
    "final_x": "3705679.94769",
    "final_y": "554814.9702",
    "longitude": "-89.99085758794921",
    "latitude": "30.01879186270134",
    "geocoded_column": {
      "latitude": "30.01879186270134",
      "longitude": "-89.99085758794921"
    }
  },
  {
    "service_request": "2023-1047483",
    "request_type": "Trash/Recycling",
    "request_reason": "Request a Large Item Pick Up",
    "date_created": "2023-11-01T13:19:36.000",
    "date_modified": "2023-11-01T13:19:37.000",
    "request_status": "Pending",
    "responsible_agency": "Department of Sanitation",
    "final_address": "5413 Burgundy St",
    "address_councildis": "E",
    "status": "Assigned to Contractor",
    "contractor": "Waste Pro",
    "rowid": "1047483",
    "final_x": "3697069.76682",
    "final_y": "533200.837316",
    "longitude": "-90.0188459887216",
    "latitude": "29.95963547257295",
    "geocoded_column": {
      "latitude": "29.95963547257295",
      "longitude": "-90.0188459887216"
    }
  },
  {
    "service_request": "2023-1047482",
    "request_type": "Trash/Recycling",
    "request_reason": "Request a Large Item Pick Up",
    "date_created": "2023-11-01T13:18:24.000",
    "date_modified": "2023-11-01T13:18:25.000",
    "request_status": "Pending",
    "responsible_agency": "Department of Sanitation",
    "status": "Assigned to Contractor",
    "rowid": "1047482",
    "longitude": "0.0",
    "latitude": "0.0",
    "geocoded_column": {
      "latitude": "0.0",
      "longitude": "0.0"
    }
  },
  {
    "service_request": "2023-1047481",
    "request_type": "Roads/Drainage",
    "request_reason": "Pothole",
    "date_created": "2023-11-01T13:16:03.000",
    "date_modified": "2023-11-01T13:16:03.000",
    "request_status": "Pending",
    "responsible_agency": "Department of Public Works",
    "final_address": "1000 BLK Wagner St",
    "address_councildis": "C",
    "status": "Pending",
    "rowid": "1047481",
    "final_x": "3690492.54844",
    "final_y": "527646.382487",
    "longitude": "-90.03981326851378",
    "latitude": "29.944568470421547",
    "geocoded_column": {
      "latitude": "29.944568470421547",
      "longitude": "-90.03981326851378"
    }
  },
  {
    "service_request": "2023-1047480",
    "request_type": "Trash/Recycling",
    "request_reason": "Change Size of Trash Cart",
    "date_created": "2023-11-01T13:14:59.000",
    "date_modified": "2023-11-01T13:15:00.000",
    "request_status": "Pending",
    "responsible_agency": "Department of Sanitation",
    "final_address": "5510 Bentley Dr",
    "address_councildis": "E",
    "status": "Assigned to Contractor",
    "contractor": "Waste Pro",
    "rowid": "1047480",
    "final_x": "3703962.66794",
    "final_y": "556461.620826",
    "longitude": "-89.9962228255209",
    "latitude": "30.023374727481794",
    "geocoded_column": {
      "latitude": "30.023374727481794",
      "longitude": "-89.9962228255209"
    }
  },
  {
    "service_request": "2023-1047479",
    "request_type": "Trash/Recycling",
    "request_reason": "Request a Large Item Pick Up",
    "date_created": "2023-11-01T13:13:29.000",
    "date_modified": "2023-11-01T13:13:30.000",
    "request_status": "Pending",
    "responsible_agency": "Department of Sanitation",
    "final_address": "3924 Cleveland Ave",
    "address_councildis": "A",
    "status": "Assigned to Contractor",
    "contractor": "Richards Disposal",
    "rowid": "1047479",
    "final_x": "3671319.7851",
    "final_y": "537593.238344",
    "longitude": "-90.10000943740957",
    "latitude": "29.97250022897969",
    "geocoded_column": {
      "latitude": "29.97250022897969",
      "longitude": "-90.10000943740957"
    }
  },
  {
    "service_request": "2023-1047478",
    "request_type": "Roads/Drainage",
    "request_reason": "Debris in Roadway",
    "date_created": "2023-11-01T13:12:43.000",
    "date_modified": "2023-11-01T13:12:43.000",
    "request_status": "Pending",
    "responsible_agency": "Department of Public Works",
    "final_address": "1200 BLK Leboeuf St",
    "address_councildis": "C",
    "status": "Pending",
    "rowid": "1047478",
    "final_x": "3689715.39153",
    "final_y": "526865.701306",
    "longitude": "-90.0422947453701",
    "latitude": "29.942445964226888",
    "geocoded_column": {
      "latitude": "29.942445964226888",
      "longitude": "-90.0422947453701"
    }
  },
  {
    "service_request": "2023-1047477",
    "request_type": "Abandoned Vehicles",
    "request_reason": "Abandoned/Junk Vehicles",
    "date_created": "2023-11-01T13:09:43.000",
    "date_modified": "2023-11-01T13:09:43.000",
    "request_status": "Pending",
    "responsible_agency": "Department of Public Works",
    "final_address": "1200 BLK Leboeuf St",
    "address_councildis": "C",
    "status": "Pending",
    "rowid": "1047477",
    "final_x": "3689715.39153",
    "final_y": "526865.701306",
    "longitude": "-90.0422947453701",
    "latitude": "29.942445964226888",
    "geocoded_column": {
      "latitude": "29.942445964226888",
      "longitude": "-90.0422947453701"
    }
  },
  {
    "service_request": "2023-1047476",
    "request_type": "Trash/Recycling",
    "request_reason": "Missed Trash Pick-Up",
    "date_created": "2023-11-01T13:08:38.000",
    "date_modified": "2023-11-01T13:08:39.000",
    "request_status": "Pending",
    "responsible_agency": "Department of Sanitation",
    "final_address": "8723 Gervais St",
    "address_councildis": "E",
    "status": "Assigned to Contractor",
    "contractor": "Waste Pro",
    "rowid": "1047476",
    "final_x": "3704385.9562",
    "final_y": "563024.641824",
    "longitude": "-89.99464305489904",
    "latitude": "30.041406882094083",
    "geocoded_column": {
      "latitude": "30.041406882094083",
      "longitude": "-89.99464305489904"
    }
  },
  {
    "service_request": "2023-1047475",
    "request_type": "Traffic Signals/Signs/Striping/Streetlights",
    "request_reason": "Street Light Outage/Malfunction",
    "date_created": "2023-11-01T13:07:41.000",
    "date_modified": "2023-11-01T13:07:42.000",
    "request_status": "Pending",
    "responsible_agency": "Department of Public Works",
    "final_address": "2629 Pauger St",
    "address_councildis": "D",
    "status": "Assigned to Contractor",
    "contractor": "Legacy Professional Services",
    "rowid": "1047475",
    "final_x": "3683655.0957",
    "final_y": "539448.106378",
    "longitude": "-90.06098733515283",
    "latitude": "29.97722962946658",
    "geocoded_column": {
      "latitude": "29.97722962946658",
      "longitude": "-90.06098733515283"
    }
  },
  {
    "service_request": "2023-1047474",
    "request_type": "Trash/Recycling",
    "request_reason": "Request a Large Item Pick Up",
    "date_created": "2023-11-01T13:04:20.000",
    "date_modified": "2023-11-01T13:04:21.000",
    "request_status": "Pending",
    "responsible_agency": "Department of Sanitation",
    "final_address": "13221 Lemans St",
    "address_councildis": "E",
    "status": "Assigned to Contractor",
    "contractor": "Waste Pro",
    "rowid": "1047474",
    "final_x": "3724638.03136",
    "final_y": "562923.684384",
    "longitude": "-89.93064402878481",
    "latitude": "30.040463163294447",
    "geocoded_column": {
      "latitude": "30.040463163294447",
      "longitude": "-89.93064402878481"
    }
  },
  {
    "service_request": "2023-1047473",
    "request_type": "Trash/Recycling",
    "request_reason": "Request a Large Item Pick Up",
    "date_created": "2023-11-01T12:59:43.000",
    "date_modified": "2023-11-01T12:59:44.000",
    "request_status": "Pending",
    "responsible_agency": "Department of Sanitation",
    "final_address": "4935 Little John Dr",
    "address_councildis": "E",
    "status": "Assigned to Contractor",
    "contractor": "Waste Pro",
    "rowid": "1047473",
    "final_x": "3717219.2734",
    "final_y": "557892.035483",
    "longitude": "-89.95428085527917",
    "latitude": "30.026875781962776",
    "geocoded_column": {
      "latitude": "30.026875781962776",
      "longitude": "-89.95428085527917"
    }
  },
  {
    "service_request": "2023-1047472",
    "request_type": "Trash/Recycling",
    "request_reason": "Request a Large Item Pick Up",
    "date_created": "2023-11-01T12:56:16.000",
    "date_modified": "2023-11-01T12:56:17.000",
    "request_status": "Pending",
    "responsible_agency": "Department of Sanitation",
    "final_address": "1012 Pleasant St",
    "address_councildis": "B",
    "status": "Assigned to Contractor",
    "contractor": "Richards Disposal",
    "rowid": "1047472",
    "final_x": "3675621.63304",
    "final_y": "519620.735288",
    "longitude": "-90.08704078407096",
    "latitude": "29.92295378168961",
    "geocoded_column": {
      "latitude": "29.92295378168961",
      "longitude": "-90.08704078407096"
    }
  },
  {
    "service_request": "2023-1047471",
    "request_type": "Trash/Recycling",
    "request_reason": "Missed Trash Pick-Up",
    "date_created": "2023-11-01T12:55:25.000",
    "date_modified": "2023-11-01T12:55:26.000",
    "request_status": "Pending",
    "responsible_agency": "Department of Sanitation",
    "final_address": "5510 Bentley Dr",
    "address_councildis": "E",
    "status": "Assigned to Contractor",
    "contractor": "Waste Pro",
    "rowid": "1047471",
    "final_x": "3703962.66794",
    "final_y": "556461.620826",
    "longitude": "-89.9962228255209",
    "latitude": "30.023374727481794",
    "geocoded_column": {
      "latitude": "30.023374727481794",
      "longitude": "-89.9962228255209"
    }
  },
  {
    "service_request": "2023-1047470",
    "request_type": "Trash/Recycling",
    "request_reason": "Order Recycling Cart",
    "date_created": "2023-11-01T12:49:50.000",
    "date_modified": "2023-11-01T12:49:50.000",
    "request_status": "Pending",
    "responsible_agency": "Department of Sanitation",
    "final_address": "2017 Allen St",
    "address_councildis": "D",
    "status": "Pending",
    "rowid": "1047470",
    "final_x": "3682532.00021",
    "final_y": "539582.49985",
    "longitude": "-90.06452973512123",
    "latitude": "29.97763340751914",
    "geocoded_column": {
      "latitude": "29.97763340751914",
      "longitude": "-90.06452973512123"
    }
  },
  {
    "service_request": "2023-1047469",
    "request_type": "Trash/Recycling",
    "request_reason": "Order Recycling Cart",
    "date_created": "2023-11-01T12:47:31.000",
    "date_modified": "2023-11-01T12:47:32.000",
    "request_status": "Pending",
    "responsible_agency": "Department of Sanitation",
    "final_address": "1017 Port St",
    "address_councildis": "C",
    "status": "Pending",
    "rowid": "1047469",
    "final_x": "3687373.59644",
    "final_y": "536092.135175",
    "longitude": "-90.04936189016746",
    "latitude": "29.96788782731793",
    "geocoded_column": {
      "latitude": "29.96788782731793",
      "longitude": "-90.04936189016746"
    }
  },
  {
    "service_request": "2023-1047468",
    "request_type": "Trash/Recycling",
    "request_reason": "Order Trash Cart",
    "date_created": "2023-11-01T12:46:59.000",
    "date_modified": "2023-11-01T12:47:00.000",
    "request_status": "Pending",
    "responsible_agency": "Department of Sanitation",
    "final_address": "1017 Port St",
    "address_councildis": "C",
    "status": "Assigned to Contractor",
    "contractor": "IV Waste",
    "rowid": "1047468",
    "final_x": "3687373.59644",
    "final_y": "536092.135175",
    "longitude": "-90.04936189016746",
    "latitude": "29.96788782731793",
    "geocoded_column": {
      "latitude": "29.96788782731793",
      "longitude": "-90.04936189016746"
    }
  },
  {
    "service_request": "2023-1047467",
    "request_type": "Trash/Recycling",
    "request_reason": "Request a Large Item Pick Up",
    "date_created": "2023-11-01T12:45:16.000",
    "date_modified": "2023-11-01T13:40:22.000",
    "case_close_date": "2023-11-01T08:40:22.000",
    "request_status": "Closed",
    "responsible_agency": "Department of Sanitation",
    "final_address": "1900 Evergreen Ave",
    "address_councildis": "C",
    "status": "Resolved",
    "contractor": "Richards Disposal",
    "contractor_action": "Completed",
    "rowid": "1047467",
    "final_x": "3688207.71107",
    "final_y": "524922.722748",
    "longitude": "-90.04712368087218",
    "latitude": "29.937150054821476",
    "geocoded_column": {
      "latitude": "29.937150054821476",
      "longitude": "-90.04712368087218"
    }
  },
  {
    "service_request": "2023-1047466",
    "request_type": "Trash/Recycling",
    "request_reason": "Repair Trash Cart",
    "date_created": "2023-11-01T12:43:13.000",
    "date_modified": "2023-11-01T12:43:14.000",
    "request_status": "Pending",
    "responsible_agency": "Department of Sanitation",
    "final_address": "5525 Rosemary Pl",
    "address_councildis": "A",
    "status": "Assigned to Contractor",
    "contractor": "IV Waste",
    "rowid": "1047466",
    "final_x": "3667152.15681",
    "final_y": "544099.21819",
    "longitude": "-90.11295275947722",
    "latitude": "29.99051216392278",
    "geocoded_column": {
      "latitude": "29.99051216392278",
      "longitude": "-90.11295275947722"
    }
  },
  {
    "service_request": "2023-1047464",
    "request_type": "Trash/Recycling",
    "request_reason": "Order Trash Cart",
    "date_created": "2023-11-01T12:34:34.000",
    "date_modified": "2023-11-01T12:34:35.000",
    "request_status": "Pending",
    "responsible_agency": "Department of Sanitation",
    "final_address": "4942 Papania Dr",
    "address_councildis": "E",
    "status": "Assigned to Contractor",
    "contractor": "Waste Pro",
    "rowid": "1047464",
    "final_x": "3715403.27141",
    "final_y": "557767.770267",
    "longitude": "-89.96002388045632",
    "latitude": "30.026594073130884",
    "geocoded_column": {
      "latitude": "30.026594073130884",
      "longitude": "-89.96002388045632"
    }
  },
  {
    "service_request": "2023-1047463",
    "request_type": "Abandoned Vehicles",
    "request_reason": "Abandoned/Junk Vehicles",
    "date_created": "2023-11-01T12:33:22.000",
    "date_modified": "2023-11-01T12:40:51.000",
    "request_status": "Pending",
    "responsible_agency": "Department of Public Works",
    "final_address": "2336 Mendez St",
    "address_councildis": "D",
    "status": "Pending",
    "rowid": "1047463",
    "final_x": "3684709.27861",
    "final_y": "553451.437783",
    "longitude": "-90.05716531116327",
    "latitude": "30.015701545679384",
    "geocoded_column": {
      "latitude": "30.015701545679384",
      "longitude": "-90.05716531116327"
    }
  },
  {
    "service_request": "2023-1047462",
    "request_type": "Trash/Recycling",
    "request_reason": "Request a Large Item Pick Up",
    "date_created": "2023-11-01T12:29:32.000",
    "date_modified": "2023-11-01T12:30:32.000",
    "request_status": "Pending",
    "responsible_agency": "Department of Sanitation",
    "final_address": "6200 Morrison Rd",
    "address_councildis": "D",
    "status": "Assigned to Contractor",
    "contractor": "Waste Pro",
    "rowid": "1047462",
    "final_x": "3696290.34211",
    "final_y": "557667.375131",
    "longitude": "-90.02042197491433",
    "latitude": "30.02693403655978",
    "geocoded_column": {
      "latitude": "30.02693403655978",
      "longitude": "-90.02042197491433"
    }
  },
  {
    "service_request": "2023-1047461",
    "request_type": "Trash/Recycling",
    "request_reason": "Order Recycling Cart",
    "date_created": "2023-11-01T12:28:54.000",
    "date_modified": "2023-11-01T12:28:54.000",
    "request_status": "Pending",
    "responsible_agency": "Department of Sanitation",
    "final_address": "3313 Camp St",
    "address_councildis": "B",
    "status": "Pending",
    "rowid": "1047461",
    "final_x": "3675111.24366",
    "final_y": "520117.95052",
    "longitude": "-90.08863483730508",
    "latitude": "29.924336217978798",
    "geocoded_column": {
      "latitude": "29.924336217978798",
      "longitude": "-90.08863483730508"
    }
  },
  {
    "service_request": "2023-1047460",
    "request_type": "Property Maintenance",
    "request_reason": "Property Maintenance",
    "date_created": "2023-11-01T12:28:36.000",
    "date_modified": "2023-11-01T12:28:36.000",
    "request_status": "Pending",
    "responsible_agency": "Department of Code Enforcement",
    "final_address": "5761 Warrington Dr",
    "address_councildis": "D",
    "status": "Pending",
    "rowid": "1047460",
    "final_x": "3680836.9421",
    "final_y": "554373.069848",
    "longitude": "-90.0693680092654",
    "latitude": "30.018353715855703",
    "geocoded_column": {
      "latitude": "30.018353715855703",
      "longitude": "-90.0693680092654"
    }
  },
  {
    "service_request": "2023-1047459",
    "request_type": "Trash/Recycling",
    "request_reason": "Order Recycling Cart",
    "date_created": "2023-11-01T12:28:33.000",
    "date_modified": "2023-11-01T12:28:34.000",
    "request_status": "Pending",
    "responsible_agency": "Department of Sanitation",
    "final_address": "3313 Camp St",
    "address_councildis": "B",
    "status": "Pending",
    "rowid": "1047459",
    "final_x": "3675111.24366",
    "final_y": "520117.95052",
    "longitude": "-90.08863483730508",
    "latitude": "29.924336217978798",
    "geocoded_column": {
      "latitude": "29.924336217978798",
      "longitude": "-90.08863483730508"
    }
  },
  {
    "service_request": "2023-1047458",
    "request_type": "Trash/Recycling",
    "request_reason": "Order Trash Cart",
    "date_created": "2023-11-01T12:28:07.000",
    "date_modified": "2023-11-01T12:28:08.000",
    "request_status": "Pending",
    "responsible_agency": "Department of Sanitation",
    "final_address": "3313 Camp St",
    "address_councildis": "B",
    "status": "Assigned to Contractor",
    "contractor": "Richards Disposal",
    "rowid": "1047458",
    "final_x": "3675111.24366",
    "final_y": "520117.95052",
    "longitude": "-90.08863483730508",
    "latitude": "29.924336217978798",
    "geocoded_column": {
      "latitude": "29.924336217978798",
      "longitude": "-90.08863483730508"
    }
  },
  {
    "service_request": "2023-1047457",
    "request_type": "Parks & Parkways",
    "request_reason": "Request Tree Service (Right of Way/Public Property)",
    "date_created": "2023-11-01T12:27:09.000",
    "date_modified": "2023-11-01T12:27:10.000",
    "request_status": "Pending",
    "responsible_agency": "Department of Parks & Parkway",
    "final_address": "2415 Rev. John Raphael, Jr. Way",
    "address_councildis": "B",
    "status": "Pending",
    "rowid": "1047457",
    "final_x": "3675229.28488",
    "final_y": "525577.933245",
    "longitude": "-90.0880749146411",
    "latitude": "29.939345869371405",
    "geocoded_column": {
      "latitude": "29.939345869371405",
      "longitude": "-90.0880749146411"
    }
  },
  {
    "service_request": "2023-1047456",
    "request_type": "Trash/Recycling",
    "request_reason": "Missed Trash Pick-Up",
    "date_created": "2023-11-01T12:26:07.000",
    "date_modified": "2023-11-01T12:26:08.000",
    "request_status": "Pending",
    "responsible_agency": "Department of Sanitation",
    "final_address": "7200 BLK Hayne Blvd",
    "address_councildis": "E",
    "status": "Assigned to Contractor",
    "contractor": "Waste Pro",
    "rowid": "1047456",
    "final_x": "3699003.66232",
    "final_y": "561613.963174",
    "longitude": "-90.01170436191482",
    "latitude": "30.037699866966474",
    "geocoded_column": {
      "latitude": "30.037699866966474",
      "longitude": "-90.01170436191482"
    }
  },
  {
    "service_request": "2023-1047455",
    "request_type": "Trash/Recycling",
    "request_reason": "Repair Trash Cart",
    "date_created": "2023-11-01T12:24:13.000",
    "date_modified": "2023-11-01T12:24:13.000",
    "request_status": "Pending",
    "responsible_agency": "Department of Sanitation",
    "final_address": "2538 Cleveland Ave",
    "address_councildis": "B",
    "status": "Assigned to Contractor",
    "contractor": "Richards Disposal",
    "rowid": "1047455",
    "final_x": "3675580.74689",
    "final_y": "534300.625989",
    "longitude": "-90.08666568340286",
    "latitude": "29.963319866072826",
    "geocoded_column": {
      "latitude": "29.963319866072826",
      "longitude": "-90.08666568340286"
    }
  },
  {
    "service_request": "2023-1047454",
    "request_type": "Traffic Signals/Signs/Striping/Streetlights",
    "request_reason": "Street Light Outage/Malfunction",
    "date_created": "2023-11-01T12:23:01.000",
    "date_modified": "2023-11-01T12:23:03.000",
    "request_status": "Pending",
    "responsible_agency": "Department of Public Works",
    "final_address": "3610 Preston Pl",
    "address_councildis": "C",
    "status": "Assigned to Contractor",
    "contractor": "Legacy Professional Services",
    "rowid": "1047454",
    "final_x": "3708539.84932",
    "final_y": "517585.061878",
    "longitude": "-89.98320744915021",
    "latitude": "29.916330855805768",
    "geocoded_column": {
      "latitude": "29.916330855805768",
      "longitude": "-89.98320744915021"
    }
  },
  {
    "service_request": "2023-1047453",
    "request_type": "Roads/Drainage",
    "request_reason": "Debris in Roadway",
    "date_created": "2023-11-01T12:23:00.000",
    "date_modified": "2023-11-01T12:23:01.000",
    "request_status": "Pending",
    "responsible_agency": "Department of Public Works",
    "final_address": "4125 Stephen Girard Ave",
    "address_councildis": "D",
    "status": "Pending",
    "rowid": "1047453",
    "final_x": "3689710.97455",
    "final_y": "549826.410644",
    "longitude": "-90.04149140135758",
    "latitude": "30.005579937301693",
    "geocoded_column": {
      "latitude": "30.005579937301693",
      "longitude": "-90.04149140135758"
    }
  },
  {
    "service_request": "2023-1047452",
    "request_type": "Traffic Signals/Signs/Striping/Streetlights",
    "request_reason": "Street Light Outage/Malfunction",
    "date_created": "2023-11-01T12:22:39.000",
    "date_modified": "2023-11-01T13:23:52.000",
    "case_close_date": "2023-11-01T08:23:52.000",
    "request_status": "Closed",
    "responsible_agency": "Department of Public Works",
    "final_address": "3520 Preston Pl",
    "address_councildis": "C",
    "status": "Duplicate Request",
    "contractor": "Legacy Professional Services",
    "rowid": "1047452",
    "final_x": "3708567.31153",
    "final_y": "517816.666614",
    "longitude": "-89.98311215391513",
    "latitude": "29.916966798404893",
    "geocoded_column": {
      "latitude": "29.916966798404893",
      "longitude": "-89.98311215391513"
    }
  },
  {
    "service_request": "2023-1047451",
    "request_type": "Roads/Drainage",
    "request_reason": "Street Subsidence (Sinking)",
    "date_created": "2023-11-01T12:21:35.000",
    "date_modified": "2023-11-01T12:21:35.000",
    "request_status": "Pending",
    "responsible_agency": "Department of Public Works",
    "final_address": "5769 Warrington Dr",
    "address_councildis": "D",
    "status": "Pending",
    "rowid": "1047451",
    "final_x": "3680829.62299",
    "final_y": "554464.313944",
    "longitude": "-90.06938795480225",
    "latitude": "30.018604825870657",
    "geocoded_column": {
      "latitude": "30.018604825870657",
      "longitude": "-90.06938795480225"
    }
  },
  {
    "service_request": "2023-1047450",
    "request_type": "Trash/Recycling",
    "request_reason": "MIssed Recycling Pick-Up",
    "date_created": "2023-11-01T12:16:18.000",
    "date_modified": "2023-11-01T12:16:19.000",
    "request_status": "Pending",
    "responsible_agency": "Department of Sanitation",
    "final_address": "7631 Pebble Dr",
    "address_councildis": "E",
    "status": "Assigned to Contractor",
    "contractor": "Waste Pro",
    "rowid": "1047450",
    "final_x": "3715215.23583",
    "final_y": "568976.619238",
    "longitude": "-89.96019359997136",
    "latitude": "30.057420064983567",
    "geocoded_column": {
      "latitude": "30.057420064983567",
      "longitude": "-89.96019359997136"
    }
  },