[
  {
    "service_request": "2022-949251",
    "request_type": "Trash/Recycling",
    "request_reason": "Missed Trash Pick-Up",
    "date_created": "2022-12-05T01:42:15.000",
    "date_modified": "2022-12-05T01:42:16.000",
    "request_status": "Pending",
    "responsible_agency": "Department of Sanitation",
    "final_address": "11200 Chef Menteur Hwy",
    "address_councildis": "E",
    "status": "Assigned to Contractor",
    "contractor": "Waste Pro",
    "rowid": "949251",
    "final_x": "3716501.04197",
    "final_y": "555743.655193",
    "longitude": "-89.95663193198165",
    "latitude": "30.020992339521815",
    "geocoded_column": {
      "latitude": "30.020992339521815",
      "longitude": "-89.95663193198165"
    }
  },
  {
    "service_request": "2022-949250",
    "request_type": "Traffic Signals/Signs/Striping/Streetlights",
    "request_reason": "Street Light Outage/Malfunction",
    "date_created": "2022-12-05T00:59:42.000",
    "date_modified": "2022-12-05T00:59:43.000",
    "request_status": "Pending",
    "responsible_agency": "Department of Public Works",
    "final_address": "3601 River Oaks Dr",
    "address_councildis": "C",
    "status": "Pending",
    "contractor": "Legacy Professional Services",
    "rowid": "949250",
    "final_x": "3701289.71863",
    "final_y": "517762.725174",
    "longitude": "-90.00608511768648",
    "latitude": "29.917052274891784",
    "geocoded_column": {
      "latitude": "29.917052274891784",
      "longitude": "-90.00608511768648"
    }
  },
  {
    "service_request": "2022-949249",
    "request_type": "Trash/Recycling",
    "request_reason": "MIssed Recycling Pick-Up",
    "date_created": "2022-12-04T23:01:02.000",
    "date_modified": "2022-12-04T23:01:02.000",
    "request_status": "Pending",
    "responsible_agency": "Department of Sanitation",
    "final_address": "3108 College Ct",
    "address_councildis": "B",
    "status": "Assigned to Contractor",
    "contractor": "Richards Disposal",
    "rowid": "949249",
    "final_x": "3668438.72218",
    "final_y": "531824.666499",
    "longitude": "-90.10930299017294",
    "latitude": "29.956723524055274",
    "geocoded_column": {
      "latitude": "29.956723524055274",
      "longitude": "-90.10930299017294"
    }
  },
  {
    "service_request": "2022-949248",
    "request_type": "Roads/Drainage",
    "request_reason": "Ditch Issue",
    "date_created": "2022-12-04T22:08:06.000",
    "date_modified": "2022-12-04T22:08:06.000",
    "request_status": "Pending",
    "responsible_agency": "Department of Public Works",
    "final_address": "3541 Indiana St",
    "address_councildis": "C",
    "status": "Pending",
    "rowid": "949248",
    "final_x": "3693457.32329",
    "final_y": "520207.088696",
    "longitude": "-90.03071965911933",
    "latitude": "29.924020590439394",
    "geocoded_column": {
      "latitude": "29.924020590439394",
      "longitude": "-90.03071965911933"
    }
  },
  {
    "service_request": "2022-949247",
    "request_type": "Trash/Recycling",
    "request_reason": "Order Recycling Cart",
    "date_created": "2022-12-04T22:04:38.000",
    "date_modified": "2022-12-04T22:04:38.000",
    "request_status": "Pending",
    "responsible_agency": "Department of Sanitation",
    "final_address": "7065 Argonne Blvd",
    "address_councildis": "A",
    "status": "Pending",
    "rowid": "949247",
    "final_x": "3670882.66926",
    "final_y": "554344.570776",
    "longitude": "-90.10082087641597",
    "latitude": "30.018573520025075",
    "geocoded_column": {
      "latitude": "30.018573520025075",
      "longitude": "-90.10082087641597"
    }
  },
  {
    "service_request": "2022-949245",
    "request_type": "Health Related Request",
    "request_reason": "Noise Ordinance Complaint",
    "date_created": "2022-12-04T21:41:47.000",
    "date_modified": "2022-12-04T21:41:47.000",
    "request_status": "Pending",
    "responsible_agency": "Health Department",
    "final_address": "718 Bourbon St, New Orleans, Louisiana, 70116",
    "address_councildis": "C",
    "status": "Pending",
    "rowid": "949245",
    "final_x": "3682364.17781",
    "final_y": "532746.008004",
    "longitude": "-90.06529872053143",
    "latitude": "29.95884052062511",
    "geocoded_column": {
      "latitude": "29.95884052062511",
      "longitude": "-90.06529872053143"
    }
  },
  {
    "service_request": "2022-949244",
    "request_type": "Trash/Recycling",
    "request_reason": "Request a Large Item Pick Up",
    "date_created": "2022-12-04T20:52:12.000",
    "date_modified": "2022-12-04T20:52:12.000",
    "request_status": "Pending",
    "responsible_agency": "Department of Sanitation",
    "final_address": "3727 Delachaise St",
    "address_councildis": "B",
    "status": "Assigned to Contractor",
    "contractor": "Richards Disposal",
    "rowid": "949244",
    "final_x": "3671177.93294",
    "final_y": "528547.835648",
    "longitude": "-90.10076472527562",
    "latitude": "29.947632575174048",
    "geocoded_column": {
      "latitude": "29.947632575174048",
      "longitude": "-90.10076472527562"
    }
  },
  {
    "service_request": "2022-949243",
    "request_type": "Trash/Recycling",
    "request_reason": "MIssed Recycling Pick-Up",
    "date_created": "2022-12-04T20:10:35.000",
    "date_modified": "2022-12-04T20:10:35.000",
    "request_status": "Pending",
    "responsible_agency": "Department of Sanitation",
    "final_address": "2727 Audubon St",
    "address_councildis": "B",
    "status": "Assigned to Contractor",
    "contractor": "Richards Disposal",
    "rowid": "949243",
    "final_x": "3667374.45953",
    "final_y": "530842.530178",
    "longitude": "-90.11269663873546",
    "latitude": "29.954054188401447",
    "geocoded_column": {
      "latitude": "29.954054188401447",
      "longitude": "-90.11269663873546"
    }
  },
  {
    "service_request": "2022-949242",
    "request_type": "Roads/Drainage",
    "request_reason": "Damaged Sidewalk",
    "date_created": "2022-12-04T19:35:57.000",
    "date_modified": "2022-12-04T19:35:57.000",
    "request_status": "Pending",
    "responsible_agency": "Department of Public Works",
    "final_address": "2434 Dumaine St",
    "address_councildis": "D",
    "status": "Pending",
    "rowid": "949242",
    "final_x": "3677996.58139",
    "final_y": "536836.770504",
    "longitude": "-90.07894907186035",
    "latitude": "29.97022090628544",
    "geocoded_column": {
      "latitude": "29.97022090628544",
      "longitude": "-90.07894907186035"
    }
  },
  {
    "service_request": "2022-949241",
    "request_type": "Roads/Drainage",
    "request_reason": "Damaged Sidewalk",
    "date_created": "2022-12-04T19:34:06.000",
    "date_modified": "2022-12-04T19:34:06.000",
    "request_status": "Pending",
    "responsible_agency": "Department of Public Works",
    "final_address": "2434 Dumaine St",
    "address_councildis": "D",
    "status": "Pending",
    "rowid": "949241",
    "final_x": "3677996.58139",
    "final_y": "536836.770504",
    "longitude": "-90.07894907186035",
    "latitude": "29.97022090628544",
    "geocoded_column": {
      "latitude": "29.97022090628544",
      "longitude": "-90.07894907186035"
    }
  },
  {
    "service_request": "2022-949240",
    "request_type": "Trash/Recycling",
    "request_reason": "Missed Trash Pick-Up",
    "date_created": "2022-12-04T19:12:00.000",
    "date_modified": "2022-12-04T19:12:00.000",
    "request_status": "Pending",
    "responsible_agency": "Department of Sanitation",
    "final_address": "2423 Dumaine St",
    "address_councildis": "D",
    "status": "Assigned to Contractor",
    "contractor": "Richards Disposal",
    "rowid": "949240",
    "final_x": "3678113.03093",
    "final_y": "536843.914184",
    "longitude": "-90.07858106471174",
    "latitude": "29.970237043167725",
    "geocoded_column": {
      "latitude": "29.970237043167725",
      "longitude": "-90.07858106471174"
    }
  },
  {
    "service_request": "2022-949239",
    "request_type": "Trash/Recycling",
    "request_reason": "Illegal Dumping",
    "date_created": "2022-12-04T19:10:13.000",
    "date_modified": "2022-12-04T19:10:13.000",
    "request_status": "Pending",
    "responsible_agency": "Department of Sanitation",
    "final_address": "2423 Dumaine St",
    "address_councildis": "D",
    "status": "Pending",
    "rowid": "949239",
    "final_x": "3678113.03093",
    "final_y": "536843.914184",
    "longitude": "-90.07858106471174",
    "latitude": "29.970237043167725",
    "geocoded_column": {
      "latitude": "29.970237043167725",
      "longitude": "-90.07858106471174"
    }
  },
  {
    "service_request": "2022-949238",
    "request_type": "Trash/Recycling",
    "request_reason": "Illegal Dumping",
    "date_created": "2022-12-04T19:08:27.000",
    "date_modified": "2022-12-04T19:08:27.000",
    "request_status": "Pending",
    "responsible_agency": "Department of Sanitation",
    "final_address": "2423 Dumaine St",
    "address_councildis": "D",
    "status": "Pending",
    "rowid": "949238",
    "final_x": "3678113.03093",
    "final_y": "536843.914184",
    "longitude": "-90.07858106471174",
    "latitude": "29.970237043167725",
    "geocoded_column": {
      "latitude": "29.970237043167725",
      "longitude": "-90.07858106471174"
    }
  },
  {
    "service_request": "2022-949237",
    "request_type": "Property Maintenance",
    "request_reason": "Property Maintenance",
    "date_created": "2022-12-04T19:06:15.000",
    "date_modified": "2022-12-04T19:06:15.000",
    "request_status": "Pending",
    "responsible_agency": "Department of Code Enforcement",
    "final_address": "2423 Dumaine St",
    "address_councildis": "D",
    "status": "Pending",
    "rowid": "949237",
    "final_x": "3678113.03093",
    "final_y": "536843.914184",
    "longitude": "-90.07858106471174",
    "latitude": "29.970237043167725",
    "geocoded_column": {
      "latitude": "29.970237043167725",
      "longitude": "-90.07858106471174"
    }
  },
  {
    "service_request": "2022-949236",
    "request_type": "Trash/Recycling",
    "request_reason": "Order Trash Cart",
    "date_created": "2022-12-04T19:05:04.000",
    "date_modified": "2022-12-04T19:05:05.000",
    "request_status": "Pending",
    "responsible_agency": "Department of Sanitation",
    "final_address": "322 S Pierce St",
    "address_councildis": "A",
    "status": "Assigned to Contractor",
    "contractor": "Richards Disposal",
    "rowid": "949236",
    "final_x": "3670911.26267",
    "final_y": "537227.974984",
    "longitude": "-90.10131203047912",
    "latitude": "29.97150796202291",
    "geocoded_column": {
      "latitude": "29.97150796202291",
      "longitude": "-90.10131203047912"
    }
  },
  {
    "service_request": "2022-949235",
    "request_type": "Trash/Recycling",
    "request_reason": "Request a Large Item Pick Up",
    "date_created": "2022-12-04T19:00:48.000",
    "date_modified": "2022-12-04T19:00:49.000",
    "request_status": "Pending",
    "responsible_agency": "Department of Sanitation",
    "final_address": "35 Honeysuckle Ln",
    "address_councildis": "E",
    "status": "Assigned to Contractor",
    "contractor": "Waste Pro",
    "rowid": "949235",
    "final_x": "3713024.20478",
    "final_y": "568411.211237",
    "longitude": "-89.96714039497594",
    "latitude": "30.05593743804322",
    "geocoded_column": {
      "latitude": "30.05593743804322",
      "longitude": "-89.96714039497594"
    }
  },
  {
    "service_request": "2022-949234",
    "request_type": "Property Maintenance",
    "request_reason": "Property Maintenance",
    "date_created": "2022-12-04T18:56:56.000",
    "date_modified": "2022-12-04T18:56:56.000",
    "request_status": "Pending",
    "responsible_agency": "Department of Code Enforcement",
    "final_address": "2441 Orleans Ave",
    "address_councildis": "D",
    "status": "Pending",
    "rowid": "949234",
    "final_x": "3677653.41826",
    "final_y": "536434.795335",
    "longitude": "-90.08004670307605",
    "latitude": "29.969125936993006",
    "geocoded_column": {
      "latitude": "29.969125936993006",
      "longitude": "-90.08004670307605"
    }
  },
  {
    "service_request": "2022-949233",
    "request_type": "Abandoned Vehicles",
    "request_reason": "Abandoned/Junk Vehicles",
    "date_created": "2022-12-04T18:55:13.000",
    "date_modified": "2022-12-04T18:55:13.000",
    "request_status": "Pending",
    "responsible_agency": "Department of Public Works",
    "final_address": "4700 Francis Dr",
    "address_councildis": "D",
    "status": "Pending",
    "rowid": "949233",
    "final_x": "3698198.8648",
    "final_y": "554093.780312",
    "longitude": "-90.01452123397786",
    "latitude": "30.01704774437009",
    "geocoded_column": {
      "latitude": "30.01704774437009",
      "longitude": "-90.01452123397786"
    }
  },
  {
    "service_request": "2022-949232",
    "request_type": "Trash/Recycling",
    "request_reason": "Missed Trash Pick-Up",
    "date_created": "2022-12-04T18:43:27.000",
    "date_modified": "2022-12-04T18:43:28.000",
    "request_status": "Pending",
    "responsible_agency": "Department of Sanitation",
    "final_address": "1624 Governor Nicholls St",
    "address_councildis": "D",
    "status": "Assigned to Contractor",
    "contractor": "Richards Disposal",
    "rowid": "949232",
    "final_x": "3681053.66491",
    "final_y": "535996.985415",
    "longitude": "-90.06932374016128",
    "latitude": "29.96781940987393",
    "geocoded_column": {
      "latitude": "29.96781940987393",
      "longitude": "-90.06932374016128"
    }
  },
  {
    "service_request": "2022-949231",
    "request_type": "Trash/Recycling",
    "request_reason": "Repair Trash Cart",
    "date_created": "2022-12-04T18:30:03.000",
    "date_modified": "2022-12-04T18:30:03.000",
    "request_status": "Pending",
    "responsible_agency": "Department of Sanitation",
    "final_address": "3904 Louisiana Avenue Prkwy",
    "address_councildis": "B",
    "status": "Assigned to Contractor",
    "contractor": "Richards Disposal",
    "rowid": "949231",
    "final_x": "3671130.59956",
    "final_y": "529084.515584",
    "longitude": "-90.10089594990632",
    "latitude": "29.949109669006113",
    "geocoded_column": {
      "latitude": "29.949109669006113",
      "longitude": "-90.10089594990632"
    }
  },
  {
    "service_request": "2022-949230",
    "request_type": "Trash/Recycling",
    "request_reason": "Missed Trash Pick-Up",
    "date_created": "2022-12-04T18:26:11.000",
    "date_modified": "2022-12-04T18:26:11.000",
    "request_status": "Pending",
    "responsible_agency": "Department of Sanitation",
    "final_address": "1022 N Dorgenois St",
    "address_councildis": "D",
    "status": "Assigned to Contractor",
    "contractor": "Richards Disposal",
    "rowid": "949230",
    "final_x": "3678002.25326",
    "final_y": "537651.719496",
    "longitude": "-90.07890298347294",
    "latitude": "29.972461566288096",
    "geocoded_column": {
      "latitude": "29.972461566288096",
      "longitude": "-90.07890298347294"
    }
  },
  {
    "service_request": "2022-949229",
    "request_type": "Trash/Recycling",
    "request_reason": "MIssed Recycling Pick-Up",
    "date_created": "2022-12-04T18:22:53.000",
    "date_modified": "2022-12-04T18:22:53.000",
    "request_status": "Pending",
    "responsible_agency": "Department of Sanitation",
    "final_address": "234 S Olympia St",
    "address_councildis": "A",
    "status": "Assigned to Contractor",
    "contractor": "Richards Disposal",
    "rowid": "949229",
    "final_x": "3669007.1346",
    "final_y": "539028.509514",
    "longitude": "-90.10726471943025",
    "latitude": "29.976514984445043",
    "geocoded_column": {
      "latitude": "29.976514984445043",
      "longitude": "-90.10726471943025"
    }
  },
  {
    "service_request": "2022-949228",
    "request_type": "Abandoned Vehicles",
    "request_reason": "Abandoned/Junk Vehicles",
    "date_created": "2022-12-04T18:17:45.000",
    "date_modified": "2022-12-04T18:17:46.000",
    "request_status": "Pending",
    "responsible_agency": "Department of Public Works",
    "final_address": "1817 Coliseum St",
    "address_councildis": "B",
    "status": "Pending",
    "rowid": "949228",
    "final_x": "3679136.50344",
    "final_y": "523690.825595",
    "longitude": "-90.07580470700188",
    "latitude": "29.934039610678546",
    "geocoded_column": {
      "latitude": "29.934039610678546",
      "longitude": "-90.07580470700188"
    }
  },
  {
    "service_request": "2022-949227",
    "request_type": "Trash/Recycling",
    "request_reason": "Illegal Dumping",
    "date_created": "2022-12-04T18:14:36.000",
    "date_modified": "2022-12-04T18:14:36.000",
    "request_status": "Pending",
    "responsible_agency": "Department of Sanitation",
    "final_address": "2940 Franklin Ave",
    "address_councildis": "D",
    "status": "Pending",
    "rowid": "949227",
    "final_x": "3687254.62102",
    "final_y": "543838.549134",
    "longitude": "-90.04946351447143",
    "latitude": "29.98919139642969",
    "geocoded_column": {
      "latitude": "29.98919139642969",
      "longitude": "-90.04946351447143"
    }
  },
  {
    "service_request": "2022-949226",
    "request_type": "Trash/Recycling",
    "request_reason": "MIssed Recycling Pick-Up",
    "date_created": "2022-12-04T17:59:08.000",
    "date_modified": "2022-12-04T17:59:08.000",
    "request_status": "Pending",
    "responsible_agency": "Department of Sanitation",
    "final_address": "528 Franklin Ave",
    "address_councildis": "C",
    "status": "Assigned to Contractor",
    "contractor": "IV Waste",
    "rowid": "949226",
    "final_x": "3686580.33615",
    "final_y": "534498.659525",
    "longitude": "-90.05192330226801",
    "latitude": "29.963530740243193",
    "geocoded_column": {
      "latitude": "29.963530740243193",
      "longitude": "-90.05192330226801"
    }
  },
  {
    "service_request": "2022-949225",
    "request_type": "Abandoned Vehicles",
    "request_reason": "Abandoned/Junk Vehicles",
    "date_created": "2022-12-04T17:51:46.000",
    "date_modified": "2022-12-04T17:51:47.000",
    "request_status": "Pending",
    "responsible_agency": "Department of Public Works",
    "final_address": "2651 Poydras St",
    "address_councildis": "B",
    "status": "Pending",
    "rowid": "949225",
    "final_x": "3673793.03764",
    "final_y": "532622.131972",
    "longitude": "-90.0923684825923",
    "latitude": "29.95875792984164",
    "geocoded_column": {
      "latitude": "29.95875792984164",
      "longitude": "-90.0923684825923"
    }
  },
  {
    "service_request": "2022-949224",
    "request_type": "Traffic Signals/Signs/Striping/Streetlights",
    "request_reason": "Traffic Sign Missing/Damaged",
    "date_created": "2022-12-04T17:32:47.000",
    "date_modified": "2022-12-04T17:32:47.000",
    "request_status": "Pending",
    "responsible_agency": "Department of Public Works",
    "final_address": "4301 Burgundy St",
    "address_councildis": "C",
    "status": "Pending",
    "rowid": "949224",
    "final_x": "3692534.82448",
    "final_y": "534307.996869",
    "longitude": "-90.03312656741116",
    "latitude": "29.962822042125158",
    "geocoded_column": {
      "latitude": "29.962822042125158",
      "longitude": "-90.03312656741116"
    }
  },
  {
    "service_request": "2022-949223",
    "request_type": "Traffic Signals/Signs/Striping/Streetlights",
    "request_reason": "Additional signage",
    "date_created": "2022-12-04T17:31:10.000",
    "date_modified": "2022-12-04T17:31:10.000",
    "request_status": "Pending",
    "responsible_agency": "Department of Public Works",
    "final_address": "1101 Elysian Fields Ave",
    "address_councildis": "C",
    "status": "Pending",
    "rowid": "949223",
    "final_x": "3685104.39337",
    "final_y": "536443.728199",
    "longitude": "-90.05651572069283",
    "latitude": "29.968924307993134",
    "geocoded_column": {
      "latitude": "29.968924307993134",
      "longitude": "-90.05651572069283"
    }
  },
  {
    "service_request": "2022-949222",
    "request_type": "Traffic Signals/Signs/Striping/Streetlights",
    "request_reason": "Street Name Sign Damaged or Missing",
    "date_created": "2022-12-04T17:27:31.000",
    "date_modified": "2022-12-04T17:27:31.000",
    "request_status": "Pending",
    "responsible_agency": "Department of Public Works",
    "final_address": "719 N Dorgenois St",
    "address_councildis": "D",
    "status": "Pending",
    "rowid": "949222",
    "final_x": "3677304.53326",
    "final_y": "536871.044488",
    "longitude": "-90.0811334515116",
    "latitude": "29.970335961432898",
    "geocoded_column": {
      "latitude": "29.970335961432898",
      "longitude": "-90.0811334515116"
    }
  },
  {
    "service_request": "2022-949221",
    "request_type": "Property Maintenance",
    "request_reason": "Property Maintenance",
    "date_created": "2022-12-04T17:13:12.000",
    "date_modified": "2022-12-04T17:13:12.000",
    "request_status": "Pending",
    "responsible_agency": "Department of Code Enforcement",
    "final_address": "2516 Dumaine St",
    "address_councildis": "D",
    "status": "Pending",
    "rowid": "949221",
    "final_x": "3677788.50254",
    "final_y": "536981.356808",
    "longitude": "-90.07960121104477",
    "latitude": "29.970624731001354",
    "geocoded_column": {
      "latitude": "29.970624731001354",
      "longitude": "-90.07960121104477"
    }
  },
  {
    "service_request": "2022-949220",
    "request_type": "Trash/Recycling",
    "request_reason": "MIssed Recycling Pick-Up",
    "date_created": "2022-12-04T17:03:48.000",
    "date_modified": "2022-12-04T17:03:49.000",
    "request_status": "Pending",
    "responsible_agency": "Department of Sanitation",
    "final_address": "8803 Pritchard Pl, New Orleans, Louisiana, 70118",
    "address_councildis": "A",
    "status": "Assigned to Contractor",
    "contractor": "Richards Disposal",
    "rowid": "949220",
    "final_x": "3664224.0066",
    "final_y": "534607.766918",
    "longitude": "-90.1225189023639",
    "latitude": "29.964499266032774",
    "geocoded_column": {
      "latitude": "29.964499266032774",
      "longitude": "-90.1225189023639"
    }
  },
  {
    "service_request": "2022-949219",
    "request_type": "Trash/Recycling",
    "request_reason": "Missed Trash Pick-Up",
    "date_created": "2022-12-04T16:47:49.000",
    "date_modified": "2022-12-04T16:47:49.000",
    "request_status": "Pending",
    "responsible_agency": "Department of Sanitation",
    "final_address": "7471 Pitt St",
    "address_councildis": "A",
    "status": "Assigned to Contractor",
    "contractor": "Richards Disposal",
    "rowid": "949219",
    "final_x": "3660918.94387",
    "final_y": "523832.040379",
    "longitude": "-90.13331247911697",
    "latitude": "29.93496508537649",
    "geocoded_column": {
      "latitude": "29.93496508537649",
      "longitude": "-90.13331247911697"
    }
  },
  {
    "service_request": "2022-949218",
    "request_type": "Trash/Recycling",
    "request_reason": "Request a Large Item Pick Up",
    "date_created": "2022-12-04T16:42:42.000",
    "date_modified": "2022-12-04T16:42:43.000",
    "request_status": "Pending",
    "responsible_agency": "Department of Sanitation",
    "status": "Assigned to Contractor",
    "rowid": "949218",
    "longitude": "0.0",
    "latitude": "0.0",
    "geocoded_column": {
      "latitude": "0.0",
      "longitude": "0.0"
    }
  },
  {
    "service_request": "2022-949217",
    "request_type": "Trash/Recycling",
    "request_reason": "Request a Large Item Pick Up",
    "date_created": "2022-12-04T16:41:42.000",
    "date_modified": "2022-12-04T16:41:43.000",
    "request_status": "Pending",
    "responsible_agency": "Department of Sanitation",
    "final_address": "305 Homedale St",
    "address_councildis": "A",
    "status": "Assigned to Contractor",
    "contractor": "IV Waste",
    "rowid": "949217",
    "final_x": "3666893.19085",
    "final_y": "544792.260175",
    "longitude": "-90.11374747035431",
    "latitude": "29.99242537411389",
    "geocoded_column": {
      "latitude": "29.99242537411389",
      "longitude": "-90.11374747035431"
    }
  },
  {
    "service_request": "2022-949216",
    "request_type": "Trash/Recycling",
    "request_reason": "Order Recycling Cart",
    "date_created": "2022-12-04T16:36:29.000",
    "date_modified": "2022-12-04T16:36:29.000",
    "request_status": "Pending",
    "responsible_agency": "Department of Sanitation",
    "final_address": "2334 Barracks St",
    "address_councildis": "D",
    "status": "Pending",
    "rowid": "949216",
    "final_x": "3679171.2052",
    "final_y": "537795.174024",
    "longitude": "-90.07520625200519",
    "latitude": "29.972820776902832",
    "geocoded_column": {
      "latitude": "29.972820776902832",
      "longitude": "-90.07520625200519"
    }
  },
  {
    "service_request": "2022-949215",
    "request_type": "Trash/Recycling",
    "request_reason": "Request a Large Item Pick Up",
    "date_created": "2022-12-04T16:26:11.000",
    "date_modified": "2022-12-04T16:26:12.000",
    "request_status": "Pending",
    "responsible_agency": "Department of Sanitation",
    "final_address": "708 Sumner St",
    "address_councildis": "C",
    "status": "Assigned to Contractor",
    "contractor": "Richards Disposal",
    "rowid": "949215",
    "final_x": "3691225.50441",
    "final_y": "528761.689792",
    "longitude": "-90.03745929518097",
    "latitude": "29.947612410463563",
    "geocoded_column": {
      "latitude": "29.947612410463563",
      "longitude": "-90.03745929518097"
    }
  },
  {
    "service_request": "2022-949214",
    "request_type": "Roads/Drainage",
    "request_reason": "Debris in Roadway",
    "date_created": "2022-12-04T16:07:58.000",
    "date_modified": "2022-12-04T16:07:58.000",
    "request_status": "Pending",
    "responsible_agency": "Department of Public Works",
    "final_address": "8615 Stroelitz St",
    "address_councildis": "A",
    "status": "Pending",
    "rowid": "949214",
    "final_x": "3666567.56404",
    "final_y": "536286.064903",
    "longitude": "-90.11506174668799",
    "latitude": "29.969045727621026",
    "geocoded_column": {
      "latitude": "29.969045727621026",
      "longitude": "-90.11506174668799"
    }
  },
  {
    "service_request": "2022-949213",
    "request_type": "Roads/Drainage",
    "request_reason": "Pothole",
    "date_created": "2022-12-04T16:01:22.000",
    "date_modified": "2022-12-04T16:01:22.000",
    "request_status": "Pending",
    "responsible_agency": "Department of Public Works",
    "final_address": "2300 BLK Winthrop St",
    "address_councildis": "E",
    "status": "Pending",
    "rowid": "949213",
    "final_x": "3700454.44518",
    "final_y": "538108.018388",
    "longitude": "-90.00797878694765",
    "latitude": "29.973021257536743",
    "geocoded_column": {
      "latitude": "29.973021257536743",
      "longitude": "-90.00797878694765"
    }
  },
  {
    "service_request": "2022-949212",
    "request_type": "Trash/Recycling",
    "request_reason": "Illegal Dumping",
    "date_created": "2022-12-04T16:00:08.000",
    "date_modified": "2022-12-04T16:00:08.000",
    "request_status": "Pending",
    "responsible_agency": "Department of Sanitation",
    "final_address": "2407 Law St",
    "address_councildis": "D",
    "status": "Pending",
    "rowid": "949212",
    "final_x": "3685488.2669",
    "final_y": "541986.635084",
    "longitude": "-90.05510815282076",
    "latitude": "29.984153590751813",
    "geocoded_column": {
      "latitude": "29.984153590751813",
      "longitude": "-90.05510815282076"
    }
  },
  {
    "service_request": "2022-949211",
    "request_type": "Trash/Recycling",
    "request_reason": "Request a Large Item Pick Up",
    "date_created": "2022-12-04T15:57:18.000",
    "date_modified": "2022-12-04T15:57:18.000",
    "request_status": "Pending",
    "responsible_agency": "Department of Sanitation",
    "final_address": "4741 St Anthony Ave",
    "address_councildis": "D",
    "status": "Assigned to Contractor",
    "contractor": "IV Waste",
    "rowid": "949211",
    "final_x": "3682479.86012",
    "final_y": "550147.297108",
    "longitude": "-90.06432487206015",
    "latitude": "30.006684441657036",
    "geocoded_column": {
      "latitude": "30.006684441657036",
      "longitude": "-90.06432487206015"
    }
  },
  {
    "service_request": "2022-949210",
    "request_type": "Trash/Recycling",
    "request_reason": "Order Recycling Cart",
    "date_created": "2022-12-04T15:52:24.000",
    "date_modified": "2022-12-04T15:52:24.000",
    "request_status": "Pending",
    "responsible_agency": "Department of Sanitation",
    "final_address": "930 Forstall St",
    "address_councildis": "E",
    "status": "Pending",
    "rowid": "949210",
    "final_x": "3696056.18826",
    "final_y": "533685.085061",
    "longitude": "-90.02202912138087",
    "latitude": "29.960998915713024",
    "geocoded_column": {
      "latitude": "29.960998915713024",
      "longitude": "-90.02202912138087"
    }
  },
  {
    "service_request": "2022-949209",
    "request_type": "Trash/Recycling",
    "request_reason": "Illegal Dumping",
    "date_created": "2022-12-04T15:39:39.000",
    "date_modified": "2022-12-04T15:39:39.000",
    "request_status": "Pending",
    "responsible_agency": "Department of Sanitation",
    "final_address": "2407 Law St",
    "address_councildis": "D",
    "status": "Pending",
    "rowid": "949209",
    "final_x": "3685488.2669",
    "final_y": "541986.635084",
    "longitude": "-90.05510815282076",
    "latitude": "29.984153590751813",
    "geocoded_column": {
      "latitude": "29.984153590751813",
      "longitude": "-90.05510815282076"
    }
  },
  {
    "service_request": "2022-949208",
    "request_type": "Traffic Signals/Signs/Striping/Streetlights",
    "request_reason": "Additional signage",
    "date_created": "2022-12-04T15:39:04.000",
    "date_modified": "2022-12-04T15:39:04.000",
    "request_status": "Pending",
    "responsible_agency": "Department of Public Works",
    "final_address": "4114 State Street Dr",
    "address_councildis": "B",
    "status": "Pending",
    "rowid": "949208",
    "final_x": "3668323.03342",
    "final_y": "530781.827266",
    "longitude": "-90.10970346438634",
    "latitude": "29.95385945599723",
    "geocoded_column": {
      "latitude": "29.95385945599723",
      "longitude": "-90.10970346438634"
    }
  },
  {
    "service_request": "2022-949207",
    "request_type": "Traffic Signals/Signs/Striping/Streetlights",
    "request_reason": "Street Light Outage/Malfunction",
    "date_created": "2022-12-04T15:35:45.000",
    "date_modified": "2022-12-04T15:35:46.000",
    "request_status": "Pending",
    "responsible_agency": "Department of Public Works",
    "final_address": "4114 State Street Dr",
    "address_councildis": "B",
    "status": "Pending",
    "contractor": "Legacy Professional Services",
    "rowid": "949207",
    "final_x": "3668323.03342",
    "final_y": "530781.827266",
    "longitude": "-90.10970346438634",
    "latitude": "29.95385945599723",
    "geocoded_column": {
      "latitude": "29.95385945599723",
      "longitude": "-90.10970346438634"
    }
  },
  {
    "service_request": "2022-949206",
    "request_type": "Property Maintenance",
    "request_reason": "Property Maintenance",
    "date_created": "2022-12-04T15:26:09.000",
    "date_modified": "2022-12-04T15:26:09.000",
    "request_status": "Pending",
    "responsible_agency": "Department of Code Enforcement",
    "final_address": "4031 S Inwood Ave",
    "address_councildis": "C",
    "status": "Pending",
    "rowid": "949206",
    "final_x": "3705167.01444",
    "final_y": "513216.554418",
    "longitude": "-89.99401455290484",
    "latitude": "29.904427804253665",
    "geocoded_column": {
      "latitude": "29.904427804253665",
      "longitude": "-89.99401455290484"
    }
  },
  {
    "service_request": "2022-949205",
    "request_type": "Property Maintenance",
    "request_reason": "Property Maintenance",
    "date_created": "2022-12-04T14:53:47.000",
    "date_modified": "2022-12-04T14:53:48.000",
    "request_status": "Pending",
    "responsible_agency": "Department of Code Enforcement",
    "final_address": "1739 Port St",
    "address_councildis": "D",
    "status": "Pending",
    "rowid": "949205",
    "final_x": "3688101.5622",
    "final_y": "538929.787018",
    "longitude": "-90.04696235276438",
    "latitude": "29.97566792423976",
    "geocoded_column": {
      "latitude": "29.97566792423976",
      "longitude": "-90.04696235276438"
    }
  },
  {
    "service_request": "2022-949204",
    "request_type": "Trash/Recycling",
    "request_reason": "Order Recycling Cart",
    "date_created": "2022-12-04T14:42:41.000",
    "date_modified": "2022-12-04T14:42:41.000",
    "request_status": "Pending",
    "responsible_agency": "Department of Sanitation",
    "final_address": "6615 Milne Blvd",
    "address_councildis": "A",
    "status": "Pending",
    "rowid": "949204",
    "final_x": "3667535.85895",
    "final_y": "551642.022997",
    "longitude": "-90.11148667410042",
    "latitude": "30.01124102598863",
    "geocoded_column": {
      "latitude": "30.01124102598863",
      "longitude": "-90.11148667410042"
    }
  },
  {
    "service_request": "2022-949203",
    "request_type": "Abandoned Vehicles",
    "request_reason": "Abandoned/Junk Vehicles",
    "date_created": "2022-12-04T14:37:14.000",
    "date_modified": "2022-12-04T14:37:14.000",
    "request_status": "Pending",
    "responsible_agency": "Department of Public Works",
    "final_address": "629 Chartres St",
    "address_councildis": "C",
    "status": "Pending",
    "rowid": "949203",
    "final_x": "3682722.45749",
    "final_y": "532144.725123",
    "longitude": "-90.06418839578158",
    "latitude": "29.957176290866762",
    "geocoded_column": {
      "latitude": "29.957176290866762",
      "longitude": "-90.06418839578158"
    }
  },
  {
    "service_request": "2022-949201",
    "request_type": "Trash/Recycling",
    "request_reason": "Illegal Dumping",
    "date_created": "2022-12-04T13:53:24.000",
    "date_modified": "2022-12-04T13:53:24.000",
    "request_status": "Pending",
    "responsible_agency": "Department of Sanitation",
    "final_address": "5548 Tullis Dr",
    "address_councildis": "C",
    "status": "Pending",
    "rowid": "949201",
    "final_x": "3704524.26065",
    "final_y": "512244.990577",
    "longitude": "-89.99607886880972",
    "latitude": "29.90177697621373",
    "geocoded_column": {
      "latitude": "29.90177697621373",
      "longitude": "-89.99607886880972"
    }
  },
  {
    "service_request": "2022-949200",
    "request_type": "Traffic Signals/Signs/Striping/Streetlights",
    "request_reason": "Street Light Outage/Malfunction",
    "date_created": "2022-12-04T13:46:12.000",
    "date_modified": "2022-12-04T13:46:13.000",
    "request_status": "Pending",
    "responsible_agency": "Department of Public Works",
    "final_address": "2126 Touro St",
    "address_councildis": "D",
    "status": "Pending",
    "contractor": "Legacy Professional Services",
    "rowid": "949200",
    "final_x": "3683886.98697",
    "final_y": "540159.818379",
    "longitude": "-90.06022997283887",
    "latitude": "29.979179506164506",
    "geocoded_column": {
      "latitude": "29.979179506164506",
      "longitude": "-90.06022997283887"
    }
  },
  {
    "service_request": "2022-949199",
    "request_type": "Trash/Recycling",
    "request_reason": "Replace Recycling Cart",
    "date_created": "2022-12-04T13:45:31.000",
    "date_modified": "2022-12-04T13:45:31.000",
    "request_status": "Pending",
    "responsible_agency": "Department of Sanitation",
    "final_address": "4106 Constance St",
    "address_councildis": "B",
    "status": "Pending",
    "rowid": "949199",
    "final_x": "3672111.88551",
    "final_y": "518478.017654",
    "longitude": "-90.09815859727682",
    "latitude": "29.919916173033847",
    "geocoded_column": {
      "latitude": "29.919916173033847",
      "longitude": "-90.09815859727682"
    }
  },
  {
    "service_request": "2022-949198",
    "request_type": "Trash/Recycling",
    "request_reason": "Illegal Dumping",
    "date_created": "2022-12-04T13:24:55.000",
    "date_modified": "2022-12-04T13:24:55.000",
    "request_status": "Pending",
    "responsible_agency": "Department of Sanitation",
    "final_address": "6112 S Claiborne Ave",
    "address_councildis": "A",
    "status": "Pending",
    "rowid": "949198",
    "final_x": "3667183.2473",
    "final_y": "527233.649471",
    "longitude": "-90.11342173188001",
    "latitude": "29.944136538448202",
    "geocoded_column": {
      "latitude": "29.944136538448202",
      "longitude": "-90.11342173188001"
    }
  },
  {
    "service_request": "2022-949197",
    "request_type": "Property Maintenance",
    "request_reason": "Property Maintenance",
    "date_created": "2022-12-04T13:23:43.000",
    "date_modified": "2022-12-04T13:23:43.000",
    "request_status": "Pending",
    "responsible_agency": "Department of Code Enforcement",
    "final_address": "2318 Chippewa St",
    "address_councildis": "B",
    "status": "Pending",
    "rowid": "949197",
    "final_x": "3679321.7044",
    "final_y": "520562.510392",
    "longitude": "-90.0753284618938",
    "latitude": "29.92543217884726",
    "geocoded_column": {
      "latitude": "29.92543217884726",
      "longitude": "-90.0753284618938"
    }
  },
  {
    "service_request": "2022-949196",
    "request_type": "Trash/Recycling",
    "request_reason": "Illegal Dumping",
    "date_created": "2022-12-04T13:19:32.000",
    "date_modified": "2022-12-04T13:19:32.000",
    "request_status": "Pending",
    "responsible_agency": "Department of Sanitation",
    "final_address": "621 N Dorgenois St",
    "address_councildis": "D",
    "status": "Pending",
    "rowid": "949196",
    "final_x": "3676891.83317",
    "final_y": "536312.898887",
    "longitude": "-90.08245604718394",
    "latitude": "29.968813645922992",
    "geocoded_column": {
      "latitude": "29.968813645922992",
      "longitude": "-90.08245604718394"
    }
  },
  {
    "service_request": "2022-949195",
    "request_type": "Property Maintenance",
    "request_reason": "Property Maintenance",
    "date_created": "2022-12-04T13:17:46.000",
    "date_modified": "2022-12-04T13:17:46.000",
    "request_status": "Pending",
    "responsible_agency": "Department of Code Enforcement",
    "final_address": "1629 Sauvage St",
    "address_councildis": "A",
    "status": "Pending",
    "rowid": "949195",
    "final_x": "3677130.16891",
    "final_y": "540776.920971",
    "longitude": "-90.0815493566635",
    "latitude": "29.98108101891297",
    "geocoded_column": {
      "latitude": "29.98108101891297",
      "longitude": "-90.0815493566635"
    }
  },
  {
    "service_request": "2022-949194",
    "request_type": "Trash/Recycling",
    "request_reason": "Order Recycling Cart",
    "date_created": "2022-12-04T13:00:07.000",
    "date_modified": "2022-12-04T13:00:07.000",
    "request_status": "Pending",
    "responsible_agency": "Department of Sanitation",
    "final_address": "2083 N Dorgenois St",
    "address_councildis": "D",
    "status": "Pending",
    "rowid": "949194",
    "final_x": "3683270.84597",
    "final_y": "541387.06158",
    "longitude": "-90.06213298192931",
    "latitude": "29.982572803718302",
    "geocoded_column": {
      "latitude": "29.982572803718302",
      "longitude": "-90.06213298192931"
    }
  },
  {
    "service_request": "2022-949193",
    "request_type": "Property Maintenance",
    "request_reason": "Property Maintenance",
    "date_created": "2022-12-04T12:37:51.000",
    "date_modified": "2022-12-04T12:37:51.000",
    "request_status": "Pending",
    "responsible_agency": "Department of Code Enforcement",
    "final_address": "8423 Hickory St",
    "address_councildis": "A",
    "status": "Pending",
    "rowid": "949193",
    "final_x": "3662466.77792",
    "final_y": "530815.12973",
    "longitude": "-90.1281940930222",
    "latitude": "29.954121687129657",
    "geocoded_column": {
      "latitude": "29.954121687129657",
      "longitude": "-90.1281940930222"
    }
  },
  {
    "service_request": "2022-949192",
    "request_type": "Trash/Recycling",
    "request_reason": "Order Recycling Cart",
    "date_created": "2022-12-04T12:37:07.000",
    "date_modified": "2022-12-04T12:37:08.000",
    "request_status": "Pending",
    "responsible_agency": "Department of Sanitation",
    "final_address": "2500 S Carrollton Ave",
    "address_councildis": "A",
    "status": "Pending",
    "rowid": "949192",
    "final_x": "3665137.08698",
    "final_y": "531875.935363",
    "longitude": "-90.1197268224461",
    "latitude": "29.956961062550416",
    "geocoded_column": {
      "latitude": "29.956961062550416",
      "longitude": "-90.1197268224461"
    }
  },
  {
    "service_request": "2022-949191",
    "request_type": "Trash/Recycling",
    "request_reason": "Request a Large Item Pick Up",
    "date_created": "2022-12-04T12:25:14.000",
    "date_modified": "2022-12-04T12:25:15.000",
    "request_status": "Pending",
    "responsible_agency": "Department of Sanitation",
    "final_address": "5310 Wilton Dr",
    "address_councildis": "D",
    "status": "Assigned to Contractor",
    "contractor": "IV Waste",
    "rowid": "949191",
    "final_x": "3681849.06152",
    "final_y": "552408.00079",
    "longitude": "-90.06623874808355",
    "latitude": "30.012919753712232",
    "geocoded_column": {
      "latitude": "30.012919753712232",
      "longitude": "-90.06623874808355"
    }
  },
  {
    "service_request": "2022-949190",
    "request_type": "Traffic Signals/Signs/Striping/Streetlights",
    "request_reason": "Street Light Knocked Down/Leaning",
    "date_created": "2022-12-04T12:23:45.000",
    "date_modified": "2022-12-04T12:23:46.000",
    "request_status": "Pending",
    "responsible_agency": "Department of Public Works",
    "final_address": "2200 Royal St",
    "address_councildis": "C",
    "status": "Pending",
    "contractor": "Legacy Professional Services",
    "rowid": "949190",
    "final_x": "3685225.28021",
    "final_y": "534850.911046",
    "longitude": "-90.05619001924795",
    "latitude": "29.964540908372264",
    "geocoded_column": {
      "latitude": "29.964540908372264",
      "longitude": "-90.05619001924795"
    }
  },
  {
    "service_request": "2022-949189",
    "request_type": "EMS",
    "request_reason": "EMS General",
    "date_created": "2022-12-04T12:12:15.000",
    "date_modified": "2022-12-04T17:38:33.000",
    "request_status": "Pending",
    "responsible_agency": "Emergency Medical Services",
    "status": "Pending",
    "rowid": "949189",
    "longitude": "0.0",
    "latitude": "0.0",
    "geocoded_column": {
      "latitude": "0.0",
      "longitude": "0.0"
    }
  },
  {
    "service_request": "2022-949188",
    "request_type": "Roads/Drainage",
    "request_reason": "Pothole",
    "date_created": "2022-12-04T12:10:40.000",
    "date_modified": "2022-12-04T12:10:40.000",
    "request_status": "Pending",
    "responsible_agency": "Department of Public Works",
    "final_address": "1022 Cherokee St, New Orleans, Louisiana, 70118",
    "address_councildis": "A",
    "status": "Pending",
    "rowid": "949188",
    "final_x": "3663140.83661",
    "final_y": "526562.263038",
    "longitude": "-90.12620714860266",
    "latitude": "29.942408159511483",
    "geocoded_column": {
      "latitude": "29.942408159511483",
      "longitude": "-90.12620714860266"
    }
  },
  {
    "service_request": "2022-949187",
    "request_type": "Roads/Drainage",
    "request_reason": "Catch Basin - Clogged",
    "date_created": "2022-12-04T12:06:30.000",
    "date_modified": "2022-12-04T12:06:30.000",
    "request_status": "Pending",
    "responsible_agency": "Department of Public Works",
    "final_address": "2015 Bartholomew St",
    "address_councildis": "D",
    "status": "Pending",
    "rowid": "949187",
    "final_x": "3692718.26877",
    "final_y": "538812.174537",
    "longitude": "-90.03238578651788",
    "latitude": "29.9752012119522",
    "geocoded_column": {
      "latitude": "29.9752012119522",
      "longitude": "-90.03238578651788"
    }
  },
  {
    "service_request": "2022-949186",
    "request_type": "Roads/Drainage",
    "request_reason": "Catch Basin - Clogged",
    "date_created": "2022-12-04T12:04:13.000",
    "date_modified": "2022-12-04T12:04:13.000",
    "request_status": "Pending",
    "responsible_agency": "Department of Public Works",
    "final_address": "1907 St Charles Ave",
    "address_councildis": "B",
    "status": "Pending",
    "rowid": "949186",
    "final_x": "3678259.00379",
    "final_y": "524306.863548",
    "longitude": "-90.078553643016",
    "latitude": "29.93575996361673",
    "geocoded_column": {
      "latitude": "29.93575996361673",
      "longitude": "-90.078553643016"
    }
  },
  {
    "service_request": "2022-949185",
    "request_type": "Trash/Recycling",
    "request_reason": "Request a Large Item Pick Up",
    "date_created": "2022-12-04T12:02:29.000",
    "date_modified": "2022-12-04T12:02:30.000",
    "request_status": "Pending",
    "responsible_agency": "Department of Sanitation",
    "final_address": "735 Navarre St",
    "address_councildis": "A",
    "status": "Assigned to Contractor",
    "contractor": "IV Waste",
    "rowid": "949185",
    "final_x": "3668598.5451",
    "final_y": "543884.950542",
    "longitude": "-90.10839120392609",
    "latitude": "29.98988056409855",
    "geocoded_column": {
      "latitude": "29.98988056409855",
      "longitude": "-90.10839120392609"
    }
  },
  {
    "service_request": "2022-949184",
    "request_type": "Property Maintenance",
    "request_reason": "Property Maintenance",
    "date_created": "2022-12-04T11:53:36.000",
    "date_modified": "2022-12-04T11:53:36.000",
    "request_status": "Pending",
    "responsible_agency": "Department of Code Enforcement",
    "final_address": "919 Eighth St",
    "address_councildis": "B",
    "status": "Pending",
    "rowid": "949184",
    "final_x": "3676463.00526",
    "final_y": "519766.2542",
    "longitude": "-90.08437989060063",
    "latitude": "29.92332872171573",
    "geocoded_column": {
      "latitude": "29.92332872171573",
      "longitude": "-90.08437989060063"
    }
  },
  {
    "service_request": "2022-949183",
    "request_type": "Trash/Recycling",
    "request_reason": "Order Recycling Cart",
    "date_created": "2022-12-04T11:51:36.000",
    "date_modified": "2022-12-04T11:51:36.000",
    "request_status": "Pending",
    "responsible_agency": "Department of Sanitation",
    "final_address": "5421 Magnolia St",
    "address_councildis": "A",
    "status": "Pending",
    "rowid": "949183",
    "final_x": "3667904.86785",
    "final_y": "524758.299836",
    "longitude": "-90.1112267213434",
    "latitude": "29.937308980249078",
    "geocoded_column": {
      "latitude": "29.937308980249078",
      "longitude": "-90.1112267213434"
    }
  },
  {
    "service_request": "2022-949182",
    "request_type": "Trash/Recycling",
    "request_reason": "Order Trash Cart",
    "date_created": "2022-12-04T11:35:58.000",
    "date_modified": "2022-12-04T11:35:58.000",
    "request_status": "Pending",
    "responsible_agency": "Department of Sanitation",
    "final_address": "6922 Yorktown Dr, New Orleans, Louisiana, 70127",
    "address_councildis": "E",
    "status": "Assigned to Contractor",
    "contractor": "Waste Pro",
    "rowid": "949182",
    "final_x": "3706311.53681",
    "final_y": "560140.848541",
    "longitude": "-89.98866452991166",
    "latitude": "30.033415591079162",
    "geocoded_column": {
      "latitude": "30.033415591079162",
      "longitude": "-89.98866452991166"
    }
  },
  {
    "service_request": "2022-949181",
    "request_type": "Trash/Recycling",
    "request_reason": "Replace Trash Cart",
    "date_created": "2022-12-04T11:30:38.000",
    "date_modified": "2022-12-04T11:30:39.000",
    "request_status": "Pending",
    "responsible_agency": "Department of Sanitation",
    "final_address": "4817 Laurel St",
    "address_councildis": "B",
    "status": "Assigned to Contractor",
    "contractor": "Richards Disposal",
    "rowid": "949181",
    "final_x": "3669494.48327",
    "final_y": "517961.889398",
    "longitude": "-90.10643793358602",
    "latitude": "29.918574305107995",
    "geocoded_column": {
      "latitude": "29.918574305107995",
      "longitude": "-90.10643793358602"
    }
  },
  {
    "service_request": "2022-949180",
    "request_type": "Trash/Recycling",
    "request_reason": "Request a Large Item Pick Up",
    "date_created": "2022-12-04T11:29:07.000",
    "date_modified": "2022-12-04T11:29:07.000",
    "request_status": "Pending",
    "responsible_agency": "Department of Sanitation",
    "final_address": "1724 S Carrollton Ave",
    "address_councildis": "A",
    "status": "Assigned to Contractor",
    "contractor": "Richards Disposal",
    "rowid": "949180",
    "final_x": "3663253.17645",
    "final_y": "529812.529217",
    "longitude": "-90.12574431624303",
    "latitude": "29.95134209384637",
    "geocoded_column": {
      "latitude": "29.95134209384637",
      "longitude": "-90.12574431624303"
    }
  },
  {
    "service_request": "2022-949179",
    "request_type": "Trash/Recycling",
    "request_reason": "Order Recycling Cart",
    "date_created": "2022-12-04T11:22:50.000",
    "date_modified": "2022-12-04T11:22:50.000",
    "request_status": "Pending",
    "responsible_agency": "Department of Sanitation",
    "final_address": "2508 N Roman St",
    "address_councildis": "D",
    "status": "Pending",
    "rowid": "949179",
    "final_x": "3687098.71286",
    "final_y": "539025.036874",
    "longitude": "-90.05012625354199",
    "latitude": "29.975960746494525",
    "geocoded_column": {
      "latitude": "29.975960746494525",
      "longitude": "-90.05012625354199"
    }
  },
  {
    "service_request": "2022-949177",
    "request_type": "Traffic Signals/Signs/Striping/Streetlights",
    "request_reason": "Street Light Outage/Malfunction",
    "date_created": "2022-12-04T10:38:52.000",
    "date_modified": "2022-12-04T10:38:53.000",
    "request_status": "Pending",
    "responsible_agency": "Department of Public Works",
    "final_address": "1434 St Roch Ave",
    "address_councildis": "C",
    "status": "Pending",
    "contractor": "Legacy Professional Services",
    "rowid": "949177",
    "final_x": "3686310.72425",
    "final_y": "537820.846153",
    "longitude": "-90.05265744990949",
    "latitude": "29.972673884997143",
    "geocoded_column": {
      "latitude": "29.972673884997143",
      "longitude": "-90.05265744990949"
    }
  },
  {
    "service_request": "2022-949176",
    "request_type": "Abandoned Vehicles",
    "request_reason": "Abandoned/Junk Vehicles",
    "date_created": "2022-12-04T10:36:44.000",
    "date_modified": "2022-12-04T10:36:44.000",
    "request_status": "Pending",
    "responsible_agency": "Department of Public Works",
    "final_address": "3918 N Prieur St",
    "address_councildis": "D",
    "status": "Pending",
    "rowid": "949176",
    "final_x": "3692377.54934",
    "final_y": "538289.451273",
    "longitude": "-90.03348059183104",
    "latitude": "29.97377454131203",
    "geocoded_column": {
      "latitude": "29.97377454131203",
      "longitude": "-90.03348059183104"
    }
  },
  {
    "service_request": "2022-949175",
    "request_type": "Abandoned Vehicles",
    "request_reason": "Abandoned/Junk Vehicles",
    "date_created": "2022-12-04T10:25:57.000",
    "date_modified": "2022-12-04T10:25:57.000",
    "request_status": "Pending",
    "responsible_agency": "Department of Public Works",
    "final_address": "4627 Franklin Ave",
    "address_councildis": "D",
    "status": "Pending",
    "rowid": "949175",
    "final_x": "3686950.1037",
    "final_y": "549891.900884",
    "longitude": "-90.05021127722185",
    "latitude": "30.005845309567064",
    "geocoded_column": {
      "latitude": "30.005845309567064",
      "longitude": "-90.05021127722185"
    }
  },
  {
    "service_request": "2022-949174",
    "request_type": "Abandoned Vehicles",
    "request_reason": "Abandoned/Junk Vehicles",
    "date_created": "2022-12-04T10:22:58.000",
    "date_modified": "2022-12-04T10:22:58.000",
    "request_status": "Pending",
    "responsible_agency": "Department of Public Works",
    "final_address": "4720 Franklin Ave",
    "address_councildis": "D",
    "status": "Pending",
    "rowid": "949174",
    "final_x": "3686758.58441",
    "final_y": "550427.889812",
    "longitude": "-90.05079737683813",
    "latitude": "30.00732497953972",
    "geocoded_column": {
      "latitude": "30.00732497953972",
      "longitude": "-90.05079737683813"
    }
  },
  {
    "service_request": "2022-949173",
    "request_type": "Trash/Recycling",
    "request_reason": "Request a Large Item Pick Up",
    "date_created": "2022-12-04T10:20:41.000",
    "date_modified": "2022-12-04T10:20:41.000",
    "request_status": "Pending",
    "responsible_agency": "Department of Sanitation",
    "final_address": "609 Wagner St, New Orleans, Louisiana, 70114",
    "address_councildis": "C",
    "status": "Assigned to Contractor",
    "contractor": "Richards Disposal",
    "rowid": "949173",
    "final_x": "3690511.27728",
    "final_y": "529265.848513",
    "longitude": "-90.03969640984072",
    "latitude": "29.949020864497726",
    "geocoded_column": {
      "latitude": "29.949020864497726",
      "longitude": "-90.03969640984072"
    }
  },
  {
    "service_request": "2022-949172",
    "request_type": "Traffic Signals/Signs/Striping/Streetlights",
    "request_reason": "Street Light Outage/Malfunction",
    "date_created": "2022-12-04T10:16:08.000",
    "date_modified": "2022-12-04T10:16:09.000",
    "request_status": "Pending",
    "responsible_agency": "Department of Public Works",
    "final_address": "100 32Nd St",
    "address_councildis": "A",
    "status": "Pending",
    "contractor": "Legacy Professional Services",
    "rowid": "949172",
    "final_x": "3666216.12007",
    "final_y": "550637.657428",
    "longitude": "-90.11568999999261",
    "latitude": "30.008517999978153",
    "geocoded_column": {
      "latitude": "30.008517999978153",
      "longitude": "-90.11568999999261"
    }
  },
  {
    "service_request": "2022-949171",
    "request_type": "Trash/Recycling",
    "request_reason": "Repair Trash Cart",
    "date_created": "2022-12-04T10:13:52.000",
    "date_modified": "2022-12-04T10:13:53.000",
    "request_status": "Pending",
    "responsible_agency": "Department of Sanitation",
    "final_address": "2629 Aubry St",
    "address_councildis": "D",
    "status": "Assigned to Contractor",
    "contractor": "IV Waste",
    "rowid": "949171",
    "final_x": "3679569.93973",
    "final_y": "541230.658508",
    "longitude": "-90.07382771151954",
    "latitude": "29.982255125883736",
    "geocoded_column": {
      "latitude": "29.982255125883736",
      "longitude": "-90.07382771151954"
    }
  },
  {
    "service_request": "2022-949170",
    "request_type": "Trash/Recycling",
    "request_reason": "Replace Trash Cart",
    "date_created": "2022-12-04T10:11:50.000",
    "date_modified": "2022-12-04T10:11:51.000",
    "request_status": "Pending",
    "responsible_agency": "Department of Sanitation",
    "final_address": "2627 Aubry St",
    "address_councildis": "D",
    "status": "Assigned to Contractor",
    "contractor": "IV Waste",
    "rowid": "949170",
    "final_x": "3679583.13416",
    "final_y": "541222.672396",
    "longitude": "-90.07378631436211",
    "latitude": "29.982232768058488",
    "geocoded_column": {
      "latitude": "29.982232768058488",
      "longitude": "-90.07378631436211"
    }
  },
  {
    "service_request": "2022-949169",
    "request_type": "Roads/Drainage",
    "request_reason": "Man hole cover issue",
    "date_created": "2022-12-04T10:07:10.000",
    "date_modified": "2022-12-04T10:07:11.000",
    "request_status": "Pending",
    "responsible_agency": "Department of Public Works",
    "final_address": "BURBANK DR & CHAMBERLAIN DR",
    "address_councildis": "D",
    "status": "Pending",
    "rowid": "949169",
    "final_x": "3679306.3",
    "final_y": "554401.28",
    "longitude": "-90.07420329244839",
    "latitude": "30.018477620579777",
    "geocoded_column": {
      "latitude": "30.018477620579777",
      "longitude": "-90.07420329244839"
    }
  },
  {
    "service_request": "2022-949168",
    "request_type": "Trash/Recycling",
    "request_reason": "Request a Large Item Pick Up",
    "date_created": "2022-12-04T10:01:07.000",
    "date_modified": "2022-12-04T10:01:08.000",
    "request_status": "Pending",
    "responsible_agency": "Department of Sanitation",
    "final_address": "1450 N Roman St",
    "address_councildis": "D",
    "status": "Assigned to Contractor",
    "contractor": "IV Waste",
    "rowid": "949168",
    "final_x": "3681016.49608",
    "final_y": "537392.719496",
    "longitude": "-90.06939249964725",
    "latitude": "29.971658325517353",
    "geocoded_column": {
      "latitude": "29.971658325517353",
      "longitude": "-90.06939249964725"
    }
  },
  {
    "service_request": "2022-949167",
    "request_type": "Trash/Recycling",
    "request_reason": "Order Recycling Cart",
    "date_created": "2022-12-04T10:00:04.000",
    "date_modified": "2022-12-04T10:00:04.000",
    "request_status": "Pending",
    "responsible_agency": "Department of Sanitation",
    "final_address": "1450 N Roman St",
    "address_councildis": "D",
    "status": "Pending",
    "rowid": "949167",
    "final_x": "3681016.49608",
    "final_y": "537392.719496",
    "longitude": "-90.06939249964725",
    "latitude": "29.971658325517353",
    "geocoded_column": {
      "latitude": "29.971658325517353",
      "longitude": "-90.06939249964725"
    }
  },
  {
    "service_request": "2022-949166",
    "request_type": "Trash/Recycling",
    "request_reason": "Missed Trash Pick-Up",
    "date_created": "2022-12-04T09:36:27.000",
    "date_modified": "2022-12-04T09:36:28.000",
    "request_status": "Pending",
    "responsible_agency": "Department of Sanitation",
    "final_address": "1018 Josephine St",
    "address_councildis": "B",
    "status": "Assigned to Contractor",
    "contractor": "Richards Disposal",
    "rowid": "949166",
    "final_x": "3679253.04303",
    "final_y": "522126.895994",
    "longitude": "-90.07549099469816",
    "latitude": "29.92973580054483",
    "geocoded_column": {
      "latitude": "29.92973580054483",
      "longitude": "-90.07549099469816"
    }
  },
  {
    "service_request": "2022-949165",
    "request_type": "Trash/Recycling",
    "request_reason": "MIssed Recycling Pick-Up",
    "date_created": "2022-12-04T09:33:10.000",
    "date_modified": "2022-12-04T09:33:11.000",
    "request_status": "Pending",
    "responsible_agency": "Department of Sanitation",
    "final_address": "7719 Pearl St",
    "address_councildis": "A",
    "status": "Assigned to Contractor",
    "contractor": "Richards Disposal",
    "rowid": "949165",
    "final_x": "3661322.75584",
    "final_y": "525685.491069",
    "longitude": "-90.1319762934953",
    "latitude": "29.940049854606897",
    "geocoded_column": {
      "latitude": "29.940049854606897",
      "longitude": "-90.1319762934953"
    }
  },
  {
    "service_request": "2022-949164",
    "request_type": "Abandoned Vehicles",
    "request_reason": "Vehicle Blocking Your Driveway",
    "date_created": "2022-12-04T09:31:56.000",
    "date_modified": "2022-12-04T09:31:56.000",
    "request_status": "Pending",
    "responsible_agency": "Department of Public Works",
    "final_address": "916 Cadiz St",
    "address_councildis": "B",
    "status": "Pending",
    "rowid": "949164",
    "final_x": "3670235.75687",
    "final_y": "518862.953015",
    "longitude": "-90.10406760526669",
    "latitude": "29.921030099444632",
    "geocoded_column": {
      "latitude": "29.921030099444632",
      "longitude": "-90.10406760526669"
    }
  },
  {
    "service_request": "2022-949163",
    "request_type": "Abandoned Vehicles",
    "request_reason": "Abandoned/Junk Vehicles",
    "date_created": "2022-12-04T09:30:42.000",
    "date_modified": "2022-12-04T09:30:42.000",
    "request_status": "Pending",
    "responsible_agency": "Department of Public Works",
    "final_address": "1424 Cadiz St",
    "address_councildis": "B",
    "status": "Pending",
    "rowid": "949163",
    "final_x": "3670062.03668",
    "final_y": "520445.56428",
    "longitude": "-90.10456239165508",
    "latitude": "29.925386900980616",
    "geocoded_column": {
      "latitude": "29.925386900980616",
      "longitude": "-90.10456239165508"
    }
  },
  {
    "service_request": "2022-949162",
    "request_type": "EMS",
    "request_reason": "EMS Lost & Found",
    "date_created": "2022-12-04T09:22:49.000",
    "date_modified": "2022-12-04T09:22:49.000",
    "request_status": "Pending",
    "responsible_agency": "Emergency Medical Services",
    "status": "Pending",
    "rowid": "949162",
    "longitude": "0.0",
    "latitude": "0.0",
    "geocoded_column": {
      "latitude": "0.0",
      "longitude": "0.0"
    }
  },
  {
    "service_request": "2022-949161",
    "request_type": "Abandoned Vehicles",
    "request_reason": "Abandoned/Junk Vehicles",
    "date_created": "2022-12-04T09:21:50.000",
    "date_modified": "2022-12-04T09:21:50.000",
    "request_status": "Pending",
    "responsible_agency": "Department of Public Works",
    "final_address": "4619 Pitt St",
    "address_councildis": "B",
    "status": "Pending",
    "rowid": "949161",
    "final_x": "3669963.39182",
    "final_y": "520543.62636",
    "longitude": "-90.10487046479045",
    "latitude": "29.925659448828902",
    "geocoded_column": {
      "latitude": "29.925659448828902",
      "longitude": "-90.10487046479045"
    }
  },
  {
    "service_request": "2022-949160",
    "request_type": "Trash/Recycling",
    "request_reason": "Request a Large Item Pick Up",
    "date_created": "2022-12-04T09:21:32.000",
    "date_modified": "2022-12-04T09:21:33.000",
    "request_status": "Pending",
    "responsible_agency": "Department of Sanitation",
    "final_address": "4930 S Johnson St",
    "address_councildis": "B",
    "status": "Assigned to Contractor",
    "contractor": "Richards Disposal",
    "rowid": "949160",
    "final_x": "3668951.87111",
    "final_y": "526957.405374",
    "longitude": "-90.10784700131288",
    "latitude": "29.943325063246196",
    "geocoded_column": {
      "latitude": "29.943325063246196",
      "longitude": "-90.10784700131288"
    }
  },
  {
    "service_request": "2022-949159",
    "request_type": "Abandoned Vehicles",
    "request_reason": "Abandoned/Junk Vehicles",
    "date_created": "2022-12-04T09:01:05.000",
    "date_modified": "2022-12-04T09:01:05.000",
    "request_status": "Pending",
    "responsible_agency": "Department of Public Works",
    "final_address": "1828 Ursulines Ave",
    "address_councildis": "D",
    "status": "Pending",
    "rowid": "949159",
    "final_x": "3680137.32616",
    "final_y": "536113.604423",
    "longitude": "-90.07221351111762",
    "latitude": "29.96816783498183",
    "geocoded_column": {
      "latitude": "29.96816783498183",
      "longitude": "-90.07221351111762"
    }
  },
  {
    "service_request": "2022-949158",
    "request_type": "Abandoned Vehicles",
    "request_reason": "Abandoned/Junk Vehicles",
    "date_created": "2022-12-04T08:53:13.000",
    "date_modified": "2022-12-04T08:53:13.000",
    "request_status": "Pending",
    "responsible_agency": "Department of Public Works",
    "final_address": "1828 Ursulines Ave",
    "address_councildis": "D",
    "status": "Pending",
    "rowid": "949158",
    "final_x": "3680137.32616",
    "final_y": "536113.604423",
    "longitude": "-90.07221351111762",
    "latitude": "29.96816783498183",
    "geocoded_column": {
      "latitude": "29.96816783498183",
      "longitude": "-90.07221351111762"
    }
  },
  {
    "service_request": "2022-949157",
    "request_type": "Trash/Recycling",
    "request_reason": "Order Recycling Cart",
    "date_created": "2022-12-04T08:48:28.000",
    "date_modified": "2022-12-04T08:48:28.000",
    "request_status": "Pending",
    "responsible_agency": "Department of Sanitation",
    "final_address": "5198 De Montluzin St",
    "address_councildis": "D",
    "status": "Pending",
    "rowid": "949157",
    "final_x": "3686980.87062",
    "final_y": "552100.477206",
    "longitude": "-90.05003593331193",
    "latitude": "30.01191714014734",
    "geocoded_column": {
      "latitude": "30.01191714014734",
      "longitude": "-90.05003593331193"
    }
  },
  {
    "service_request": "2022-949156",
    "request_type": "Abandoned Vehicles",
    "request_reason": "Abandoned/Junk Vehicles",
    "date_created": "2022-12-04T08:47:51.000",
    "date_modified": "2022-12-04T08:47:51.000",
    "request_status": "Pending",
    "responsible_agency": "Department of Public Works",
    "final_address": "1828 Ursulines Ave",
    "address_councildis": "D",
    "status": "Pending",
    "rowid": "949156",
    "final_x": "3680137.32616",
    "final_y": "536113.604423",
    "longitude": "-90.07221351111762",
    "latitude": "29.96816783498183",
    "geocoded_column": {
      "latitude": "29.96816783498183",
      "longitude": "-90.07221351111762"
    }
  },
  {
    "service_request": "2022-949155",
    "request_type": "Trash/Recycling",
    "request_reason": "Request a Large Item Pick Up",
    "date_created": "2022-12-04T08:42:30.000",
    "date_modified": "2022-12-04T08:42:31.000",
    "request_status": "Pending",
    "responsible_agency": "Department of Sanitation",
    "final_address": "1624 Spain St",
    "address_councildis": "D",
    "status": "Assigned to Contractor",
    "contractor": "IV Waste",
    "rowid": "949155",
    "final_x": "3685936.33974",
    "final_y": "538441.365705",
    "longitude": "-90.0538179391174",
    "latitude": "29.974391597001006",
    "geocoded_column": {
      "latitude": "29.974391597001006",
      "longitude": "-90.0538179391174"
    }
  },
  {
    "service_request": "2022-949154",
    "request_type": "Abandoned Vehicles",
    "request_reason": "Abandoned/Junk Vehicles",
    "date_created": "2022-12-04T08:30:17.000",
    "date_modified": "2022-12-04T08:30:17.000",
    "request_status": "Pending",
    "responsible_agency": "Department of Public Works",
    "final_address": "1411 Dauphine St",
    "address_councildis": "C",
    "status": "Pending",
    "rowid": "949154",
    "final_x": "3683502.50972",
    "final_y": "535009.138374",
    "longitude": "-90.06162484850074",
    "latitude": "29.96502866507802",
    "geocoded_column": {
      "latitude": "29.96502866507802",
      "longitude": "-90.06162484850074"
    }
  },
  {
    "service_request": "2022-949153",
    "request_type": "Roads/Drainage",
    "request_reason": "Catch Basin - Clogged",
    "date_created": "2022-12-04T08:13:37.000",
    "date_modified": "2022-12-04T08:13:37.000",
    "request_status": "Pending",
    "responsible_agency": "Department of Public Works",
    "final_address": "1447 Henriette Delille St",
    "address_councildis": "C",
    "status": "Pending",
    "rowid": "949153",
    "final_x": "3682848.72469",
    "final_y": "535920.819527",
    "longitude": "-90.06365755929883",
    "latitude": "29.967555409637345",
    "geocoded_column": {
      "latitude": "29.967555409637345",
      "longitude": "-90.06365755929883"
    }
  },
  {
    "service_request": "2022-949152",
    "request_type": "Trash/Recycling",
    "request_reason": "Missed Trash Pick-Up",
    "date_created": "2022-12-04T07:44:31.000",
    "date_modified": "2022-12-04T07:44:32.000",
    "request_status": "Pending",
    "responsible_agency": "Department of Sanitation",
    "final_address": "7422 Devine Ave",
    "address_councildis": "E",
    "status": "Assigned to Contractor",
    "contractor": "Waste Pro",
    "rowid": "949152",
    "final_x": "3705861.20471",
    "final_y": "562542.656096",
    "longitude": "-89.98999863444364",
    "latitude": "30.040034138833878",
    "geocoded_column": {
      "latitude": "30.040034138833878",
      "longitude": "-89.98999863444364"
    }
  },
  {
    "service_request": "2022-949151",
    "request_type": "Traffic Signals/Signs/Striping/Streetlights",
    "request_reason": "Street Light Outage/Malfunction",
    "date_created": "2022-12-04T05:34:06.000",
    "date_modified": "2022-12-04T05:34:07.000",
    "request_status": "Pending",
    "responsible_agency": "Department of Public Works",
    "final_address": "6949 General Diaz St",
    "address_councildis": "A",
    "status": "Pending",
    "contractor": "Legacy Professional Services",
    "rowid": "949151",
    "final_x": "3670183.5817",
    "final_y": "553635.169431",
    "longitude": "-90.10305381162476",
    "latitude": "30.016643576133664",
    "geocoded_column": {
      "latitude": "30.016643576133664",
      "longitude": "-90.10305381162476"
    }
  },
  {
    "service_request": "2022-949150",
    "request_type": "Trash/Recycling",
    "request_reason": "MIssed Recycling Pick-Up",
    "date_created": "2022-12-04T05:12:13.000",
    "date_modified": "2022-12-04T05:12:14.000",
    "request_status": "Pending",
    "responsible_agency": "Department of Sanitation",
    "final_address": "2929 Pine St",
    "address_councildis": "B",
    "status": "Assigned to Contractor",
    "contractor": "Richards Disposal",
    "rowid": "949150",
    "final_x": "3667460.51994",
    "final_y": "531955.695875",
    "longitude": "-90.11238744072737",
    "latitude": "29.957112508302433",
    "geocoded_column": {
      "latitude": "29.957112508302433",
      "longitude": "-90.11238744072737"
    }
  },
  {
    "service_request": "2022-949149",
    "request_type": "Health Related Request",
    "request_reason": "Noise Ordinance Complaint",
    "date_created": "2022-12-04T02:38:51.000",
    "date_modified": "2022-12-04T02:38:51.000",
    "request_status": "Pending",
    "responsible_agency": "Health Department",
    "final_address": "1131 St Bernard Ave",
    "address_councildis": "C",
    "status": "Pending",
    "rowid": "949149",
    "final_x": "3683202.52764",
    "final_y": "535984.605959",
    "longitude": "-90.06253800926453",
    "latitude": "29.96772001581233",
    "geocoded_column": {
      "latitude": "29.96772001581233",
      "longitude": "-90.06253800926453"
    }
  },
  {
    "service_request": "2022-949148",
    "request_type": "Trash/Recycling",
    "request_reason": "Request a Large Item Pick Up",
    "date_created": "2022-12-04T00:33:15.000",
    "date_modified": "2022-12-04T00:33:16.000",
    "request_status": "Pending",
    "responsible_agency": "Department of Sanitation",
    "final_address": "8233 Panola St",
    "address_councildis": "A",
    "status": "Assigned to Contractor",
    "contractor": "Richards Disposal",
    "rowid": "949148",
    "final_x": "3663656.04883",
    "final_y": "531163.287298",
    "longitude": "-90.12442723963439",
    "latitude": "29.95504456069023",
    "geocoded_column": {
      "latitude": "29.95504456069023",
      "longitude": "-90.12442723963439"
    }
  },
  {
    "service_request": "2022-949147",
    "request_type": "Trash/Recycling",
    "request_reason": "Order Recycling Cart",
    "date_created": "2022-12-04T00:11:59.000",
    "date_modified": "2022-12-04T00:11:59.000",
    "request_status": "Pending",
    "responsible_agency": "Department of Sanitation",
    "final_address": "434 S Bernadotte St",
    "address_councildis": "A",
    "status": "Pending",
    "rowid": "949147",
    "final_x": "3667980.36429",
    "final_y": "538787.865737",
    "longitude": "-90.11051569507705",
    "latitude": "29.975883464411922",
    "geocoded_column": {
      "latitude": "29.975883464411922",
      "longitude": "-90.11051569507705"
    }
  },
  {
    "service_request": "2022-949146",
    "request_type": "Traffic Signals/Signs/Striping/Streetlights",
    "request_reason": "Street Light Outage/Malfunction",
    "date_created": "2022-12-03T23:17:35.000",
    "date_modified": "2022-12-03T23:17:36.000",
    "request_status": "Pending",
    "responsible_agency": "Department of Public Works",
    "final_address": "4443 Arts St",
    "address_councildis": "D",
    "status": "Pending",
    "contractor": "Legacy Professional Services",
    "rowid": "949146",
    "final_x": "3686074.66492",
    "final_y": "549250.176979",
    "longitude": "-90.05299964038981",
    "latitude": "30.00410772806479",
    "geocoded_column": {
      "latitude": "30.00410772806479",
      "longitude": "-90.05299964038981"
    }
  },
  {
    "service_request": "2022-949145",
    "request_type": "Roads/Drainage",
    "request_reason": "Pothole",
    "date_created": "2022-12-03T23:08:06.000",
    "date_modified": "2022-12-03T23:08:06.000",
    "request_status": "Pending",
    "responsible_agency": "Department of Public Works",
    "final_address": "4443 Arts St",
    "address_councildis": "D",
    "status": "Pending",
    "rowid": "949145",
    "final_x": "3686074.66492",
    "final_y": "549250.176979",
    "longitude": "-90.05299964038981",
    "latitude": "30.00410772806479",
    "geocoded_column": {
      "latitude": "30.00410772806479",
      "longitude": "-90.05299964038981"
    }
  },
  {
    "service_request": "2022-949144",
    "request_type": "Trash/Recycling",
    "request_reason": "Dead Animal Pick Up",
    "date_created": "2022-12-03T22:55:08.000",
    "date_modified": "2022-12-03T22:55:08.000",
    "request_status": "Pending",
    "responsible_agency": "Department of Sanitation",
    "final_address": "3218 Laurel St",
    "address_councildis": "B",
    "status": "Assigned to Contractor",
    "contractor": "Richards Disposal",
    "rowid": "949144",
    "final_x": "3676005.1732",
    "final_y": "519235.994103",
    "longitude": "-90.08584331814677",
    "latitude": "29.921884391207808",
    "geocoded_column": {
      "latitude": "29.921884391207808",
      "longitude": "-90.08584331814677"
    }
  },
  {
    "service_request": "2022-949143",
    "request_type": "Parks & Parkways",
    "request_reason": "Request Tree Service (Right of Way/Public Property)",
    "date_created": "2022-12-03T22:53:44.000",
    "date_modified": "2022-12-03T22:53:44.000",
    "request_status": "Pending",
    "responsible_agency": "Department of Parks & Parkway",
    "final_address": "4443 Arts St",
    "address_councildis": "D",
    "status": "Pending",
    "rowid": "949143",
    "final_x": "3686074.66492",
    "final_y": "549250.176979",
    "longitude": "-90.05299964038981",
    "latitude": "30.00410772806479",
    "geocoded_column": {
      "latitude": "30.00410772806479",
      "longitude": "-90.05299964038981"
    }
  },
  {
    "service_request": "2022-949142",
    "request_type": "Abandoned Vehicles",
    "request_reason": "Abandoned/Junk Vehicles",
    "date_created": "2022-12-03T22:26:39.000",
    "date_modified": "2022-12-03T22:26:39.000",
    "request_status": "Pending",
    "responsible_agency": "Department of Public Works",
    "final_address": "1420 Dauphine St",
    "address_councildis": "C",
    "status": "Pending",
    "rowid": "949142",
    "final_x": "3683625.04668",
    "final_y": "535007.95239",
    "longitude": "-90.06123792604143",
    "latitude": "29.965021663999185",
    "geocoded_column": {
      "latitude": "29.965021663999185",
      "longitude": "-90.06123792604143"
    }
  },
  {
    "service_request": "2022-949140",
    "request_type": "Property Maintenance",
    "request_reason": "Property Maintenance",
    "date_created": "2022-12-03T22:06:40.000",
    "date_modified": "2022-12-03T22:06:40.000",
    "request_status": "Pending",
    "responsible_agency": "Department of Code Enforcement",
    "final_address": "8415 Colapissa St",
    "address_councildis": "A",
    "status": "Pending",
    "rowid": "949140",
    "final_x": "3665670.25818",
    "final_y": "534243.449669",
    "longitude": "-90.11796393321049",
    "latitude": "29.963455412332355",
    "geocoded_column": {
      "latitude": "29.963455412332355",
      "longitude": "-90.11796393321049"
    }
  },
  {
    "service_request": "2022-949139",
    "request_type": "Trash/Recycling",
    "request_reason": "Missed Trash Pick-Up",
    "date_created": "2022-12-03T22:04:07.000",
    "date_modified": "2022-12-03T22:04:08.000",
    "request_status": "Pending",
    "responsible_agency": "Department of Sanitation",
    "final_address": "618 S Alexander St",
    "address_councildis": "A",
    "status": "Assigned to Contractor",
    "contractor": "Richards Disposal",
    "rowid": "949139",
    "final_x": "3668726.63719",
    "final_y": "537442.72724",
    "longitude": "-90.10820416816286",
    "latitude": "29.972162865664103",
    "geocoded_column": {
      "latitude": "29.972162865664103",
      "longitude": "-90.10820416816286"
    }
  },
  {
    "service_request": "2022-949138",
    "request_type": "Trash/Recycling",
    "request_reason": "Replace Trash Cart",
    "date_created": "2022-12-03T21:47:05.000",
    "date_modified": "2022-12-03T21:47:06.000",
    "request_status": "Pending",
    "responsible_agency": "Department of Sanitation",
    "final_address": "2416 Broadway St",
    "address_councildis": "A",
    "status": "Assigned to Contractor",
    "contractor": "Richards Disposal",
    "rowid": "949138",
    "final_x": "3666634.66746",
    "final_y": "530275.214657",
    "longitude": "-90.11505165675878",
    "latitude": "29.952515904601903",
    "geocoded_column": {
      "latitude": "29.952515904601903",
      "longitude": "-90.11505165675878"
    }
  },
  {
    "service_request": "2022-949137",
    "request_type": "Trash/Recycling",
    "request_reason": "Request a Large Item Pick Up",
    "date_created": "2022-12-03T21:00:31.000",
    "date_modified": "2022-12-03T21:00:32.000",
    "request_status": "Pending",
    "responsible_agency": "Department of Sanitation",
    "final_address": "3526 Timber Wolf Ln",
    "address_councildis": "C",
    "status": "Assigned to Contractor",
    "contractor": "Richards Disposal",
    "rowid": "949137",
    "final_x": "3704536.70154",
    "final_y": "511204.991408",
    "longitude": "-89.99607791100352",
    "latitude": "29.898916931859482",
    "geocoded_column": {
      "latitude": "29.898916931859482",
      "longitude": "-89.99607791100352"
    }
  },
  {
    "service_request": "2022-949136",
    "request_type": "Traffic Signals/Signs/Striping/Streetlights",
    "request_reason": "Street Name Sign Damaged or Missing",
    "date_created": "2022-12-03T20:45:48.000",
    "date_modified": "2022-12-03T20:45:49.000",
    "request_status": "Pending",
    "responsible_agency": "Department of Public Works",
    "final_address": "DUMAINE ST & BOURBON ST",
    "address_councildis": "C",
    "status": "Pending",
    "rowid": "949136",
    "final_x": "3682714.0",
    "final_y": "533267.48",
    "longitude": "-90.06417583325131",
    "latitude": "29.960263741112918",
    "geocoded_column": {
      "latitude": "29.960263741112918",
      "longitude": "-90.06417583325131"
    }
  },
  {
    "service_request": "2022-949135",
    "request_type": "Trash/Recycling",
    "request_reason": "Order Trash Cart",
    "date_created": "2022-12-03T20:12:41.000",
    "date_modified": "2022-12-03T20:12:42.000",
    "request_status": "Pending",
    "responsible_agency": "Department of Sanitation",
    "final_address": "1724 Pratt Dr",
    "address_councildis": "D",
    "status": "Assigned to Contractor",
    "contractor": "IV Waste",
    "rowid": "949135",
    "final_x": "3680358.76642",
    "final_y": "549198.157267",
    "longitude": "-90.07105898987318",
    "latitude": "30.00413906828788",
    "geocoded_column": {
      "latitude": "30.00413906828788",
      "longitude": "-90.07105898987318"
    }
  },
  {
    "service_request": "2022-949134",
    "request_type": "Roads/Drainage",
    "request_reason": "Man hole cover issue",
    "date_created": "2022-12-03T20:02:32.000",
    "date_modified": "2022-12-03T20:02:32.000",
    "request_status": "Pending",
    "responsible_agency": "Department of Public Works",
    "final_address": "157 Cherokee St",
    "address_councildis": "A",
    "status": "Pending",
    "rowid": "949134",
    "final_x": "3660997.64326",
    "final_y": "524074.679804",
    "longitude": "-90.13305600052387",
    "latitude": "29.93563000087715",
    "geocoded_column": {
      "latitude": "29.93563000087715",
      "longitude": "-90.13305600052387"
    }
  },
  {
    "service_request": "2022-949133",
    "request_type": "Trash/Recycling",
    "request_reason": "Missed Trash Pick-Up",
    "date_created": "2022-12-03T19:59:09.000",
    "date_modified": "2022-12-03T19:59:10.000",
    "request_status": "Pending",
    "responsible_agency": "Department of Sanitation",
    "final_address": "4330 Baudin St",
    "address_councildis": "A",
    "status": "Assigned to Contractor",
    "contractor": "Richards Disposal",
    "rowid": "949133",
    "final_x": "3669077.36654",
    "final_y": "537812.951112",
    "longitude": "-90.10708399002327",
    "latitude": "29.973170541235557",
    "geocoded_column": {
      "latitude": "29.973170541235557",
      "longitude": "-90.10708399002327"
    }
  },
  {
    "service_request": "2022-949132",
    "request_type": "Traffic Signals/Signs/Striping/Streetlights",
    "request_reason": "Additional signage",
    "date_created": "2022-12-03T19:47:04.000",
    "date_modified": "2022-12-03T19:47:04.000",
    "request_status": "Pending",
    "responsible_agency": "Department of Public Works",
    "final_address": "1874 N Roman St",
    "address_councildis": "D",
    "status": "Pending",
    "rowid": "949132",
    "final_x": "3683540.45295",
    "final_y": "538746.979081",
    "longitude": "-90.06137399524636",
    "latitude": "29.97530527385337",
    "geocoded_column": {
      "latitude": "29.97530527385337",
      "longitude": "-90.06137399524636"
    }
  },
  {
    "service_request": "2022-949131",
    "request_type": "Trash/Recycling",
    "request_reason": "Order Trash Cart",
    "date_created": "2022-12-03T19:34:23.000",
    "date_modified": "2022-12-03T19:34:24.000",
    "request_status": "Pending",
    "responsible_agency": "Department of Sanitation",
    "final_address": "6911 Edgefield Dr",
    "address_councildis": "E",
    "status": "Assigned to Contractor",
    "contractor": "Waste Pro",
    "rowid": "949131",
    "final_x": "3719306.86924",
    "final_y": "568561.107429",
    "longitude": "-89.94727653816169",
    "latitude": "30.056142124002",
    "geocoded_column": {
      "latitude": "30.056142124002",
      "longitude": "-89.94727653816169"
    }
  },
  {
    "service_request": "2022-949130",
    "request_type": "Trash/Recycling",
    "request_reason": "Illegal Dumping",
    "date_created": "2022-12-03T19:18:48.000",
    "date_modified": "2022-12-03T19:18:48.000",
    "request_status": "Pending",
    "responsible_agency": "Department of Sanitation",
    "final_address": "2425 Law St",
    "address_councildis": "D",
    "status": "Pending",
    "rowid": "949130",
    "final_x": "3685634.551",
    "final_y": "541966.329996",
    "longitude": "-90.05464682423352",
    "latitude": "29.984093271117256",
    "geocoded_column": {
      "latitude": "29.984093271117256",
      "longitude": "-90.05464682423352"
    }
  },
  {
    "service_request": "2022-949129",
    "request_type": "Trash/Recycling",
    "request_reason": "Order Recycling Cart",
    "date_created": "2022-12-03T18:45:09.000",
    "date_modified": "2022-12-03T18:45:09.000",
    "request_status": "Pending",
    "responsible_agency": "Department of Sanitation",
    "final_address": "773 Amethyst St",
    "address_councildis": "D",
    "status": "Pending",
    "rowid": "949129",
    "final_x": "3670055.95566",
    "final_y": "556785.185242",
    "longitude": "-90.10335022105286",
    "latitude": "30.025308763774394",
    "geocoded_column": {
      "latitude": "30.025308763774394",
      "longitude": "-90.10335022105286"
    }
  },
  {
    "service_request": "2022-949127",
    "request_type": "Trash/Recycling",
    "request_reason": "MIssed Recycling Pick-Up",
    "date_created": "2022-12-03T18:14:54.000",
    "date_modified": "2022-12-03T18:14:55.000",
    "request_status": "Pending",
    "responsible_agency": "Department of Sanitation",
    "final_address": "2123 Broadway St",
    "address_councildis": "A",
    "status": "Assigned to Contractor",
    "contractor": "Richards Disposal",
    "rowid": "949127",
    "final_x": "3666112.92826",
    "final_y": "529285.727937",
    "longitude": "-90.11673225146713",
    "latitude": "29.9498103802666",
    "geocoded_column": {
      "latitude": "29.9498103802666",
      "longitude": "-90.11673225146713"
    }
  },
  {
    "service_request": "2022-949126",
    "request_type": "Trash/Recycling",
    "request_reason": "Request a Large Item Pick Up",
    "date_created": "2022-12-03T18:07:12.000",
    "date_modified": "2022-12-03T18:07:13.000",
    "request_status": "Pending",
    "responsible_agency": "Department of Sanitation",
    "final_address": "1023 Dufossat St",
    "address_councildis": "B",
    "status": "Assigned to Contractor",
    "contractor": "Richards Disposal",
    "rowid": "949126",
    "final_x": "3668147.42925",
    "final_y": "519194.491511",
    "longitude": "-90.11064837000087",
    "latitude": "29.92200316354626",
    "geocoded_column": {
      "latitude": "29.92200316354626",
      "longitude": "-90.11064837000087"
    }
  },
  {
    "service_request": "2022-949125",
    "request_type": "Trash/Recycling",
    "request_reason": "Replace Trash Cart",
    "date_created": "2022-12-03T17:34:08.000",
    "date_modified": "2022-12-03T17:34:09.000",
    "request_status": "Pending",
    "responsible_agency": "Department of Sanitation",
    "final_address": "7500 Edward St",
    "address_councildis": "E",
    "status": "Assigned to Contractor",
    "contractor": "Waste Pro",
    "rowid": "949125",
    "final_x": "3701134.34084",
    "final_y": "560495.244254",
    "longitude": "-90.00501193027856",
    "latitude": "30.03455608010956",
    "geocoded_column": {
      "latitude": "30.03455608010956",
      "longitude": "-90.00501193027856"
    }
  },
  {
    "service_request": "2022-949124",
    "request_type": "Trash/Recycling",
    "request_reason": "Repair Trash Cart",
    "date_created": "2022-12-03T17:16:33.000",
    "date_modified": "2022-12-03T17:16:34.000",
    "request_status": "Pending",
    "responsible_agency": "Department of Sanitation",
    "final_address": "5326 Camp St",
    "address_councildis": "B",
    "status": "Assigned to Contractor",
    "contractor": "Richards Disposal",
    "rowid": "949124",
    "final_x": "3667303.07962",
    "final_y": "519009.853559",
    "longitude": "-90.11331984257329",
    "latitude": "29.92152021424602",
    "geocoded_column": {
      "latitude": "29.92152021424602",
      "longitude": "-90.11331984257329"
    }
  },
  {
    "service_request": "2022-949123",
    "request_type": "Trash/Recycling",
    "request_reason": "Missed Trash Pick-Up",
    "date_created": "2022-12-03T17:06:36.000",
    "date_modified": "2022-12-03T17:06:37.000",
    "request_status": "Pending",
    "responsible_agency": "Department of Sanitation",
    "final_address": "4800 Cleveland Ave",
    "address_councildis": "A",
    "status": "Assigned to Contractor",
    "contractor": "Richards Disposal",
    "rowid": "949123",
    "final_x": "3668492.1874",
    "final_y": "539707.030474",
    "longitude": "-90.10886818476337",
    "latitude": "29.97839582905405",
    "geocoded_column": {
      "latitude": "29.97839582905405",
      "longitude": "-90.10886818476337"
    }
  },
  {
    "service_request": "2022-949122",
    "request_type": "Trash/Recycling",
    "request_reason": "MIssed Recycling Pick-Up",
    "date_created": "2022-12-03T17:04:36.000",
    "date_modified": "2022-12-03T17:04:37.000",
    "request_status": "Pending",
    "responsible_agency": "Department of Sanitation",
    "final_address": "4330 Elba St, New Orleans, Louisiana, 70125",
    "address_councildis": "B",
    "status": "Assigned to Contractor",
    "contractor": "Richards Disposal",
    "rowid": "949122",
    "final_x": "3669842.10842",
    "final_y": "530309.645186",
    "longitude": "-90.10492282173345",
    "latitude": "29.952516417838993",
    "geocoded_column": {
      "latitude": "29.952516417838993",
      "longitude": "-90.10492282173345"
    }
  },
  {
    "service_request": "2022-949121",
    "request_type": "Trash/Recycling",
    "request_reason": "Request a Large Item Pick Up",
    "date_created": "2022-12-03T16:59:43.000",
    "date_modified": "2022-12-03T16:59:44.000",
    "request_status": "Pending",
    "responsible_agency": "Department of Sanitation",
    "final_address": "8118 Freret St",
    "address_councildis": "A",
    "status": "Assigned to Contractor",
    "contractor": "Richards Disposal",
    "rowid": "949121",
    "final_x": "3661317.91251",
    "final_y": "527962.914303",
    "longitude": "-90.13191619542758",
    "latitude": "29.946312183978694",
    "geocoded_column": {
      "latitude": "29.946312183978694",
      "longitude": "-90.13191619542758"
    }
  },
  {
    "service_request": "2022-949120",
    "request_type": "Trash/Recycling",
    "request_reason": "Start Trash Service",
    "date_created": "2022-12-03T16:59:14.000",
    "date_modified": "2022-12-03T16:59:15.000",
    "request_status": "Pending",
    "responsible_agency": "Department of Sanitation",
    "final_address": "3027 Milan St",
    "address_councildis": "B",
    "status": "Assigned to Contractor",
    "contractor": "Richards Disposal",
    "rowid": "949120",
    "final_x": "3671101.98945",
    "final_y": "526229.72723",
    "longitude": "-90.1010832204788",
    "latitude": "29.941260779485763",
    "geocoded_column": {
      "latitude": "29.941260779485763",
      "longitude": "-90.1010832204788"
    }
  },
  {
    "service_request": "2022-949119",
    "request_type": "Traffic Signals/Signs/Striping/Streetlights",
    "request_reason": "Street Light Knocked Down/Leaning",
    "date_created": "2022-12-03T16:57:49.000",
    "date_modified": "2022-12-03T16:57:50.000",
    "request_status": "Pending",
    "responsible_agency": "Department of Public Works",
    "final_address": "ROYAL ST & ELYSIAN FIELDS AVE",
    "address_councildis": "C",
    "status": "Pending",
    "contractor": "Legacy Professional Services",
    "rowid": "949119",
    "final_x": "3685165.7",
    "final_y": "534872.88",
    "longitude": "-90.05637739565954",
    "latitude": "29.964603141247608",
    "geocoded_column": {
      "latitude": "29.964603141247608",
      "longitude": "-90.05637739565954"
    }
  },
  {
    "service_request": "2022-949118",
    "request_type": "Trash/Recycling",
    "request_reason": "Missed Trash Pick-Up",
    "date_created": "2022-12-03T16:55:46.000",
    "date_modified": "2022-12-03T16:55:47.000",
    "request_status": "Pending",
    "responsible_agency": "Department of Sanitation",
    "final_address": "1833 Shirley Dr",
    "address_councildis": "C",
    "status": "Assigned to Contractor",
    "contractor": "Richards Disposal",
    "rowid": "949118",
    "final_x": "3692867.13379",
    "final_y": "522720.500282",
    "longitude": "-90.03249259784926",
    "latitude": "29.93095005737129",
    "geocoded_column": {
      "latitude": "29.93095005737129",
      "longitude": "-90.03249259784926"
    }
  },
  {
    "service_request": "2022-949117",
    "request_type": "Trash/Recycling",
    "request_reason": "Replace Trash Cart",
    "date_created": "2022-12-03T16:45:15.000",
    "date_modified": "2022-12-03T16:45:15.000",
    "request_status": "Pending",
    "responsible_agency": "Department of Sanitation",
    "final_address": "1498 Pressburg St",
    "address_councildis": "D",
    "status": "Assigned to Contractor",
    "contractor": "IV Waste",
    "rowid": "949117",
    "final_x": "3678318.68187",
    "final_y": "553934.501592",
    "longitude": "-90.07733997140659",
    "latitude": "30.017223952767775",
    "geocoded_column": {
      "latitude": "30.017223952767775",
      "longitude": "-90.07733997140659"
    }
  },
  {
    "service_request": "2022-949116",
    "request_type": "Abandoned Vehicles",
    "request_reason": "Abandoned/Junk Vehicles",
    "date_created": "2022-12-03T16:30:45.000",
    "date_modified": "2022-12-03T16:30:46.000",
    "request_status": "Pending",
    "responsible_agency": "Department of Public Works",
    "final_address": "QUEISSER ST & READ BLVD",
    "address_councildis": "E",
    "status": "Pending",
    "rowid": "949116",
    "final_x": "3708679.4",
    "final_y": "564156.88",
    "longitude": "-89.98103211993126",
    "latitude": "30.04438146374777",
    "geocoded_column": {
      "latitude": "30.04438146374777",
      "longitude": "-89.98103211993126"
    }
  },
  {
    "service_request": "2022-949115",
    "request_type": "Abandoned Vehicles",
    "request_reason": "Abandoned/Junk Vehicles",
    "date_created": "2022-12-03T16:29:27.000",
    "date_modified": "2022-12-03T16:29:57.000",
    "request_status": "Pending",
    "responsible_agency": "Department of Public Works",
    "final_address": "1420 Dauphine St",
    "address_councildis": "C",
    "status": "Pending",
    "rowid": "949115",
    "final_x": "3683625.04668",
    "final_y": "535007.95239",
    "longitude": "-90.06123792604143",
    "latitude": "29.965021663999185",
    "geocoded_column": {
      "latitude": "29.965021663999185",
      "longitude": "-90.06123792604143"
    }
  },
  {
    "service_request": "2022-949114",
    "request_type": "Trash/Recycling",
    "request_reason": "Missed Trash Pick-Up",
    "date_created": "2022-12-03T16:28:03.000",
    "date_modified": "2022-12-03T16:28:04.000",
    "request_status": "Pending",
    "responsible_agency": "Department of Sanitation",
    "final_address": "8424 Palm St",
    "address_councildis": "A",
    "status": "Assigned to Contractor",
    "contractor": "Richards Disposal",
    "rowid": "949114",
    "final_x": "3666746.05044",
    "final_y": "535500.307398",
    "longitude": "-90.11452446730776",
    "latitude": "29.96687993598926",
    "geocoded_column": {
      "latitude": "29.96687993598926",
      "longitude": "-90.11452446730776"
    }
  },
  {
    "service_request": "2022-949113",
    "request_type": "Trash/Recycling",
    "request_reason": "Damaged Caused By Contractor",
    "date_created": "2022-12-03T16:19:04.000",
    "date_modified": "2022-12-03T16:19:05.000",
    "request_status": "Pending",
    "responsible_agency": "Department of Sanitation",
    "final_address": "900 Clouet St",
    "address_councildis": "C",
    "status": "Assigned to Contractor",
    "contractor": "IV Waste",
    "rowid": "949113",
    "final_x": "3688784.44323",
    "final_y": "535243.190406",
    "longitude": "-90.04493654924097",
    "latitude": "29.965509980576226",
    "geocoded_column": {
      "latitude": "29.965509980576226",
      "longitude": "-90.04493654924097"
    }
  },
  {
    "service_request": "2022-949112",
    "request_type": "Trash/Recycling",
    "request_reason": "Request a Large Item Pick Up",
    "date_created": "2022-12-03T16:16:36.000",
    "date_modified": "2022-12-03T16:16:37.000",
    "request_status": "Pending",
    "responsible_agency": "Department of Sanitation",
    "final_address": "3100 N Rampart St",
    "address_councildis": "C",
    "status": "Assigned to Contractor",
    "contractor": "IV Waste",
    "rowid": "949112",
    "final_x": "3688911.80579",
    "final_y": "535529.622022",
    "longitude": "-90.04452417098848",
    "latitude": "29.96629362910606",
    "geocoded_column": {
      "latitude": "29.96629362910606",
      "longitude": "-90.04452417098848"
    }
  },
  {
    "service_request": "2022-949111",
    "request_type": "Trash/Recycling",
    "request_reason": "MIssed Recycling Pick-Up",
    "date_created": "2022-12-03T16:09:55.000",
    "date_modified": "2022-12-03T16:09:56.000",
    "request_status": "Pending",
    "responsible_agency": "Department of Sanitation",
    "final_address": "7822 Oak St",
    "address_councildis": "A",
    "status": "Assigned to Contractor",
    "contractor": "Richards Disposal",
    "rowid": "949111",
    "final_x": "3662631.63322",
    "final_y": "527712.712639",
    "longitude": "-90.12777661128112",
    "latitude": "29.945586269025636",
    "geocoded_column": {
      "latitude": "29.945586269025636",
      "longitude": "-90.12777661128112"
    }
  },
  {
    "service_request": "2022-949110",
    "request_type": "Trash/Recycling",
    "request_reason": "MIssed Recycling Pick-Up",
    "date_created": "2022-12-03T16:09:55.000",
    "date_modified": "2022-12-03T16:09:55.000",
    "request_status": "Pending",
    "responsible_agency": "Department of Sanitation",
    "final_address": "7822 Oak St",
    "address_councildis": "A",
    "status": "Assigned to Contractor",
    "contractor": "Richards Disposal",
    "rowid": "949110",
    "final_x": "3662631.63322",
    "final_y": "527712.712639",
    "longitude": "-90.12777661128112",
    "latitude": "29.945586269025636",
    "geocoded_column": {
      "latitude": "29.945586269025636",
      "longitude": "-90.12777661128112"
    }
  },
  {
    "service_request": "2022-949109",
    "request_type": "Trash/Recycling",
    "request_reason": "Request a Large Item Pick Up",
    "date_created": "2022-12-03T16:03:49.000",
    "date_modified": "2022-12-03T16:03:50.000",
    "request_status": "Pending",
    "responsible_agency": "Department of Sanitation",
    "final_address": "323 Hay Pl",
    "address_councildis": "A",
    "status": "Assigned to Contractor",
    "contractor": "IV Waste",
    "rowid": "949109",
    "final_x": "3665281.25101",
    "final_y": "554341.47996",
    "longitude": "-90.11851950187467",
    "latitude": "30.01872950080195",
    "geocoded_column": {
      "latitude": "30.01872950080195",
      "longitude": "-90.11851950187467"
    }
  },
  {
    "service_request": "2022-949108",
    "request_type": "Trash/Recycling",
    "request_reason": "Order Recycling Cart",
    "date_created": "2022-12-03T16:02:18.000",
    "date_modified": "2022-12-03T16:02:18.000",
    "request_status": "Pending",
    "responsible_agency": "Department of Sanitation",
    "final_address": "322 Lafayette St",
    "address_councildis": "B",
    "status": "Pending",
    "rowid": "949108",
    "final_x": "3681973.35426",
    "final_y": "528564.886976",
    "longitude": "-90.0666787908127",
    "latitude": "29.94735573993066",
    "geocoded_column": {
      "latitude": "29.94735573993066",
      "longitude": "-90.0666787908127"
    }
  },
  {
    "service_request": "2022-949107",
    "request_type": "Trash/Recycling",
    "request_reason": "Return Trash Cart",
    "date_created": "2022-12-03T16:01:44.000",
    "date_modified": "2022-12-03T16:01:45.000",
    "request_status": "Pending",
    "responsible_agency": "Department of Sanitation",
    "final_address": "323 Hay Pl",
    "address_councildis": "A",
    "status": "Assigned to Contractor",
    "contractor": "IV Waste",
    "rowid": "949107",
    "final_x": "3665281.25101",
    "final_y": "554341.47996",
    "longitude": "-90.11851950187467",
    "latitude": "30.01872950080195",
    "geocoded_column": {
      "latitude": "30.01872950080195",
      "longitude": "-90.11851950187467"
    }
  },