[
  {
    "service_request": "2024-1137088",
    "request_type": "Property Maintenance",
    "request_reason": "Property Maintenance",
    "date_created": "2024-09-30T22:10:38.000",
    "date_modified": "2024-09-30T22:10:38.000",
    "request_status": "Pending",
    "responsible_agency": "Department of Code Enforcement",
    "final_address": "2608 Valence St",
    "address_councildis": "B",
    "status": "Pending",
    "rowid": "1137088",
    "final_x": "3669331.56282",
    "final_y": "524369.891644",
    "longitude": "-90.10673566646433",
    "latitude": "29.936199065173998",
    "geocoded_column": {
      "latitude": "29.936199065173998",
      "longitude": "-90.10673566646433"
    }
  },
  {
    "service_request": "2024-1137087",
    "request_type": "Trash/Recycling",
    "request_reason": "Request a Large Item Pick Up",
    "date_created": "2024-09-30T22:04:29.000",
    "date_modified": "2024-09-30T22:04:30.000",
    "request_status": "Pending",
    "responsible_agency": "Department of Sanitation",
    "final_address": "1220 Pine St",
    "address_councildis": "A",
    "status": "Assigned to Contractor",
    "contractor": "IV Waste",
    "rowid": "1137087",
    "final_x": "3664013.76916",
    "final_y": "526859.549566",
    "longitude": "-90.12344118027413",
    "latitude": "29.943200286893845",
    "geocoded_column": {
      "latitude": "29.943200286893845",
      "longitude": "-90.12344118027413"
    }
  },
  {
    "service_request": "2024-1137086",
    "request_type": "Trash/Recycling",
    "request_reason": "Request a Large Item Pick Up",
    "date_created": "2024-09-30T21:40:19.000",
    "date_modified": "2024-09-30T21:40:20.000",
    "request_status": "Pending",
    "responsible_agency": "Department of Sanitation",
    "final_address": "10917 N Hardy St",
    "address_councildis": "E",
    "status": "Assigned to Contractor",
    "contractor": "Waste Pro",
    "rowid": "1137086",
    "final_x": "3712525.85714",
    "final_y": "562118.664607",
    "longitude": "-89.96895239604406",
    "latitude": "30.038651810587094",
    "geocoded_column": {
      "latitude": "30.038651810587094",
      "longitude": "-89.96895239604406"
    }
  },
  {
    "service_request": "2024-1137085",
    "request_type": "Parks & Parkways",
    "request_reason": "Tree Stump (removal, grind)",
    "date_created": "2024-09-30T21:34:34.000",
    "date_modified": "2024-09-30T21:34:34.000",
    "request_status": "Pending",
    "responsible_agency": "Department of Parks & Parkway",
    "final_address": "7504 Read Blvd",
    "address_councildis": "E",
    "status": "Pending",
    "rowid": "1137085",
    "final_x": "3708580.93848",
    "final_y": "564204.077473",
    "longitude": "-89.98134154023148",
    "latitude": "30.04451443267971",
    "geocoded_column": {
      "latitude": "30.04451443267971",
      "longitude": "-89.98134154023148"
    }
  },
  {
    "service_request": "2024-1137084",
    "request_type": "General Services",
    "request_reason": "General Service Request",
    "date_created": "2024-09-30T21:32:00.000",
    "date_modified": "2024-09-30T21:32:00.000",
    "request_status": "Pending",
    "responsible_agency": "Orleans Parish Communication District",
    "final_address": "7510 Shaw Ave",
    "address_councildis": "E",
    "status": "Pending",
    "rowid": "1137084",
    "final_x": "3707335.94417",
    "final_y": "563898.662689",
    "longitude": "-89.98528761492565",
    "latitude": "30.043714996477608",
    "geocoded_column": {
      "latitude": "30.043714996477608",
      "longitude": "-89.98528761492565"
    }
  },
  {
    "service_request": "2024-1137083",
    "request_type": "General Services",
    "request_reason": "General Service Request",
    "date_created": "2024-09-30T21:30:15.000",
    "date_modified": "2024-09-30T21:30:15.000",
    "request_status": "Pending",
    "responsible_agency": "Orleans Parish Communication District",
    "final_address": "7510 Shaw Ave",
    "address_councildis": "E",
    "status": "Pending",
    "rowid": "1137083",
    "final_x": "3707335.94417",
    "final_y": "563898.662689",
    "longitude": "-89.98528761492565",
    "latitude": "30.043714996477608",
    "geocoded_column": {
      "latitude": "30.043714996477608",
      "longitude": "-89.98528761492565"
    }
  },
  {
    "service_request": "2024-1137082",
    "request_type": "General Services",
    "request_reason": "General Service Request",
    "date_created": "2024-09-30T21:28:32.000",
    "date_modified": "2024-09-30T21:28:32.000",
    "request_status": "Pending",
    "responsible_agency": "Orleans Parish Communication District",
    "final_address": "7612 Weaver Ave",
    "address_councildis": "E",
    "status": "Pending",
    "rowid": "1137082",
    "final_x": "3707383.82609",
    "final_y": "564333.100577",
    "longitude": "-89.98512013360639",
    "latitude": "30.044907978409206",
    "geocoded_column": {
      "latitude": "30.044907978409206",
      "longitude": "-89.98512013360639"
    }
  },
  {
    "service_request": "2024-1137081",
    "request_type": "General Services",
    "request_reason": "General Service Request",
    "date_created": "2024-09-30T21:26:44.000",
    "date_modified": "2024-09-30T21:26:44.000",
    "request_status": "Pending",
    "responsible_agency": "Orleans Parish Communication District",
    "final_address": "7701 Weaver Ave",
    "address_councildis": "E",
    "status": "Pending",
    "rowid": "1137081",
    "final_x": "3707349.17592",
    "final_y": "564574.998177",
    "longitude": "-89.9852206488666",
    "latitude": "30.04557422120668",
    "geocoded_column": {
      "latitude": "30.04557422120668",
      "longitude": "-89.9852206488666"
    }
  },
  {
    "service_request": "2024-1137080",
    "request_type": "Parks & Parkways",
    "request_reason": "Tree Stump (removal, grind)",
    "date_created": "2024-09-30T21:23:33.000",
    "date_modified": "2024-09-30T21:23:33.000",
    "request_status": "Pending",
    "responsible_agency": "Department of Parks & Parkway",
    "final_address": "7601 Weaver Ave",
    "address_councildis": "E",
    "status": "Pending",
    "rowid": "1137080",
    "final_x": "3707499.95115",
    "final_y": "564312.671137",
    "longitude": "-89.98475388682145",
    "latitude": "30.044848048167488",
    "geocoded_column": {
      "latitude": "30.044848048167488",
      "longitude": "-89.98475388682145"
    }
  },
  {
    "service_request": "2024-1137079",
    "request_type": "Property Maintenance",
    "request_reason": "Property Maintenance",
    "date_created": "2024-09-30T21:21:30.000",
    "date_modified": "2024-09-30T21:21:30.000",
    "request_status": "Pending",
    "responsible_agency": "Department of Code Enforcement",
    "final_address": "7601 Weaver Ave",
    "address_councildis": "E",
    "status": "Pending",
    "rowid": "1137079",
    "final_x": "3707499.95115",
    "final_y": "564312.671137",
    "longitude": "-89.98475388682145",
    "latitude": "30.044848048167488",
    "geocoded_column": {
      "latitude": "30.044848048167488",
      "longitude": "-89.98475388682145"
    }
  },
  {
    "service_request": "2024-1137078",
    "request_type": "Property Maintenance",
    "request_reason": "Property Maintenance",
    "date_created": "2024-09-30T21:19:51.000",
    "date_modified": "2024-09-30T21:19:51.000",
    "request_status": "Pending",
    "responsible_agency": "Department of Code Enforcement",
    "final_address": "7720 Hansbrough Ave",
    "address_councildis": "E",
    "status": "Pending",
    "rowid": "1137078",
    "final_x": "3707438.93214",
    "final_y": "564758.407266",
    "longitude": "-89.98493015615949",
    "latitude": "30.04607561899579",
    "geocoded_column": {
      "latitude": "30.04607561899579",
      "longitude": "-89.98493015615949"
    }
  },
  {
    "service_request": "2024-1137077",
    "request_type": "Property Maintenance",
    "request_reason": "Property Maintenance",
    "date_created": "2024-09-30T21:18:47.000",
    "date_modified": "2024-09-30T21:18:47.000",
    "request_status": "Pending",
    "responsible_agency": "Department of Code Enforcement",
    "final_address": "7530 Hansbrough Ave",
    "address_councildis": "E",
    "status": "Pending",
    "rowid": "1137077",
    "final_x": "3707712.96792",
    "final_y": "564253.205665",
    "longitude": "-89.98408287281936",
    "latitude": "30.044677646667182",
    "geocoded_column": {
      "latitude": "30.044677646667182",
      "longitude": "-89.98408287281936"
    }
  },
  {
    "service_request": "2024-1137076",
    "request_type": "Property Maintenance",
    "request_reason": "Property Maintenance",
    "date_created": "2024-09-30T21:17:17.000",
    "date_modified": "2024-09-30T21:17:17.000",
    "request_status": "Pending",
    "responsible_agency": "Department of Code Enforcement",
    "final_address": "7330 Symmes Ave",
    "address_councildis": "E",
    "status": "Pending",
    "rowid": "1137076",
    "final_x": "3708318.0147",
    "final_y": "563687.829601",
    "longitude": "-89.98219173154258",
    "latitude": "30.043103484680575",
    "geocoded_column": {
      "latitude": "30.043103484680575",
      "longitude": "-89.98219173154258"
    }
  },
  {
    "service_request": "2024-1137075",
    "request_type": "Property Maintenance",
    "request_reason": "Property Maintenance",
    "date_created": "2024-09-30T21:15:59.000",
    "date_modified": "2024-09-30T21:15:59.000",
    "request_status": "Pending",
    "responsible_agency": "Department of Code Enforcement",
    "final_address": "7341 Symmes Ave",
    "address_councildis": "E",
    "status": "Pending",
    "rowid": "1137075",
    "final_x": "3708361.1331",
    "final_y": "563779.743457",
    "longitude": "-89.98205203511188",
    "latitude": "30.043354813006193",
    "geocoded_column": {
      "latitude": "30.043354813006193",
      "longitude": "-89.98205203511188"
    }
  },
  {
    "service_request": "2024-1137074",
    "request_type": "Property Maintenance",
    "request_reason": "Property Maintenance",
    "date_created": "2024-09-30T21:14:53.000",
    "date_modified": "2024-09-30T21:14:53.000",
    "request_status": "Pending",
    "responsible_agency": "Department of Code Enforcement",
    "final_address": "7521 Symmes Ave",
    "address_councildis": "E",
    "status": "Pending",
    "rowid": "1137074",
    "final_x": "3708059.00625",
    "final_y": "564384.981857",
    "longitude": "-89.98298433291292",
    "latitude": "30.04502877019775",
    "geocoded_column": {
      "latitude": "30.04502877019775",
      "longitude": "-89.98298433291292"
    }
  },
  {
    "service_request": "2024-1137073",
    "request_type": "General Services",
    "request_reason": "General Service Request",
    "date_created": "2024-09-30T21:13:44.000",
    "date_modified": "2024-09-30T21:13:44.000",
    "request_status": "Pending",
    "responsible_agency": "Orleans Parish Communication District",
    "final_address": "WALES ST & LAMB RD",
    "address_councildis": "E",
    "status": "Pending",
    "rowid": "1137073",
    "final_x": "3696725.0",
    "final_y": "560008.88",
    "longitude": "-90.01896363469118",
    "latitude": "30.03335857682752",
    "geocoded_column": {
      "latitude": "30.03335857682752",
      "longitude": "-90.01896363469118"
    }
  },
  {
    "service_request": "2024-1137072",
    "request_type": "General Services",
    "request_reason": "General Service Request",
    "date_created": "2024-09-30T21:12:41.000",
    "date_modified": "2024-09-30T21:12:41.000",
    "request_status": "Pending",
    "responsible_agency": "Orleans Parish Communication District",
    "final_address": "7710 Shubrick Ave",
    "address_councildis": "E",
    "status": "Pending",
    "rowid": "1137072",
    "final_x": "3706607.09438",
    "final_y": "563881.954593",
    "longitude": "-89.98759169677685",
    "latitude": "30.043692612843035",
    "geocoded_column": {
      "latitude": "30.043692612843035",
      "longitude": "-89.98759169677685"
    }
  },
  {
    "service_request": "2024-1137071",
    "request_type": "Roads and Streets",
    "request_reason": "Pothole",
    "date_created": "2024-09-30T21:09:05.000",
    "date_modified": "2024-09-30T21:09:05.000",
    "request_status": "Pending",
    "responsible_agency": "Department of Public Works",
    "final_address": "7520 Shubrick Ave",
    "address_councildis": "E",
    "status": "Pending",
    "rowid": "1137071",
    "final_x": "3706888.1482",
    "final_y": "563371.669792",
    "longitude": "-89.98672240562287",
    "latitude": "30.042280453526917",
    "geocoded_column": {
      "latitude": "30.042280453526917",
      "longitude": "-89.98672240562287"
    }
  },
  {
    "service_request": "2024-1137070",
    "request_type": "Parks & Parkways",
    "request_reason": "Tree Stump (removal, grind)",
    "date_created": "2024-09-30T21:07:15.000",
    "date_modified": "2024-09-30T21:07:15.000",
    "request_status": "Pending",
    "responsible_agency": "Department of Parks & Parkway",
    "final_address": "7351 Poitevent Ave",
    "address_councildis": "E",
    "status": "Pending",
    "rowid": "1137070",
    "final_x": "3707457.91595",
    "final_y": "563345.138336",
    "longitude": "-89.98492272100248",
    "latitude": "30.042189078808644",
    "geocoded_column": {
      "latitude": "30.042189078808644",
      "longitude": "-89.98492272100248"
    }
  },
  {
    "service_request": "2024-1137069",
    "request_type": "Property Maintenance",
    "request_reason": "Property Maintenance",
    "date_created": "2024-09-30T21:05:35.000",
    "date_modified": "2024-09-30T21:05:35.000",
    "request_status": "Pending",
    "responsible_agency": "Department of Code Enforcement",
    "final_address": "7501 Poitevent Ave",
    "address_councildis": "E",
    "status": "Pending",
    "rowid": "1137069",
    "final_x": "3707229.04766",
    "final_y": "563759.984545",
    "longitude": "-89.98563060623043",
    "latitude": "30.043337144320457",
    "geocoded_column": {
      "latitude": "30.043337144320457",
      "longitude": "-89.98563060623043"
    }
  },
  {
    "service_request": "2024-1137068",
    "request_type": "Property Maintenance",
    "request_reason": "Property Maintenance",
    "date_created": "2024-09-30T21:02:43.000",
    "date_modified": "2024-09-30T21:02:43.000",
    "request_status": "Pending",
    "responsible_agency": "Department of Code Enforcement",
    "final_address": "7320 Shaw Ave",
    "address_councildis": "E",
    "status": "Pending",
    "rowid": "1137068",
    "final_x": "3707691.56843",
    "final_y": "563262.666016",
    "longitude": "-89.98418736461757",
    "latitude": "30.041954750358094",
    "geocoded_column": {
      "latitude": "30.041954750358094",
      "longitude": "-89.98418736461757"
    }
  },
  {
    "service_request": "2024-1137067",
    "request_type": "Property Maintenance",
    "request_reason": "Property Maintenance",
    "date_created": "2024-09-30T21:00:42.000",
    "date_modified": "2024-09-30T21:00:42.000",
    "request_status": "Pending",
    "responsible_agency": "Department of Code Enforcement",
    "final_address": "8002 Trapier Ave",
    "address_councildis": "E",
    "status": "Pending",
    "rowid": "1137067",
    "final_x": "3706013.84548",
    "final_y": "564399.945697",
    "longitude": "-89.98944740423852",
    "latitude": "30.045136026898973",
    "geocoded_column": {
      "latitude": "30.045136026898973",
      "longitude": "-89.98944740423852"
    }
  },
  {
    "service_request": "2024-1137066",
    "request_type": "Property Maintenance",
    "request_reason": "Property Maintenance",
    "date_created": "2024-09-30T20:56:37.000",
    "date_modified": "2024-09-30T20:56:37.000",
    "request_status": "Pending",
    "responsible_agency": "Department of Code Enforcement",
    "final_address": "7627 Burke Ave",
    "address_councildis": "E",
    "status": "Pending",
    "rowid": "1137066",
    "final_x": "3705462.76139",
    "final_y": "562975.265248",
    "longitude": "-89.99124181793228",
    "latitude": "30.04123648087744",
    "geocoded_column": {
      "latitude": "30.04123648087744",
      "longitude": "-89.99124181793228"
    }
  },
  {
    "service_request": "2024-1137065",
    "request_type": "Street and Traffic Signs",
    "request_reason": "Additional Signage Request",
    "date_created": "2024-09-30T20:54:10.000",
    "date_modified": "2024-09-30T20:54:10.000",
    "request_status": "Pending",
    "responsible_agency": "Department of Public Works",
    "final_address": "2801 N Rampart St",
    "address_councildis": "C",
    "status": "Pending",
    "rowid": "1137065",
    "final_x": "3687649.23913",
    "final_y": "535905.843783",
    "longitude": "-90.04849800074929",
    "latitude": "29.96736709522254",
    "geocoded_column": {
      "latitude": "29.96736709522254",
      "longitude": "-90.04849800074929"
    }
  },
  {
    "service_request": "2024-1137064",
    "request_type": "Property Maintenance",
    "request_reason": "Property Maintenance",
    "date_created": "2024-09-30T20:54:02.000",
    "date_modified": "2024-09-30T20:54:02.000",
    "request_status": "Pending",
    "responsible_agency": "Department of Code Enforcement",
    "final_address": "7530 Burke Ave",
    "address_councildis": "E",
    "status": "Pending",
    "rowid": "1137064",
    "final_x": "3705518.27031",
    "final_y": "562710.52528",
    "longitude": "-89.99107619237093",
    "latitude": "30.040506762886057",
    "geocoded_column": {
      "latitude": "30.040506762886057",
      "longitude": "-89.99107619237093"
    }
  },
  {
    "service_request": "2024-1137063",
    "request_type": "Property Maintenance",
    "request_reason": "Property Maintenance",
    "date_created": "2024-09-30T20:51:59.000",
    "date_modified": "2024-09-30T20:51:59.000",
    "request_status": "Pending",
    "responsible_agency": "Department of Code Enforcement",
    "final_address": "7500 BLK Burke Ave",
    "address_councildis": "E",
    "status": "Pending",
    "rowid": "1137063",
    "final_x": "3705525.59777",
    "final_y": "562779.346014",
    "longitude": "-89.99105048752334",
    "latitude": "30.040695756670818",
    "geocoded_column": {
      "latitude": "30.040695756670818",
      "longitude": "-89.99105048752334"
    }
  },
  {
    "service_request": "2024-1137062",
    "request_type": "Streetlights",
    "request_reason": "Streetlight Outage/Malfunction",
    "date_created": "2024-09-30T20:45:49.000",
    "date_modified": "2024-09-30T20:45:51.000",
    "request_status": "Pending",
    "responsible_agency": "Department of Public Works",
    "final_address": "225 Lowerline St",
    "address_councildis": "A",
    "status": "Pending",
    "contractor": "Legacy Professional Services",
    "rowid": "1137062",
    "final_x": "3661139.01837",
    "final_y": "522963.206459",
    "longitude": "-90.13264644427757",
    "latitude": "29.932569725915478",
    "geocoded_column": {
      "latitude": "29.932569725915478",
      "longitude": "-90.13264644427757"
    }
  },
  {
    "service_request": "2024-1137061",
    "request_type": "Parks & Parkways",
    "request_reason": "Tree Stump (removal, grind)",
    "date_created": "2024-09-30T20:45:21.000",
    "date_modified": "2024-09-30T20:45:21.000",
    "request_status": "Pending",
    "responsible_agency": "Department of Parks & Parkway",
    "final_address": "7922 Vanderkloot Ave",
    "address_councildis": "E",
    "status": "Pending",
    "rowid": "1137061",
    "final_x": "3705343.25425",
    "final_y": "563989.178785",
    "longitude": "-89.9915819780603",
    "latitude": "30.04402818958798",
    "geocoded_column": {
      "latitude": "30.04402818958798",
      "longitude": "-89.9915819780603"
    }
  },
  {
    "service_request": "2024-1137060",
    "request_type": "Abandoned Vehicles",
    "request_reason": "Abandoned/Junk Vehicles",
    "date_created": "2024-09-30T20:42:56.000",
    "date_modified": "2024-09-30T20:42:56.000",
    "request_status": "Pending",
    "responsible_agency": "Department of Public Works",
    "final_address": "8018 Brevard Ave",
    "address_councildis": "E",
    "status": "Pending",
    "rowid": "1137060",
    "final_x": "3705687.41572",
    "final_y": "564591.927009",
    "longitude": "-89.99047195922661",
    "latitude": "30.04567442198553",
    "geocoded_column": {
      "latitude": "30.04567442198553",
      "longitude": "-89.99047195922661"
    }
  },
  {
    "service_request": "2024-1137059",
    "request_type": "Trash/Recycling",
    "request_reason": "Replace Trash Cart",
    "date_created": "2024-09-30T20:38:31.000",
    "date_modified": "2024-09-30T20:38:32.000",
    "request_status": "Pending",
    "responsible_agency": "Department of Sanitation",
    "final_address": "2503 Acacia St",
    "address_councildis": "D",
    "status": "Assigned to Contractor",
    "contractor": "IV Waste",
    "rowid": "1137059",
    "final_x": "3686275.86166",
    "final_y": "546370.99144",
    "longitude": "-90.05246570250048",
    "latitude": "29.99618482431744",
    "geocoded_column": {
      "latitude": "29.99618482431744",
      "longitude": "-90.05246570250048"
    }
  },
  {
    "service_request": "2024-1137058",
    "request_type": "Roads and Streets",
    "request_reason": "Street Subsidence (Sinking)",
    "date_created": "2024-09-30T20:37:44.000",
    "date_modified": "2024-09-30T20:37:44.000",
    "request_status": "Pending",
    "responsible_agency": "Department of Public Works",
    "final_address": "5110 Press Dr",
    "address_councildis": "D",
    "status": "Pending",
    "rowid": "1137058",
    "final_x": "3689290.60713",
    "final_y": "552190.397078",
    "longitude": "-90.04273531408613",
    "latitude": "30.012093056339886",
    "geocoded_column": {
      "latitude": "30.012093056339886",
      "longitude": "-90.04273531408613"
    }
  },
  {
    "service_request": "2024-1137057",
    "request_type": "Property Maintenance",
    "request_reason": "Property Maintenance",
    "date_created": "2024-09-30T20:34:41.000",
    "date_modified": "2024-09-30T20:34:41.000",
    "request_status": "Pending",
    "responsible_agency": "Department of Code Enforcement",
    "final_address": "8007 Brevard Ave",
    "address_councildis": "E",
    "status": "Pending",
    "rowid": "1137057",
    "final_x": "3705848.75684",
    "final_y": "564445.096545",
    "longitude": "-89.98996748606044",
    "latitude": "30.045265496606586",
    "geocoded_column": {
      "latitude": "30.045265496606586",
      "longitude": "-89.98996748606044"
    }
  },
  {
    "service_request": "2024-1137056",
    "request_type": "Roads and Streets",
    "request_reason": "Pothole",
    "date_created": "2024-09-30T20:33:50.000",
    "date_modified": "2024-09-30T20:33:50.000",
    "request_status": "Pending",
    "responsible_agency": "Department of Public Works",
    "final_address": "7100 BLK Green St",
    "address_councildis": "A",
    "status": "Pending",
    "rowid": "1137056",
    "final_x": "3665287.56046",
    "final_y": "527874.794104",
    "longitude": "-90.11938552580635",
    "latitude": "29.945954838399697",
    "geocoded_column": {
      "latitude": "29.945954838399697",
      "longitude": "-90.11938552580635"
    }
  },
  {
    "service_request": "2024-1137055",
    "request_type": "Property Maintenance",
    "request_reason": "Property Maintenance",
    "date_created": "2024-09-30T20:32:27.000",
    "date_modified": "2024-09-30T20:32:27.000",
    "request_status": "Pending",
    "responsible_agency": "Department of Code Enforcement",
    "final_address": "7601 Brevard Ave",
    "address_councildis": "E",
    "status": "Pending",
    "rowid": "1137055",
    "final_x": "3706473.24107",
    "final_y": "563323.544224",
    "longitude": "-89.9880354477474",
    "latitude": "30.04216152809725",
    "geocoded_column": {
      "latitude": "30.04216152809725",
      "longitude": "-89.9880354477474"
    }
  },
  {
    "service_request": "2024-1137054",
    "request_type": "Property Maintenance",
    "request_reason": "Property Maintenance",
    "date_created": "2024-09-30T20:31:02.000",
    "date_modified": "2024-09-30T20:31:02.000",
    "request_status": "Pending",
    "responsible_agency": "Department of Code Enforcement",
    "final_address": "7831 Brevard Ave",
    "address_councildis": "E",
    "status": "Pending",
    "rowid": "1137054",
    "final_x": "3706064.00631",
    "final_y": "564058.102369",
    "longitude": "-89.98930154588817",
    "latitude": "30.04419447602943",
    "geocoded_column": {
      "latitude": "30.04419447602943",
      "longitude": "-89.98930154588817"
    }
  },
  {
    "service_request": "2024-1137053",
    "request_type": "Parks & Parkways",
    "request_reason": "Request Grass Cutting Service (City Owned Property)",
    "date_created": "2024-09-30T20:29:29.000",
    "date_modified": "2024-09-30T20:29:29.000",
    "request_status": "Pending",
    "responsible_agency": "Department of Parks & Parkway",
    "final_address": "7831 Brevard Ave",
    "address_councildis": "E",
    "status": "Pending",
    "rowid": "1137053",
    "final_x": "3706064.00631",
    "final_y": "564058.102369",
    "longitude": "-89.98930154588817",
    "latitude": "30.04419447602943",
    "geocoded_column": {
      "latitude": "30.04419447602943",
      "longitude": "-89.98930154588817"
    }
  },
  {
    "service_request": "2024-1137052",
    "request_type": "Roads and Streets",
    "request_reason": "Pothole",
    "date_created": "2024-09-30T20:29:09.000",
    "date_modified": "2024-09-30T20:29:09.000",
    "request_status": "Pending",
    "responsible_agency": "Department of Public Works",
    "final_address": "7100 BLK Birch St",
    "address_councildis": "A",
    "status": "Pending",
    "rowid": "1137052",
    "final_x": "3665089.40666",
    "final_y": "527581.47284",
    "longitude": "-90.12002097345568",
    "latitude": "29.94515407027903",
    "geocoded_column": {
      "latitude": "29.94515407027903",
      "longitude": "-90.12002097345568"
    }
  },
  {
    "service_request": "2024-1137051",
    "request_type": "Trash/Recycling",
    "request_reason": "Repair Trash Cart",
    "date_created": "2024-09-30T20:28:32.000",
    "date_modified": "2024-09-30T20:28:33.000",
    "request_status": "Pending",
    "responsible_agency": "Department of Sanitation",
    "final_address": "912 Picheloup Pl",
    "address_councildis": "A",
    "status": "Assigned to Contractor",
    "contractor": "IV Waste",
    "rowid": "1137051",
    "final_x": "3673637.10702",
    "final_y": "540345.850955",
    "longitude": "-90.09259677801116",
    "latitude": "29.98000018914525",
    "geocoded_column": {
      "latitude": "29.98000018914525",
      "longitude": "-90.09259677801116"
    }
  },
  {
    "service_request": "2024-1137050",
    "request_type": "Parks & Parkways",
    "request_reason": "Tree Stump (removal, grind)",
    "date_created": "2024-09-30T20:26:56.000",
    "date_modified": "2024-09-30T20:26:56.000",
    "request_status": "Pending",
    "responsible_agency": "Department of Parks & Parkway",
    "final_address": "7601 Brevard Ave",
    "address_councildis": "E",
    "status": "Pending",
    "rowid": "1137050",
    "final_x": "3706473.24107",
    "final_y": "563323.544224",
    "longitude": "-89.9880354477474",
    "latitude": "30.04216152809725",
    "geocoded_column": {
      "latitude": "30.04216152809725",
      "longitude": "-89.9880354477474"
    }
  },
  {
    "service_request": "2024-1137049",
    "request_type": "Parks & Parkways",
    "request_reason": "Tree Stump (removal, grind)",
    "date_created": "2024-09-30T20:22:47.000",
    "date_modified": "2024-09-30T20:22:47.000",
    "request_status": "Pending",
    "responsible_agency": "Department of Parks & Parkway",
    "final_address": "7501 Brevard Ave",
    "address_councildis": "E",
    "status": "Pending",
    "rowid": "1137049",
    "final_x": "3706601.08247",
    "final_y": "563089.984544",
    "longitude": "-89.98764009202783",
    "latitude": "30.041515204045954",
    "geocoded_column": {
      "latitude": "30.041515204045954",
      "longitude": "-89.98764009202783"
    }
  },
  {
    "service_request": "2024-1137048",
    "request_type": "Parks & Parkways",
    "request_reason": "Tree Stump (removal, grind)",
    "date_created": "2024-09-30T20:19:16.000",
    "date_modified": "2024-09-30T20:19:16.000",
    "request_status": "Pending",
    "responsible_agency": "Department of Parks & Parkway",
    "final_address": "7800 BLK Read Blvd",
    "address_councildis": "E",
    "status": "Pending",
    "rowid": "1137048",
    "final_x": "3708259.1612",
    "final_y": "565073.452646",
    "longitude": "-89.98232609900498",
    "latitude": "30.04691530194497",
    "geocoded_column": {
      "latitude": "30.04691530194497",
      "longitude": "-89.98232609900498"
    }
  },
  {
    "service_request": "2024-1137047",
    "request_type": "Parks & Parkways",
    "request_reason": "Tree Stump (removal, grind)",
    "date_created": "2024-09-30T20:16:04.000",
    "date_modified": "2024-09-30T20:16:04.000",
    "request_status": "Pending",
    "responsible_agency": "Department of Parks & Parkway",
    "final_address": "7900 BLK Read Blvd",
    "address_councildis": "E",
    "status": "Pending",
    "rowid": "1137047",
    "final_x": "3707984.57218",
    "final_y": "565587.857457",
    "longitude": "-89.9831747825304",
    "latitude": "30.048338608114697",
    "geocoded_column": {
      "latitude": "30.048338608114697",
      "longitude": "-89.9831747825304"
    }
  },
  {
    "service_request": "2024-1137046",
    "request_type": "Trash/Recycling",
    "request_reason": "Missed Trash Pick-Up",
    "date_created": "2024-09-30T20:13:40.000",
    "date_modified": "2024-09-30T20:13:41.000",
    "request_status": "Pending",
    "responsible_agency": "Department of Sanitation",
    "final_address": "5118 Royal St",
    "address_councildis": "E",
    "status": "Assigned to Contractor",
    "contractor": "Waste Pro",
    "rowid": "1137046",
    "final_x": "3695982.41334",
    "final_y": "532654.616324",
    "longitude": "-90.02229931914293",
    "latitude": "29.958167811717384",
    "geocoded_column": {
      "latitude": "29.958167811717384",
      "longitude": "-90.02229931914293"
    }
  },
  {
    "service_request": "2024-1137045",
    "request_type": "Parks & Parkways",
    "request_reason": "Tree Stump (removal, grind)",
    "date_created": "2024-09-30T20:12:05.000",
    "date_modified": "2024-09-30T20:12:05.000",
    "request_status": "Pending",
    "responsible_agency": "Department of Parks & Parkway",
    "final_address": "7600 BLK Read Blvd",
    "address_councildis": "E",
    "status": "Pending",
    "rowid": "1137045",
    "final_x": "3708386.86173",
    "final_y": "564678.45278",
    "longitude": "-89.98193722431273",
    "latitude": "30.045825069982655",
    "geocoded_column": {
      "latitude": "30.045825069982655",
      "longitude": "-89.98193722431273"
    }
  },
  {
    "service_request": "2024-1137044",
    "request_type": "Parks & Parkways",
    "request_reason": "Tree Stump (removal, grind)",
    "date_created": "2024-09-30T20:07:21.000",
    "date_modified": "2024-09-30T20:07:21.000",
    "request_status": "Pending",
    "responsible_agency": "Department of Parks & Parkway",
    "final_address": "7504 Read Blvd",
    "address_councildis": "E",
    "status": "Pending",
    "rowid": "1137044",
    "final_x": "3708580.93848",
    "final_y": "564204.077473",
    "longitude": "-89.98134154023148",
    "latitude": "30.04451443267971",
    "geocoded_column": {
      "latitude": "30.04451443267971",
      "longitude": "-89.98134154023148"
    }
  },
  {
    "service_request": "2024-1137043",
    "request_type": "Mosquito, Termite & Rodent Control",
    "request_reason": "Mosquito Complaint",
    "date_created": "2024-09-30T20:07:13.000",
    "date_modified": "2024-09-30T20:07:13.000",
    "request_status": "Pending",
    "responsible_agency": "Mosquito, Termite & Rodent Control Board",
    "final_address": "15522 Dwyer Blvd",
    "address_councildis": "E",
    "status": "Pending",
    "rowid": "1137043",
    "final_x": "3730990.12096",
    "final_y": "563696.657185",
    "longitude": "-89.91053932791533",
    "latitude": "30.042373175805487",
    "geocoded_column": {
      "latitude": "30.042373175805487",
      "longitude": "-89.91053932791533"
    }
  },
  {
    "service_request": "2024-1137042",
    "request_type": "Mosquito, Termite & Rodent Control",
    "request_reason": "Rodent Complaint (Rats)",
    "date_created": "2024-09-30T20:05:12.000",
    "date_modified": "2024-09-30T20:05:12.000",
    "request_status": "Pending",
    "responsible_agency": "Mosquito, Termite & Rodent Control Board",
    "final_address": "15520 Dwyer Blvd",
    "address_councildis": "E",
    "status": "Pending",
    "rowid": "1137042",
    "final_x": "3730985.17587",
    "final_y": "563708.999265",
    "longitude": "-89.91055447174456",
    "latitude": "30.04240728018116",
    "geocoded_column": {
      "latitude": "30.04240728018116",
      "longitude": "-89.91055447174456"
    }
  },
  {
    "service_request": "2024-1137041",
    "request_type": "Trash/Recycling",
    "request_reason": "Request a Large Item Pick Up",
    "date_created": "2024-09-30T19:47:27.000",
    "date_modified": "2024-09-30T19:47:28.000",
    "request_status": "Pending",
    "responsible_agency": "Department of Sanitation",
    "final_address": "450 Pacific Ave, New Orleans, Louisiana, 70114",
    "address_councildis": "C",
    "status": "Assigned to Contractor",
    "contractor": "Richards Disposal",
    "rowid": "1137041",
    "final_x": "3688545.63318",
    "final_y": "529926.451009",
    "longitude": "-90.04587934974336",
    "latitude": "29.950898168487374",
    "geocoded_column": {
      "latitude": "29.950898168487374",
      "longitude": "-90.04587934974336"
    }
  },
  {
    "service_request": "2024-1137040",
    "request_type": "Property Maintenance",
    "request_reason": "Property Maintenance",
    "date_created": "2024-09-30T19:43:51.000",
    "date_modified": "2024-09-30T19:43:51.000",
    "request_status": "Pending",
    "responsible_agency": "Department of Code Enforcement",
    "final_address": "8445 Panola St",
    "address_councildis": "A",
    "status": "Pending",
    "rowid": "1137040",
    "final_x": "3663092.84083",
    "final_y": "531676.448195",
    "longitude": "-90.1261885774898",
    "latitude": "29.956471913500415",
    "geocoded_column": {
      "latitude": "29.956471913500415",
      "longitude": "-90.1261885774898"
    }
  },
  {
    "service_request": "2024-1137039",
    "request_type": "Abandoned Vehicles",
    "request_reason": "Abandoned/Junk Vehicles",
    "date_created": "2024-09-30T19:40:19.000",
    "date_modified": "2024-09-30T19:40:19.000",
    "request_status": "Pending",
    "responsible_agency": "Department of Public Works",
    "final_address": "7520 Means Ave",
    "address_councildis": "E",
    "status": "Pending",
    "rowid": "1137039",
    "final_x": "3708179.41041",
    "final_y": "564444.076193",
    "longitude": "-89.98260160037424",
    "latitude": "30.045187353903884",
    "geocoded_column": {
      "latitude": "30.045187353903884",
      "longitude": "-89.98260160037424"
    }
  },
  {
    "service_request": "2024-1137038",
    "request_type": "Mosquito, Termite & Rodent Control",
    "request_reason": "Mosquito Complaint",
    "date_created": "2024-09-30T19:30:06.000",
    "date_modified": "2024-09-30T19:30:06.000",
    "request_status": "Pending",
    "responsible_agency": "Mosquito, Termite & Rodent Control Board",
    "final_address": "8023 Devine Ave",
    "address_councildis": "E",
    "status": "Pending",
    "rowid": "1137038",
    "final_x": "3705068.9466",
    "final_y": "564277.553825",
    "longitude": "-89.99243823956664",
    "latitude": "30.044829935640895",
    "geocoded_column": {
      "latitude": "30.044829935640895",
      "longitude": "-89.99243823956664"
    }
  },
  {
    "service_request": "2024-1137037",
    "request_type": "Trash/Recycling",
    "request_reason": "Start Trash Service",
    "date_created": "2024-09-30T19:26:49.000",
    "date_modified": "2024-09-30T19:26:50.000",
    "request_status": "Pending",
    "responsible_agency": "Department of Sanitation",
    "final_address": "3310 Third St",
    "address_councildis": "B",
    "status": "Assigned to Contractor",
    "contractor": "IV Waste",
    "rowid": "1137037",
    "final_x": "3673005.40187",
    "final_y": "528003.615551",
    "longitude": "-90.09501325034991",
    "latitude": "29.946081969634175",
    "geocoded_column": {
      "latitude": "29.946081969634175",
      "longitude": "-90.09501325034991"
    }
  },
  {
    "service_request": "2024-1137036",
    "request_type": "Abandoned Vehicles",
    "request_reason": "Abandoned/Junk Vehicles",
    "date_created": "2024-09-30T18:35:42.000",
    "date_modified": "2024-09-30T18:35:42.000",
    "request_status": "Pending",
    "responsible_agency": "Department of Public Works",
    "final_address": "4321 Lotus St, New Orleans, Louisiana, 70122",
    "address_councildis": "D",
    "status": "Pending",
    "rowid": "1137036",
    "final_x": "3687736.93782",
    "final_y": "548656.881043",
    "longitude": "-90.04776926560801",
    "latitude": "30.002425203875195",
    "geocoded_column": {
      "latitude": "30.002425203875195",
      "longitude": "-90.04776926560801"
    }
  },
  {
    "service_request": "2024-1137035",
    "request_type": "Abandoned Vehicles",
    "request_reason": "Abandoned/Junk Vehicles",
    "date_created": "2024-09-30T18:23:37.000",
    "date_modified": "2024-09-30T18:23:37.000",
    "request_status": "Pending",
    "responsible_agency": "Department of Public Works",
    "final_address": "1000 BLK Harding Dr",
    "address_councildis": "A",
    "status": "Pending",
    "rowid": "1137035",
    "final_x": "3674626.13857",
    "final_y": "540441.689245",
    "longitude": "-90.08946971526413",
    "latitude": "29.98023422731468",
    "geocoded_column": {
      "latitude": "29.98023422731468",
      "longitude": "-90.08946971526413"
    }
  },
  {
    "service_request": "2024-1137034",
    "request_type": "Abandoned Vehicles",
    "request_reason": "Abandoned/Junk Vehicles",
    "date_created": "2024-09-30T17:58:36.000",
    "date_modified": "2024-09-30T17:58:36.000",
    "request_status": "Pending",
    "responsible_agency": "Department of Public Works",
    "final_address": "1547 Leda St",
    "address_councildis": "A",
    "status": "Pending",
    "rowid": "1137034",
    "final_x": "3675698.75361",
    "final_y": "541841.050444",
    "longitude": "-90.08603382857136",
    "latitude": "29.984049928303698",
    "geocoded_column": {
      "latitude": "29.984049928303698",
      "longitude": "-90.08603382857136"
    }
  },
  {
    "service_request": "2024-1137033",
    "request_type": "Trash/Recycling",
    "request_reason": "Damaged Caused By Contractor",
    "date_created": "2024-09-30T17:56:54.000",
    "date_modified": "2024-09-30T17:56:55.000",
    "request_status": "Pending",
    "responsible_agency": "Department of Sanitation",
    "final_address": "2407 Bayou Rd",
    "address_councildis": "D",
    "status": "Assigned to Contractor",
    "contractor": "IV Waste",
    "rowid": "1137033",
    "final_x": "3679114.22351",
    "final_y": "538553.160777",
    "longitude": "-90.07535992960436",
    "latitude": "29.974906699736003",
    "geocoded_column": {
      "latitude": "29.974906699736003",
      "longitude": "-90.07535992960436"
    }
  },
  {
    "service_request": "2024-1137032",
    "request_type": "Abandoned Vehicles",
    "request_reason": "Abandoned/Junk Vehicles",
    "date_created": "2024-09-30T17:54:31.000",
    "date_modified": "2024-09-30T17:54:31.000",
    "request_status": "Pending",
    "responsible_agency": "Department of Public Works",
    "final_address": "1547 Leda St",
    "address_councildis": "A",
    "status": "Pending",
    "rowid": "1137032",
    "final_x": "3675698.75361",
    "final_y": "541841.050444",
    "longitude": "-90.08603382857136",
    "latitude": "29.984049928303698",
    "geocoded_column": {
      "latitude": "29.984049928303698",
      "longitude": "-90.08603382857136"
    }
  },
  {
    "service_request": "2024-1137031",
    "request_type": "Trash/Recycling",
    "request_reason": "Request a Large Item Pick Up",
    "date_created": "2024-09-30T17:44:23.000",
    "date_modified": "2024-09-30T17:44:24.000",
    "request_status": "Pending",
    "responsible_agency": "Department of Sanitation",
    "final_address": "2422 Lark St",
    "address_councildis": "D",
    "status": "Assigned to Contractor",
    "contractor": "IV Waste",
    "rowid": "1137031",
    "final_x": "3684835.087",
    "final_y": "557846.080027",
    "longitude": "-90.05661310403092",
    "latitude": "30.027781336340333",
    "geocoded_column": {
      "latitude": "30.027781336340333",
      "longitude": "-90.05661310403092"
    }
  },
  {
    "service_request": "2024-1137030",
    "request_type": "Trash/Recycling",
    "request_reason": "Request a Large Item Pick Up",
    "date_created": "2024-09-30T17:42:52.000",
    "date_modified": "2024-09-30T17:42:53.000",
    "request_status": "Pending",
    "responsible_agency": "Department of Sanitation",
    "final_address": "5101 Dauphine St",
    "address_councildis": "E",
    "status": "Assigned to Contractor",
    "contractor": "Waste Pro",
    "rowid": "1137030",
    "final_x": "3695974.72054",
    "final_y": "533088.065028",
    "longitude": "-90.02230795052985",
    "latitude": "29.95935988480757",
    "geocoded_column": {
      "latitude": "29.95935988480757",
      "longitude": "-90.02230795052985"
    }
  },
  {
    "service_request": "2024-1137029",
    "request_type": "Trash/Recycling",
    "request_reason": "Return Recycling Cart",
    "date_created": "2024-09-30T17:41:19.000",
    "date_modified": "2024-09-30T17:41:19.000",
    "request_status": "Pending",
    "responsible_agency": "Department of Sanitation",
    "final_address": "3204 Chippewa St",
    "address_councildis": "B",
    "status": "Pending",
    "rowid": "1137029",
    "final_x": "3676452.27445",
    "final_y": "518575.045175",
    "longitude": "-90.0844547470312",
    "latitude": "29.92005360256853",
    "geocoded_column": {
      "latitude": "29.92005360256853",
      "longitude": "-90.0844547470312"
    }
  },
  {
    "service_request": "2024-1137028",
    "request_type": "Roads and Streets",
    "request_reason": "Pothole",
    "date_created": "2024-09-30T17:38:40.000",
    "date_modified": "2024-09-30T17:38:40.000",
    "request_status": "Pending",
    "responsible_agency": "Department of Public Works",
    "final_address": "3100 BLK Arts St",
    "address_councildis": "D",
    "status": "Pending",
    "rowid": "1137028",
    "final_x": "3686569.50018",
    "final_y": "544394.187902",
    "longitude": "-90.05160797285163",
    "latitude": "29.99074029455601",
    "geocoded_column": {
      "latitude": "29.99074029455601",
      "longitude": "-90.05160797285163"
    }
  },
  {
    "service_request": "2024-1137027",
    "request_type": "Mosquito, Termite & Rodent Control",
    "request_reason": "Non-Rodent Complaint (Mice, Possums, Snakes)",
    "date_created": "2024-09-30T17:34:19.000",
    "date_modified": "2024-09-30T17:34:19.000",
    "request_status": "Pending",
    "responsible_agency": "Mosquito, Termite & Rodent Control Board",
    "final_address": "1242 Gallier St",
    "address_councildis": "C",
    "status": "Pending",
    "rowid": "1137027",
    "final_x": "3690607.72553",
    "final_y": "536342.352519",
    "longitude": "-90.03913951757961",
    "latitude": "29.96847579309158",
    "geocoded_column": {
      "latitude": "29.96847579309158",
      "longitude": "-90.03913951757961"
    }
  },
  {
    "service_request": "2024-1137026",
    "request_type": "Abandoned Vehicles",
    "request_reason": "Abandoned/Junk Vehicles",
    "date_created": "2024-09-30T17:29:11.000",
    "date_modified": "2024-09-30T17:29:11.000",
    "request_status": "Pending",
    "responsible_agency": "Department of Public Works",
    "final_address": "800 N Olympia St",
    "address_councildis": "A",
    "status": "Pending",
    "rowid": "1137026",
    "final_x": "3671004.76564",
    "final_y": "541619.598412",
    "longitude": "-90.10086755440628",
    "latitude": "29.98358067266985",
    "geocoded_column": {
      "latitude": "29.98358067266985",
      "longitude": "-90.10086755440628"
    }
  },
  {
    "service_request": "2024-1137025",
    "request_type": "Streetlights",
    "request_reason": "Streetlight Outage/Malfunction",
    "date_created": "2024-09-30T17:26:06.000",
    "date_modified": "2024-09-30T17:26:07.000",
    "request_status": "Pending",
    "responsible_agency": "Department of Public Works",
    "final_address": "MARTIN DR & COVENTRY ST",
    "address_councildis": "E",
    "status": "Pending",
    "contractor": "Legacy Professional Services",
    "rowid": "1137025",
    "final_x": "3698428.9",
    "final_y": "559628.18",
    "longitude": "-90.01359301935355",
    "latitude": "30.03225794693205",
    "geocoded_column": {
      "latitude": "30.03225794693205",
      "longitude": "-90.01359301935355"
    }
  },
  {
    "service_request": "2024-1137024",
    "request_type": "Utility Poles",
    "request_reason": "Utility Pole Leaning",
    "date_created": "2024-09-30T17:22:49.000",
    "date_modified": "2024-09-30T17:22:55.000",
    "request_status": "Pending",
    "responsible_agency": "Utility Company Collective",
    "final_address": "6901 Chef Menteur Hwy",
    "address_councildis": "E",
    "status": "Pending",
    "rowid": "1137024",
    "final_x": "3700463.2874",
    "final_y": "552798.703318",
    "longitude": "-90.00741398701398",
    "latitude": "30.013414917708513",
    "geocoded_column": {
      "latitude": "30.013414917708513",
      "longitude": "-90.00741398701398"
    }
  },
  {
    "service_request": "2024-1137023",
    "request_type": "Roads and Streets",
    "request_reason": "Push-up/Pavement Expansion",
    "date_created": "2024-09-30T17:13:20.000",
    "date_modified": "2024-09-30T17:13:20.000",
    "request_status": "Pending",
    "responsible_agency": "Department of Public Works",
    "final_address": "7500 BLK Read Blvd",
    "address_councildis": "E",
    "status": "Pending",
    "rowid": "1137023",
    "final_x": "3708613.86161",
    "final_y": "564433.693099",
    "longitude": "-89.98122892578229",
    "latitude": "30.04514471559605",
    "geocoded_column": {
      "latitude": "30.04514471559605",
      "longitude": "-89.98122892578229"
    }
  },
  {
    "service_request": "2024-1137022",
    "request_type": "Trash/Recycling",
    "request_reason": "Request a Large Item Pick Up",
    "date_created": "2024-09-30T17:09:35.000",
    "date_modified": "2024-09-30T17:09:36.000",
    "request_status": "Pending",
    "responsible_agency": "Department of Sanitation",
    "final_address": "1304 General Collins Ave",
    "address_councildis": "C",
    "status": "Assigned to Contractor",
    "contractor": "Richards Disposal",
    "rowid": "1137022",
    "final_x": "3698663.07114",
    "final_y": "526428.838078",
    "longitude": "-90.01406093966072",
    "latitude": "29.94096450220464",
    "geocoded_column": {
      "latitude": "29.94096450220464",
      "longitude": "-90.01406093966072"
    }
  },
  {
    "service_request": "2024-1137021",
    "request_type": "Property Maintenance",
    "request_reason": "Property Maintenance",
    "date_created": "2024-09-30T17:06:22.000",
    "date_modified": "2024-09-30T17:06:22.000",
    "request_status": "Pending",
    "responsible_agency": "Department of Code Enforcement",
    "final_address": "7512 Read Blvd",
    "address_councildis": "E",
    "status": "Pending",
    "rowid": "1137021",
    "final_x": "3708561.42206",
    "final_y": "564270.778401",
    "longitude": "-89.98140073330406",
    "latitude": "30.04469846670807",
    "geocoded_column": {
      "latitude": "30.04469846670807",
      "longitude": "-89.98140073330406"
    }
  },
  {
    "service_request": "2024-1137020",
    "request_type": "General Services",
    "request_reason": "General Service Request",
    "date_created": "2024-09-30T17:02:05.000",
    "date_modified": "2024-09-30T17:02:05.000",
    "request_status": "Pending",
    "responsible_agency": "Orleans Parish Communication District",
    "final_address": "3812 Prytania St",
    "address_councildis": "B",
    "status": "Pending",
    "rowid": "1137020",
    "final_x": "3672893.3522",
    "final_y": "520491.488632",
    "longitude": "-90.0956232304491",
    "latitude": "29.92542938803004",
    "geocoded_column": {
      "latitude": "29.92542938803004",
      "longitude": "-90.0956232304491"
    }
  },
  {
    "service_request": "2024-1137019",
    "request_type": "Streetlights",
    "request_reason": "Streetlight Outage/Malfunction",
    "date_created": "2024-09-30T16:59:48.000",
    "date_modified": "2024-09-30T16:59:49.000",
    "request_status": "Pending",
    "responsible_agency": "Department of Public Works",
    "final_address": "4238 St Charles Ave",
    "address_councildis": "B",
    "status": "Pending",
    "contractor": "Legacy Professional Services",
    "rowid": "1137019",
    "final_x": "3671334.07195",
    "final_y": "520822.535417",
    "longitude": "-90.10053416144487",
    "latitude": "29.92638588149361",
    "geocoded_column": {
      "latitude": "29.92638588149361",
      "longitude": "-90.10053416144487"
    }
  },
  {
    "service_request": "2024-1137018",
    "request_type": "Trash/Recycling",
    "request_reason": "Request a Large Item Pick Up",
    "date_created": "2024-09-30T16:55:09.000",
    "date_modified": "2024-09-30T16:56:49.000",
    "request_status": "Pending",
    "responsible_agency": "Department of Sanitation",
    "final_address": "4510 Chantilly Dr",
    "address_councildis": "E",
    "status": "Assigned to Contractor",
    "contractor": "Waste Pro",
    "rowid": "1137018",
    "final_x": "3700920.47805",
    "final_y": "552926.678807",
    "longitude": "-90.00596483108241",
    "latitude": "30.013752247103366",
    "geocoded_column": {
      "latitude": "30.013752247103366",
      "longitude": "-90.00596483108241"
    }
  },
  {
    "service_request": "2024-1137017",
    "request_type": "Trash/Recycling",
    "request_reason": "Repair Trash Cart",
    "date_created": "2024-09-30T16:53:39.000",
    "date_modified": "2024-09-30T16:53:40.000",
    "request_status": "Pending",
    "responsible_agency": "Department of Sanitation",
    "final_address": "7611 Crestmont Rd",
    "address_councildis": "E",
    "status": "Assigned to Contractor",
    "contractor": "Waste Pro",
    "rowid": "1137017",
    "final_x": "3699756.513",
    "final_y": "560291.740765",
    "longitude": "-90.00937346677748",
    "latitude": "30.034040370881247",
    "geocoded_column": {
      "latitude": "30.034040370881247",
      "longitude": "-90.00937346677748"
    }
  },
  {
    "service_request": "2024-1137016",
    "request_type": "Trash/Recycling",
    "request_reason": "Order Second Trash Cart",
    "date_created": "2024-09-30T16:52:41.000",
    "date_modified": "2024-09-30T16:52:42.000",
    "request_status": "Pending",
    "responsible_agency": "Department of Sanitation",
    "final_address": "7122 W Laverne St",
    "address_councildis": "D",
    "status": "Assigned to Contractor",
    "contractor": "Waste Pro",
    "rowid": "1137016",
    "final_x": "3695753.36118",
    "final_y": "556787.613082",
    "longitude": "-90.02215058429694",
    "latitude": "30.024531932320134",
    "geocoded_column": {
      "latitude": "30.024531932320134",
      "longitude": "-90.02215058429694"
    }
  },
  {
    "service_request": "2024-1137015",
    "request_type": "Trash/Recycling",
    "request_reason": "Request a Large Item Pick Up",
    "date_created": "2024-09-30T16:52:39.000",
    "date_modified": "2024-09-30T16:52:40.000",
    "request_status": "Pending",
    "responsible_agency": "Department of Sanitation",
    "final_address": "3434 Calhoun St",
    "address_councildis": "A",
    "status": "Assigned to Contractor",
    "contractor": "IV Waste",
    "rowid": "1137015",
    "final_x": "3667657.38842",
    "final_y": "529382.559489",
    "longitude": "-90.11185240421449",
    "latitude": "29.950031455054148",
    "geocoded_column": {
      "latitude": "29.950031455054148",
      "longitude": "-90.11185240421449"
    }
  },
  {
    "service_request": "2024-1137014",
    "request_type": "Trash/Recycling",
    "request_reason": "Repair Trash Cart",
    "date_created": "2024-09-30T16:49:42.000",
    "date_modified": "2024-09-30T16:49:43.000",
    "request_status": "Pending",
    "responsible_agency": "Department of Sanitation",
    "final_address": "7742 Briarwood Dr",
    "address_councildis": "E",
    "status": "Assigned to Contractor",
    "contractor": "Waste Pro",
    "rowid": "1137014",
    "final_x": "3717007.29957",
    "final_y": "571447.733224",
    "longitude": "-89.95443519553656",
    "latitude": "30.064155431364313",
    "geocoded_column": {
      "latitude": "30.064155431364313",
      "longitude": "-89.95443519553656"
    }
  },
  {
    "service_request": "2024-1137013",
    "request_type": "Abandoned Vehicles",
    "request_reason": "Abandoned/Junk Vehicles",
    "date_created": "2024-09-30T16:49:07.000",
    "date_modified": "2024-09-30T16:49:56.000",
    "request_status": "Pending",
    "responsible_agency": "Department of Public Works",
    "final_address": "1426 Burgundy St",
    "address_councildis": "C",
    "status": "Pending",
    "rowid": "1137013",
    "final_x": "3683363.01653",
    "final_y": "535266.370758",
    "longitude": "-90.06205634677956",
    "latitude": "29.965740221702504",
    "geocoded_column": {
      "latitude": "29.965740221702504",
      "longitude": "-90.06205634677956"
    }
  },
  {
    "service_request": "2024-1137012",
    "request_type": "Trash/Recycling",
    "request_reason": "Order Trash Cart",
    "date_created": "2024-09-30T16:46:08.000",
    "date_modified": "2024-09-30T16:46:09.000",
    "request_status": "Pending",
    "responsible_agency": "Department of Sanitation",
    "final_address": "1213 Elysian Fields Ave",
    "address_councildis": "C",
    "status": "Assigned to Contractor",
    "contractor": "IV Waste",
    "rowid": "1137012",
    "final_x": "3685084.33634",
    "final_y": "536798.861256",
    "longitude": "-90.05656656516686",
    "latitude": "29.96990141501166",
    "geocoded_column": {
      "latitude": "29.96990141501166",
      "longitude": "-90.05656656516686"
    }
  },
  {
    "service_request": "2024-1137011",
    "request_type": "Abandoned Vehicles",
    "request_reason": "Abandoned/Junk Vehicles",
    "date_created": "2024-09-30T16:44:03.000",
    "date_modified": "2024-09-30T16:44:04.000",
    "request_status": "Pending",
    "responsible_agency": "Department of Public Works",
    "final_address": "4504 Crowder Blvd",
    "address_councildis": "E",
    "status": "Pending",
    "rowid": "1137011",
    "final_x": "3706461.61041",
    "final_y": "554207.668184",
    "longitude": "-89.98841035556916",
    "latitude": "30.017096812377172",
    "geocoded_column": {
      "latitude": "30.017096812377172",
      "longitude": "-89.98841035556916"
    }
  },
  {
    "service_request": "2024-1137010",
    "request_type": "Trash/Recycling",
    "request_reason": "Repair Trash Cart",
    "date_created": "2024-09-30T16:40:43.000",
    "date_modified": "2024-09-30T16:40:44.000",
    "request_status": "Pending",
    "responsible_agency": "Department of Sanitation",
    "final_address": "1454 Murl St",
    "address_councildis": "C",
    "status": "Assigned to Contractor",
    "contractor": "Richards Disposal",
    "rowid": "1137010",
    "final_x": "3695456.55773",
    "final_y": "526036.449598",
    "longitude": "-90.02419858337585",
    "latitude": "29.939986693184466",
    "geocoded_column": {
      "latitude": "29.939986693184466",
      "longitude": "-90.02419858337585"
    }
  },
  {
    "service_request": "2024-1137009",
    "request_type": "Trash/Recycling",
    "request_reason": "Request a Large Item Pick Up",
    "date_created": "2024-09-30T16:37:46.000",
    "date_modified": "2024-09-30T16:37:47.000",
    "request_status": "Pending",
    "responsible_agency": "Department of Sanitation",
    "final_address": "7348 Heather Ct",
    "address_councildis": "E",
    "status": "Assigned to Contractor",
    "contractor": "Waste Pro",
    "rowid": "1137009",
    "final_x": "3705409.37694",
    "final_y": "562304.348703",
    "longitude": "-89.99143536162181",
    "latitude": "30.039393444728507",
    "geocoded_column": {
      "latitude": "30.039393444728507",
      "longitude": "-89.99143536162181"
    }
  },
  {
    "service_request": "2024-1137008",
    "request_type": "Trash/Recycling",
    "request_reason": "Request a Large Item Pick Up",
    "date_created": "2024-09-30T16:37:01.000",
    "date_modified": "2024-09-30T16:37:02.000",
    "request_status": "Pending",
    "responsible_agency": "Department of Sanitation",
    "final_address": "4432 Music St",
    "address_councildis": "D",
    "status": "Assigned to Contractor",
    "contractor": "IV Waste",
    "rowid": "1137008",
    "final_x": "3685657.63823",
    "final_y": "549077.391443",
    "longitude": "-90.05432319267098",
    "latitude": "30.003645436465423",
    "geocoded_column": {
      "latitude": "30.003645436465423",
      "longitude": "-90.05432319267098"
    }
  },
  {
    "service_request": "2024-1137007",
    "request_type": "Roads and Streets",
    "request_reason": "Sidewalk Damaged or Missing",
    "date_created": "2024-09-30T16:35:48.000",
    "date_modified": "2024-09-30T16:35:48.000",
    "request_status": "Pending",
    "responsible_agency": "Department of Public Works",
    "final_address": "2726 S Carrollton Ave",
    "address_councildis": "A",
    "status": "Pending",
    "rowid": "1137007",
    "final_x": "3665735.94087",
    "final_y": "532532.562372",
    "longitude": "-90.11781382706118",
    "latitude": "29.95874911816156",
    "geocoded_column": {
      "latitude": "29.95874911816156",
      "longitude": "-90.11781382706118"
    }
  },
  {
    "service_request": "2024-1137006",
    "request_type": "Trash/Recycling",
    "request_reason": "Order Second Trash Cart",
    "date_created": "2024-09-30T16:34:45.000",
    "date_modified": "2024-09-30T16:34:46.000",
    "request_status": "Pending",
    "responsible_agency": "Department of Sanitation",
    "final_address": "411 Fairway Dr",
    "address_councildis": "A",
    "status": "Assigned to Contractor",
    "contractor": "IV Waste",
    "rowid": "1137006",
    "final_x": "3664344.38279",
    "final_y": "542361.449357",
    "longitude": "-90.1218798850125",
    "latitude": "29.98581581459609",
    "geocoded_column": {
      "latitude": "29.98581581459609",
      "longitude": "-90.1218798850125"
    }
  },
  {
    "service_request": "2024-1137005",
    "request_type": "Parks & Parkways",
    "request_reason": "Request Tree Service (Right of Way/Public Property)",
    "date_created": "2024-09-30T16:26:27.000",
    "date_modified": "2024-09-30T16:26:29.000",
    "request_status": "Pending",
    "responsible_agency": "Department of Parks & Parkway",
    "final_address": "4934 Magazine St",
    "address_councildis": "B",
    "status": "Pending",
    "rowid": "1137005",
    "final_x": "3668706.26823",
    "final_y": "518544.639607",
    "longitude": "-90.10890626422986",
    "latitude": "29.920199867454656",
    "geocoded_column": {
      "latitude": "29.920199867454656",
      "longitude": "-90.10890626422986"
    }
  },
  {
    "service_request": "2024-1137004",
    "request_type": "Streetlights",
    "request_reason": "Streetlight Outage/Malfunction",
    "date_created": "2024-09-30T16:26:17.000",
    "date_modified": "2024-09-30T16:26:18.000",
    "request_status": "Pending",
    "responsible_agency": "Department of Public Works",
    "final_address": "4528 Crowder Blvd",
    "address_councildis": "E",
    "status": "Pending",
    "contractor": "Legacy Professional Services",
    "rowid": "1137004",
    "final_x": "3706441.65169",
    "final_y": "554508.170264",
    "longitude": "-89.98846227260242",
    "latitude": "30.017923721224115",
    "geocoded_column": {
      "latitude": "30.017923721224115",
      "longitude": "-89.98846227260242"
    }
  },
  {
    "service_request": "2024-1137003",
    "request_type": "Trash/Recycling",
    "request_reason": "Request a Large Item Pick Up",
    "date_created": "2024-09-30T16:25:10.000",
    "date_modified": "2024-09-30T16:25:11.000",
    "request_status": "Pending",
    "responsible_agency": "Department of Sanitation",
    "final_address": "4801 Babylon St",
    "address_councildis": "D",
    "status": "Assigned to Contractor",
    "contractor": "Waste Pro",
    "rowid": "1137003",
    "final_x": "3696671.89968",
    "final_y": "554428.677208",
    "longitude": "-90.01933365537964",
    "latitude": "30.018016820004192",
    "geocoded_column": {
      "latitude": "30.018016820004192",
      "longitude": "-90.01933365537964"
    }
  },
  {
    "service_request": "2024-1137002",
    "request_type": "General Services",
    "request_reason": "General Service Request",
    "date_created": "2024-09-30T16:23:21.000",
    "date_modified": "2024-09-30T16:25:58.000",
    "case_close_date": "2024-09-30T11:25:58.000",
    "request_status": "Closed",
    "responsible_agency": "Orleans Parish Communication District",
    "final_address": "7825 Symmes Ave",
    "address_councildis": "E",
    "status": "Referred to External Agency",
    "rowid": "1137002",
    "final_x": "3707559.1059",
    "final_y": "565241.195938",
    "longitude": "-89.98453238809462",
    "latitude": "30.04739920567059",
    "geocoded_column": {
      "latitude": "30.04739920567059",
      "longitude": "-89.98453238809462"
    }
  },
  {
    "service_request": "2024-1137001",
    "request_type": "Streetlights",
    "request_reason": "Streetlight Outage/Malfunction",
    "date_created": "2024-09-30T16:23:07.000",
    "date_modified": "2024-09-30T16:23:08.000",
    "request_status": "Pending",
    "responsible_agency": "Department of Public Works",
    "final_address": "3406 Gentilly Blvd",
    "address_councildis": "D",
    "status": "Pending",
    "contractor": "Legacy Professional Services",
    "rowid": "1137001",
    "final_x": "3685159.75209",
    "final_y": "548375.438738",
    "longitude": "-90.05592081604571",
    "latitude": "30.00173059181488",
    "geocoded_column": {
      "latitude": "30.00173059181488",
      "longitude": "-90.05592081604571"
    }
  },
  {
    "service_request": "2024-1137000",
    "request_type": "Streetlights",
    "request_reason": "Streetlight Knocked Down/Leaning",
    "date_created": "2024-09-30T16:22:23.000",
    "date_modified": "2024-09-30T16:22:24.000",
    "request_status": "Pending",
    "responsible_agency": "Department of Public Works",
    "final_address": "7901 Chef Menteur Hwy",
    "address_councildis": "E",
    "status": "Pending",
    "contractor": "Legacy Professional Services",
    "rowid": "1137000",
    "final_x": "3704602.67908",
    "final_y": "552982.255703",
    "longitude": "-89.99432901517052",
    "latitude": "30.013787261416397",
    "geocoded_column": {
      "latitude": "30.013787261416397",
      "longitude": "-89.99432901517052"
    }
  },
  {
    "service_request": "2024-1136999",
    "request_type": "Trash/Recycling",
    "request_reason": "Order Trash Cart",
    "date_created": "2024-09-30T16:22:16.000",
    "date_modified": "2024-09-30T16:22:18.000",
    "request_status": "Pending",
    "responsible_agency": "Department of Sanitation",
    "final_address": "2415 Third St",
    "address_councildis": "B",
    "status": "Assigned to Contractor",
    "contractor": "IV Waste",
    "rowid": "1136999",
    "final_x": "3674807.51355",
    "final_y": "525399.989245",
    "longitude": "-90.0894126016952",
    "latitude": "29.93886917843749",
    "geocoded_column": {
      "latitude": "29.93886917843749",
      "longitude": "-90.0894126016952"
    }
  },
  {
    "service_request": "2024-1136998",
    "request_type": "Trash/Recycling",
    "request_reason": "Order Second Trash Cart",
    "date_created": "2024-09-30T16:20:46.000",
    "date_modified": "2024-09-30T16:20:48.000",
    "request_status": "Pending",
    "responsible_agency": "Department of Sanitation",
    "final_address": "760 St Andrew St",
    "address_councildis": "B",
    "status": "Assigned to Contractor",
    "contractor": "IV Waste",
    "rowid": "1136998",
    "final_x": "3680205.67202",
    "final_y": "521671.344761",
    "longitude": "-90.07249953673887",
    "latitude": "29.92845439521612",
    "geocoded_column": {
      "latitude": "29.92845439521612",
      "longitude": "-90.07249953673887"
    }
  },
  {
    "service_request": "2024-1136997",
    "request_type": "Trash/Recycling",
    "request_reason": "Request a Large Item Pick Up",
    "date_created": "2024-09-30T16:19:27.000",
    "date_modified": "2024-09-30T16:19:28.000",
    "request_status": "Pending",
    "responsible_agency": "Department of Sanitation",
    "final_address": "4203 DHemecourt St",
    "address_councildis": "A",
    "status": "Assigned to Contractor",
    "contractor": "IV Waste",
    "rowid": "1136997",
    "final_x": "3669371.16244",
    "final_y": "537208.574152",
    "longitude": "-90.10617656331884",
    "latitude": "29.97150005890439",
    "geocoded_column": {
      "latitude": "29.97150005890439",
      "longitude": "-90.10617656331884"
    }
  },
  {
    "service_request": "2024-1136996",
    "request_type": "Trash/Recycling",
    "request_reason": "Request a Large Item Pick Up",
    "date_created": "2024-09-30T16:17:39.000",
    "date_modified": "2024-09-30T16:17:41.000",
    "request_status": "Pending",
    "responsible_agency": "Department of Sanitation",
    "final_address": "935 Royal St",
    "address_councildis": "C",
    "status": "Assigned to Contractor",
    "contractor": "Empire Services",
    "rowid": "1136996",
    "final_x": "3683151.89551",
    "final_y": "533294.610564",
    "longitude": "-90.06279210254618",
    "latitude": "29.960324997142965",
    "geocoded_column": {
      "latitude": "29.960324997142965",
      "longitude": "-90.06279210254618"
    }
  },
  {
    "service_request": "2024-1136995",
    "request_type": "Roads and Streets",
    "request_reason": "Pothole",
    "date_created": "2024-09-30T16:16:45.000",
    "date_modified": "2024-09-30T16:16:47.000",
    "request_status": "Pending",
    "responsible_agency": "Department of Public Works",
    "final_address": "N BROAD ST & S BROAD ST & CANAL ST",
    "address_councildis": "B",
    "status": "Pending",
    "rowid": "1136995",
    "final_x": "3675402.8",
    "final_y": "535129.98",
    "longitude": "-90.0871991378467",
    "latitude": "29.965605631990954",
    "geocoded_column": {
      "latitude": "29.965605631990954",
      "longitude": "-90.0871991378467"
    }
  },
  {
    "service_request": "2024-1136994",
    "request_type": "Trash/Recycling",
    "request_reason": "Request a Large Item Pick Up",
    "date_created": "2024-09-30T16:15:02.000",
    "date_modified": "2024-09-30T16:15:03.000",
    "request_status": "Pending",
    "responsible_agency": "Department of Sanitation",
    "final_address": "7531 Pebble Dr",
    "address_councildis": "E",
    "status": "Assigned to Contractor",
    "contractor": "Waste Pro",
    "rowid": "1136994",
    "final_x": "3715540.61656",
    "final_y": "568535.393061",
    "longitude": "-89.95918185160555",
    "latitude": "30.056196149312207",
    "geocoded_column": {
      "latitude": "30.056196149312207",
      "longitude": "-89.95918185160555"
    }
  },
  {
    "service_request": "2024-1136993",
    "request_type": "Trash/Recycling",
    "request_reason": "Request a Large Item Pick Up",
    "date_created": "2024-09-30T16:11:17.000",
    "date_modified": "2024-09-30T16:11:18.000",
    "request_status": "Pending",
    "responsible_agency": "Department of Sanitation",
    "final_address": "4618 Danneel St",
    "address_councildis": "B",
    "status": "Assigned to Contractor",
    "contractor": "IV Waste",
    "rowid": "1136993",
    "final_x": "3669809.98087",
    "final_y": "522100.939514",
    "longitude": "-90.10530205200106",
    "latitude": "29.92994608455264",
    "geocoded_column": {
      "latitude": "29.92994608455264",
      "longitude": "-90.10530205200106"
    }
  },
  {
    "service_request": "2024-1136992",
    "request_type": "Street and Traffic Signs",
    "request_reason": "Additional Signage Request",
    "date_created": "2024-09-30T16:08:16.000",
    "date_modified": "2024-09-30T16:08:17.000",
    "request_status": "Pending",
    "responsible_agency": "Department of Public Works",
    "final_address": "MITHRA ST & EADS ST",
    "address_councildis": "D",
    "status": "Pending",
    "rowid": "1136992",
    "final_x": "3686960.2",
    "final_y": "552936.08",
    "longitude": "-90.05007167402832",
    "latitude": "30.014215377576498",
    "geocoded_column": {
      "latitude": "30.014215377576498",
      "longitude": "-90.05007167402832"
    }
  },
  {
    "service_request": "2024-1136991",
    "request_type": "Parks & Parkways",
    "request_reason": "Park Maintenance/Clean Up",
    "date_created": "2024-09-30T16:06:24.000",
    "date_modified": "2024-09-30T16:06:24.000",
    "request_status": "Pending",
    "responsible_agency": "Department of Parks & Parkway",
    "final_address": "6600 Spanish Fort Blvd",
    "address_councildis": "D",
    "status": "Pending",
    "rowid": "1136991",
    "final_x": "3674006.86798",
    "final_y": "556395.491546",
    "longitude": "-90.0908792615114",
    "latitude": "30.024120041952134",
    "geocoded_column": {
      "latitude": "30.024120041952134",
      "longitude": "-90.0908792615114"
    }
  },
  {
    "service_request": "2024-1136990",
    "request_type": "Trash/Recycling",
    "request_reason": "Return Trash Cart",
    "date_created": "2024-09-30T16:02:59.000",
    "date_modified": "2024-09-30T16:03:00.000",
    "request_status": "Pending",
    "responsible_agency": "Department of Sanitation",
    "final_address": "11415 Curran Rd",
    "address_councildis": "E",
    "status": "Assigned to Contractor",
    "contractor": "Waste Pro",
    "rowid": "1136990",
    "final_x": "3711405.52286",
    "final_y": "566782.739363",
    "longitude": "-89.97231784610277",
    "latitude": "30.051512770023674",
    "geocoded_column": {
      "latitude": "30.051512770023674",
      "longitude": "-89.97231784610277"
    }
  },
  {
    "service_request": "2024-1136989",
    "request_type": "Trash/Recycling",
    "request_reason": "Order Trash Cart",
    "date_created": "2024-09-30T15:58:16.000",
    "date_modified": "2024-09-30T15:58:17.000",
    "request_status": "Pending",
    "responsible_agency": "Department of Sanitation",
    "final_address": "1320 Sere St",
    "address_councildis": "D",
    "status": "Assigned to Contractor",
    "contractor": "IV Waste",
    "rowid": "1136989",
    "final_x": "3677605.49186",
    "final_y": "545287.920143",
    "longitude": "-90.07989221526083",
    "latitude": "29.993470408096677",
    "geocoded_column": {
      "latitude": "29.993470408096677",
      "longitude": "-90.07989221526083"
    }
  },
  {
    "service_request": "2024-1136988",
    "request_type": "Abandoned Vehicles",
    "request_reason": "Abandoned/Junk Vehicles",
    "date_created": "2024-09-30T15:51:04.000",
    "date_modified": "2024-09-30T15:52:17.000",
    "request_status": "Pending",
    "responsible_agency": "Department of Public Works",
    "final_address": "1717 Burdette St",
    "address_councildis": "A",
    "status": "Pending",
    "rowid": "1136988",
    "final_x": "3664114.5104",
    "final_y": "528997.224512",
    "longitude": "-90.12305182593701",
    "latitude": "29.9490752808722",
    "geocoded_column": {
      "latitude": "29.9490752808722",
      "longitude": "-90.12305182593701"
    }
  },
  {
    "service_request": "2024-1136987",
    "request_type": "Trash/Recycling",
    "request_reason": "Repair Trash Cart",
    "date_created": "2024-09-30T15:48:57.000",
    "date_modified": "2024-09-30T15:48:59.000",
    "request_status": "Pending",
    "responsible_agency": "Department of Sanitation",
    "final_address": "3930 Thalia St",
    "address_councildis": "B",
    "status": "Assigned to Contractor",
    "contractor": "IV Waste",
    "rowid": "1136987",
    "final_x": "3672287.18727",
    "final_y": "530220.508673",
    "longitude": "-90.09720539395188",
    "latitude": "29.95219901911367",
    "geocoded_column": {
      "latitude": "29.95219901911367",
      "longitude": "-90.09720539395188"
    }
  },
  {
    "service_request": "2024-1136986",
    "request_type": "Trash/Recycling",
    "request_reason": "Request a Large Item Pick Up",
    "date_created": "2024-09-30T15:48:46.000",
    "date_modified": "2024-09-30T15:48:47.000",
    "request_status": "Pending",
    "responsible_agency": "Department of Sanitation",
    "final_address": "13051 Ashland Dr",
    "address_councildis": "E",
    "status": "Assigned to Contractor",
    "contractor": "Waste Pro",
    "rowid": "1136986",
    "final_x": "3717786.62258",
    "final_y": "567540.085412",
    "longitude": "-89.95212061889477",
    "latitude": "30.05338521162476",
    "geocoded_column": {
      "latitude": "30.05338521162476",
      "longitude": "-89.95212061889477"
    }
  },
  {
    "service_request": "2024-1136985",
    "request_type": "Trash/Recycling",
    "request_reason": "Repair Recycling Cart",
    "date_created": "2024-09-30T15:48:39.000",
    "date_modified": "2024-09-30T15:48:40.000",
    "request_status": "Pending",
    "responsible_agency": "Department of Sanitation",
    "final_address": "2524 S Carrollton Ave",
    "address_councildis": "A",
    "status": "Pending",
    "rowid": "1136985",
    "final_x": "3665216.8786",
    "final_y": "532032.817219",
    "longitude": "-90.11946961656524",
    "latitude": "29.957390112452117",
    "geocoded_column": {
      "latitude": "29.957390112452117",
      "longitude": "-90.11946961656524"
    }
  },
  {
    "service_request": "2024-1136984",
    "request_type": "Trash/Recycling",
    "request_reason": "Request a Large Item Pick Up",
    "date_created": "2024-09-30T15:48:14.000",
    "date_modified": "2024-09-30T15:48:15.000",
    "request_status": "Pending",
    "responsible_agency": "Department of Sanitation",
    "final_address": "1022 First St",
    "address_councildis": "B",
    "status": "Assigned to Contractor",
    "contractor": "IV Waste",
    "rowid": "1136984",
    "final_x": "3678132.74517",
    "final_y": "521332.211961",
    "longitude": "-90.07905504109316",
    "latitude": "29.927584446778187",
    "geocoded_column": {
      "latitude": "29.927584446778187",
      "longitude": "-90.07905504109316"
    }
  },
  {
    "service_request": "2024-1136983",
    "request_type": "Trash/Recycling",
    "request_reason": "Order Trash Cart",
    "date_created": "2024-09-30T15:47:27.000",
    "date_modified": "2024-09-30T15:47:28.000",
    "request_status": "Pending",
    "responsible_agency": "Department of Sanitation",
    "final_address": "5514 Warrington Dr",
    "address_councildis": "D",
    "status": "Assigned to Contractor",
    "contractor": "IV Waste",
    "rowid": "1136983",
    "final_x": "3680770.66069",
    "final_y": "553104.984279",
    "longitude": "-90.0696216223357",
    "latitude": "30.014868951659544",
    "geocoded_column": {
      "latitude": "30.014868951659544",
      "longitude": "-90.0696216223357"
    }
  },
  {
    "service_request": "2024-1136982",
    "request_type": "Trash/Recycling",
    "request_reason": "Request a Large Item Pick Up",
    "date_created": "2024-09-30T15:43:54.000",
    "date_modified": "2024-09-30T15:43:56.000",
    "request_status": "Pending",
    "responsible_agency": "Department of Sanitation",
    "final_address": "720 Fourth St",
    "address_councildis": "B",
    "status": "Assigned to Contractor",
    "contractor": "IV Waste",
    "rowid": "1136982",
    "final_x": "3678001.0644",
    "final_y": "519872.388344",
    "longitude": "-90.07952115090451",
    "latitude": "29.923574369183704",
    "geocoded_column": {
      "latitude": "29.923574369183704",
      "longitude": "-90.07952115090451"
    }
  },
  {
    "service_request": "2024-1136981",
    "request_type": "Property Maintenance",
    "request_reason": "Property Maintenance",
    "date_created": "2024-09-30T15:42:00.000",
    "date_modified": "2024-09-30T15:42:00.000",
    "request_status": "Pending",
    "responsible_agency": "Department of Code Enforcement",
    "final_address": "7601 Weaver Ave",
    "address_councildis": "E",
    "status": "Pending",
    "rowid": "1136981",
    "final_x": "3707499.95115",
    "final_y": "564312.671137",
    "longitude": "-89.98475388682145",
    "latitude": "30.044848048167488",
    "geocoded_column": {
      "latitude": "30.044848048167488",
      "longitude": "-89.98475388682145"
    }
  },
  {
    "service_request": "2024-1136980",
    "request_type": "Trash/Recycling",
    "request_reason": "Order Trash Cart",
    "date_created": "2024-09-30T15:39:18.000",
    "date_modified": "2024-09-30T15:39:19.000",
    "request_status": "Pending",
    "responsible_agency": "Department of Sanitation",
    "final_address": "3132 Broadway St",
    "address_councildis": "B",
    "status": "Assigned to Contractor",
    "contractor": "IV Waste",
    "rowid": "1136980",
    "final_x": "3668052.17793",
    "final_y": "532389.077891",
    "longitude": "-90.1105045570084",
    "latitude": "29.958286818101765",
    "geocoded_column": {
      "latitude": "29.958286818101765",
      "longitude": "-90.1105045570084"
    }
  },
  {
    "service_request": "2024-1136979",
    "request_type": "Roads and Streets",
    "request_reason": "Pothole",
    "date_created": "2024-09-30T15:37:41.000",
    "date_modified": "2024-09-30T15:37:41.000",
    "request_status": "Pending",
    "responsible_agency": "Department of Public Works",
    "final_address": "4930 S Johnson St",
    "address_councildis": "B",
    "status": "Pending",
    "rowid": "1136979",
    "final_x": "3668951.87111",
    "final_y": "526957.405374",
    "longitude": "-90.10784700131288",
    "latitude": "29.943325063246196",
    "geocoded_column": {
      "latitude": "29.943325063246196",
      "longitude": "-90.10784700131288"
    }
  },
  {
    "service_request": "2024-1136978",
    "request_type": "Trash/Recycling",
    "request_reason": "Request a Large Item Pick Up",
    "date_created": "2024-09-30T15:36:55.000",
    "date_modified": "2024-09-30T15:36:56.000",
    "request_status": "Pending",
    "responsible_agency": "Department of Sanitation",
    "final_address": "1315 Lark St",
    "address_councildis": "D",
    "status": "Assigned to Contractor",
    "contractor": "IV Waste",
    "rowid": "1136978",
    "final_x": "3677498.8804",
    "final_y": "556748.031898",
    "longitude": "-90.07983296415483",
    "latitude": "30.024984823697828",
    "geocoded_column": {
      "latitude": "30.024984823697828",
      "longitude": "-90.07983296415483"
    }
  },
  {
    "service_request": "2024-1136977",
    "request_type": "Trash/Recycling",
    "request_reason": "Repair Recycling Cart",
    "date_created": "2024-09-30T15:35:58.000",
    "date_modified": "2024-09-30T15:35:59.000",
    "request_status": "Pending",
    "responsible_agency": "Department of Sanitation",
    "final_address": "4919 Painters St",
    "address_councildis": "D",
    "status": "Pending",
    "rowid": "1136977",
    "final_x": "3686218.61519",
    "final_y": "551101.268181",
    "longitude": "-90.05247950692889",
    "latitude": "30.0091931320259",
    "geocoded_column": {
      "latitude": "30.0091931320259",
      "longitude": "-90.05247950692889"
    }
  },
  {
    "service_request": "2024-1136976",
    "request_type": "Trash/Recycling",
    "request_reason": "Illegal Dumping",
    "date_created": "2024-09-30T15:34:07.000",
    "date_modified": "2024-09-30T15:34:08.000",
    "request_status": "Pending",
    "responsible_agency": "Department of Sanitation",
    "final_address": "N MIRO ST & TUPELO ST",
    "address_councildis": "E",
    "status": "Pending",
    "rowid": "1136976",
    "final_x": "3701076.7",
    "final_y": "537224.68",
    "longitude": "-90.0060459136643",
    "latitude": "29.97057259190875",
    "geocoded_column": {
      "latitude": "29.97057259190875",
      "longitude": "-90.0060459136643"
    }
  },
  {
    "service_request": "2024-1136975",
    "request_type": "Trash/Recycling",
    "request_reason": "Request a Large Item Pick Up",
    "date_created": "2024-09-30T15:33:56.000",
    "date_modified": "2024-09-30T15:33:57.000",
    "request_status": "Pending",
    "responsible_agency": "Department of Sanitation",
    "final_address": "461 Pine St",
    "address_councildis": "A",
    "status": "Assigned to Contractor",
    "contractor": "IV Waste",
    "rowid": "1136975",
    "final_x": "3662352.24627",
    "final_y": "524230.352252",
    "longitude": "-90.1287743155141",
    "latitude": "29.93601896467124",
    "geocoded_column": {
      "latitude": "29.93601896467124",
      "longitude": "-90.1287743155141"
    }
  },
  {
    "service_request": "2024-1136974",
    "request_type": "Trash/Recycling",
    "request_reason": "Missed Trash Pick-Up",
    "date_created": "2024-09-30T15:32:54.000",
    "date_modified": "2024-09-30T15:32:56.000",
    "request_status": "Pending",
    "responsible_agency": "Department of Sanitation",
    "final_address": "7818 Lafourche St",
    "address_councildis": "E",
    "status": "Assigned to Contractor",
    "contractor": "Waste Pro",
    "rowid": "1136974",
    "final_x": "3709740.39723",
    "final_y": "566220.262243",
    "longitude": "-89.97760176093833",
    "latitude": "30.050020462299212",
    "geocoded_column": {
      "latitude": "30.050020462299212",
      "longitude": "-89.97760176093833"
    }
  },
  {
    "service_request": "2024-1136973",
    "request_type": "Trash/Recycling",
    "request_reason": "Request a Large Item Pick Up",
    "date_created": "2024-09-30T15:32:20.000",
    "date_modified": "2024-09-30T15:32:21.000",
    "request_status": "Pending",
    "responsible_agency": "Department of Sanitation",
    "final_address": "625 N Hennessey St",
    "address_councildis": "A",
    "status": "Assigned to Contractor",
    "contractor": "IV Waste",
    "rowid": "1136973",
    "final_x": "3671471.11515",
    "final_y": "540577.057611",
    "longitude": "-90.09943003234356",
    "latitude": "29.980700240627815",
    "geocoded_column": {
      "latitude": "29.980700240627815",
      "longitude": "-90.09943003234356"
    }
  },
  {
    "service_request": "2024-1136972",
    "request_type": "Parks & Parkways",
    "request_reason": "Request Tree Service (Right of Way/Public Property)",
    "date_created": "2024-09-30T15:31:19.000",
    "date_modified": "2024-09-30T15:31:19.000",
    "request_status": "Pending",
    "responsible_agency": "Department of Parks & Parkway",
    "final_address": "PONTCHARTRAIN BLVD & 22ND ST",
    "address_councildis": "A",
    "status": "Pending",
    "rowid": "1136972",
    "final_x": "3666178.3",
    "final_y": "549280.88",
    "longitude": "-90.11585503099465",
    "latitude": "30.004788438153817",
    "geocoded_column": {
      "latitude": "30.004788438153817",
      "longitude": "-90.11585503099465"
    }
  },
  {
    "service_request": "2024-1136971",
    "request_type": "Property Maintenance",
    "request_reason": "Property Maintenance",
    "date_created": "2024-09-30T15:30:12.000",
    "date_modified": "2024-09-30T15:30:12.000",
    "request_status": "Pending",
    "responsible_agency": "Department of Code Enforcement",
    "final_address": "2755 Edna St",
    "address_councildis": "D",
    "status": "Pending",
    "rowid": "1136971",
    "final_x": "3689830.97513",
    "final_y": "545377.01416",
    "longitude": "-90.04127079785832",
    "latitude": "29.9933419950957",
    "geocoded_column": {
      "latitude": "29.9933419950957",
      "longitude": "-90.04127079785832"
    }
  },
  {
    "service_request": "2024-1136970",
    "request_type": "Trash/Recycling",
    "request_reason": "Repair Trash Cart",
    "date_created": "2024-09-30T15:29:51.000",
    "date_modified": "2024-09-30T15:29:52.000",
    "request_status": "Pending",
    "responsible_agency": "Department of Sanitation",
    "final_address": "7926 Mullet St",
    "address_councildis": "E",
    "status": "Assigned to Contractor",
    "contractor": "Waste Pro",
    "rowid": "1136970",
    "final_x": "3698714.02576",
    "final_y": "561024.308574",
    "longitude": "-90.0126411563573",
    "latitude": "30.036087727999693",
    "geocoded_column": {
      "latitude": "30.036087727999693",
      "longitude": "-90.0126411563573"
    }
  },
  {
    "service_request": "2024-1136969",
    "request_type": "Trash/Recycling",
    "request_reason": "Request a Large Item Pick Up",
    "date_created": "2024-09-30T15:29:32.000",
    "date_modified": "2024-09-30T15:29:34.000",
    "request_status": "Pending",
    "responsible_agency": "Department of Sanitation",
    "final_address": "7900 Tulsa St",
    "address_councildis": "E",
    "status": "Assigned to Contractor",
    "contractor": "Waste Pro",
    "rowid": "1136969",
    "final_x": "3704556.16682",
    "final_y": "553600.595799",
    "longitude": "-89.99445314121516",
    "latitude": "30.015488954231287",
    "geocoded_column": {
      "latitude": "30.015488954231287",
      "longitude": "-89.99445314121516"
    }
  },
  {
    "service_request": "2024-1136968",
    "request_type": "Trash/Recycling",
    "request_reason": "Request a Large Item Pick Up",
    "date_created": "2024-09-30T15:29:25.000",
    "date_modified": "2024-09-30T15:29:27.000",
    "request_status": "Pending",
    "responsible_agency": "Department of Sanitation",
    "final_address": "7425 Mayo Rd",
    "address_councildis": "E",
    "status": "Assigned to Contractor",
    "contractor": "Waste Pro",
    "rowid": "1136968",
    "final_x": "3701059.73137",
    "final_y": "560329.909533",
    "longitude": "-90.00525376107944",
    "latitude": "30.034103851870203",
    "geocoded_column": {
      "latitude": "30.034103851870203",
      "longitude": "-90.00525376107944"
    }
  },
  {
    "service_request": "2024-1136967",
    "request_type": "Trash/Recycling",
    "request_reason": "Request a Large Item Pick Up",
    "date_created": "2024-09-30T15:28:08.000",
    "date_modified": "2024-09-30T15:28:09.000",
    "request_status": "Pending",
    "responsible_agency": "Department of Sanitation",
    "final_address": "7644 Forum Blvd",
    "address_councildis": "E",
    "status": "Assigned to Contractor",
    "contractor": "Waste Pro",
    "rowid": "1136967",
    "final_x": "3719997.70738",
    "final_y": "573096.229161",
    "longitude": "-89.94491925307459",
    "latitude": "30.068588814338728",
    "geocoded_column": {
      "latitude": "30.068588814338728",
      "longitude": "-89.94491925307459"
    }
  },
  {
    "service_request": "2024-1136966",
    "request_type": "Trash/Recycling",
    "request_reason": "Replace Recycling Cart",
    "date_created": "2024-09-30T15:27:36.000",
    "date_modified": "2024-09-30T15:27:36.000",
    "request_status": "Pending",
    "responsible_agency": "Department of Sanitation",
    "final_address": "3306 Octavia St",
    "address_councildis": "A",
    "status": "Pending",
    "rowid": "1136966",
    "final_x": "3668360.82855",
    "final_y": "527792.686335",
    "longitude": "-90.1096849165814",
    "latitude": "29.94563918329579",
    "geocoded_column": {
      "latitude": "29.94563918329579",
      "longitude": "-90.1096849165814"
    }
  },
  {
    "service_request": "2024-1136965",
    "request_type": "Trash/Recycling",
    "request_reason": "Repair Recycling Cart",
    "date_created": "2024-09-30T15:26:37.000",
    "date_modified": "2024-09-30T15:27:09.000",
    "request_status": "Pending",
    "responsible_agency": "Department of Sanitation",
    "final_address": "5 Everglades Dr",
    "address_councildis": "C",
    "status": "Pending",
    "rowid": "1136965",
    "final_x": "3700103.71255",
    "final_y": "516762.714485",
    "longitude": "-90.00986508908505",
    "latitude": "29.91434030687547",
    "geocoded_column": {
      "latitude": "29.91434030687547",
      "longitude": "-90.00986508908505"
    }
  },
  {
    "service_request": "2024-1136964",
    "request_type": "Trash/Recycling",
    "request_reason": "Request a Large Item Pick Up",
    "date_created": "2024-09-30T15:26:36.000",
    "date_modified": "2024-09-30T15:26:37.000",
    "request_status": "Pending",
    "responsible_agency": "Department of Sanitation",
    "final_address": "7818 Berg Rd",
    "address_councildis": "E",
    "status": "Assigned to Contractor",
    "contractor": "Waste Pro",
    "rowid": "1136964",
    "final_x": "3711485.44094",
    "final_y": "567360.653604",
    "longitude": "-89.97204355265852",
    "latitude": "30.053099189100823",
    "geocoded_column": {
      "latitude": "30.053099189100823",
      "longitude": "-89.97204355265852"
    }
  },
  {
    "service_request": "2024-1136963",
    "request_type": "Trash/Recycling",
    "request_reason": "Return Trash Cart",
    "date_created": "2024-09-30T15:25:53.000",
    "date_modified": "2024-09-30T15:25:55.000",
    "request_status": "Pending",
    "responsible_agency": "Department of Sanitation",
    "final_address": "5 Everglades Dr",
    "address_councildis": "C",
    "status": "Assigned to Contractor",
    "contractor": "Richards Disposal",
    "rowid": "1136963",
    "final_x": "3700103.71255",
    "final_y": "516762.714485",
    "longitude": "-90.00986508908505",
    "latitude": "29.91434030687547",
    "geocoded_column": {
      "latitude": "29.91434030687547",
      "longitude": "-90.00986508908505"
    }
  },
  {
    "service_request": "2024-1136962",
    "request_type": "Trash/Recycling",
    "request_reason": "Request a Large Item Pick Up",
    "date_created": "2024-09-30T15:24:29.000",
    "date_modified": "2024-09-30T15:24:30.000",
    "request_status": "Pending",
    "responsible_agency": "Department of Sanitation",
    "final_address": "3002 Robert St",
    "address_councildis": "B",
    "status": "Assigned to Contractor",
    "contractor": "IV Waste",
    "rowid": "1136962",
    "final_x": "3668823.26702",
    "final_y": "526318.678398",
    "longitude": "-90.10827459892369",
    "latitude": "29.941572552186354",
    "geocoded_column": {
      "latitude": "29.941572552186354",
      "longitude": "-90.10827459892369"
    }
  },
  {
    "service_request": "2024-1136961",
    "request_type": "Trash/Recycling",
    "request_reason": "Repair Trash Cart",
    "date_created": "2024-09-30T15:24:24.000",
    "date_modified": "2024-09-30T15:24:25.000",
    "request_status": "Pending",
    "responsible_agency": "Department of Sanitation",
    "final_address": "11439 River Rd",
    "address_councildis": "C",
    "status": "Assigned to Contractor",
    "contractor": "Richards Disposal",
    "rowid": "1136961",
    "final_x": "3728114.92633",
    "final_y": "515585.654388",
    "longitude": "-89.9214993783377",
    "latitude": "29.910184492208458",
    "geocoded_column": {
      "latitude": "29.910184492208458",
      "longitude": "-89.9214993783377"
    }
  },
  {
    "service_request": "2024-1136960",
    "request_type": "Trash/Recycling",
    "request_reason": "Request a Large Item Pick Up",
    "date_created": "2024-09-30T15:22:30.000",
    "date_modified": "2024-09-30T15:22:31.000",
    "request_status": "Pending",
    "responsible_agency": "Department of Sanitation",
    "final_address": "5638 Norgate Dr",
    "address_councildis": "E",
    "status": "Assigned to Contractor",
    "contractor": "Waste Pro",
    "rowid": "1136960",
    "final_x": "3707810.63652",
    "final_y": "558257.025308",
    "longitude": "-89.98399735946617",
    "latitude": "30.028187360414016",
    "geocoded_column": {
      "latitude": "30.028187360414016",
      "longitude": "-89.98399735946617"
    }
  },
  {
    "service_request": "2024-1136959",
    "request_type": "Streetlights",
    "request_reason": "Streetlight Outage/Malfunction",
    "date_created": "2024-09-30T15:22:10.000",
    "date_modified": "2024-09-30T15:22:11.000",
    "request_status": "Pending",
    "responsible_agency": "Department of Public Works",
    "final_address": "AURORA DR & DOVER PL",
    "address_councildis": "C",
    "status": "Pending",
    "contractor": "Legacy Professional Services",
    "rowid": "1136959",
    "final_x": "3706925.5",
    "final_y": "519077.58",
    "longitude": "-89.98824763758994",
    "latitude": "29.920486966627216",
    "geocoded_column": {
      "latitude": "29.920486966627216",
      "longitude": "-89.98824763758994"
    }
  },
  {
    "service_request": "2024-1136958",
    "request_type": "Trash/Recycling",
    "request_reason": "Request a Large Item Pick Up",
    "date_created": "2024-09-30T15:21:48.000",
    "date_modified": "2024-09-30T15:21:49.000",
    "request_status": "Pending",
    "responsible_agency": "Department of Sanitation",
    "final_address": "211 S Hennessey St",
    "address_councildis": "A",
    "status": "Assigned to Contractor",
    "contractor": "IV Waste",
    "rowid": "1136958",
    "final_x": "3669936.62606",
    "final_y": "538541.649033",
    "longitude": "-90.10434558599597",
    "latitude": "29.975148902391304",
    "geocoded_column": {
      "latitude": "29.975148902391304",
      "longitude": "-90.10434558599597"
    }
  },
  {
    "service_request": "2024-1136957",
    "request_type": "Trash/Recycling",
    "request_reason": "Request a Large Item Pick Up",
    "date_created": "2024-09-30T15:21:44.000",
    "date_modified": "2024-09-30T15:21:45.000",
    "request_status": "Pending",
    "responsible_agency": "Department of Sanitation",
    "final_address": "1558 Aviators St Apt D",
    "address_councildis": "D",
    "status": "Assigned to Contractor",
    "contractor": "IV Waste",
    "rowid": "1136957",
    "final_x": "3678783.67586",
    "final_y": "554833.250456",
    "longitude": "-90.07583961500728",
    "latitude": "30.01968116328329",
    "geocoded_column": {
      "latitude": "30.01968116328329",
      "longitude": "-90.07583961500728"
    }
  },
  {
    "service_request": "2024-1136956",
    "request_type": "Abandoned Vehicles",
    "request_reason": "Abandoned/Junk Vehicles",
    "date_created": "2024-09-30T15:19:41.000",
    "date_modified": "2024-09-30T15:20:30.000",
    "request_status": "Pending",
    "responsible_agency": "Department of Public Works",
    "final_address": "5912 Marigny St",
    "address_councildis": "D",
    "status": "Pending",
    "rowid": "1136956",
    "final_x": "3683901.10223",
    "final_y": "554731.568536",
    "longitude": "-90.0596738198723",
    "latitude": "30.01924616078547",
    "geocoded_column": {
      "latitude": "30.01924616078547",
      "longitude": "-90.0596738198723"
    }
  },
  {
    "service_request": "2024-1136955",
    "request_type": "Streetlights",
    "request_reason": "Streetlight Outage/Malfunction",
    "date_created": "2024-09-30T15:19:14.000",
    "date_modified": "2024-09-30T15:19:15.000",
    "request_status": "Pending",
    "responsible_agency": "Department of Public Works",
    "final_address": "5900 Painters St",
    "address_councildis": "D",
    "status": "Pending",
    "contractor": "Legacy Professional Services",
    "rowid": "1136955",
    "final_x": "3686014.71062",
    "final_y": "554837.458712",
    "longitude": "-90.05299181489838",
    "latitude": "30.019472550883613",
    "geocoded_column": {
      "latitude": "30.019472550883613",
      "longitude": "-90.05299181489838"
    }
  },
  {
    "service_request": "2024-1136954",
    "request_type": "Property Maintenance",
    "request_reason": "Property Maintenance",
    "date_created": "2024-09-30T15:18:02.000",
    "date_modified": "2024-09-30T15:18:03.000",
    "request_status": "Pending",
    "responsible_agency": "Department of Code Enforcement",
    "final_address": "177 Mary Jane Ln",
    "address_councildis": "E",
    "status": "Pending",
    "rowid": "1136954",
    "final_x": "3718169.35308",
    "final_y": "571152.679528",
    "longitude": "-89.95077314855331",
    "latitude": "30.063305654988586",
    "geocoded_column": {
      "latitude": "30.063305654988586",
      "longitude": "-89.95077314855331"
    }
  },
  {
    "service_request": "2024-1136953",
    "request_type": "Trash/Recycling",
    "request_reason": "Order Trash Cart",
    "date_created": "2024-09-30T15:17:22.000",
    "date_modified": "2024-09-30T15:17:23.000",
    "request_status": "Pending",
    "responsible_agency": "Department of Sanitation",
    "final_address": "1435 Pressburg St",
    "address_councildis": "D",
    "status": "Assigned to Contractor",
    "contractor": "IV Waste",
    "rowid": "1136953",
    "final_x": "3677773.66658",
    "final_y": "554065.912472",
    "longitude": "-90.07905745436234",
    "latitude": "30.01760170053486",
    "geocoded_column": {
      "latitude": "30.01760170053486",
      "longitude": "-90.07905745436234"
    }
  },
  {
    "service_request": "2024-1136952",
    "request_type": "Trash/Recycling",
    "request_reason": "Order Recycling Cart",
    "date_created": "2024-09-30T15:17:15.000",
    "date_modified": "2024-09-30T15:17:16.000",
    "request_status": "Pending",
    "responsible_agency": "Department of Sanitation",
    "final_address": "1435 Pressburg St",
    "address_councildis": "D",
    "status": "Pending",
    "rowid": "1136952",
    "final_x": "3677773.66658",
    "final_y": "554065.912472",
    "longitude": "-90.07905745436234",
    "latitude": "30.01760170053486",
    "geocoded_column": {
      "latitude": "30.01760170053486",
      "longitude": "-90.07905745436234"
    }
  },
  {
    "service_request": "2024-1136951",
    "request_type": "Trash/Recycling",
    "request_reason": "Start Trash Service",
    "date_created": "2024-09-30T15:17:03.000",
    "date_modified": "2024-09-30T15:17:04.000",
    "request_status": "Pending",
    "responsible_agency": "Department of Sanitation",
    "final_address": "1435 Pressburg St",
    "address_councildis": "D",
    "status": "Assigned to Contractor",
    "contractor": "IV Waste",
    "rowid": "1136951",
    "final_x": "3677773.66658",
    "final_y": "554065.912472",
    "longitude": "-90.07905745436234",
    "latitude": "30.01760170053486",
    "geocoded_column": {
      "latitude": "30.01760170053486",
      "longitude": "-90.07905745436234"
    }
  },
  {
    "service_request": "2024-1136950",
    "request_type": "Trash/Recycling",
    "request_reason": "Request a Large Item Pick Up",
    "date_created": "2024-09-30T15:16:59.000",
    "date_modified": "2024-09-30T15:17:00.000",
    "request_status": "Pending",
    "responsible_agency": "Department of Sanitation",
    "final_address": "7501 Hansbrough Ave",
    "address_councildis": "E",
    "status": "Assigned to Contractor",
    "contractor": "Waste Pro",
    "rowid": "1136950",
    "final_x": "3707874.26788",
    "final_y": "564143.283169",
    "longitude": "-89.98357718694874",
    "latitude": "30.04437018025888",
    "geocoded_column": {
      "latitude": "30.04437018025888",
      "longitude": "-89.98357718694874"
    }
  },