[
  {
    "service_request": "2022-873455",
    "request_type": "Trash/Recycling",
    "request_reason": "Missed Trash Pick-Up",
    "date_created": "2022-04-08T23:56:25.000",
    "date_modified": "2022-04-08T23:56:26.000",
    "request_status": "Pending",
    "responsible_agency": "Department of Sanitation",
    "final_address": "1816 Amelia St",
    "address_councildis": "B",
    "status": "Assigned to Contractor",
    "contractor": "Richards Disposal",
    "rowid": "873455",
    "final_x": "3672880.1547",
    "final_y": "522020.638394",
    "longitude": "-90.09561274978964",
    "latitude": "29.92963445013486",
    "geocoded_column": {
      "latitude": "29.92963445013486",
      "longitude": "-90.09561274978964"
    }
  },
  {
    "service_request": "2022-873454",
    "request_type": "Trash/Recycling",
    "request_reason": "Replace Trash Cart",
    "date_created": "2022-04-08T23:53:49.000",
    "date_modified": "2022-04-08T23:53:49.000",
    "request_status": "Pending",
    "responsible_agency": "Department of Sanitation",
    "final_address": "1818 Amelia St",
    "address_councildis": "B",
    "status": "Assigned to Contractor",
    "contractor": "Richards Disposal",
    "rowid": "873454",
    "final_x": "3672877.37691",
    "final_y": "522030.082874",
    "longitude": "-90.09562119674398",
    "latitude": "29.929660501915166",
    "geocoded_column": {
      "latitude": "29.929660501915166",
      "longitude": "-90.09562119674398"
    }
  },
  {
    "service_request": "2022-873453",
    "request_type": "Trash/Recycling",
    "request_reason": "Missed Trash Pick-Up",
    "date_created": "2022-04-08T22:57:53.000",
    "date_modified": "2022-04-08T22:57:54.000",
    "request_status": "Pending",
    "responsible_agency": "Department of Sanitation",
    "final_address": "6060 General Haig St",
    "address_councildis": "A",
    "status": "Assigned to Contractor",
    "contractor": "Metro Disposal",
    "rowid": "873453",
    "final_x": "3670529.50766",
    "final_y": "547574.860882",
    "longitude": "-90.10216656845486",
    "latitude": "29.999969640255653",
    "geocoded_column": {
      "latitude": "29.999969640255653",
      "longitude": "-90.10216656845486"
    }
  },
  {
    "service_request": "2022-873452",
    "request_type": "Traffic Signals/Signs/Striping/Streetlights",
    "request_reason": "Street Name Sign Damaged or Missing",
    "date_created": "2022-04-08T22:27:44.000",
    "date_modified": "2022-04-08T22:27:44.000",
    "request_status": "Pending",
    "responsible_agency": "Department of Public Works",
    "final_address": "CROWDER BLVD & I 10 E ONRAMP",
    "address_councildis": "E",
    "status": "Pending",
    "rowid": "873452",
    "final_x": "3704883.1",
    "final_y": "558686.68",
    "longitude": "-89.99323225114873",
    "latitude": "30.02946321048429",
    "geocoded_column": {
      "latitude": "30.02946321048429",
      "longitude": "-89.99323225114873"
    }
  },
  {
    "service_request": "2022-873451",
    "request_type": "Health Related Questions",
    "request_reason": "Noise Ordinance Complaint",
    "date_created": "2022-04-08T22:25:17.000",
    "date_modified": "2022-04-08T22:25:17.000",
    "request_status": "Pending",
    "responsible_agency": "Health Department",
    "final_address": "2066 pleasure st Nola 70122",
    "status": "Pending",
    "rowid": "873451",
    "longitude": "0.0",
    "latitude": "0.0",
    "geocoded_column": {
      "latitude": "0.0",
      "longitude": "0.0"
    }
  },
  {
    "service_request": "2022-873449",
    "request_type": "Traffic Signals/Signs/Striping/Streetlights",
    "request_reason": "Street Light Outage/Malfunction",
    "date_created": "2022-04-08T22:18:45.000",
    "date_modified": "2022-04-08T22:18:46.000",
    "request_status": "Pending",
    "responsible_agency": "Department of Public Works",
    "final_address": "5350 Magazine St",
    "address_councildis": "B",
    "status": "Pending",
    "contractor": "Royal Engineering",
    "rowid": "873449",
    "final_x": "3666973.8018",
    "final_y": "518490.179447",
    "longitude": "-90.11437668388791",
    "latitude": "29.920100909875703",
    "geocoded_column": {
      "latitude": "29.920100909875703",
      "longitude": "-90.11437668388791"
    }
  },
  {
    "service_request": "2022-873448",
    "request_type": "Roads/Drainage",
    "request_reason": "Damaged Sidewalk",
    "date_created": "2022-04-08T21:51:53.000",
    "date_modified": "2022-04-08T21:51:53.000",
    "request_status": "Pending",
    "responsible_agency": "Department of Public Works",
    "final_address": "913 Magazine St",
    "address_councildis": "B",
    "status": "Pending",
    "rowid": "873448",
    "final_x": "3680969.43733",
    "final_y": "527141.043007",
    "longitude": "-90.06989810867586",
    "latitude": "29.943471122448013",
    "geocoded_column": {
      "latitude": "29.943471122448013",
      "longitude": "-90.06989810867586"
    }
  },
  {
    "service_request": "2022-873447",
    "request_type": "Roads/Drainage",
    "request_reason": "Street Flooding / Drainage",
    "date_created": "2022-04-08T21:50:25.000",
    "date_modified": "2022-04-08T21:50:25.000",
    "request_status": "Pending",
    "responsible_agency": "Department of Public Works",
    "final_address": "900 Perdido St",
    "address_councildis": "B",
    "status": "Pending",
    "rowid": "873447",
    "final_x": "3679904.90651",
    "final_y": "529938.874689",
    "longitude": "-90.07316195918962",
    "latitude": "29.951196455396516",
    "geocoded_column": {
      "latitude": "29.951196455396516",
      "longitude": "-90.07316195918962"
    }
  },
  {
    "service_request": "2022-873446",
    "request_type": "Traffic Signals/Signs/Striping/Streetlights",
    "request_reason": "Traffic Signal Malfunctioning/Damaged",
    "date_created": "2022-04-08T21:39:32.000",
    "date_modified": "2022-04-08T21:39:32.000",
    "request_status": "Pending",
    "responsible_agency": "Department of Public Works",
    "final_address": "Humanity St, New Orleans, Louisiana, 70122",
    "address_councildis": "D",
    "status": "Pending",
    "rowid": "873446",
    "final_x": "3684686.08885",
    "final_y": "544844.935951",
    "longitude": "-90.05754134598074",
    "latitude": "29.992037485342408",
    "geocoded_column": {
      "latitude": "29.992037485342408",
      "longitude": "-90.05754134598074"
    }
  },
  {
    "service_request": "2022-873445",
    "request_type": "Roads/Drainage",
    "request_reason": "Pothole",
    "date_created": "2022-04-08T21:26:24.000",
    "date_modified": "2022-04-08T21:26:24.000",
    "request_status": "Pending",
    "responsible_agency": "Department of Public Works",
    "final_address": "4516 Canal St",
    "address_councildis": "A",
    "status": "Pending",
    "rowid": "873445",
    "final_x": "3669489.00302",
    "final_y": "539403.272842",
    "longitude": "-90.10573014674928",
    "latitude": "29.97753127083559",
    "geocoded_column": {
      "latitude": "29.97753127083559",
      "longitude": "-90.10573014674928"
    }
  },
  {
    "service_request": "2022-873444",
    "request_type": "Traffic Signals/Signs/Striping/Streetlights",
    "request_reason": "Road Surface Marking Maintenance-Traffic Control",
    "date_created": "2022-04-08T21:22:48.000",
    "date_modified": "2022-04-08T21:22:48.000",
    "request_status": "Pending",
    "responsible_agency": "Department of Public Works",
    "final_address": "322 Lafayette St",
    "address_councildis": "B",
    "status": "Pending",
    "rowid": "873444",
    "final_x": "3681973.35426",
    "final_y": "528564.886976",
    "longitude": "-90.0666787908127",
    "latitude": "29.94735573993066",
    "geocoded_column": {
      "latitude": "29.94735573993066",
      "longitude": "-90.0666787908127"
    }
  },
  {
    "service_request": "2022-873443",
    "request_type": "Trash/Recycling",
    "request_reason": "MIssed Recycling Pick-Up",
    "date_created": "2022-04-08T21:21:30.000",
    "date_modified": "2022-04-08T21:21:31.000",
    "request_status": "Pending",
    "responsible_agency": "Department of Sanitation",
    "final_address": "7809 Cohn St",
    "address_councildis": "A",
    "status": "Assigned to Contractor",
    "contractor": "Richards Disposal",
    "rowid": "873443",
    "final_x": "3664419.81492",
    "final_y": "529524.518401",
    "longitude": "-90.12207024240811",
    "latitude": "29.950516298276018",
    "geocoded_column": {
      "latitude": "29.950516298276018",
      "longitude": "-90.12207024240811"
    }
  },
  {
    "service_request": "2022-873442",
    "request_type": "Traffic Signals/Signs/Striping/Streetlights",
    "request_reason": "Traffic Sign Missing/Damaged",
    "date_created": "2022-04-08T21:19:53.000",
    "date_modified": "2022-04-08T21:19:53.000",
    "request_status": "Pending",
    "responsible_agency": "Department of Public Works",
    "final_address": "1489 Farragut St",
    "address_councildis": "C",
    "status": "Pending",
    "rowid": "873442",
    "final_x": "3692264.78998",
    "final_y": "525499.636349",
    "longitude": "-90.0342946440327",
    "latitude": "29.938610524541197",
    "geocoded_column": {
      "latitude": "29.938610524541197",
      "longitude": "-90.0342946440327"
    }
  },
  {
    "service_request": "2022-873440",
    "request_type": "Traffic Signals/Signs/Striping/Streetlights",
    "request_reason": "Street Light Outage/Malfunction",
    "date_created": "2022-04-08T21:07:18.000",
    "date_modified": "2022-04-08T21:07:19.000",
    "request_status": "Pending",
    "responsible_agency": "Department of Public Works",
    "final_address": "135 Royal St",
    "address_councildis": "C",
    "status": "Pending",
    "contractor": "Royal Engineering",
    "rowid": "873440",
    "final_x": "3681389.30428",
    "final_y": "530977.803074",
    "longitude": "-90.06843875801016",
    "latitude": "29.954008185419546",
    "geocoded_column": {
      "latitude": "29.954008185419546",
      "longitude": "-90.06843875801016"
    }
  },
  {
    "service_request": "2022-873439",
    "request_type": "Traffic Signals/Signs/Striping/Streetlights",
    "request_reason": "Street Light Outage/Malfunction",
    "date_created": "2022-04-08T20:32:49.000",
    "date_modified": "2022-04-08T20:32:49.000",
    "request_status": "Pending",
    "responsible_agency": "Department of Public Works",
    "final_address": "833 Canal St",
    "address_councildis": "C",
    "status": "Pending",
    "contractor": "Royal Engineering",
    "rowid": "873439",
    "final_x": "3680753.83163",
    "final_y": "531122.255938",
    "longitude": "-90.07044029377205",
    "latitude": "29.954424655531867",
    "geocoded_column": {
      "latitude": "29.954424655531867",
      "longitude": "-90.07044029377205"
    }
  },
  {
    "service_request": "2022-873438",
    "request_type": "Traffic Signals/Signs/Striping/Streetlights",
    "request_reason": "Street Light Outage/Malfunction",
    "date_created": "2022-04-08T20:28:17.000",
    "date_modified": "2022-04-08T20:28:18.000",
    "request_status": "Pending",
    "responsible_agency": "Department of Public Works",
    "final_address": "828 Canal St",
    "address_councildis": "B",
    "status": "Pending",
    "contractor": "Royal Engineering",
    "rowid": "873438",
    "final_x": "3680651.11458",
    "final_y": "530962.611138",
    "longitude": "-90.07077018806176",
    "latitude": "29.95398879876719",
    "geocoded_column": {
      "latitude": "29.95398879876719",
      "longitude": "-90.07077018806176"
    }
  },
  {
    "service_request": "2022-873437",
    "request_type": "Traffic Signals/Signs/Striping/Streetlights",
    "request_reason": "Street Light Outage/Malfunction",
    "date_created": "2022-04-08T20:20:34.000",
    "date_modified": "2022-04-08T20:20:35.000",
    "request_status": "Pending",
    "responsible_agency": "Department of Public Works",
    "final_address": "811 Canal St",
    "address_councildis": "C",
    "status": "Pending",
    "contractor": "Royal Engineering",
    "rowid": "873437",
    "final_x": "3680890.07605",
    "final_y": "531042.373378",
    "longitude": "-90.0700128687805",
    "latitude": "29.954200875839277",
    "geocoded_column": {
      "latitude": "29.954200875839277",
      "longitude": "-90.0700128687805"
    }
  },
  {
    "service_request": "2022-873436",
    "request_type": "Abandoned Vehicles",
    "request_reason": "Vehicle Blocking Your Driveway",
    "date_created": "2022-04-08T20:16:32.000",
    "date_modified": "2022-04-08T20:16:32.000",
    "request_status": "Pending",
    "responsible_agency": "Department of Public Works",
    "final_address": "611 N Derbigny St, New Orleans, Louisiana, 70112",
    "status": "Pending",
    "rowid": "873436",
    "longitude": "0.0",
    "latitude": "0.0",
    "geocoded_column": {
      "latitude": "0.0",
      "longitude": "0.0"
    }
  },
  {
    "service_request": "2022-873435",
    "request_type": "Traffic Signals/Signs/Striping/Streetlights",
    "request_reason": "Street Light Outage/Malfunction",
    "date_created": "2022-04-08T20:09:22.000",
    "date_modified": "2022-04-08T20:09:22.000",
    "request_status": "Pending",
    "responsible_agency": "Department of Public Works",
    "final_address": "840 Canal St",
    "address_councildis": "B",
    "status": "Pending",
    "contractor": "Royal Engineering",
    "rowid": "873435",
    "final_x": "3680576.60098",
    "final_y": "531004.630722",
    "longitude": "-90.07100400983448",
    "latitude": "29.954106595804742",
    "geocoded_column": {
      "latitude": "29.954106595804742",
      "longitude": "-90.07100400983448"
    }
  },
  {
    "service_request": "2022-873433",
    "request_type": "Traffic Signals/Signs/Striping/Streetlights",
    "request_reason": "Traffic Signal Malfunctioning/Damaged",
    "date_created": "2022-04-08T19:05:19.000",
    "date_modified": "2022-04-08T19:05:19.000",
    "request_status": "Pending",
    "responsible_agency": "Department of Public Works",
    "final_address": "1000 St Charles Ave",
    "address_councildis": "B",
    "status": "Pending",
    "rowid": "873433",
    "final_x": "3680334.074",
    "final_y": "526964.819646",
    "longitude": "-90.0719102399457",
    "latitude": "29.943005814995683",
    "geocoded_column": {
      "latitude": "29.943005814995683",
      "longitude": "-90.0719102399457"
    }
  },
  {
    "service_request": "2022-873432",
    "request_type": "Trash/Recycling",
    "request_reason": "Request a Large Item Pick Up",
    "date_created": "2022-04-08T18:48:00.000",
    "date_modified": "2022-04-08T18:48:01.000",
    "request_status": "Pending",
    "responsible_agency": "Department of Sanitation",
    "final_address": "6013 Wickfield Dr, New Orleans, Louisiana, 70122",
    "address_councildis": "D",
    "status": "Assigned to Contractor",
    "contractor": "Metro Disposal",
    "rowid": "873432",
    "final_x": "3681056.50613",
    "final_y": "554766.009112",
    "longitude": "-90.06866056554792",
    "latitude": "30.01942749411057",
    "geocoded_column": {
      "latitude": "30.01942749411057",
      "longitude": "-90.06866056554792"
    }
  },
  {
    "service_request": "2022-873430",
    "request_type": "Roads/Drainage",
    "request_reason": "Accessibility Ramps, Curbs and Sidewalk Repair",
    "date_created": "2022-04-08T18:28:19.000",
    "date_modified": "2022-04-08T18:28:19.000",
    "request_status": "Pending",
    "responsible_agency": "Department of Public Works",
    "final_address": "204 St Charles Ave",
    "address_councildis": "B",
    "status": "Pending",
    "rowid": "873430",
    "final_x": "3680981.42549",
    "final_y": "530236.578177",
    "longitude": "-90.06975248228198",
    "latitude": "29.951982441530348",
    "geocoded_column": {
      "latitude": "29.951982441530348",
      "longitude": "-90.06975248228198"
    }
  },
  {
    "service_request": "2022-873429",
    "request_type": "Traffic Signals/Signs/Striping/Streetlights",
    "request_reason": "Request for Stop Sign",
    "date_created": "2022-04-08T18:13:07.000",
    "date_modified": "2022-04-08T18:13:07.000",
    "request_status": "Pending",
    "responsible_agency": "Department of Public Works",
    "final_address": "LAW ST & REPUBLIC ST",
    "address_councildis": "D",
    "status": "Pending",
    "rowid": "873429",
    "final_x": "3680780.6",
    "final_y": "541525.58",
    "longitude": "-90.0699935885731",
    "latitude": "29.983029410315037",
    "geocoded_column": {
      "latitude": "29.983029410315037",
      "longitude": "-90.0699935885731"
    }
  },
  {
    "service_request": "2022-873427",
    "request_type": "Trash/Recycling",
    "request_reason": "MIssed Recycling Pick-Up",
    "date_created": "2022-04-08T17:42:45.000",
    "date_modified": "2022-04-08T17:42:46.000",
    "request_status": "Pending",
    "responsible_agency": "Department of Sanitation",
    "final_address": "7425 Panola St",
    "address_councildis": "A",
    "status": "Assigned to Contractor",
    "contractor": "Richards Disposal",
    "rowid": "873427",
    "final_x": "3665324.136",
    "final_y": "529646.448513",
    "longitude": "-90.11921077342282",
    "latitude": "29.950825250032867",
    "geocoded_column": {
      "latitude": "29.950825250032867",
      "longitude": "-90.11921077342282"
    }
  },
  {
    "service_request": "2022-873426",
    "request_type": "Abandoned Vehicles",
    "request_reason": "Abandoned/Junk Vehicles",
    "date_created": "2022-04-08T17:25:23.000",
    "date_modified": "2022-04-08T17:25:23.000",
    "request_status": "Pending",
    "responsible_agency": "Department of Public Works",
    "final_address": "1881 N Rocheblave St",
    "address_councildis": "D",
    "status": "Pending",
    "rowid": "873426",
    "final_x": "3681452.39484",
    "final_y": "540873.715211",
    "longitude": "-90.06789445663705",
    "latitude": "29.981216626680418",
    "geocoded_column": {
      "latitude": "29.981216626680418",
      "longitude": "-90.06789445663705"
    }
  },
  {
    "service_request": "2022-873425",
    "request_type": "Abandoned Vehicles",
    "request_reason": "Abandoned/Junk Vehicles",
    "date_created": "2022-04-08T17:18:55.000",
    "date_modified": "2022-04-08T17:18:55.000",
    "request_status": "Pending",
    "responsible_agency": "Department of Public Works",
    "final_address": "5432 Press Dr",
    "address_councildis": "D",
    "status": "Pending",
    "rowid": "873425",
    "final_x": "3689173.24227",
    "final_y": "553372.160215",
    "longitude": "-90.0430640760697",
    "latitude": "30.015346102802496",
    "geocoded_column": {
      "latitude": "30.015346102802496",
      "longitude": "-90.0430640760697"
    }
  },
  {
    "service_request": "2022-873424",
    "request_type": "Trash/Recycling",
    "request_reason": "Order Trash Cart",
    "date_created": "2022-04-08T17:17:24.000",
    "date_modified": "2022-04-08T17:17:24.000",
    "request_status": "Pending",
    "responsible_agency": "Department of Sanitation",
    "final_address": "9134 Fig St",
    "address_councildis": "A",
    "status": "Assigned to Contractor",
    "contractor": "Richards Disposal",
    "rowid": "873424",
    "final_x": "3663461.55034",
    "final_y": "535681.704263",
    "longitude": "-90.12489092608459",
    "latitude": "29.967474372812397",
    "geocoded_column": {
      "latitude": "29.967474372812397",
      "longitude": "-90.12489092608459"
    }
  },
  {
    "service_request": "2022-873423",
    "request_type": "Abandoned Vehicles",
    "request_reason": "Vehicle Blocking Your Driveway",
    "date_created": "2022-04-08T17:16:36.000",
    "date_modified": "2022-04-08T17:16:36.000",
    "request_status": "Pending",
    "responsible_agency": "Department of Public Works",
    "final_address": "New Orleans, Louisiana",
    "status": "Pending",
    "rowid": "873423",
    "longitude": "0.0",
    "latitude": "0.0",
    "geocoded_column": {
      "latitude": "0.0",
      "longitude": "0.0"
    }
  },
  {
    "service_request": "2022-873422",
    "request_type": "Abandoned Vehicles",
    "request_reason": "Abandoned/Junk Vehicles",
    "date_created": "2022-04-08T17:14:51.000",
    "date_modified": "2022-04-08T17:14:51.000",
    "request_status": "Pending",
    "responsible_agency": "Department of Public Works",
    "final_address": "8025 Wales St",
    "address_councildis": "E",
    "status": "Pending",
    "rowid": "873422",
    "final_x": "3701949.28465",
    "final_y": "562275.845215",
    "longitude": "-90.0023712489195",
    "latitude": "30.039426035466246",
    "geocoded_column": {
      "latitude": "30.039426035466246",
      "longitude": "-90.0023712489195"
    }
  },
  {
    "service_request": "2022-873421",
    "request_type": "Roads/Drainage",
    "request_reason": "Pothole",
    "date_created": "2022-04-08T17:13:39.000",
    "date_modified": "2022-04-08T17:13:39.000",
    "request_status": "Pending",
    "responsible_agency": "Department of Public Works",
    "final_address": "3025 Elysian Fields Ave, New Orleans, Louisiana, 70122",
    "address_councildis": "D",
    "status": "Pending",
    "rowid": "873421",
    "final_x": "3684544.5782",
    "final_y": "543909.743118",
    "longitude": "-90.05802122732977",
    "latitude": "29.989470369251592",
    "geocoded_column": {
      "latitude": "29.989470369251592",
      "longitude": "-90.05802122732977"
    }
  },
  {
    "service_request": "2022-873419",
    "request_type": "Property Maintenance",
    "request_reason": "Property Maintenance",
    "date_created": "2022-04-08T17:02:59.000",
    "date_modified": "2022-04-08T17:02:59.000",
    "request_status": "Pending",
    "responsible_agency": "Department of Code Enforcement",
    "final_address": "1318 France St",
    "address_councildis": "D",
    "status": "Pending",
    "rowid": "873419",
    "final_x": "3692570.95209",
    "final_y": "536082.510663",
    "longitude": "-90.03294888682888",
    "latitude": "29.967700202709214",
    "geocoded_column": {
      "latitude": "29.967700202709214",
      "longitude": "-90.03294888682888"
    }
  },
  {
    "service_request": "2022-873418",
    "request_type": "Trash/Recycling",
    "request_reason": "Request a Large Item Pick Up",
    "date_created": "2022-04-08T16:58:50.000",
    "date_modified": "2022-04-08T16:58:51.000",
    "case_close_date": "2019-12-04T18:00:00.000",
    "request_status": "Closed",
    "responsible_agency": "Department of Sanitation",
    "final_address": "740 Aline St",
    "address_councildis": "B",
    "status": "Assigned to Contractor",
    "contractor": "Richards Disposal",
    "contractor_action": "Completed",
    "rowid": "873418",
    "final_x": "3674843.10753",
    "final_y": "518169.998198",
    "longitude": "-90.08954799772506",
    "latitude": "29.918987980788128",
    "geocoded_column": {
      "latitude": "29.918987980788128",
      "longitude": "-90.08954799772506"
    }
  },
  {
    "service_request": "2022-873417",
    "request_type": "Trash/Recycling",
    "request_reason": "Request a Large Item Pick Up",
    "date_created": "2022-04-08T16:55:03.000",
    "date_modified": "2022-04-08T16:55:04.000",
    "request_status": "Pending",
    "responsible_agency": "Department of Sanitation",
    "final_address": "4914 Perrier St",
    "address_councildis": "B",
    "status": "Assigned to Contractor",
    "contractor": "Richards Disposal",
    "rowid": "873417",
    "final_x": "3668890.88321",
    "final_y": "519849.177528",
    "longitude": "-90.10827949613655",
    "latitude": "29.92378150830209",
    "geocoded_column": {
      "latitude": "29.92378150830209",
      "longitude": "-90.10827949613655"
    }
  },
  {
    "service_request": "2022-873416",
    "request_type": "Abandoned Vehicles",
    "request_reason": "Vehicle Blocking Your Driveway",
    "date_created": "2022-04-08T16:49:24.000",
    "date_modified": "2022-04-08T16:49:24.000",
    "request_status": "Pending",
    "responsible_agency": "Department of Public Works",
    "final_address": "On St Andrew, at the corner of St Andrew and Prytania",
    "status": "Pending",
    "rowid": "873416",
    "longitude": "0.0",
    "latitude": "0.0",
    "geocoded_column": {
      "latitude": "0.0",
      "longitude": "0.0"
    }
  },
  {
    "service_request": "2022-873414",
    "request_type": "Trash/Recycling",
    "request_reason": "Request a Large Item Pick Up",
    "date_created": "2022-04-08T16:41:40.000",
    "date_modified": "2022-04-08T16:41:41.000",
    "request_status": "Pending",
    "responsible_agency": "Department of Sanitation",
    "final_address": "4423 Venus St",
    "address_councildis": "D",
    "status": "Assigned to Contractor",
    "contractor": "Metro Disposal",
    "rowid": "873414",
    "final_x": "3686695.28585",
    "final_y": "549085.556627",
    "longitude": "-90.0510448123428",
    "latitude": "30.003635999411983",
    "geocoded_column": {
      "latitude": "30.003635999411983",
      "longitude": "-90.0510448123428"
    }
  },
  {
    "service_request": "2022-873412",
    "request_type": "Trash/Recycling",
    "request_reason": "Illegal Dumping",
    "date_created": "2022-04-08T16:31:25.000",
    "date_modified": "2022-04-08T16:31:25.000",
    "request_status": "Pending",
    "responsible_agency": "Department of Sanitation",
    "final_address": "1828 Washington Ave",
    "address_councildis": "B",
    "status": "Pending",
    "rowid": "873412",
    "final_x": "3675304.3844",
    "final_y": "523356.957947",
    "longitude": "-90.0879140282435",
    "latitude": "29.93323666860289",
    "geocoded_column": {
      "latitude": "29.93323666860289",
      "longitude": "-90.0879140282435"
    }
  },
  {
    "service_request": "2022-873410",
    "request_type": "Traffic Signals/Signs/Striping/Streetlights",
    "request_reason": "Traffic Signal Malfunctioning/Damaged",
    "date_created": "2022-04-08T16:30:42.000",
    "date_modified": "2022-04-08T16:30:42.000",
    "request_status": "Pending",
    "responsible_agency": "Department of Public Works",
    "final_address": "CHEF MENTEUR HWY & MICHOUD BLVD",
    "address_councildis": "E",
    "status": "Pending",
    "rowid": "873410",
    "final_x": "3725588.8",
    "final_y": "559495.18",
    "longitude": "-89.92777224107155",
    "latitude": "30.03100415036799",
    "geocoded_column": {
      "latitude": "30.03100415036799",
      "longitude": "-89.92777224107155"
    }
  },
  {
    "service_request": "2022-873409",
    "request_type": "Trash/Recycling",
    "request_reason": "Request a Large Item Pick Up",
    "date_created": "2022-04-08T16:25:42.000",
    "date_modified": "2022-04-08T16:25:43.000",
    "request_status": "Pending",
    "responsible_agency": "Department of Sanitation",
    "final_address": "2821 Louisa St",
    "address_councildis": "D",
    "status": "Assigned to Contractor",
    "contractor": "Metro Disposal",
    "rowid": "873409",
    "final_x": "3691360.70224",
    "final_y": "542800.125965",
    "longitude": "-90.03653077981288",
    "latitude": "29.986208964641367",
    "geocoded_column": {
      "latitude": "29.986208964641367",
      "longitude": "-90.03653077981288"
    }
  },
  {
    "service_request": "2022-873408",
    "request_type": "Property Maintenance",
    "request_reason": "Property Maintenance",
    "date_created": "2022-04-08T16:23:36.000",
    "date_modified": "2022-04-08T16:23:36.000",
    "request_status": "Pending",
    "responsible_agency": "Department of Code Enforcement",
    "final_address": "5335 Timber Haven Ln",
    "address_councildis": "C",
    "status": "Pending",
    "rowid": "873408",
    "final_x": "3703940.28215",
    "final_y": "511290.8188",
    "longitude": "-89.99795695044016",
    "latitude": "29.899172053888627",
    "geocoded_column": {
      "latitude": "29.899172053888627",
      "longitude": "-89.99795695044016"
    }
  },
  {
    "service_request": "2022-873407",
    "request_type": "Abandoned Vehicles",
    "request_reason": "Abandoned/Junk Vehicles",
    "date_created": "2022-04-08T16:13:58.000",
    "date_modified": "2022-04-08T16:13:58.000",
    "request_status": "Pending",
    "responsible_agency": "Department of Public Works",
    "final_address": "5125 Forest Park Ln",
    "address_councildis": "C",
    "status": "Pending",
    "rowid": "873407",
    "final_x": "3703059.36606",
    "final_y": "510890.610031",
    "longitude": "-90.00075166491108",
    "latitude": "29.898099814331346",
    "geocoded_column": {
      "latitude": "29.898099814331346",
      "longitude": "-90.00075166491108"
    }
  },
  {
    "service_request": "2022-873406",
    "request_type": "Trash/Recycling",
    "request_reason": "Illegal Dumping",
    "date_created": "2022-04-08T16:07:04.000",
    "date_modified": "2022-04-08T16:07:04.000",
    "request_status": "Pending",
    "responsible_agency": "Department of Sanitation",
    "final_address": "1901 Egania St",
    "address_councildis": "E",
    "status": "Pending",
    "rowid": "873406",
    "final_x": "3697692.30359",
    "final_y": "537077.68052",
    "longitude": "-90.01673950662807",
    "latitude": "29.97027575731059",
    "geocoded_column": {
      "latitude": "29.97027575731059",
      "longitude": "-90.01673950662807"
    }
  },
  {
    "service_request": "2022-873404",
    "request_type": "Trash/Recycling",
    "request_reason": "Start Trash Service",
    "date_created": "2022-04-08T16:03:46.000",
    "date_modified": "2022-04-08T16:03:47.000",
    "request_status": "Pending",
    "responsible_agency": "Department of Sanitation",
    "final_address": "3235 Pittari Pl",
    "address_councildis": "C",
    "status": "Assigned to Contractor",
    "contractor": "Richards Disposal",
    "rowid": "873404",
    "final_x": "3709646.5187",
    "final_y": "518785.356023",
    "longitude": "-89.97966963258827",
    "latitude": "29.919595343759298",
    "geocoded_column": {
      "latitude": "29.919595343759298",
      "longitude": "-89.97966963258827"
    }
  },
  {
    "service_request": "2022-873402",
    "request_type": "Trash/Recycling",
    "request_reason": "Order Trash Cart",
    "date_created": "2022-04-08T16:03:02.000",
    "date_modified": "2022-04-08T16:03:02.000",
    "request_status": "Pending",
    "responsible_agency": "Department of Sanitation",
    "final_address": "3235 Pittari Pl",
    "address_councildis": "C",
    "status": "Assigned to Contractor",
    "contractor": "Richards Disposal",
    "rowid": "873402",
    "final_x": "3709646.5187",
    "final_y": "518785.356023",
    "longitude": "-89.97966963258827",
    "latitude": "29.919595343759298",
    "geocoded_column": {
      "latitude": "29.919595343759298",
      "longitude": "-89.97966963258827"
    }
  },
  {
    "service_request": "2022-873401",
    "request_type": "Trash/Recycling",
    "request_reason": "Replace Trash Cart",
    "date_created": "2022-04-08T16:00:50.000",
    "date_modified": "2022-04-08T16:00:51.000",
    "request_status": "Pending",
    "responsible_agency": "Department of Sanitation",
    "final_address": "3606 S Saratoga St, New Orleans, Louisiana, 70115",
    "address_councildis": "B",
    "status": "Assigned to Contractor",
    "contractor": "Richards Disposal",
    "rowid": "873401",
    "final_x": "3672859.618",
    "final_y": "522909.541307",
    "longitude": "-90.09564727026171",
    "latitude": "29.932079256212518",
    "geocoded_column": {
      "latitude": "29.932079256212518",
      "longitude": "-90.09564727026171"
    }
  },
  {
    "service_request": "2022-873399",
    "request_type": "Parks & Parkways",
    "request_reason": "Request Tree Service (Right of Way/Public Property)",
    "date_created": "2022-04-08T15:37:07.000",
    "date_modified": "2022-04-08T15:37:09.000",
    "request_status": "Pending",
    "responsible_agency": "Department of Parks & Parkway",
    "final_address": "3441 Gentilly Blvd",
    "address_councildis": "D",
    "status": "Pending",
    "rowid": "873399",
    "final_x": "3685192.49404",
    "final_y": "548681.327187",
    "longitude": "-90.05580660713606",
    "latitude": "30.002570670925376",
    "geocoded_column": {
      "latitude": "30.002570670925376",
      "longitude": "-90.05580660713606"
    }
  },
  {
    "service_request": "2022-873398",
    "request_type": "Property Maintenance",
    "request_reason": "Property Maintenance",
    "date_created": "2022-04-08T15:36:36.000",
    "date_modified": "2022-04-08T15:36:36.000",
    "request_status": "Pending",
    "responsible_agency": "Department of Code Enforcement",
    "final_address": "3309 Baronne St",
    "address_councildis": "B",
    "status": "Pending",
    "rowid": "873398",
    "final_x": "3674181.05908",
    "final_y": "522388.500666",
    "longitude": "-90.09149343455051",
    "latitude": "29.930607249332553",
    "geocoded_column": {
      "latitude": "29.930607249332553",
      "longitude": "-90.09149343455051"
    }
  },
  {
    "service_request": "2022-873397",
    "request_type": "Traffic Signals/Signs/Striping/Streetlights",
    "request_reason": "Traffic Sign Missing/Damaged",
    "date_created": "2022-04-08T15:35:24.000",
    "date_modified": "2022-04-08T15:35:24.000",
    "request_status": "Pending",
    "responsible_agency": "Department of Public Works",
    "final_address": "1622 Cleveland Ave",
    "address_councildis": "B",
    "status": "Pending",
    "rowid": "873397",
    "final_x": "3678268.91861",
    "final_y": "532302.918787",
    "longitude": "-90.0782458371517",
    "latitude": "29.9577461535898",
    "geocoded_column": {
      "latitude": "29.9577461535898",
      "longitude": "-90.0782458371517"
    }
  },
  {
    "service_request": "2022-873396",
    "request_type": "Traffic Signals/Signs/Striping/Streetlights",
    "request_reason": "Street Light Outage/Malfunction",
    "date_created": "2022-04-08T15:33:49.000",
    "date_modified": "2022-04-08T15:33:50.000",
    "request_status": "Pending",
    "responsible_agency": "Department of Public Works",
    "final_address": "5435 Bellaire Dr",
    "address_councildis": "A",
    "status": "Pending",
    "contractor": "Royal Engineering",
    "rowid": "873396",
    "final_x": "3664133.44903",
    "final_y": "543873.72571",
    "longitude": "-90.12249566689856",
    "latitude": "29.98998019422625",
    "geocoded_column": {
      "latitude": "29.98998019422625",
      "longitude": "-90.12249566689856"
    }
  },
  {
    "service_request": "2022-873395",
    "request_type": "Trash/Recycling",
    "request_reason": "Missed Trash Pick-Up",
    "date_created": "2022-04-08T15:27:58.000",
    "date_modified": "2022-04-08T15:27:59.000",
    "request_status": "Pending",
    "responsible_agency": "Department of Sanitation",
    "final_address": "3039 St Anthony Ave",
    "address_councildis": "D",
    "status": "Assigned to Contractor",
    "contractor": "Metro Disposal",
    "rowid": "873395",
    "final_x": "3682986.04149",
    "final_y": "543836.661582",
    "longitude": "-90.06294675472012",
    "latitude": "29.98931702532223",
    "geocoded_column": {
      "latitude": "29.98931702532223",
      "longitude": "-90.06294675472012"
    }
  },
  {
    "service_request": "2022-873394",
    "request_type": "Abandoned Vehicles",
    "request_reason": "Abandoned/Junk Vehicles",
    "date_created": "2022-04-08T15:26:26.000",
    "date_modified": "2022-04-08T15:26:26.000",
    "request_status": "Pending",
    "responsible_agency": "Department of Public Works",
    "final_address": "2428 Touro St, New Orleans, Louisiana, 70119",
    "address_councildis": "D",
    "status": "Pending",
    "rowid": "873394",
    "final_x": "3683796.23189",
    "final_y": "541257.37742",
    "longitude": "-90.06047810456762",
    "latitude": "29.982200180652264",
    "geocoded_column": {
      "latitude": "29.982200180652264",
      "longitude": "-90.06047810456762"
    }
  },
  {
    "service_request": "2022-873393",
    "request_type": "Traffic Signals/Signs/Striping/Streetlights",
    "request_reason": "Traffic Signal Malfunctioning/Damaged",
    "date_created": "2022-04-08T15:22:27.000",
    "date_modified": "2022-04-08T15:22:27.000",
    "request_status": "Pending",
    "responsible_agency": "Department of Public Works",
    "final_address": "ELYSIAN FIELDS AVE & I 610 E",
    "address_councildis": "D",
    "status": "Pending",
    "rowid": "873393",
    "final_x": "3684398.0",
    "final_y": "544559.38",
    "longitude": "-90.05846139447799",
    "latitude": "29.99126112477491",
    "geocoded_column": {
      "latitude": "29.99126112477491",
      "longitude": "-90.05846139447799"
    }
  },
  {
    "service_request": "2022-873392",
    "request_type": "Trash/Recycling",
    "request_reason": "Missed Trash Pick-Up",
    "date_created": "2022-04-08T15:20:27.000",
    "date_modified": "2022-04-08T15:20:28.000",
    "request_status": "Pending",
    "responsible_agency": "Department of Sanitation",
    "final_address": "4113 Jumonville St",
    "address_councildis": "D",
    "status": "Assigned to Contractor",
    "contractor": "Metro Disposal",
    "rowid": "873392",
    "final_x": "3678091.32667",
    "final_y": "547378.288081",
    "longitude": "-90.07828521464342",
    "latitude": "29.999203560728578",
    "geocoded_column": {
      "latitude": "29.999203560728578",
      "longitude": "-90.07828521464342"
    }
  },
  {
    "service_request": "2022-873391",
    "request_type": "Property Maintenance",
    "request_reason": "Property Maintenance",
    "date_created": "2022-04-08T15:14:56.000",
    "date_modified": "2022-04-08T15:14:56.000",
    "request_status": "Pending",
    "responsible_agency": "Department of Code Enforcement",
    "final_address": "9711 Chef Menteur Hwy",
    "address_councildis": "E",
    "status": "Pending",
    "rowid": "873391",
    "final_x": "3711636.54379",
    "final_y": "554880.293272",
    "longitude": "-89.97203460545568",
    "latitude": "30.018778239566355",
    "geocoded_column": {
      "latitude": "30.018778239566355",
      "longitude": "-89.97203460545568"
    }
  },
  {
    "service_request": "2022-873390",
    "request_type": "Abandoned Vehicles",
    "request_reason": "Abandoned/Junk Vehicles",
    "date_created": "2022-04-08T15:11:17.000",
    "date_modified": "2022-04-08T15:11:17.000",
    "request_status": "Pending",
    "responsible_agency": "Department of Public Works",
    "final_address": "5700 Block of Wilton Dr, New Orleans, Louisiana, 70122",
    "status": "Pending",
    "rowid": "873390",
    "longitude": "0.0",
    "latitude": "0.0",
    "geocoded_column": {
      "latitude": "0.0",
      "longitude": "0.0"
    }
  },
  {
    "service_request": "2022-873389",
    "request_type": "Abandoned Vehicles",
    "request_reason": "Vehicle Blocking Your Driveway",
    "date_created": "2022-04-08T15:09:21.000",
    "date_modified": "2022-04-08T15:26:14.000",
    "request_status": "Pending",
    "responsible_agency": "Department of Public Works",
    "final_address": "2428 Touro St",
    "address_councildis": "D",
    "status": "Pending",
    "rowid": "873389",
    "final_x": "3683796.23189",
    "final_y": "541257.37742",
    "longitude": "-90.06047810456762",
    "latitude": "29.982200180652264",
    "geocoded_column": {
      "latitude": "29.982200180652264",
      "longitude": "-90.06047810456762"
    }
  },
  {
    "service_request": "2022-873388",
    "request_type": "Trash/Recycling",
    "request_reason": "Request a Large Item Pick Up",
    "date_created": "2022-04-08T15:09:11.000",
    "date_modified": "2022-04-08T15:09:12.000",
    "request_status": "Pending",
    "responsible_agency": "Department of Sanitation",
    "final_address": "4731 Dauphine St",
    "address_councildis": "E",
    "status": "Assigned to Contractor",
    "contractor": "Metro Disposal",
    "rowid": "873388",
    "final_x": "3694593.21053",
    "final_y": "533433.713348",
    "longitude": "-90.02665796309971",
    "latitude": "29.960353686717127",
    "geocoded_column": {
      "latitude": "29.960353686717127",
      "longitude": "-90.02665796309971"
    }
  },
  {
    "service_request": "2022-873387",
    "request_type": "Trash/Recycling",
    "request_reason": "Missed Trash Pick-Up",
    "date_created": "2022-04-08T15:08:21.000",
    "date_modified": "2022-04-08T15:08:21.000",
    "request_status": "Pending",
    "responsible_agency": "Department of Sanitation",
    "final_address": "4400 Magazine St",
    "address_councildis": "B",
    "status": "Assigned to Contractor",
    "contractor": "Richards Disposal",
    "rowid": "873387",
    "final_x": "3670892.5739",
    "final_y": "518732.072375",
    "longitude": "-90.1019987640405",
    "latitude": "29.920650827633352",
    "geocoded_column": {
      "latitude": "29.920650827633352",
      "longitude": "-90.1019987640405"
    }
  },
  {
    "service_request": "2022-873383",
    "request_type": "Parks & Parkways",
    "request_reason": "Request Tree Service (Right of Way/Public Property)",
    "date_created": "2022-04-08T15:05:54.000",
    "date_modified": "2022-04-08T15:05:54.000",
    "request_status": "Pending",
    "responsible_agency": "Department of Parks & Parkway",
    "final_address": "3337 Louisiana Avenue Prkwy",
    "address_councildis": "B",
    "status": "Pending",
    "rowid": "873383",
    "final_x": "3671791.4738",
    "final_y": "527603.166015",
    "longitude": "-90.09885966661396",
    "latitude": "29.945016881628366",
    "geocoded_column": {
      "latitude": "29.945016881628366",
      "longitude": "-90.09885966661396"
    }
  },
  {
    "service_request": "2022-873381",
    "request_type": "Parks & Parkways",
    "request_reason": "Request Tree Service (Right of Way/Public Property)",
    "date_created": "2022-04-08T14:59:11.000",
    "date_modified": "2022-04-08T14:59:11.000",
    "request_status": "Pending",
    "responsible_agency": "Department of Parks & Parkway",
    "final_address": "1712 Louisiana Ave",
    "address_councildis": "B",
    "status": "Pending",
    "rowid": "873381",
    "final_x": "3673942.28769",
    "final_y": "521936.996282",
    "longitude": "-90.09226263974962",
    "latitude": "29.929372871588434",
    "geocoded_column": {
      "latitude": "29.929372871588434",
      "longitude": "-90.09226263974962"
    }
  },
  {
    "service_request": "2022-873380",
    "request_type": "Trash/Recycling",
    "request_reason": "Illegal Dumping",
    "date_created": "2022-04-08T14:58:44.000",
    "date_modified": "2022-04-08T14:58:44.000",
    "request_status": "Pending",
    "responsible_agency": "Department of Sanitation",
    "final_address": "1683 Humanity St",
    "address_councildis": "D",
    "status": "Pending",
    "rowid": "873380",
    "final_x": "3680496.54824",
    "final_y": "544508.808079",
    "longitude": "-90.07078694628586",
    "latitude": "29.991240849327152",
    "geocoded_column": {
      "latitude": "29.991240849327152",
      "longitude": "-90.07078694628586"
    }
  },
  {
    "service_request": "2022-873379",
    "request_type": "Trash/Recycling",
    "request_reason": "Replace Trash Cart",
    "date_created": "2022-04-08T14:57:35.000",
    "date_modified": "2022-04-08T14:57:36.000",
    "request_status": "Pending",
    "responsible_agency": "Department of Sanitation",
    "final_address": "3122 Cadiz St",
    "address_councildis": "B",
    "status": "Assigned to Contractor",
    "contractor": "Richards Disposal",
    "rowid": "873379",
    "final_x": "3669465.70132",
    "final_y": "526406.972158",
    "longitude": "-90.10624331454484",
    "latitude": "29.94179642969371",
    "geocoded_column": {
      "latitude": "29.94179642969371",
      "longitude": "-90.10624331454484"
    }
  },
  {
    "service_request": "2022-873378",
    "request_type": "Property Maintenance",
    "request_reason": "Property Maintenance",
    "date_created": "2022-04-08T14:52:50.000",
    "date_modified": "2022-04-08T14:52:50.000",
    "request_status": "Pending",
    "responsible_agency": "Department of Code Enforcement",
    "final_address": "3511 Danneel St",
    "address_councildis": "B",
    "status": "Pending",
    "rowid": "873378",
    "final_x": "3673146.75137",
    "final_y": "522710.908282",
    "longitude": "-90.09474759571928",
    "latitude": "29.931524548416622",
    "geocoded_column": {
      "latitude": "29.931524548416622",
      "longitude": "-90.09474759571928"
    }
  },
  {
    "service_request": "2022-873377",
    "request_type": "Roads/Drainage",
    "request_reason": "Pothole",
    "date_created": "2022-04-08T14:50:19.000",
    "date_modified": "2022-04-08T14:50:20.000",
    "request_status": "Pending",
    "responsible_agency": "Department of Public Works",
    "final_address": "2703 Dante St",
    "address_councildis": "A",
    "status": "Pending",
    "rowid": "873377",
    "final_x": "3665114.7241",
    "final_y": "532858.448772",
    "longitude": "-90.11976457915792",
    "latitude": "29.95966330465697",
    "geocoded_column": {
      "latitude": "29.95966330465697",
      "longitude": "-90.11976457915792"
    }
  },
  {
    "service_request": "2022-873376",
    "request_type": "Trash/Recycling",
    "request_reason": "Request a Large Item Pick Up",
    "date_created": "2022-04-08T14:46:32.000",
    "date_modified": "2022-04-08T14:46:32.000",
    "request_status": "Pending",
    "responsible_agency": "Department of Sanitation",
    "final_address": "221 N Derbigny St",
    "address_councildis": "B",
    "status": "Assigned to Contractor",
    "contractor": "Richards Disposal",
    "rowid": "873376",
    "final_x": "3678373.70555",
    "final_y": "533555.419141",
    "longitude": "-90.07787161610273",
    "latitude": "29.961186949802393",
    "geocoded_column": {
      "latitude": "29.961186949802393",
      "longitude": "-90.07787161610273"
    }
  },
  {
    "service_request": "2022-873375",
    "request_type": "Trash/Recycling",
    "request_reason": "Missed Trash Pick-Up",
    "date_created": "2022-04-08T14:44:59.000",
    "date_modified": "2022-04-08T14:45:00.000",
    "request_status": "Pending",
    "responsible_agency": "Department of Sanitation",
    "final_address": "221 N Derbigny St",
    "address_councildis": "B",
    "status": "Assigned to Contractor",
    "contractor": "Richards Disposal",
    "rowid": "873375",
    "final_x": "3678373.70555",
    "final_y": "533555.419141",
    "longitude": "-90.07787161610273",
    "latitude": "29.961186949802393",
    "geocoded_column": {
      "latitude": "29.961186949802393",
      "longitude": "-90.07787161610273"
    }
  },
  {
    "service_request": "2022-873374",
    "request_type": "Property Maintenance",
    "request_reason": "Property Maintenance",
    "date_created": "2022-04-08T14:44:28.000",
    "date_modified": "2022-04-08T14:44:28.000",
    "request_status": "Pending",
    "responsible_agency": "Department of Code Enforcement",
    "final_address": "3176 Ridgeway Blvd",
    "address_councildis": "E",
    "status": "Pending",
    "rowid": "873374",
    "final_x": "3744610.15035",
    "final_y": "597733.863232",
    "longitude": "-89.86611823174064",
    "latitude": "30.135487955718617",
    "geocoded_column": {
      "latitude": "30.135487955718617",
      "longitude": "-89.86611823174064"
    }
  },
  {
    "service_request": "2022-873373",
    "request_type": "Property Maintenance",
    "request_reason": "Property Maintenance",
    "date_created": "2022-04-08T14:41:52.000",
    "date_modified": "2022-04-08T14:41:52.000",
    "request_status": "Pending",
    "responsible_agency": "Department of Code Enforcement",
    "final_address": "2913 Ridgeway Blvd",
    "address_councildis": "E",
    "status": "Pending",
    "rowid": "873373",
    "final_x": "3744156.514",
    "final_y": "595802.430526",
    "longitude": "-89.86763136244204",
    "latitude": "30.13019340062493",
    "geocoded_column": {
      "latitude": "30.13019340062493",
      "longitude": "-89.86763136244204"
    }
  },
  {
    "service_request": "2022-873371",
    "request_type": "Property Maintenance",
    "request_reason": "Property Maintenance",
    "date_created": "2022-04-08T14:30:20.000",
    "date_modified": "2022-04-08T14:30:20.000",
    "request_status": "Pending",
    "responsible_agency": "Department of Code Enforcement",
    "final_address": "6670 Coveview Ct",
    "address_councildis": "E",
    "status": "Pending",
    "rowid": "873371",
    "final_x": "3699465.54615",
    "final_y": "555729.482009",
    "longitude": "-90.01045940096917",
    "latitude": "30.021505153892626",
    "geocoded_column": {
      "latitude": "30.021505153892626",
      "longitude": "-90.01045940096917"
    }
  },
  {
    "service_request": "2022-873370",
    "request_type": "Trash/Recycling",
    "request_reason": "Repair Trash Cart",
    "date_created": "2022-04-08T14:27:56.000",
    "date_modified": "2022-04-08T14:27:57.000",
    "request_status": "Pending",
    "responsible_agency": "Department of Sanitation",
    "final_address": "927 N Rendon St",
    "address_councildis": "A",
    "status": "Assigned to Contractor",
    "contractor": "Richards Disposal",
    "rowid": "873370",
    "final_x": "3675523.36251",
    "final_y": "539060.766218",
    "longitude": "-90.08668335214217",
    "latitude": "29.976410351200254",
    "geocoded_column": {
      "latitude": "29.976410351200254",
      "longitude": "-90.08668335214217"
    }
  },
  {
    "service_request": "2022-873369",
    "request_type": "Trash/Recycling",
    "request_reason": "Repair Trash Cart",
    "date_created": "2022-04-08T14:27:21.000",
    "date_modified": "2022-04-08T14:27:22.000",
    "request_status": "Pending",
    "responsible_agency": "Department of Sanitation",
    "final_address": "536 S Hennessey St",
    "address_councildis": "A",
    "status": "Assigned to Contractor",
    "contractor": "Richards Disposal",
    "rowid": "873369",
    "final_x": "3669188.48986",
    "final_y": "537440.8002",
    "longitude": "-90.10674562091735",
    "latitude": "29.972143980734984",
    "geocoded_column": {
      "latitude": "29.972143980734984",
      "longitude": "-90.10674562091735"
    }
  },
  {
    "service_request": "2022-873368",
    "request_type": "Trash/Recycling",
    "request_reason": "Missed Trash Pick-Up",
    "date_created": "2022-04-08T14:26:38.000",
    "date_modified": "2022-04-08T14:26:39.000",
    "request_status": "Pending",
    "responsible_agency": "Department of Sanitation",
    "final_address": "6125 Clara St",
    "address_councildis": "A",
    "status": "Assigned to Contractor",
    "contractor": "Richards Disposal",
    "rowid": "873368",
    "final_x": "3666519.33089",
    "final_y": "525594.853949",
    "longitude": "-90.11557289920538",
    "latitude": "29.93964979680119",
    "geocoded_column": {
      "latitude": "29.93964979680119",
      "longitude": "-90.11557289920538"
    }
  },
  {
    "service_request": "2022-873367",
    "request_type": "Trash/Recycling",
    "request_reason": "Repair Trash Cart",
    "date_created": "2022-04-08T14:25:40.000",
    "date_modified": "2022-04-08T14:25:41.000",
    "request_status": "Pending",
    "responsible_agency": "Department of Sanitation",
    "final_address": "6240 Waldo Dr",
    "address_councildis": "D",
    "status": "Assigned to Contractor",
    "contractor": "Metro Disposal",
    "rowid": "873367",
    "final_x": "3681016.56149",
    "final_y": "556094.095642",
    "longitude": "-90.0687404650943",
    "latitude": "30.02308045856621",
    "geocoded_column": {
      "latitude": "30.02308045856621",
      "longitude": "-90.0687404650943"
    }
  },
  {
    "service_request": "2022-873366",
    "request_type": "Roads/Drainage",
    "request_reason": "Street Subsidence (Sinking)",
    "date_created": "2022-04-08T14:21:02.000",
    "date_modified": "2022-04-08T14:21:02.000",
    "request_status": "Pending",
    "responsible_agency": "Department of Public Works",
    "final_address": "741 Church St",
    "address_councildis": "B",
    "status": "Pending",
    "rowid": "873366",
    "final_x": "3680603.73679",
    "final_y": "528185.094016",
    "longitude": "-90.07101640550368",
    "latitude": "29.94635299612583",
    "geocoded_column": {
      "latitude": "29.94635299612583",
      "longitude": "-90.07101640550368"
    }
  },
  {
    "service_request": "2022-873365",
    "request_type": "Property Maintenance",
    "request_reason": "Property Maintenance",
    "date_created": "2022-04-08T14:19:10.000",
    "date_modified": "2022-04-08T14:19:10.000",
    "request_status": "Pending",
    "responsible_agency": "Department of Code Enforcement",
    "final_address": "2440 touro street New Orleans la 70119",
    "address_councildis": "D",
    "status": "Pending",
    "rowid": "873365",
    "final_x": "3683782.93193",
    "final_y": "541326.687628",
    "longitude": "-90.06051768049412",
    "latitude": "29.982391165590165",
    "geocoded_column": {
      "latitude": "29.982391165590165",
      "longitude": "-90.06051768049412"
    }
  },
  {
    "service_request": "2022-873363",
    "request_type": "Trash/Recycling",
    "request_reason": "Replace Trash Cart",
    "date_created": "2022-04-08T14:16:18.000",
    "date_modified": "2022-04-08T14:16:18.000",
    "request_status": "Pending",
    "responsible_agency": "Department of Sanitation",
    "final_address": "New Orleans,LA",
    "status": "Assigned to Contractor",
    "rowid": "873363",
    "longitude": "0.0",
    "latitude": "0.0",
    "geocoded_column": {
      "latitude": "0.0",
      "longitude": "0.0"
    }
  },
  {
    "service_request": "2022-873360",
    "request_type": "Trash/Recycling",
    "request_reason": "Order Recycling Cart",
    "date_created": "2022-04-08T14:12:14.000",
    "date_modified": "2022-04-08T14:12:14.000",
    "request_status": "Pending",
    "responsible_agency": "Department of Sanitation",
    "final_address": "1643 Jo Ann Pl",
    "address_councildis": "C",
    "status": "Pending",
    "rowid": "873360",
    "final_x": "3694912.26416",
    "final_y": "525048.532029",
    "longitude": "-90.02595257823309",
    "latitude": "29.93728734773145",
    "geocoded_column": {
      "latitude": "29.93728734773145",
      "longitude": "-90.02595257823309"
    }
  },
  {
    "service_request": "2022-873359",
    "request_type": "Trash/Recycling",
    "request_reason": "Order Trash Cart",
    "date_created": "2022-04-08T14:11:58.000",
    "date_modified": "2022-04-08T14:11:59.000",
    "request_status": "Pending",
    "responsible_agency": "Department of Sanitation",
    "final_address": "1643 Jo Ann Pl",
    "address_councildis": "C",
    "status": "Assigned to Contractor",
    "contractor": "Richards Disposal",
    "rowid": "873359",
    "final_x": "3694912.26416",
    "final_y": "525048.532029",
    "longitude": "-90.02595257823309",
    "latitude": "29.93728734773145",
    "geocoded_column": {
      "latitude": "29.93728734773145",
      "longitude": "-90.02595257823309"
    }
  },
  {
    "service_request": "2022-873358",
    "request_type": "Trash/Recycling",
    "request_reason": "Start Trash Service",
    "date_created": "2022-04-08T14:11:44.000",
    "date_modified": "2022-04-08T14:11:45.000",
    "request_status": "Pending",
    "responsible_agency": "Department of Sanitation",
    "final_address": "1643 Jo Ann Pl",
    "address_councildis": "C",
    "status": "Assigned to Contractor",
    "contractor": "Richards Disposal",
    "rowid": "873358",
    "final_x": "3694912.26416",
    "final_y": "525048.532029",
    "longitude": "-90.02595257823309",
    "latitude": "29.93728734773145",
    "geocoded_column": {
      "latitude": "29.93728734773145",
      "longitude": "-90.02595257823309"
    }
  },
  {
    "service_request": "2022-873356",
    "request_type": "Traffic Signals/Signs/Striping/Streetlights",
    "request_reason": "Street Light Knocked Down/Leaning",
    "date_created": "2022-04-08T14:09:17.000",
    "date_modified": "2022-04-08T14:09:18.000",
    "request_status": "Pending",
    "responsible_agency": "Department of Public Works",
    "final_address": "2340 Robert St",
    "address_councildis": "B",
    "status": "Pending",
    "contractor": "Royal Engineering",
    "rowid": "873356",
    "final_x": "3668770.39732",
    "final_y": "524226.61158",
    "longitude": "-90.10851212318342",
    "latitude": "29.935821596819597",
    "geocoded_column": {
      "latitude": "29.935821596819597",
      "longitude": "-90.10851212318342"
    }
  },
  {
    "service_request": "2022-873354",
    "request_type": "Abandoned Vehicles",
    "request_reason": "Abandoned/Junk Vehicles",
    "date_created": "2022-04-08T14:04:41.000",
    "date_modified": "2022-04-08T15:01:41.000",
    "case_close_date": "2022-04-08T10:01:41.000",
    "request_status": "Closed",
    "responsible_agency": "Department of Public Works",
    "final_address": "2428 touro st New Orleans la 70119",
    "address_councildis": "D",
    "status": "Duplicate Case",
    "rowid": "873354",
    "final_x": "3683796.23189",
    "final_y": "541257.37742",
    "longitude": "-90.06047810456762",
    "latitude": "29.982200180652264",
    "geocoded_column": {
      "latitude": "29.982200180652264",
      "longitude": "-90.06047810456762"
    }
  },
  {
    "service_request": "2022-873353",
    "request_type": "Trash/Recycling",
    "request_reason": "Missed Trash Pick-Up",
    "date_created": "2022-04-08T14:03:33.000",
    "date_modified": "2022-04-08T14:03:34.000",
    "request_status": "Pending",
    "responsible_agency": "Department of Sanitation",
    "final_address": "4020 Palmyra St",
    "address_councildis": "A",
    "status": "Assigned to Contractor",
    "contractor": "Richards Disposal",
    "rowid": "873353",
    "final_x": "3670793.7675",
    "final_y": "537467.830536",
    "longitude": "-90.10167495606161",
    "latitude": "29.97217095723327",
    "geocoded_column": {
      "latitude": "29.97217095723327",
      "longitude": "-90.10167495606161"
    }
  },
  {
    "service_request": "2022-873352",
    "request_type": "Traffic Signals/Signs/Striping/Streetlights",
    "request_reason": "Street Light Outage/Malfunction",
    "date_created": "2022-04-08T14:02:44.000",
    "date_modified": "2022-04-08T14:02:45.000",
    "request_status": "Pending",
    "responsible_agency": "Department of Public Works",
    "final_address": "78 Tern St",
    "address_councildis": "D",
    "status": "Pending",
    "contractor": "Royal Engineering",
    "rowid": "873352",
    "final_x": "3674884.00289",
    "final_y": "557150.355931",
    "longitude": "-90.08808175413242",
    "latitude": "30.026169464774615",
    "geocoded_column": {
      "latitude": "30.026169464774615",
      "longitude": "-90.08808175413242"
    }
  },
  {
    "service_request": "2022-873351",
    "request_type": "Traffic Signals/Signs/Striping/Streetlights",
    "request_reason": "Street Light Knocked Down/Leaning",
    "date_created": "2022-04-08T13:58:17.000",
    "date_modified": "2022-04-08T13:58:17.000",
    "request_status": "Pending",
    "responsible_agency": "Department of Public Works",
    "final_address": "4118 Eden St",
    "address_councildis": "B",
    "status": "Pending",
    "contractor": "Royal Engineering",
    "rowid": "873351",
    "final_x": "3670604.24814",
    "final_y": "530179.549185",
    "longitude": "-90.10252073705949",
    "latitude": "29.952136208189966",
    "geocoded_column": {
      "latitude": "29.952136208189966",
      "longitude": "-90.10252073705949"
    }
  },
  {
    "service_request": "2022-873349",
    "request_type": "Traffic Signals/Signs/Striping/Streetlights",
    "request_reason": "Traffic Signal Malfunctioning/Damaged",
    "date_created": "2022-04-08T13:42:09.000",
    "date_modified": "2022-04-08T13:42:10.000",
    "case_close_date": "2019-05-29T19:00:00.000",
    "request_status": "Pending",
    "responsible_agency": "Department of Public Works",
    "final_address": "LOUISIANA AVE & LA SALLE ST",
    "address_councildis": "B",
    "status": "Pending",
    "contractor": "Royal Engineering",
    "rowid": "873349",
    "final_x": "3673055.7",
    "final_y": "524148.88",
    "longitude": "-90.09498597468031",
    "latitude": "29.935481210872826",
    "geocoded_column": {
      "latitude": "29.935481210872826",
      "longitude": "-90.09498597468031"
    }
  },
  {
    "service_request": "2022-873348",
    "request_type": "Trash/Recycling",
    "request_reason": "Missed Trash Pick-Up",
    "date_created": "2022-04-08T13:40:06.000",
    "date_modified": "2022-04-08T13:40:07.000",
    "request_status": "Pending",
    "responsible_agency": "Department of Sanitation",
    "final_address": "965 Navarre St",
    "address_councildis": "A",
    "status": "Assigned to Contractor",
    "contractor": "Metro Disposal",
    "rowid": "873348",
    "final_x": "3670335.99034",
    "final_y": "543731.92763",
    "longitude": "-90.10290826236762",
    "latitude": "29.98940861754111",
    "geocoded_column": {
      "latitude": "29.98940861754111",
      "longitude": "-90.10290826236762"
    }
  },
  {
    "service_request": "2022-873347",
    "request_type": "Abandoned Vehicles",
    "request_reason": "Abandoned/Junk Vehicles",
    "date_created": "2022-04-08T13:36:35.000",
    "date_modified": "2022-04-08T13:36:36.000",
    "request_status": "Pending",
    "responsible_agency": "Department of Public Works",
    "final_address": "1328 Spain St",
    "address_councildis": "C",
    "status": "Pending",
    "rowid": "873347",
    "final_x": "3686015.70678",
    "final_y": "537363.530376",
    "longitude": "-90.05360529775066",
    "latitude": "29.971425489598385",
    "geocoded_column": {
      "latitude": "29.971425489598385",
      "longitude": "-90.05360529775066"
    }
  },
  {
    "service_request": "2022-873346",
    "request_type": "Roads/Drainage",
    "request_reason": "Damaged Sidewalk",
    "date_created": "2022-04-08T13:36:19.000",
    "date_modified": "2022-04-08T13:36:19.000",
    "request_status": "Pending",
    "responsible_agency": "Department of Public Works",
    "final_address": "6051 Milne Blvd",
    "address_councildis": "A",
    "status": "Pending",
    "rowid": "873346",
    "final_x": "3667141.69383",
    "final_y": "547903.123538",
    "longitude": "-90.11285782714248",
    "latitude": "30.000971903843784",
    "geocoded_column": {
      "latitude": "30.000971903843784",
      "longitude": "-90.11285782714248"
    }
  },
  {
    "service_request": "2022-873345",
    "request_type": "Traffic Signals/Signs/Striping/Streetlights",
    "request_reason": "Traffic Signal Malfunctioning/Damaged",
    "date_created": "2022-04-08T13:33:57.000",
    "date_modified": "2022-04-08T13:33:58.000",
    "request_status": "Pending",
    "responsible_agency": "Department of Public Works",
    "final_address": "CALLIOPE ST & TCHOUPITOULAS EXIT",
    "address_councildis": "B",
    "status": "Pending",
    "rowid": "873345",
    "final_x": "3681756.9",
    "final_y": "525763.58",
    "longitude": "-90.06745993249937",
    "latitude": "29.939659661057778",
    "geocoded_column": {
      "latitude": "29.939659661057778",
      "longitude": "-90.06745993249937"
    }
  },
  {
    "service_request": "2022-873344",
    "request_type": "Trash/Recycling",
    "request_reason": "Order Recycling Cart",
    "date_created": "2022-04-08T13:32:48.000",
    "date_modified": "2022-04-08T13:32:48.000",
    "request_status": "Pending",
    "responsible_agency": "Department of Sanitation",
    "final_address": "925 Sixth St",
    "address_councildis": "B",
    "status": "Pending",
    "rowid": "873344",
    "final_x": "3676946.10651",
    "final_y": "520125.304568",
    "longitude": "-90.08284255232478",
    "latitude": "29.924301506105667",
    "geocoded_column": {
      "latitude": "29.924301506105667",
      "longitude": "-90.08284255232478"
    }
  },
  {
    "service_request": "2022-873343",
    "request_type": "Trash/Recycling",
    "request_reason": "Order Recycling Cart",
    "date_created": "2022-04-08T13:32:06.000",
    "date_modified": "2022-04-08T13:32:06.000",
    "request_status": "Pending",
    "responsible_agency": "Department of Sanitation",
    "final_address": "925 Sixth St",
    "address_councildis": "B",
    "status": "Pending",
    "rowid": "873343",
    "final_x": "3676946.10651",
    "final_y": "520125.304568",
    "longitude": "-90.08284255232478",
    "latitude": "29.924301506105667",
    "geocoded_column": {
      "latitude": "29.924301506105667",
      "longitude": "-90.08284255232478"
    }
  },
  {
    "service_request": "2022-873342",
    "request_type": "Trash/Recycling",
    "request_reason": "Repair Trash Cart",
    "date_created": "2022-04-08T13:32:02.000",
    "date_modified": "2022-04-08T13:32:03.000",
    "request_status": "Pending",
    "responsible_agency": "Department of Sanitation",
    "final_address": "6051 Milne Blvd",
    "address_councildis": "A",
    "status": "Assigned to Contractor",
    "contractor": "Metro Disposal",
    "rowid": "873342",
    "final_x": "3667141.69383",
    "final_y": "547903.123538",
    "longitude": "-90.11285782714248",
    "latitude": "30.000971903843784",
    "geocoded_column": {
      "latitude": "30.000971903843784",
      "longitude": "-90.11285782714248"
    }
  },
  {
    "service_request": "2022-873341",
    "request_type": "Trash/Recycling",
    "request_reason": "Replace Trash Cart",
    "date_created": "2022-04-08T13:30:41.000",
    "date_modified": "2022-04-08T13:30:42.000",
    "request_status": "Pending",
    "responsible_agency": "Department of Sanitation",
    "final_address": "8131 Cohn St, New Orleans, Louisiana, 70118",
    "address_councildis": "A",
    "status": "Assigned to Contractor",
    "contractor": "Richards Disposal",
    "rowid": "873341",
    "final_x": "3663465.41274",
    "final_y": "530397.342722",
    "longitude": "-90.12505470345558",
    "latitude": "29.9529439900729",
    "geocoded_column": {
      "latitude": "29.9529439900729",
      "longitude": "-90.12505470345558"
    }
  },
  {
    "service_request": "2022-873340",
    "request_type": "Trash/Recycling",
    "request_reason": "Replace Trash Cart",
    "date_created": "2022-04-08T13:30:01.000",
    "date_modified": "2022-04-08T13:30:01.000",
    "request_status": "Pending",
    "responsible_agency": "Department of Sanitation",
    "final_address": "4674 Lurline St",
    "address_councildis": "E",
    "status": "Assigned to Contractor",
    "contractor": "Metro Disposal",
    "rowid": "873340",
    "final_x": "3711933.9292",
    "final_y": "555751.504153",
    "longitude": "-89.97106225679836",
    "latitude": "30.0211640100634",
    "geocoded_column": {
      "latitude": "30.0211640100634",
      "longitude": "-89.97106225679836"
    }
  },
  {
    "service_request": "2022-873339",
    "request_type": "Roads/Drainage",
    "request_reason": "Pothole",
    "date_created": "2022-04-08T13:19:36.000",
    "date_modified": "2022-04-08T13:19:36.000",
    "request_status": "Pending",
    "responsible_agency": "Department of Public Works",
    "final_address": "5500 Paris Ave",
    "address_councildis": "D",
    "status": "Pending",
    "rowid": "873339",
    "final_x": "3678794.34613",
    "final_y": "552818.48431",
    "longitude": "-90.07587576162345",
    "latitude": "30.01414096363432",
    "geocoded_column": {
      "latitude": "30.01414096363432",
      "longitude": "-90.07587576162345"
    }
  },
  {
    "service_request": "2022-873338",
    "request_type": "Trash/Recycling",
    "request_reason": "Missed Trash Pick-Up",
    "date_created": "2022-04-08T13:18:49.000",
    "date_modified": "2022-04-08T13:18:50.000",
    "request_status": "Pending",
    "responsible_agency": "Department of Sanitation",
    "final_address": "2730 St Charles Ave",
    "address_councildis": "B",
    "status": "Assigned to Contractor",
    "contractor": "Richards Disposal",
    "rowid": "873338",
    "final_x": "3676081.96635",
    "final_y": "522509.256442",
    "longitude": "-90.08548839340357",
    "latitude": "29.930882503707025",
    "geocoded_column": {
      "latitude": "29.930882503707025",
      "longitude": "-90.08548839340357"
    }
  },
  {
    "service_request": "2022-873337",
    "request_type": "Traffic Signals/Signs/Striping/Streetlights",
    "request_reason": "Street Light Outage/Malfunction",
    "date_created": "2022-04-08T13:15:33.000",
    "date_modified": "2022-04-08T13:15:34.000",
    "request_status": "Pending",
    "responsible_agency": "Department of Public Works",
    "final_address": "6238 N Rampart St",
    "address_councildis": "E",
    "status": "Pending",
    "contractor": "Royal Engineering",
    "rowid": "873337",
    "final_x": "3699924.66928",
    "final_y": "532611.12762",
    "longitude": "-90.00985242735707",
    "latitude": "29.95792361833792",
    "geocoded_column": {
      "latitude": "29.95792361833792",
      "longitude": "-90.00985242735707"
    }
  },
  {
    "service_request": "2022-873336",
    "request_type": "Trash/Recycling",
    "request_reason": "Start Trash Service",
    "date_created": "2022-04-08T13:10:56.000",
    "date_modified": "2022-04-08T13:10:57.000",
    "request_status": "Pending",
    "responsible_agency": "Department of Sanitation",
    "final_address": "6719 Louisville St",
    "address_councildis": "A",
    "status": "Assigned to Contractor",
    "contractor": "Metro Disposal",
    "rowid": "873336",
    "final_x": "3668256.61703",
    "final_y": "552239.22159",
    "longitude": "-90.10918934283818",
    "latitude": "30.012861959830417",
    "geocoded_column": {
      "latitude": "30.012861959830417",
      "longitude": "-90.10918934283818"
    }
  },
  {
    "service_request": "2022-873335",
    "request_type": "Traffic Signals/Signs/Striping/Streetlights",
    "request_reason": "Street Light Outage/Malfunction",
    "date_created": "2022-04-08T13:10:43.000",
    "date_modified": "2022-04-08T13:10:44.000",
    "case_close_date": "2020-06-02T19:00:00.000",
    "request_status": "Pending",
    "responsible_agency": "Department of Public Works",
    "final_address": "2316 Choctaw Ct",
    "address_councildis": "E",
    "status": "Pending",
    "contractor": "Royal Engineering",
    "rowid": "873335",
    "final_x": "3698659.9192",
    "final_y": "538592.876681",
    "longitude": "-90.01362857866349",
    "latitude": "29.97441139441578",
    "geocoded_column": {
      "latitude": "29.97441139441578",
      "longitude": "-90.01362857866349"
    }
  },
  {
    "service_request": "2022-873334",
    "request_type": "Trash/Recycling",
    "request_reason": "Illegal Dumping",
    "date_created": "2022-04-08T13:10:01.000",
    "date_modified": "2022-04-08T13:10:01.000",
    "request_status": "Pending",
    "responsible_agency": "Department of Code Enforcement",
    "final_address": "2071 Westbend Prkwy Unit 279",
    "address_councildis": "C",
    "status": "Pending",
    "rowid": "873334",
    "final_x": "3696774.95619",
    "final_y": "523223.761211",
    "longitude": "-90.02013799553886",
    "latitude": "29.93221128640205",
    "geocoded_column": {
      "latitude": "29.93221128640205",
      "longitude": "-90.02013799553886"
    }
  },
  {
    "service_request": "2022-873333",
    "request_type": "Property Maintenance",
    "request_reason": "Property Maintenance",
    "date_created": "2022-04-08T13:09:44.000",
    "date_modified": "2022-04-08T13:09:44.000",
    "request_status": "Pending",
    "responsible_agency": "Department of Code Enforcement",
    "final_address": "1322 Alabo St",
    "address_councildis": "E",
    "status": "Pending",
    "rowid": "873333",
    "final_x": "3699097.08215",
    "final_y": "534466.590597",
    "longitude": "-90.01239815369526",
    "latitude": "29.96305173856576",
    "geocoded_column": {
      "latitude": "29.96305173856576",
      "longitude": "-90.01239815369526"
    }
  },
  {
    "service_request": "2022-873332",
    "request_type": "Trash/Recycling",
    "request_reason": "Illegal Dumping",
    "date_created": "2022-04-08T13:09:03.000",
    "date_modified": "2022-04-08T13:09:03.000",
    "request_status": "Pending",
    "responsible_agency": "Department of Code Enforcement",
    "final_address": "3502 Vespasian St Unit 156",
    "address_councildis": "C",
    "status": "Pending",
    "rowid": "873332",
    "final_x": "3696359.75869",
    "final_y": "522690.212986",
    "longitude": "-90.02146801106092",
    "latitude": "29.93075728912681",
    "geocoded_column": {
      "latitude": "29.93075728912681",
      "longitude": "-90.02146801106092"
    }
  },
  {
    "service_request": "2022-873331",
    "request_type": "Roads/Drainage",
    "request_reason": "Pothole",
    "date_created": "2022-04-08T13:06:24.000",
    "date_modified": "2022-04-08T13:06:25.000",
    "case_close_date": "2019-05-07T19:00:00.000",
    "request_status": "Pending",
    "responsible_agency": "Department of Public Works",
    "final_address": "2202 Wirth Pl",
    "address_councildis": "A",
    "status": "Pending",
    "contractor": "Richards Disposal",
    "rowid": "873331",
    "final_x": "3667000.2777",
    "final_y": "524252.62982",
    "longitude": "-90.11409956812773",
    "latitude": "29.93594504738387",
    "geocoded_column": {
      "latitude": "29.93594504738387",
      "longitude": "-90.11409956812773"
    }
  },
  {
    "service_request": "2022-873330",
    "request_type": "Trash/Recycling",
    "request_reason": "Request a Large Item Pick Up",
    "date_created": "2022-04-08T13:02:05.000",
    "date_modified": "2022-04-08T13:02:06.000",
    "request_status": "Pending",
    "responsible_agency": "Department of Sanitation",
    "final_address": "2115 Peniston St",
    "address_councildis": "B",
    "status": "Assigned to Contractor",
    "contractor": "Richards Disposal",
    "rowid": "873330",
    "final_x": "3672471.85179",
    "final_y": "523000.174075",
    "longitude": "-90.09686832407532",
    "latitude": "29.9323399783098",
    "geocoded_column": {
      "latitude": "29.9323399783098",
      "longitude": "-90.09686832407532"
    }
  },
  {
    "service_request": "2022-873329",
    "request_type": "Trash/Recycling",
    "request_reason": "Request a Large Item Pick Up",
    "date_created": "2022-04-08T13:00:46.000",
    "date_modified": "2022-04-08T13:00:47.000",
    "request_status": "Pending",
    "responsible_agency": "Department of Sanitation",
    "final_address": "2125 Peniston St",
    "address_councildis": "B",
    "status": "Assigned to Contractor",
    "contractor": "Richards Disposal",
    "rowid": "873329",
    "final_x": "3672486.50151",
    "final_y": "523103.378043",
    "longitude": "-90.09681856029567",
    "latitude": "29.93262332119722",
    "geocoded_column": {
      "latitude": "29.93262332119722",
      "longitude": "-90.09681856029567"
    }
  },
  {
    "service_request": "2022-873328",
    "request_type": "Trash/Recycling",
    "request_reason": "Replace Recycling Cart",
    "date_created": "2022-04-08T13:00:26.000",
    "date_modified": "2022-04-08T13:00:26.000",
    "request_status": "Pending",
    "responsible_agency": "Department of Sanitation",
    "final_address": "4219 S Saratoga St",
    "address_councildis": "B",
    "status": "Pending",
    "rowid": "873328",
    "final_x": "3671256.0098",
    "final_y": "522746.821178",
    "longitude": "-90.10071523763239",
    "latitude": "29.931679359189676",
    "geocoded_column": {
      "latitude": "29.931679359189676",
      "longitude": "-90.10071523763239"
    }
  },
  {
    "service_request": "2022-873327",
    "request_type": "Trash/Recycling",
    "request_reason": "Replace Trash Cart",
    "date_created": "2022-04-08T12:59:11.000",
    "date_modified": "2022-04-08T12:59:11.000",
    "request_status": "Pending",
    "responsible_agency": "Department of Sanitation",
    "final_address": "2031 Peniston St",
    "address_councildis": "B",
    "status": "Assigned to Contractor",
    "contractor": "Richards Disposal",
    "rowid": "873327",
    "final_x": "3672528.3682",
    "final_y": "522777.673722",
    "longitude": "-90.09669748736579",
    "latitude": "29.931726497139845",
    "geocoded_column": {
      "latitude": "29.931726497139845",
      "longitude": "-90.09669748736579"
    }
  },
  {
    "service_request": "2022-873326",
    "request_type": "Trash/Recycling",
    "request_reason": "MIssed Recycling Pick-Up",
    "date_created": "2022-04-08T12:56:27.000",
    "date_modified": "2022-04-08T12:56:28.000",
    "request_status": "Pending",
    "responsible_agency": "Department of Sanitation",
    "final_address": "923 Philip St",
    "address_councildis": "B",
    "status": "Assigned to Contractor",
    "contractor": "Richards Disposal",
    "rowid": "873326",
    "final_x": "3678900.55323",
    "final_y": "521431.654457",
    "longitude": "-90.07662781451171",
    "latitude": "29.927834748646372",
    "geocoded_column": {
      "latitude": "29.927834748646372",
      "longitude": "-90.07662781451171"
    }
  },
  {
    "service_request": "2022-873325",
    "request_type": "Abandoned Vehicles",
    "request_reason": "Vehicle Blocking Your Driveway",
    "date_created": "2022-04-08T12:52:11.000",
    "date_modified": "2022-04-08T12:52:11.000",
    "request_status": "Pending",
    "responsible_agency": "Department of Public Works",
    "final_address": "2513 Calhoun St",
    "address_councildis": "A",
    "status": "Pending",
    "rowid": "873325",
    "final_x": "3666270.25313",
    "final_y": "526112.374654",
    "longitude": "-90.11634192181309",
    "latitude": "29.941080089022584",
    "geocoded_column": {
      "latitude": "29.941080089022584",
      "longitude": "-90.11634192181309"
    }
  },
  {
    "service_request": "2022-873324",
    "request_type": "Mosquito, Termite & Rodent Control",
    "request_reason": "Non-Rodent Complaint (Mice, Possums, Snakes)",
    "date_created": "2022-04-08T12:49:37.000",
    "date_modified": "2022-04-08T12:49:37.000",
    "request_status": "Pending",
    "responsible_agency": "Mosquito, Termite & Rodent Control Board",
    "final_address": "6017 Eads St",
    "address_councildis": "D",
    "status": "Pending",
    "rowid": "873324",
    "final_x": "3686810.47522",
    "final_y": "555380.796569",
    "longitude": "-90.05045825001338",
    "latitude": "30.020942055874304",
    "geocoded_column": {
      "latitude": "30.020942055874304",
      "longitude": "-90.05045825001338"
    }
  },
  {
    "service_request": "2022-873323",
    "request_type": "Abandoned Vehicles",
    "request_reason": "Abandoned/Junk Vehicles",
    "date_created": "2022-04-08T12:49:26.000",
    "date_modified": "2022-04-08T12:49:27.000",
    "request_status": "Closed",
    "responsible_agency": "Department of Public Works",
    "final_address": "3210 Toledano St",
    "address_councildis": "B",
    "status": "Pending",
    "rowid": "873323",
    "final_x": "3672087.54446",
    "final_y": "527432.341247",
    "longitude": "-90.09793069328155",
    "latitude": "29.944538395412817",
    "geocoded_column": {
      "latitude": "29.944538395412817",
      "longitude": "-90.09793069328155"
    }
  },
  {
    "service_request": "2022-873322",
    "request_type": "Trash/Recycling",
    "request_reason": "Replace Trash Cart",
    "date_created": "2022-04-08T12:26:29.000",
    "date_modified": "2022-04-08T12:26:30.000",
    "request_status": "Pending",
    "responsible_agency": "Department of Sanitation",
    "final_address": "2218 N Rampart St",
    "address_councildis": "C",
    "status": "Assigned to Contractor",
    "contractor": "Metro Disposal",
    "rowid": "873322",
    "final_x": "3685258.58069",
    "final_y": "535933.361223",
    "longitude": "-90.05604675470222",
    "latitude": "29.967516250862936",
    "geocoded_column": {
      "latitude": "29.967516250862936",
      "longitude": "-90.05604675470222"
    }
  },
  {
    "service_request": "2022-873321",
    "request_type": "Trash/Recycling",
    "request_reason": "Replace Trash Cart",
    "date_created": "2022-04-08T12:18:58.000",
    "date_modified": "2022-04-08T12:18:59.000",
    "request_status": "Pending",
    "responsible_agency": "Department of Sanitation",
    "final_address": "528 S Rocheblave St",
    "address_councildis": "B",
    "status": "Assigned to Contractor",
    "contractor": "Richards Disposal",
    "rowid": "873321",
    "final_x": "3675055.8987",
    "final_y": "533026.620484",
    "longitude": "-90.08836680911038",
    "latitude": "29.95983247010194",
    "geocoded_column": {
      "latitude": "29.95983247010194",
      "longitude": "-90.08836680911038"
    }
  },
  {
    "service_request": "2022-873320",
    "request_type": "Parks & Parkways",
    "request_reason": "Request Grass Cutting Service (City Owned Property)",
    "date_created": "2022-04-08T12:17:35.000",
    "date_modified": "2022-04-08T12:21:38.000",
    "request_status": "Pending",
    "responsible_agency": "Department of Parks & Parkway",
    "final_address": "431 Tricou street New Orleans, LA 70117",
    "address_councildis": "E",
    "status": "Pending",
    "rowid": "873320",
    "final_x": "3699314.52202",
    "final_y": "530905.70989",
    "longitude": "-90.01184119497452",
    "latitude": "29.953253687700595",
    "geocoded_column": {
      "latitude": "29.953253687700595",
      "longitude": "-90.01184119497452"
    }
  },
  {
    "service_request": "2022-873319",
    "request_type": "Property Maintenance",
    "request_reason": "Property Maintenance",
    "date_created": "2022-04-08T12:15:05.000",
    "date_modified": "2022-04-08T12:15:05.000",
    "request_status": "Pending",
    "responsible_agency": "Department of Code Enforcement",
    "final_address": "431 Tricou St",
    "address_councildis": "E",
    "status": "Pending",
    "rowid": "873319",
    "final_x": "3699314.52202",
    "final_y": "530905.70989",
    "longitude": "-90.01184119497452",
    "latitude": "29.953253687700595",
    "geocoded_column": {
      "latitude": "29.953253687700595",
      "longitude": "-90.01184119497452"
    }
  },
  {
    "service_request": "2022-873318",
    "request_type": "Roads/Drainage",
    "request_reason": "Pothole",
    "date_created": "2022-04-08T12:12:26.000",
    "date_modified": "2022-04-08T12:12:26.000",
    "request_status": "Pending",
    "responsible_agency": "Department of Public Works",
    "final_address": "1380 Mandolin St",
    "address_councildis": "D",
    "status": "Pending",
    "rowid": "873318",
    "final_x": "3677857.37621",
    "final_y": "547915.371538",
    "longitude": "-90.07900569696132",
    "latitude": "30.000687393986567",
    "geocoded_column": {
      "latitude": "30.000687393986567",
      "longitude": "-90.07900569696132"
    }
  },
  {
    "service_request": "2022-873317",
    "request_type": "Roads/Drainage",
    "request_reason": "Accessibility Ramps, Curbs and Sidewalk Repair",
    "date_created": "2022-04-08T12:10:47.000",
    "date_modified": "2022-04-08T12:10:47.000",
    "request_status": "Pending",
    "responsible_agency": "Department of Public Works",
    "final_address": "601 Poydras St Ste 2320",
    "address_councildis": "B",
    "status": "Pending",
    "rowid": "873317",
    "final_x": "3680948.9476",
    "final_y": "529439.623489",
    "longitude": "-90.06988277903044",
    "latitude": "29.949792069359475",
    "geocoded_column": {
      "latitude": "29.949792069359475",
      "longitude": "-90.06988277903044"
    }
  },
  {
    "service_request": "2022-873316",
    "request_type": "Trash/Recycling",
    "request_reason": "Replace Recycling Cart",
    "date_created": "2022-04-08T12:10:39.000",
    "date_modified": "2022-04-08T12:10:39.000",
    "request_status": "Pending",
    "responsible_agency": "Department of Sanitation",
    "final_address": "New Orleans,LA",
    "status": "Pending",
    "rowid": "873316",
    "longitude": "0.0",
    "latitude": "0.0",
    "geocoded_column": {
      "latitude": "0.0",
      "longitude": "0.0"
    }
  },
  {
    "service_request": "2022-873315",
    "request_type": "Traffic Signals/Signs/Striping/Streetlights",
    "request_reason": "Traffic Sign Missing/Damaged",
    "date_created": "2022-04-08T12:10:03.000",
    "date_modified": "2022-04-08T12:10:03.000",
    "request_status": "Pending",
    "responsible_agency": "Department of Public Works",
    "final_address": "600 Loyola Ave",
    "address_councildis": "B",
    "status": "Pending",
    "rowid": "873315",
    "final_x": "3679077.6276",
    "final_y": "529249.623553",
    "longitude": "-90.0757979802308",
    "latitude": "29.949326236899775",
    "geocoded_column": {
      "latitude": "29.949326236899775",
      "longitude": "-90.0757979802308"
    }
  },
  {
    "service_request": "2022-873314",
    "request_type": "Property Maintenance",
    "request_reason": "Property Maintenance",
    "date_created": "2022-04-08T12:09:09.000",
    "date_modified": "2022-04-08T12:09:09.000",
    "request_status": "Pending",
    "responsible_agency": "Department of Code Enforcement",
    "final_address": "601 Poydras St",
    "address_councildis": "B",
    "status": "Pending",
    "rowid": "873314",
    "final_x": "3680938.01679",
    "final_y": "529396.806657",
    "longitude": "-90.06991878324561",
    "latitude": "29.94967466888167",
    "geocoded_column": {
      "latitude": "29.94967466888167",
      "longitude": "-90.06991878324561"
    }
  },
  {
    "service_request": "2022-873313",
    "request_type": "Roads/Drainage",
    "request_reason": "Pothole",
    "date_created": "2022-04-08T12:01:57.000",
    "date_modified": "2022-04-08T12:01:57.000",
    "request_status": "Pending",
    "responsible_agency": "Department of Public Works",
    "final_address": "820 Dumaine St",
    "address_councildis": "C",
    "status": "Pending",
    "rowid": "873313",
    "final_x": "3682556.16559",
    "final_y": "533356.820484",
    "longitude": "-90.06467111720237",
    "latitude": "29.96051420293593",
    "geocoded_column": {
      "latitude": "29.96051420293593",
      "longitude": "-90.06467111720237"
    }
  },
  {
    "service_request": "2022-873312",
    "request_type": "Abandoned Vehicles",
    "request_reason": "Abandoned/Junk Vehicles",
    "date_created": "2022-04-08T11:59:18.000",
    "date_modified": "2022-04-08T11:59:18.000",
    "request_status": "Pending",
    "responsible_agency": "Department of Public Works",
    "final_address": "506 Philip St",
    "address_councildis": "B",
    "status": "Pending",
    "rowid": "873312",
    "final_x": "3679834.92354",
    "final_y": "520105.877752",
    "longitude": "-90.0737242346735",
    "latitude": "29.924161084881817",
    "geocoded_column": {
      "latitude": "29.924161084881817",
      "longitude": "-90.0737242346735"
    }
  },
  {
    "service_request": "2022-873310",
    "request_type": "Trash/Recycling",
    "request_reason": "Repair Trash Cart",
    "date_created": "2022-04-08T11:43:56.000",
    "date_modified": "2022-04-08T11:43:57.000",
    "request_status": "Pending",
    "responsible_agency": "Department of Sanitation",
    "final_address": "2914 OReilly St",
    "address_councildis": "D",
    "status": "Assigned to Contractor",
    "contractor": "Metro Disposal",
    "rowid": "873310",
    "final_x": "3679005.76494",
    "final_y": "542056.276748",
    "longitude": "-90.07558102633087",
    "latitude": "29.984542328335415",
    "geocoded_column": {
      "latitude": "29.984542328335415",
      "longitude": "-90.07558102633087"
    }
  },
  {
    "service_request": "2022-873309",
    "request_type": "Roads/Drainage",
    "request_reason": "Accessibility Ramps, Curbs and Sidewalk Repair",
    "date_created": "2022-04-08T11:40:58.000",
    "date_modified": "2022-04-08T11:40:58.000",
    "request_status": "Pending",
    "responsible_agency": "Department of Public Works",
    "final_address": "800 Canal St",
    "address_councildis": "B",
    "status": "Pending",
    "rowid": "873309",
    "final_x": "3680798.96482",
    "final_y": "530830.025986",
    "longitude": "-90.07030795216937",
    "latitude": "29.953619754055183",
    "geocoded_column": {
      "latitude": "29.953619754055183",
      "longitude": "-90.07030795216937"
    }
  },
  {
    "service_request": "2022-873308",
    "request_type": "Roads/Drainage",
    "request_reason": "Accessibility Ramps, Curbs and Sidewalk Repair",
    "date_created": "2022-04-08T11:37:54.000",
    "date_modified": "2022-04-08T11:37:54.000",
    "request_status": "Pending",
    "responsible_agency": "Department of Public Works",
    "final_address": "838 Canal St",
    "address_councildis": "B",
    "status": "Pending",
    "rowid": "873308",
    "final_x": "3680603.49435",
    "final_y": "530991.868802",
    "longitude": "-90.07091953544068",
    "latitude": "29.954070690154204",
    "geocoded_column": {
      "latitude": "29.954070690154204",
      "longitude": "-90.07091953544068"
    }
  },
  {
    "service_request": "2022-873306",
    "request_type": "Traffic Signals/Signs/Striping/Streetlights",
    "request_reason": "Road Surface Marking Maintenance-Parking Lane",
    "date_created": "2022-04-08T11:31:54.000",
    "date_modified": "2022-04-08T11:31:54.000",
    "request_status": "Pending",
    "responsible_agency": "Department of Public Works",
    "final_address": "800 S Peters St",
    "address_councildis": "B",
    "status": "Pending",
    "rowid": "873306",
    "final_x": "3682301.38101",
    "final_y": "527506.459391",
    "longitude": "-90.0656800571895",
    "latitude": "29.94443544510293",
    "geocoded_column": {
      "latitude": "29.94443544510293",
      "longitude": "-90.0656800571895"
    }
  },
  {
    "service_request": "2022-873305",
    "request_type": "Traffic Signals/Signs/Striping/Streetlights",
    "request_reason": "Street Light Knocked Down/Leaning",
    "date_created": "2022-04-08T11:30:56.000",
    "date_modified": "2022-04-08T11:30:57.000",
    "request_status": "Pending",
    "responsible_agency": "Department of Public Works",
    "final_address": "2713 Robert St",
    "address_councildis": "B",
    "status": "Pending",
    "contractor": "Royal Engineering",
    "rowid": "873305",
    "final_x": "3668920.99495",
    "final_y": "525422.798077",
    "longitude": "-90.10799629851924",
    "latitude": "29.93910629734451",
    "geocoded_column": {
      "latitude": "29.93910629734451",
      "longitude": "-90.10799629851924"
    }
  },
  {
    "service_request": "2022-873303",
    "request_type": "Property Maintenance",
    "request_reason": "Property Maintenance",
    "date_created": "2022-04-08T11:28:23.000",
    "date_modified": "2022-04-08T11:28:23.000",
    "request_status": "Pending",
    "responsible_agency": "Department of Code Enforcement",
    "final_address": "7617 Woodbine Dr",
    "address_councildis": "E",
    "status": "Pending",
    "rowid": "873303",
    "final_x": "3702044.70237",
    "final_y": "561383.305182",
    "longitude": "-90.00210247322012",
    "latitude": "30.036968851796676",
    "geocoded_column": {
      "latitude": "30.036968851796676",
      "longitude": "-90.00210247322012"
    }
  },
  {
    "service_request": "2022-873302",
    "request_type": "Trash/Recycling",
    "request_reason": "Request a Large Item Pick Up",
    "date_created": "2022-04-08T11:26:39.000",
    "date_modified": "2022-04-08T11:27:54.000",
    "request_status": "Pending",
    "responsible_agency": "Department of Sanitation",
    "final_address": "SOMERSET DR & NEIL AVE",
    "address_councildis": "C",
    "status": "Assigned to Contractor",
    "contractor": "Richards Disposal",
    "rowid": "873302",
    "final_x": "3702516.9",
    "final_y": "518720.48",
    "longitude": "-90.00217652116139",
    "latitude": "29.91964662903047",
    "geocoded_column": {
      "latitude": "29.91964662903047",
      "longitude": "-90.00217652116139"
    }
  },
  {
    "service_request": "2022-873301",
    "request_type": "Trash/Recycling",
    "request_reason": "MIssed Recycling Pick-Up",
    "date_created": "2022-04-08T11:26:06.000",
    "date_modified": "2022-04-08T11:26:07.000",
    "request_status": "Pending",
    "responsible_agency": "Department of Sanitation",
    "final_address": "2939 Audubon St",
    "address_councildis": "B",
    "status": "Assigned to Contractor",
    "contractor": "Richards Disposal",
    "rowid": "873301",
    "final_x": "3667926.35629",
    "final_y": "531596.880195",
    "longitude": "-90.11092855588541",
    "latitude": "29.95611222625727",
    "geocoded_column": {
      "latitude": "29.95611222625727",
      "longitude": "-90.11092855588541"
    }
  },
  {
    "service_request": "2022-873300",
    "request_type": "Trash/Recycling",
    "request_reason": "Request a Large Item Pick Up",
    "date_created": "2022-04-08T11:24:00.000",
    "date_modified": "2022-04-08T11:24:00.000",
    "request_status": "Pending",
    "responsible_agency": "Department of Sanitation",
    "final_address": "522 Crystal St",
    "address_councildis": "D",
    "status": "Assigned to Contractor",
    "contractor": "Metro Disposal",
    "rowid": "873300",
    "final_x": "3668561.89614",
    "final_y": "556193.365594",
    "longitude": "-90.10809123719713",
    "latitude": "30.023725484255213",
    "geocoded_column": {
      "latitude": "30.023725484255213",
      "longitude": "-90.10809123719713"
    }
  },
  {
    "service_request": "2022-873299",
    "request_type": "Roads/Drainage",
    "request_reason": "Street Subsidence (Sinking)",
    "date_created": "2022-04-08T11:20:53.000",
    "date_modified": "2022-04-08T11:20:53.000",
    "request_status": "Pending",
    "responsible_agency": "Department of Public Works",
    "final_address": "852 S Peters St",
    "address_councildis": "B",
    "status": "Pending",
    "rowid": "873299",
    "final_x": "3682306.20956",
    "final_y": "527231.130367",
    "longitude": "-90.06567442918124",
    "latitude": "29.943678235755534",
    "geocoded_column": {
      "latitude": "29.943678235755534",
      "longitude": "-90.06567442918124"
    }
  },
  {
    "service_request": "2022-873298",
    "request_type": "Trash/Recycling",
    "request_reason": "Replace Trash Cart",
    "date_created": "2022-04-08T11:20:08.000",
    "date_modified": "2022-04-08T11:20:09.000",
    "request_status": "Pending",
    "responsible_agency": "Department of Sanitation",
    "final_address": "4743 Lurline St",
    "address_councildis": "E",
    "status": "Assigned to Contractor",
    "contractor": "Metro Disposal",
    "rowid": "873298",
    "final_x": "3712050.78264",
    "final_y": "556131.899994",
    "longitude": "-89.97067874288778",
    "latitude": "30.022206128741548",
    "geocoded_column": {
      "latitude": "30.022206128741548",
      "longitude": "-89.97067874288778"
    }
  },
  {
    "service_request": "2022-873297",
    "request_type": "Trash/Recycling",
    "request_reason": "Order Trash Cart",
    "date_created": "2022-04-08T11:18:16.000",
    "date_modified": "2022-04-08T11:18:16.000",
    "request_status": "Pending",
    "responsible_agency": "Department of Sanitation",
    "final_address": "2801 S Prieur St",
    "address_councildis": "B",
    "status": "Assigned to Contractor",
    "contractor": "Richards Disposal",
    "rowid": "873297",
    "final_x": "3672516.75495",
    "final_y": "527595.914559",
    "longitude": "-90.09656997288819",
    "latitude": "29.944975437123638",
    "geocoded_column": {
      "latitude": "29.944975437123638",
      "longitude": "-90.09656997288819"
    }
  },
  {
    "service_request": "2022-873296",
    "request_type": "Trash/Recycling",
    "request_reason": "Order Recycling Cart",
    "date_created": "2022-04-08T11:15:07.000",
    "date_modified": "2022-04-08T11:15:07.000",
    "request_status": "Pending",
    "responsible_agency": "Department of Sanitation",
    "final_address": "1619 Horace St",
    "address_councildis": "C",
    "status": "Pending",
    "rowid": "873296",
    "final_x": "3696262.57399",
    "final_y": "525288.686141",
    "longitude": "-90.02168090736514",
    "latitude": "29.93790525620398",
    "geocoded_column": {
      "latitude": "29.93790525620398",
      "longitude": "-90.02168090736514"
    }
  },
  {
    "service_request": "2022-873295",
    "request_type": "Trash/Recycling",
    "request_reason": "Order Trash Cart",
    "date_created": "2022-04-08T11:13:41.000",
    "date_modified": "2022-04-08T11:13:42.000",
    "request_status": "Pending",
    "responsible_agency": "Department of Sanitation",
    "final_address": "1619 Horace St",
    "address_councildis": "C",
    "status": "Assigned to Contractor",
    "contractor": "Richards Disposal",
    "rowid": "873295",
    "final_x": "3696262.57399",
    "final_y": "525288.686141",
    "longitude": "-90.02168090736514",
    "latitude": "29.93790525620398",
    "geocoded_column": {
      "latitude": "29.93790525620398",
      "longitude": "-90.02168090736514"
    }
  },
  {
    "service_request": "2022-873294",
    "request_type": "Trash/Recycling",
    "request_reason": "Start Trash Service",
    "date_created": "2022-04-08T11:13:20.000",
    "date_modified": "2022-04-08T11:13:21.000",
    "request_status": "Pending",
    "responsible_agency": "Department of Sanitation",
    "final_address": "1619 Horace St",
    "address_councildis": "C",
    "status": "Assigned to Contractor",
    "contractor": "Richards Disposal",
    "rowid": "873294",
    "final_x": "3696262.57399",
    "final_y": "525288.686141",
    "longitude": "-90.02168090736514",
    "latitude": "29.93790525620398",
    "geocoded_column": {
      "latitude": "29.93790525620398",
      "longitude": "-90.02168090736514"
    }
  },
  {
    "service_request": "2022-873293",
    "request_type": "Property Maintenance",
    "request_reason": "Property Maintenance",
    "date_created": "2022-04-08T11:09:26.000",
    "date_modified": "2022-04-08T11:09:26.000",
    "request_status": "Pending",
    "responsible_agency": "Department of Code Enforcement",
    "final_address": "2323 Franklin Ave",
    "address_councildis": "D",
    "status": "Pending",
    "rowid": "873293",
    "final_x": "3687631.02358",
    "final_y": "541138.902156",
    "longitude": "-90.04837019974725",
    "latitude": "29.981756726785513",
    "geocoded_column": {
      "latitude": "29.981756726785513",
      "longitude": "-90.04837019974725"
    }
  },
  {
    "service_request": "2022-873292",
    "request_type": "Trash/Recycling",
    "request_reason": "Illegal Dumping",
    "date_created": "2022-04-08T11:08:14.000",
    "date_modified": "2022-04-08T11:08:56.000",
    "case_close_date": "2022-04-08T06:08:56.000",
    "request_status": "Closed",
    "responsible_agency": "Department of Sanitation",
    "final_address": "7730 Scottwood Dr",
    "address_councildis": "E",
    "status": "Resolved",
    "rowid": "873292",
    "final_x": "3716873.98207",
    "final_y": "571191.207528",
    "longitude": "-89.95486637323859",
    "latitude": "30.06345450315938",
    "geocoded_column": {
      "latitude": "30.06345450315938",
      "longitude": "-89.95486637323859"
    }
  },
  {
    "service_request": "2022-873291",
    "request_type": "Trash/Recycling",
    "request_reason": "Illegal Dumping",
    "date_created": "2022-04-08T11:06:54.000",
    "date_modified": "2022-04-08T11:07:50.000",
    "case_close_date": "2022-04-08T06:07:50.000",
    "request_status": "Closed",
    "responsible_agency": "Department of Sanitation",
    "final_address": "2720 N Prieur St",
    "address_councildis": "D",
    "status": "Resolved",
    "rowid": "873291",
    "final_x": "3688339.90492",
    "final_y": "539320.231946",
    "longitude": "-90.0461957502894",
    "latitude": "29.97673415046767",
    "geocoded_column": {
      "latitude": "29.97673415046767",
      "longitude": "-90.0461957502894"
    }
  },