[
  {
    "service_request": "2024-1079432",
    "request_type": "Trash/Recycling",
    "request_reason": "Replace Trash Cart",
    "date_created": "2024-03-27T23:17:40.000",
    "date_modified": "2024-03-27T23:17:41.000",
    "request_status": "Pending",
    "responsible_agency": "Department of Sanitation",
    "final_address": "3262 Derby Pl",
    "address_councildis": "A",
    "status": "Assigned to Contractor",
    "contractor": "IV Waste",
    "rowid": "1079432",
    "final_x": "3677418.73538",
    "final_y": "542875.491853",
    "longitude": "-90.0805654658662",
    "latitude": "29.986842689420136",
    "geocoded_column": {
      "latitude": "29.986842689420136",
      "longitude": "-90.0805654658662"
    }
  },
  {
    "service_request": "2024-1079431",
    "request_type": "Roads/Drainage",
    "request_reason": "Pothole",
    "date_created": "2024-03-27T23:16:42.000",
    "date_modified": "2024-03-27T23:16:42.000",
    "request_status": "Pending",
    "responsible_agency": "Department of Public Works",
    "final_address": "1501 General Taylor St",
    "address_councildis": "B",
    "status": "Pending",
    "rowid": "1079431",
    "final_x": "3672757.23963",
    "final_y": "520814.498105",
    "longitude": "-90.09604188611411",
    "latitude": "29.926321602463354",
    "geocoded_column": {
      "latitude": "29.926321602463354",
      "longitude": "-90.09604188611411"
    }
  },
  {
    "service_request": "2024-1079430",
    "request_type": "Trash/Recycling",
    "request_reason": "Replace Trash Cart",
    "date_created": "2024-03-27T23:11:04.000",
    "date_modified": "2024-03-27T23:11:05.000",
    "request_status": "Pending",
    "responsible_agency": "Department of Sanitation",
    "final_address": "4911 Magnolia St",
    "address_councildis": "B",
    "status": "Assigned to Contractor",
    "contractor": "Richards Disposal",
    "rowid": "1079430",
    "final_x": "3669089.46644",
    "final_y": "524648.525436",
    "longitude": "-90.10749056344149",
    "latitude": "29.936972342251075",
    "geocoded_column": {
      "latitude": "29.936972342251075",
      "longitude": "-90.10749056344149"
    }
  },
  {
    "service_request": "2024-1079429",
    "request_type": "Trash/Recycling",
    "request_reason": "Order Trash Cart",
    "date_created": "2024-03-27T23:02:25.000",
    "date_modified": "2024-03-27T23:02:26.000",
    "request_status": "Pending",
    "responsible_agency": "Department of Sanitation",
    "final_address": "2418 Clara St",
    "address_councildis": "B",
    "status": "Assigned to Contractor",
    "contractor": "Richards Disposal",
    "rowid": "1079429",
    "final_x": "3674496.78913",
    "final_y": "526642.08979",
    "longitude": "-90.09035105639911",
    "latitude": "29.94229381952672",
    "geocoded_column": {
      "latitude": "29.94229381952672",
      "longitude": "-90.09035105639911"
    }
  },
  {
    "service_request": "2024-1079428",
    "request_type": "Safety & Permits",
    "request_reason": "Construction permit",
    "date_created": "2024-03-27T22:51:12.000",
    "date_modified": "2024-03-27T22:51:12.000",
    "request_status": "Pending",
    "responsible_agency": "Department of Code Enforcement",
    "final_address": "609 Jackson Ave",
    "address_councildis": "B",
    "status": "Pending",
    "rowid": "1079428",
    "final_x": "3679901.14056",
    "final_y": "520810.428217",
    "longitude": "-90.07349075794016",
    "latitude": "29.926096366929237",
    "geocoded_column": {
      "latitude": "29.926096366929237",
      "longitude": "-90.07349075794016"
    }
  },
  {
    "service_request": "2024-1079427",
    "request_type": "Trash/Recycling",
    "request_reason": "Request a Large Item Pick Up",
    "date_created": "2024-03-27T22:40:28.000",
    "date_modified": "2024-03-27T22:40:29.000",
    "request_status": "Pending",
    "responsible_agency": "Department of Sanitation",
    "final_address": "4653 Press Dr",
    "address_councildis": "D",
    "status": "Assigned to Contractor",
    "contractor": "IV Waste",
    "rowid": "1079427",
    "final_x": "3689778.6815",
    "final_y": "550493.85762",
    "longitude": "-90.0412537232611",
    "latitude": "30.00741307262872",
    "geocoded_column": {
      "latitude": "30.00741307262872",
      "longitude": "-90.0412537232611"
    }
  },
  {
    "service_request": "2024-1079426",
    "request_type": "Roads/Drainage",
    "request_reason": "Man hole cover issue",
    "date_created": "2024-03-27T21:56:02.000",
    "date_modified": "2024-03-27T21:56:02.000",
    "request_status": "Pending",
    "responsible_agency": "Department of Public Works",
    "final_address": "ESPLANADE AVE & N CLAIBORNE AVE",
    "address_councildis": "D",
    "status": "Pending",
    "rowid": "1079426",
    "final_x": "3681231.3",
    "final_y": "536639.18",
    "longitude": "-90.06874038104324",
    "latitude": "29.969579834804723",
    "geocoded_column": {
      "latitude": "29.969579834804723",
      "longitude": "-90.06874038104324"
    }
  },
  {
    "service_request": "2024-1079425",
    "request_type": "Trash/Recycling",
    "request_reason": "Replace Trash Cart",
    "date_created": "2024-03-27T21:39:26.000",
    "date_modified": "2024-03-27T21:39:26.000",
    "request_status": "Pending",
    "responsible_agency": "Department of Sanitation",
    "final_address": "5210 Laurel St",
    "address_councildis": "B",
    "status": "Assigned to Contractor",
    "contractor": "Richards Disposal",
    "rowid": "1079425",
    "final_x": "3667916.58695",
    "final_y": "517828.859382",
    "longitude": "-90.11142301388924",
    "latitude": "29.91825487629943",
    "geocoded_column": {
      "latitude": "29.91825487629943",
      "longitude": "-90.11142301388924"
    }
  },
  {
    "service_request": "2024-1079424",
    "request_type": "Trash/Recycling",
    "request_reason": "Missed Trash Pick-Up",
    "date_created": "2024-03-27T21:33:36.000",
    "date_modified": "2024-03-27T21:33:37.000",
    "request_status": "Pending",
    "responsible_agency": "Department of Sanitation",
    "final_address": "11421 Tanner S Davis Dr",
    "address_councildis": "E",
    "status": "Assigned to Contractor",
    "contractor": "Waste Pro",
    "rowid": "1079424",
    "final_x": "3718245.6837",
    "final_y": "561223.653278",
    "longitude": "-89.95091052995795",
    "latitude": "30.036002382440053",
    "geocoded_column": {
      "latitude": "30.036002382440053",
      "longitude": "-89.95091052995795"
    }
  },
  {
    "service_request": "2024-1079423",
    "request_type": "Roads/Drainage",
    "request_reason": "Catch Basin - Clogged",
    "date_created": "2024-03-27T20:58:44.000",
    "date_modified": "2024-03-27T20:58:44.000",
    "request_status": "Pending",
    "responsible_agency": "Department of Public Works",
    "final_address": "6330 St Charles Ave",
    "address_councildis": "A",
    "status": "Pending",
    "rowid": "1079423",
    "final_x": "3664712.02887",
    "final_y": "523177.996475",
    "longitude": "-90.12135953436838",
    "latitude": "29.933056898009454",
    "geocoded_column": {
      "latitude": "29.933056898009454",
      "longitude": "-90.12135953436838"
    }
  },
  {
    "service_request": "2024-1079422",
    "request_type": "Property Maintenance",
    "request_reason": "Property Maintenance",
    "date_created": "2024-03-27T20:54:06.000",
    "date_modified": "2024-03-27T20:54:06.000",
    "request_status": "Pending",
    "responsible_agency": "Department of Code Enforcement",
    "final_address": "4100 S Tonti St",
    "address_councildis": "B",
    "status": "Pending",
    "rowid": "1079422",
    "final_x": "3670908.46254",
    "final_y": "528189.918464",
    "longitude": "-90.10162769853903",
    "latitude": "29.946656387632267",
    "geocoded_column": {
      "latitude": "29.946656387632267",
      "longitude": "-90.10162769853903"
    }
  },
  {
    "service_request": "2024-1079421",
    "request_type": "Traffic Signals/Signs/Striping/Streetlights",
    "request_reason": "Traffic Signal Malfunctioning/Damaged",
    "date_created": "2024-03-27T20:51:41.000",
    "date_modified": "2024-03-27T20:51:42.000",
    "request_status": "Pending",
    "responsible_agency": "Department of Public Works",
    "final_address": "1500 BLK Robert C Blakes Sr Dr",
    "address_councildis": "B",
    "status": "Pending",
    "rowid": "1079421",
    "final_x": "3678723.48044",
    "final_y": "525645.789375",
    "longitude": "-90.07704093812136",
    "latitude": "29.939427573754234",
    "geocoded_column": {
      "latitude": "29.939427573754234",
      "longitude": "-90.07704093812136"
    }
  },
  {
    "service_request": "2024-1079420",
    "request_type": "Roads/Drainage",
    "request_reason": "Leaking Hydrant",
    "date_created": "2024-03-27T20:13:20.000",
    "date_modified": "2024-03-27T20:13:20.000",
    "request_status": "Pending",
    "responsible_agency": "Department of Public Works",
    "final_address": "2100 St Thomas St Apt",
    "address_councildis": "B",
    "status": "Pending",
    "rowid": "1079420",
    "final_x": "3680221.36891",
    "final_y": "520791.588729",
    "longitude": "-90.07248054463341",
    "latitude": "29.926034879330242",
    "geocoded_column": {
      "latitude": "29.926034879330242",
      "longitude": "-90.07248054463341"
    }
  },
  {
    "service_request": "2024-1079419",
    "request_type": "Roads/Drainage",
    "request_reason": "Damaged Sidewalk",
    "date_created": "2024-03-27T19:57:45.000",
    "date_modified": "2024-03-27T19:57:45.000",
    "request_status": "Pending",
    "responsible_agency": "Department of Public Works",
    "final_address": "2901 Tulane Ave",
    "address_councildis": "B",
    "status": "Pending",
    "rowid": "1079419",
    "final_x": "3673482.06177",
    "final_y": "534234.434373",
    "longitude": "-90.09329536837686",
    "latitude": "29.963200479027005",
    "geocoded_column": {
      "latitude": "29.963200479027005",
      "longitude": "-90.09329536837686"
    }
  },
  {
    "service_request": "2024-1079418",
    "request_type": "Trash/Recycling",
    "request_reason": "Replace Trash Cart",
    "date_created": "2024-03-27T19:55:31.000",
    "date_modified": "2024-03-27T19:55:31.000",
    "request_status": "Pending",
    "responsible_agency": "Department of Sanitation",
    "final_address": "2618 St Anthony St",
    "address_councildis": "D",
    "status": "Assigned to Contractor",
    "contractor": "IV Waste",
    "rowid": "1079418",
    "final_x": "3683016.94236",
    "final_y": "541907.437388",
    "longitude": "-90.06291671177935",
    "latitude": "29.98401139718744",
    "geocoded_column": {
      "latitude": "29.98401139718744",
      "longitude": "-90.06291671177935"
    }
  },
  {
    "service_request": "2024-1079417",
    "request_type": "Property Maintenance",
    "request_reason": "Property Maintenance",
    "date_created": "2024-03-27T19:46:58.000",
    "date_modified": "2024-03-27T19:46:58.000",
    "request_status": "Pending",
    "responsible_agency": "Department of Code Enforcement",
    "final_address": "502 S Gayoso St",
    "address_councildis": "B",
    "status": "Pending",
    "rowid": "1079417",
    "final_x": "3673373.18376",
    "final_y": "534534.676613",
    "longitude": "-90.09362893508542",
    "latitude": "29.964029283899617",
    "geocoded_column": {
      "latitude": "29.964029283899617",
      "longitude": "-90.09362893508542"
    }
  },
  {
    "service_request": "2024-1079416",
    "request_type": "Property Maintenance",
    "request_reason": "Property Maintenance",
    "date_created": "2024-03-27T19:37:24.000",
    "date_modified": "2024-03-27T19:37:24.000",
    "request_status": "Pending",
    "responsible_agency": "Department of Code Enforcement",
    "final_address": "5018 Constance St",
    "address_councildis": "B",
    "status": "Pending",
    "rowid": "1079416",
    "final_x": "3668479.48814",
    "final_y": "518157.039926",
    "longitude": "-90.10963516921593",
    "latitude": "29.919140751944695",
    "geocoded_column": {
      "latitude": "29.919140751944695",
      "longitude": "-90.10963516921593"
    }
  },
  {
    "service_request": "2024-1079415",
    "request_type": "Property Maintenance",
    "request_reason": "Property Maintenance",
    "date_created": "2024-03-27T19:35:18.000",
    "date_modified": "2024-03-27T19:35:18.000",
    "request_status": "Pending",
    "responsible_agency": "Department of Code Enforcement",
    "final_address": "509 S Dupre St",
    "address_councildis": "B",
    "status": "Pending",
    "rowid": "1079415",
    "final_x": "3673543.33537",
    "final_y": "534323.830917",
    "longitude": "-90.09309881754265",
    "latitude": "29.963444466064715",
    "geocoded_column": {
      "latitude": "29.963444466064715",
      "longitude": "-90.09309881754265"
    }
  },
  {
    "service_request": "2024-1079414",
    "request_type": "Trash/Recycling",
    "request_reason": "Illegal Dumping",
    "date_created": "2024-03-27T19:25:10.000",
    "date_modified": "2024-03-27T19:25:10.000",
    "request_status": "Pending",
    "responsible_agency": "Department of Sanitation",
    "final_address": "504 S Dupre St",
    "address_councildis": "B",
    "status": "Pending",
    "rowid": "1079414",
    "final_x": "3673644.38248",
    "final_y": "534320.603653",
    "longitude": "-90.09277983154426",
    "latitude": "29.963432584443463",
    "geocoded_column": {
      "latitude": "29.963432584443463",
      "longitude": "-90.09277983154426"
    }
  },
  {
    "service_request": "2024-1079413",
    "request_type": "Mosquito, Termite & Rodent Control",
    "request_reason": "Non-Rodent Complaint (Mice, Possums, Snakes)",
    "date_created": "2024-03-27T19:21:49.000",
    "date_modified": "2024-03-27T19:21:49.000",
    "request_status": "Pending",
    "responsible_agency": "Mosquito, Termite & Rodent Control Board",
    "final_address": "413 N Dupre St",
    "address_councildis": "B",
    "status": "Pending",
    "rowid": "1079413",
    "final_x": "3675367.27701",
    "final_y": "536708.879879",
    "longitude": "-90.08725709536617",
    "latitude": "29.969948134000386",
    "geocoded_column": {
      "latitude": "29.969948134000386",
      "longitude": "-90.08725709536617"
    }
  },
  {
    "service_request": "2024-1079412",
    "request_type": "Trash/Recycling",
    "request_reason": "Illegal Dumping",
    "date_created": "2024-03-27T19:18:58.000",
    "date_modified": "2024-03-27T19:18:58.000",
    "request_status": "Pending",
    "responsible_agency": "Department of Sanitation",
    "final_address": "509 S Dupre St",
    "address_councildis": "B",
    "status": "Pending",
    "rowid": "1079412",
    "final_x": "3673543.33537",
    "final_y": "534323.830917",
    "longitude": "-90.09309881754265",
    "latitude": "29.963444466064715",
    "geocoded_column": {
      "latitude": "29.963444466064715",
      "longitude": "-90.09309881754265"
    }
  },
  {
    "service_request": "2024-1079411",
    "request_type": "Mosquito, Termite & Rodent Control",
    "request_reason": "Non-Rodent Complaint (Mice, Possums, Snakes)",
    "date_created": "2024-03-27T19:17:49.000",
    "date_modified": "2024-03-27T19:17:49.000",
    "request_status": "Pending",
    "responsible_agency": "Mosquito, Termite & Rodent Control Board",
    "final_address": "413 N Dupre St",
    "address_councildis": "B",
    "status": "Pending",
    "rowid": "1079411",
    "final_x": "3675367.27701",
    "final_y": "536708.879879",
    "longitude": "-90.08725709536617",
    "latitude": "29.969948134000386",
    "geocoded_column": {
      "latitude": "29.969948134000386",
      "longitude": "-90.08725709536617"
    }
  },
  {
    "service_request": "2024-1079410",
    "request_type": "Trash/Recycling",
    "request_reason": "Missed Trash Pick-Up",
    "date_created": "2024-03-27T19:15:05.000",
    "date_modified": "2024-03-27T19:15:06.000",
    "request_status": "Pending",
    "responsible_agency": "Department of Sanitation",
    "final_address": "1420 Hillary St",
    "address_councildis": "A",
    "status": "Assigned to Contractor",
    "contractor": "Richards Disposal",
    "rowid": "1079410",
    "final_x": "3663868.2832",
    "final_y": "527857.711615",
    "longitude": "-90.12386725359283",
    "latitude": "29.94594913579964",
    "geocoded_column": {
      "latitude": "29.94594913579964",
      "longitude": "-90.12386725359283"
    }
  },
  {
    "service_request": "2024-1079409",
    "request_type": "Roads/Drainage",
    "request_reason": "Pothole",
    "date_created": "2024-03-27T19:11:24.000",
    "date_modified": "2024-03-27T19:11:24.000",
    "request_status": "Pending",
    "responsible_agency": "Department of Public Works",
    "final_address": "4216 Chestnut St",
    "address_councildis": "B",
    "status": "Pending",
    "rowid": "1079409",
    "final_x": "3671574.31393",
    "final_y": "519539.203703",
    "longitude": "-90.09981939416457",
    "latitude": "29.922850019854593",
    "geocoded_column": {
      "latitude": "29.922850019854593",
      "longitude": "-90.09981939416457"
    }
  },
  {
    "service_request": "2024-1079408",
    "request_type": "Trash/Recycling",
    "request_reason": "Replace Recycling Cart",
    "date_created": "2024-03-27T19:09:20.000",
    "date_modified": "2024-03-27T19:09:20.000",
    "request_status": "Pending",
    "responsible_agency": "Department of Sanitation",
    "final_address": "274 Audubon St",
    "address_councildis": "A",
    "status": "Pending",
    "rowid": "1079408",
    "final_x": "3661357.38381",
    "final_y": "521848.446586",
    "longitude": "-90.13199397618814",
    "latitude": "29.929498192229666",
    "geocoded_column": {
      "latitude": "29.929498192229666",
      "longitude": "-90.13199397618814"
    }
  },
  {
    "service_request": "2024-1079407",
    "request_type": "Trash/Recycling",
    "request_reason": "Request a Large Item Pick Up",
    "date_created": "2024-03-27T19:01:47.000",
    "date_modified": "2024-03-27T19:01:48.000",
    "request_status": "Pending",
    "responsible_agency": "Department of Sanitation",
    "final_address": "417 Henry Clay Ave",
    "address_councildis": "A",
    "status": "Assigned to Contractor",
    "contractor": "Richards Disposal",
    "rowid": "1079407",
    "final_x": "3663375.75616",
    "final_y": "518379.00959",
    "longitude": "-90.12573773977351",
    "latitude": "29.919899984815505",
    "geocoded_column": {
      "latitude": "29.919899984815505",
      "longitude": "-90.12573773977351"
    }
  },
  {
    "service_request": "2024-1079406",
    "request_type": "Property Maintenance",
    "request_reason": "Property Maintenance",
    "date_created": "2024-03-27T18:58:08.000",
    "date_modified": "2024-03-27T18:58:08.000",
    "request_status": "Pending",
    "responsible_agency": "Department of Code Enforcement",
    "final_address": "1966 N Galvez St",
    "address_councildis": "D",
    "status": "Pending",
    "rowid": "1079406",
    "final_x": "3683393.86133",
    "final_y": "539845.630346",
    "longitude": "-90.06179846550462",
    "latitude": "29.978330654965436",
    "geocoded_column": {
      "latitude": "29.978330654965436",
      "longitude": "-90.06179846550462"
    }
  },
  {
    "service_request": "2024-1079405",
    "request_type": "Trash/Recycling",
    "request_reason": "Request a Large Item Pick Up",
    "date_created": "2024-03-27T18:56:09.000",
    "date_modified": "2024-03-27T18:56:09.000",
    "request_status": "Pending",
    "responsible_agency": "Department of Sanitation",
    "final_address": "2826 Tecumseh St",
    "address_councildis": "D",
    "status": "Assigned to Contractor",
    "contractor": "IV Waste",
    "rowid": "1079405",
    "final_x": "3688883.61564",
    "final_y": "547487.126033",
    "longitude": "-90.04418835283408",
    "latitude": "29.999173378778153",
    "geocoded_column": {
      "latitude": "29.999173378778153",
      "longitude": "-90.04418835283408"
    }
  },
  {
    "service_request": "2024-1079404",
    "request_type": "Trash/Recycling",
    "request_reason": "Request a Large Item Pick Up",
    "date_created": "2024-03-27T18:38:37.000",
    "date_modified": "2024-03-27T18:38:37.000",
    "request_status": "Pending",
    "responsible_agency": "Department of Sanitation",
    "final_address": "7040 Crowder Blvd Apt C",
    "address_councildis": "E",
    "status": "Assigned to Contractor",
    "contractor": "Waste Pro",
    "rowid": "1079404",
    "final_x": "3704294.42679",
    "final_y": "559598.137437",
    "longitude": "-89.9950587945043",
    "latitude": "30.031988280338695",
    "geocoded_column": {
      "latitude": "30.031988280338695",
      "longitude": "-89.9950587945043"
    }
  },
  {
    "service_request": "2024-1079403",
    "request_type": "Trash/Recycling",
    "request_reason": "Order Trash Cart",
    "date_created": "2024-03-27T18:34:50.000",
    "date_modified": "2024-03-27T18:34:50.000",
    "request_status": "Pending",
    "responsible_agency": "Department of Sanitation",
    "final_address": "4711 Camelot Dr, New Orleans, Louisiana, 70127",
    "address_councildis": "E",
    "status": "Assigned to Contractor",
    "contractor": "Waste Pro",
    "rowid": "1079403",
    "final_x": "3708465.26654",
    "final_y": "555410.295449",
    "longitude": "-89.98203487010767",
    "latitude": "30.020338752941633",
    "geocoded_column": {
      "latitude": "30.020338752941633",
      "longitude": "-89.98203487010767"
    }
  },
  {
    "service_request": "2024-1079402",
    "request_type": "Trash/Recycling",
    "request_reason": "Replace Trash Cart",
    "date_created": "2024-03-27T18:32:47.000",
    "date_modified": "2024-03-27T18:32:47.000",
    "request_status": "Pending",
    "responsible_agency": "Department of Sanitation",
    "final_address": "4411 Annunciation St",
    "address_councildis": "B",
    "status": "Assigned to Contractor",
    "contractor": "Richards Disposal",
    "rowid": "1079402",
    "final_x": "3670985.44417",
    "final_y": "517770.308854",
    "longitude": "-90.10173824528178",
    "latitude": "29.918003538426575",
    "geocoded_column": {
      "latitude": "29.918003538426575",
      "longitude": "-90.10173824528178"
    }
  },
  {
    "service_request": "2024-1079400",
    "request_type": "Abandoned Vehicles",
    "request_reason": "Abandoned/Junk Vehicles",
    "date_created": "2024-03-27T18:21:47.000",
    "date_modified": "2024-03-27T18:21:47.000",
    "request_status": "Pending",
    "responsible_agency": "Department of Public Works",
    "final_address": "CARTIER DR & FRANKFORT ST",
    "address_councildis": "D",
    "status": "Pending",
    "rowid": "1079400",
    "final_x": "3677601.4",
    "final_y": "555846.58",
    "longitude": "-90.07954018648827",
    "latitude": "30.022503074887776",
    "geocoded_column": {
      "latitude": "30.022503074887776",
      "longitude": "-90.07954018648827"
    }
  },
  {
    "service_request": "2024-1079399",
    "request_type": "Property Maintenance",
    "request_reason": "Property Maintenance",
    "date_created": "2024-03-27T18:03:27.000",
    "date_modified": "2024-03-27T18:03:27.000",
    "request_status": "Pending",
    "responsible_agency": "Department of Code Enforcement",
    "final_address": "2935 Dryades St",
    "address_councildis": "B",
    "status": "Pending",
    "rowid": "1079399",
    "final_x": "3674664.60744",
    "final_y": "523044.733115",
    "longitude": "-90.0899444616384",
    "latitude": "29.9323972568412",
    "geocoded_column": {
      "latitude": "29.9323972568412",
      "longitude": "-90.0899444616384"
    }
  },
  {
    "service_request": "2024-1079398",
    "request_type": "Health Related Request",
    "request_reason": "Noise Ordinance Complaint",
    "date_created": "2024-03-27T17:48:04.000",
    "date_modified": "2024-03-27T17:48:04.000",
    "request_status": "Pending",
    "responsible_agency": "Health Department",
    "final_address": "612 Royal St",
    "address_councildis": "C",
    "status": "Pending",
    "rowid": "1079398",
    "final_x": "3682419.44706",
    "final_y": "532239.511747",
    "longitude": "-90.0651418961197",
    "latitude": "29.95744614666979",
    "geocoded_column": {
      "latitude": "29.95744614666979",
      "longitude": "-90.0651418961197"
    }
  },
  {
    "service_request": "2024-1079397",
    "request_type": "Abandoned Vehicles",
    "request_reason": "Abandoned/Junk Vehicles",
    "date_created": "2024-03-27T17:47:45.000",
    "date_modified": "2024-03-27T17:47:45.000",
    "request_status": "Pending",
    "responsible_agency": "Department of Public Works",
    "final_address": "501 Warrington Dr",
    "address_councildis": "D",
    "status": "Pending",
    "rowid": "1079397",
    "final_x": "3681462.78031",
    "final_y": "548431.126738",
    "longitude": "-90.0675979812554",
    "latitude": "30.00199652181429",
    "geocoded_column": {
      "latitude": "30.00199652181429",
      "longitude": "-90.0675979812554"
    }
  },
  {
    "service_request": "2024-1079396",
    "request_type": "Health Related Request",
    "request_reason": "Noise Ordinance Complaint",
    "date_created": "2024-03-27T17:21:14.000",
    "date_modified": "2024-03-27T17:21:14.000",
    "request_status": "Pending",
    "responsible_agency": "Health Department",
    "final_address": "611 Royal St",
    "address_councildis": "C",
    "status": "Pending",
    "rowid": "1079396",
    "final_x": "3682369.27554",
    "final_y": "532260.011331",
    "longitude": "-90.06529960631157",
    "latitude": "29.95750404030143",
    "geocoded_column": {
      "latitude": "29.95750404030143",
      "longitude": "-90.06529960631157"
    }
  },
  {
    "service_request": "2024-1079395",
    "request_type": "Roads/Drainage",
    "request_reason": "Debris in Roadway",
    "date_created": "2024-03-27T17:13:03.000",
    "date_modified": "2024-03-27T17:13:03.000",
    "request_status": "Pending",
    "responsible_agency": "Department of Public Works",
    "final_address": "3115 Ponce De Leon St",
    "address_councildis": "A",
    "status": "Pending",
    "rowid": "1079395",
    "final_x": "3676476.17998",
    "final_y": "540562.585611",
    "longitude": "-90.08362233282675",
    "latitude": "29.98051129945326",
    "geocoded_column": {
      "latitude": "29.98051129945326",
      "longitude": "-90.08362233282675"
    }
  },
  {
    "service_request": "2024-1079394",
    "request_type": "Trash/Recycling",
    "request_reason": "Replace Trash Cart",
    "date_created": "2024-03-27T17:06:31.000",
    "date_modified": "2024-03-27T17:06:31.000",
    "request_status": "Pending",
    "responsible_agency": "Department of Sanitation",
    "final_address": "3319 State Street Dr",
    "address_councildis": "A",
    "status": "Assigned to Contractor",
    "contractor": "Richards Disposal",
    "rowid": "1079394",
    "final_x": "3667739.39322",
    "final_y": "528457.161216",
    "longitude": "-90.11162462971197",
    "latitude": "29.94748450678066",
    "geocoded_column": {
      "latitude": "29.94748450678066",
      "longitude": "-90.11162462971197"
    }
  },
  {
    "service_request": "2024-1079393",
    "request_type": "Roads/Drainage",
    "request_reason": "Pothole",
    "date_created": "2024-03-27T17:04:57.000",
    "date_modified": "2024-03-27T17:04:57.000",
    "request_status": "Pending",
    "responsible_agency": "Department of Public Works",
    "final_address": "1316 Harmony St",
    "address_councildis": "B",
    "status": "Pending",
    "rowid": "1079393",
    "final_x": "3675353.70465",
    "final_y": "520773.805497",
    "longitude": "-90.08784696740828",
    "latitude": "29.926132363170485",
    "geocoded_column": {
      "latitude": "29.926132363170485",
      "longitude": "-90.08784696740828"
    }
  },
  {
    "service_request": "2024-1079392",
    "request_type": "Trash/Recycling",
    "request_reason": "Replace Recycling Cart",
    "date_created": "2024-03-27T17:04:53.000",
    "date_modified": "2024-03-27T17:04:53.000",
    "request_status": "Pending",
    "responsible_agency": "Department of Sanitation",
    "final_address": "4515 S Rocheblave St",
    "address_councildis": "B",
    "status": "Pending",
    "rowid": "1079392",
    "final_x": "3669550.029",
    "final_y": "528463.536128",
    "longitude": "-90.10590752074253",
    "latitude": "29.947448828568124",
    "geocoded_column": {
      "latitude": "29.947448828568124",
      "longitude": "-90.10590752074253"
    }
  },
  {
    "service_request": "2024-1079391",
    "request_type": "Traffic Signals/Signs/Striping/Streetlights",
    "request_reason": "Request for Stop Sign",
    "date_created": "2024-03-27T17:03:02.000",
    "date_modified": "2024-03-27T17:03:02.000",
    "request_status": "Pending",
    "responsible_agency": "Department of Public Works",
    "final_address": "MARIGNY ST & N RAMPART ST",
    "address_councildis": "C",
    "status": "Pending",
    "rowid": "1079391",
    "final_x": "3685449.8",
    "final_y": "535976.68",
    "longitude": "-90.05544135572066",
    "latitude": "29.967629500042744",
    "geocoded_column": {
      "latitude": "29.967629500042744",
      "longitude": "-90.05544135572066"
    }
  },
  {
    "service_request": "2024-1079390",
    "request_type": "Trash/Recycling",
    "request_reason": "Missed Trash Pick-Up",
    "date_created": "2024-03-27T17:01:02.000",
    "date_modified": "2024-03-27T17:01:03.000",
    "request_status": "Pending",
    "responsible_agency": "Department of Sanitation",
    "final_address": "4450 Perrault Walk",
    "address_councildis": "E",
    "status": "Assigned to Contractor",
    "contractor": "Waste Pro",
    "rowid": "1079390",
    "final_x": "3709949.0915",
    "final_y": "554460.207128",
    "longitude": "-89.97738200863158",
    "latitude": "30.017678181570812",
    "geocoded_column": {
      "latitude": "30.017678181570812",
      "longitude": "-89.97738200863158"
    }
  },
  {
    "service_request": "2024-1079389",
    "request_type": "Roads/Drainage",
    "request_reason": "Pothole",
    "date_created": "2024-03-27T16:58:30.000",
    "date_modified": "2024-03-27T16:58:30.000",
    "request_status": "Pending",
    "responsible_agency": "Department of Public Works",
    "final_address": "100 Royal St",
    "address_councildis": "C",
    "status": "Pending",
    "rowid": "1079389",
    "final_x": "3681301.39701",
    "final_y": "530756.489858",
    "longitude": "-90.06872404570724",
    "latitude": "29.95340231693619",
    "geocoded_column": {
      "latitude": "29.95340231693619",
      "longitude": "-90.06872404570724"
    }
  },
  {
    "service_request": "2024-1079388",
    "request_type": "Trash/Recycling",
    "request_reason": "Missed Trash Pick-Up",
    "date_created": "2024-03-27T16:55:15.000",
    "date_modified": "2024-03-27T16:55:16.000",
    "request_status": "Pending",
    "responsible_agency": "Department of Sanitation",
    "final_address": "4450 Perrault Walk",
    "address_councildis": "E",
    "status": "Assigned to Contractor",
    "contractor": "Waste Pro",
    "rowid": "1079388",
    "final_x": "3709949.0915",
    "final_y": "554460.207128",
    "longitude": "-89.97738200863158",
    "latitude": "30.017678181570812",
    "geocoded_column": {
      "latitude": "30.017678181570812",
      "longitude": "-89.97738200863158"
    }
  },
  {
    "service_request": "2024-1079387",
    "request_type": "Trash/Recycling",
    "request_reason": "Request a Large Item Pick Up",
    "date_created": "2024-03-27T16:53:56.000",
    "date_modified": "2024-03-27T16:53:57.000",
    "request_status": "Pending",
    "responsible_agency": "Department of Sanitation",
    "final_address": "4521 Dale St",
    "address_councildis": "E",
    "status": "Assigned to Contractor",
    "contractor": "Waste Pro",
    "rowid": "1079387",
    "final_x": "3699577.11632",
    "final_y": "553891.585559",
    "longitude": "-90.01017393075674",
    "latitude": "30.016448095934248",
    "geocoded_column": {
      "latitude": "30.016448095934248",
      "longitude": "-90.01017393075674"
    }
  },
  {
    "service_request": "2024-1079386",
    "request_type": "Trash/Recycling",
    "request_reason": "Illegal Dumping",
    "date_created": "2024-03-27T16:51:07.000",
    "date_modified": "2024-03-27T16:51:07.000",
    "request_status": "Pending",
    "responsible_agency": "Department of Sanitation",
    "final_address": "2032 Lamanche St A",
    "address_councildis": "E",
    "status": "Pending",
    "rowid": "1079386",
    "final_x": "3699303.26064",
    "final_y": "537326.670088",
    "longitude": "-90.01164289249485",
    "latitude": "29.970909393942105",
    "geocoded_column": {
      "latitude": "29.970909393942105",
      "longitude": "-90.01164289249485"
    }
  },
  {
    "service_request": "2024-1079385",
    "request_type": "Trash/Recycling",
    "request_reason": "Request a Large Item Pick Up",
    "date_created": "2024-03-27T16:47:31.000",
    "date_modified": "2024-03-27T16:47:31.000",
    "request_status": "Pending",
    "responsible_agency": "Department of Sanitation",
    "final_address": "4428 Eastern St",
    "address_councildis": "D",
    "status": "Assigned to Contractor",
    "contractor": "IV Waste",
    "rowid": "1079385",
    "final_x": "3688050.66044",
    "final_y": "549387.075475",
    "longitude": "-90.04675227807549",
    "latitude": "30.004423290950527",
    "geocoded_column": {
      "latitude": "30.004423290950527",
      "longitude": "-90.04675227807549"
    }
  },
  {
    "service_request": "2024-1079384",
    "request_type": "Roads/Drainage",
    "request_reason": "Catch Basin - Clogged",
    "date_created": "2024-03-27T16:44:57.000",
    "date_modified": "2024-03-27T16:44:58.000",
    "request_status": "Pending",
    "responsible_agency": "Department of Public Works",
    "final_address": "EGANIA ST & ROYAL ST",
    "address_councildis": "E",
    "status": "Pending",
    "rowid": "1079384",
    "final_x": "3696396.6",
    "final_y": "532578.28",
    "longitude": "-90.0209941994958",
    "latitude": "29.957944876654626",
    "geocoded_column": {
      "latitude": "29.957944876654626",
      "longitude": "-90.0209941994958"
    }
  },
  {
    "service_request": "2024-1079383",
    "request_type": "Trash/Recycling",
    "request_reason": "Request a Large Item Pick Up",
    "date_created": "2024-03-27T16:44:42.000",
    "date_modified": "2024-03-27T17:43:30.000",
    "case_close_date": "2024-03-27T12:43:30.000",
    "request_status": "Closed",
    "responsible_agency": "Department of Sanitation",
    "final_address": "11252 Fernley Dr",
    "address_councildis": "E",
    "status": "Assigned to Contractor",
    "contractor": "Waste Pro",
    "contractor_action": "Completed",
    "rowid": "1079383",
    "final_x": "3717567.05727",
    "final_y": "559886.081693",
    "longitude": "-89.95310600788304",
    "latitude": "30.032347095041533",
    "geocoded_column": {
      "latitude": "30.032347095041533",
      "longitude": "-89.95310600788304"
    }
  },
  {
    "service_request": "2024-1079382",
    "request_type": "Trash/Recycling",
    "request_reason": "Request a Large Item Pick Up",
    "date_created": "2024-03-27T16:39:04.000",
    "date_modified": "2024-03-27T16:39:04.000",
    "request_status": "Pending",
    "responsible_agency": "Department of Sanitation",
    "final_address": "1634 Third St",
    "address_councildis": "B",
    "status": "Assigned to Contractor",
    "contractor": "Richards Disposal",
    "rowid": "1079382",
    "final_x": "3676246.54689",
    "final_y": "523113.923067",
    "longitude": "-90.08494803822249",
    "latitude": "29.932540210589515",
    "geocoded_column": {
      "latitude": "29.932540210589515",
      "longitude": "-90.08494803822249"
    }
  },
  {
    "service_request": "2024-1079381",
    "request_type": "Trash/Recycling",
    "request_reason": "Order Recycling Cart",
    "date_created": "2024-03-27T16:31:56.000",
    "date_modified": "2024-03-27T16:31:56.000",
    "request_status": "Pending",
    "responsible_agency": "Department of Sanitation",
    "final_address": "2049 Wagner St",
    "address_councildis": "C",
    "status": "Pending",
    "rowid": "1079381",
    "final_x": "3690251.46723",
    "final_y": "523010.967227",
    "longitude": "-90.040739527987",
    "latitude": "29.93183013551087",
    "geocoded_column": {
      "latitude": "29.93183013551087",
      "longitude": "-90.040739527987"
    }
  },
  {
    "service_request": "2024-1079380",
    "request_type": "Trash/Recycling",
    "request_reason": "Missed Trash Pick-Up",
    "date_created": "2024-03-27T16:29:16.000",
    "date_modified": "2024-03-27T16:29:16.000",
    "request_status": "Pending",
    "responsible_agency": "Department of Sanitation",
    "final_address": "4775 Galahad Dr",
    "address_councildis": "E",
    "status": "Assigned to Contractor",
    "contractor": "Waste Pro",
    "rowid": "1079380",
    "final_x": "3707259.32203",
    "final_y": "555714.506649",
    "longitude": "-89.98583394717677",
    "latitude": "30.021214265170446",
    "geocoded_column": {
      "latitude": "30.021214265170446",
      "longitude": "-89.98583394717677"
    }
  },
  {
    "service_request": "2024-1079379",
    "request_type": "Trash/Recycling",
    "request_reason": "Replace Trash Cart",
    "date_created": "2024-03-27T16:22:36.000",
    "date_modified": "2024-03-27T16:22:37.000",
    "request_status": "Pending",
    "responsible_agency": "Department of Sanitation",
    "final_address": "1719 Upperline St",
    "address_councildis": "B",
    "status": "Assigned to Contractor",
    "contractor": "Richards Disposal",
    "rowid": "1079379",
    "final_x": "3669138.90241",
    "final_y": "521256.760633",
    "longitude": "-90.10744905107265",
    "latitude": "29.92764462091013",
    "geocoded_column": {
      "latitude": "29.92764462091013",
      "longitude": "-90.10744905107265"
    }
  },
  {
    "service_request": "2024-1079378",
    "request_type": "Traffic Signals/Signs/Striping/Streetlights",
    "request_reason": "Street Light Outage/Malfunction",
    "date_created": "2024-03-27T16:22:22.000",
    "date_modified": "2024-03-27T16:22:23.000",
    "request_status": "Pending",
    "responsible_agency": "Department of Public Works",
    "final_address": "PRESSBURG ST & GOOD DR",
    "address_councildis": "E",
    "status": "Assigned to Contractor",
    "contractor": "Legacy Professional Services",
    "rowid": "1079378",
    "final_x": "3714735.0",
    "final_y": "557331.88",
    "longitude": "-89.96215200394916",
    "latitude": "30.025417553790877",
    "geocoded_column": {
      "latitude": "30.025417553790877",
      "longitude": "-89.96215200394916"
    }
  },
  {
    "service_request": "2024-1079377",
    "request_type": "Trash/Recycling",
    "request_reason": "Request a Large Item Pick Up",
    "date_created": "2024-03-27T16:19:56.000",
    "date_modified": "2024-03-27T16:19:57.000",
    "request_status": "Pending",
    "responsible_agency": "Department of Sanitation",
    "final_address": "919 Hagan St",
    "address_councildis": "A",
    "status": "Assigned to Contractor",
    "contractor": "Richards Disposal",
    "rowid": "1079377",
    "final_x": "3675197.55541",
    "final_y": "539225.452362",
    "longitude": "-90.08770669629075",
    "latitude": "29.976872924464825",
    "geocoded_column": {
      "latitude": "29.976872924464825",
      "longitude": "-90.08770669629075"
    }
  },
  {
    "service_request": "2024-1079376",
    "request_type": "Trash/Recycling",
    "request_reason": "Request a Large Item Pick Up",
    "date_created": "2024-03-27T16:19:01.000",
    "date_modified": "2024-03-27T16:19:02.000",
    "request_status": "Pending",
    "responsible_agency": "Department of Sanitation",
    "final_address": "13911 Curran Rd",
    "address_councildis": "E",
    "status": "Assigned to Contractor",
    "contractor": "Waste Pro",
    "rowid": "1079376",
    "final_x": "3718210.32217",
    "final_y": "572016.368296",
    "longitude": "-89.95061069894132",
    "latitude": "30.065679078762404",
    "geocoded_column": {
      "latitude": "30.065679078762404",
      "longitude": "-89.95061069894132"
    }
  },
  {
    "service_request": "2024-1079375",
    "request_type": "Trash/Recycling",
    "request_reason": "Dead Animal Pick Up",
    "date_created": "2024-03-27T16:17:01.000",
    "date_modified": "2024-03-27T17:06:39.000",
    "case_close_date": "2024-03-27T12:06:39.000",
    "request_status": "Closed",
    "responsible_agency": "Department of Sanitation",
    "final_address": "7400 BLK Symmes Ave",
    "address_councildis": "E",
    "status": "Assigned to Contractor",
    "contractor": "Waste Pro",
    "contractor_action": "Completed",
    "rowid": "1079375",
    "final_x": "3708078.86596",
    "final_y": "564197.371065",
    "longitude": "-89.9829285552908",
    "latitude": "30.04451227195962",
    "geocoded_column": {
      "latitude": "30.04451227195962",
      "longitude": "-89.9829285552908"
    }
  },
  {
    "service_request": "2024-1079374",
    "request_type": "Trash/Recycling",
    "request_reason": "Replace Trash Cart",
    "date_created": "2024-03-27T16:15:41.000",
    "date_modified": "2024-03-27T16:15:42.000",
    "request_status": "Pending",
    "responsible_agency": "Department of Sanitation",
    "final_address": "2620 Fern St",
    "address_councildis": "A",
    "status": "Assigned to Contractor",
    "contractor": "Richards Disposal",
    "rowid": "1079374",
    "final_x": "3665983.94772",
    "final_y": "531776.887171",
    "longitude": "-90.11705601129128",
    "latitude": "29.95666402223682",
    "geocoded_column": {
      "latitude": "29.95666402223682",
      "longitude": "-90.11705601129128"
    }
  },
  {
    "service_request": "2024-1079373",
    "request_type": "Abandoned Vehicles",
    "request_reason": "Abandoned/Junk Vehicles",
    "date_created": "2024-03-27T16:10:35.000",
    "date_modified": "2024-03-27T16:10:35.000",
    "request_status": "Pending",
    "responsible_agency": "Department of Public Works",
    "final_address": "600 BLK S Prieur St",
    "address_councildis": "B",
    "status": "Pending",
    "rowid": "1079373",
    "final_x": "3676057.55763",
    "final_y": "531494.741916",
    "longitude": "-90.0852564798185",
    "latitude": "29.955590354922688",
    "geocoded_column": {
      "latitude": "29.955590354922688",
      "longitude": "-90.0852564798185"
    }
  },
  {
    "service_request": "2024-1079372",
    "request_type": "Trash/Recycling",
    "request_reason": "Request a Large Item Pick Up",
    "date_created": "2024-03-27T16:09:07.000",
    "date_modified": "2024-03-27T17:44:11.000",
    "case_close_date": "2024-03-27T12:44:11.000",
    "request_status": "Closed",
    "responsible_agency": "Department of Sanitation",
    "final_address": "5902 Dauphine St",
    "address_councildis": "E",
    "status": "Assigned to Contractor",
    "contractor": "Waste Pro",
    "contractor_action": "Completed",
    "rowid": "1079372",
    "final_x": "3698609.33354",
    "final_y": "532300.451971",
    "longitude": "-90.01401715551592",
    "latitude": "29.9571110791231",
    "geocoded_column": {
      "latitude": "29.9571110791231",
      "longitude": "-90.01401715551592"
    }
  },
  {
    "service_request": "2024-1079371",
    "request_type": "Trash/Recycling",
    "request_reason": "Replace Trash Cart",
    "date_created": "2024-03-27T16:07:59.000",
    "date_modified": "2024-03-27T16:08:00.000",
    "request_status": "Pending",
    "responsible_agency": "Department of Sanitation",
    "final_address": "2373 N Villere St",
    "address_councildis": "C",
    "status": "Assigned to Contractor",
    "contractor": "IV Waste",
    "rowid": "1079371",
    "final_x": "3686293.89481",
    "final_y": "537555.071432",
    "longitude": "-90.05271998115671",
    "latitude": "29.971943614645046",
    "geocoded_column": {
      "latitude": "29.971943614645046",
      "longitude": "-90.05271998115671"
    }
  },
  {
    "service_request": "2024-1079370",
    "request_type": "Trash/Recycling",
    "request_reason": "Request a Large Item Pick Up",
    "date_created": "2024-03-27T16:07:27.000",
    "date_modified": "2024-03-27T16:07:27.000",
    "request_status": "Pending",
    "responsible_agency": "Department of Sanitation",
    "final_address": "5408 Macarthur Blvd, New Orleans, Louisiana, 70131",
    "address_councildis": "C",
    "status": "Assigned to Contractor",
    "contractor": "Richards Disposal",
    "rowid": "1079370",
    "final_x": "3704025.681",
    "final_y": "519677.55404",
    "longitude": "-89.99737885937522",
    "latitude": "29.922229969489777",
    "geocoded_column": {
      "latitude": "29.922229969489777",
      "longitude": "-89.99737885937522"
    }
  },
  {
    "service_request": "2024-1079369",
    "request_type": "Trash/Recycling",
    "request_reason": "Replace Trash Cart",
    "date_created": "2024-03-27T16:05:27.000",
    "date_modified": "2024-03-27T16:05:27.000",
    "request_status": "Pending",
    "responsible_agency": "Department of Sanitation",
    "final_address": "1826 Terpsichore St",
    "address_councildis": "B",
    "status": "Assigned to Contractor",
    "contractor": "Richards Disposal",
    "rowid": "1079369",
    "final_x": "3678043.49378",
    "final_y": "525866.662781",
    "longitude": "-90.07918011379928",
    "latitude": "29.94005538485159",
    "geocoded_column": {
      "latitude": "29.94005538485159",
      "longitude": "-90.07918011379928"
    }
  },
  {
    "service_request": "2024-1079368",
    "request_type": "Abandoned Vehicles",
    "request_reason": "Abandoned/Junk Vehicles",
    "date_created": "2024-03-27T16:03:06.000",
    "date_modified": "2024-03-27T16:03:06.000",
    "request_status": "Pending",
    "responsible_agency": "Department of Public Works",
    "final_address": "2417 Jonquil St",
    "address_councildis": "D",
    "status": "Pending",
    "rowid": "1079368",
    "final_x": "3685895.38556",
    "final_y": "547160.161425",
    "longitude": "-90.05363975515361",
    "latitude": "29.99836644712251",
    "geocoded_column": {
      "latitude": "29.99836644712251",
      "longitude": "-90.05363975515361"
    }
  },
  {
    "service_request": "2024-1079367",
    "request_type": "Safety & Permits",
    "request_reason": "Licenses & Permits",
    "date_created": "2024-03-27T15:57:49.000",
    "date_modified": "2024-03-27T15:57:49.000",
    "request_status": "Pending",
    "responsible_agency": "Safety and Permits",
    "final_address": "2417 Jonquil St",
    "address_councildis": "D",
    "status": "Pending",
    "rowid": "1079367",
    "final_x": "3685895.38556",
    "final_y": "547160.161425",
    "longitude": "-90.05363975515361",
    "latitude": "29.99836644712251",
    "geocoded_column": {
      "latitude": "29.99836644712251",
      "longitude": "-90.05363975515361"
    }
  },
  {
    "service_request": "2024-1079366",
    "request_type": "Trash/Recycling",
    "request_reason": "Repair Trash Cart",
    "date_created": "2024-03-27T15:51:42.000",
    "date_modified": "2024-03-27T15:51:43.000",
    "request_status": "Pending",
    "responsible_agency": "Department of Sanitation",
    "final_address": "1611 Ursulines Ave",
    "address_councildis": "D",
    "status": "Assigned to Contractor",
    "contractor": "Richards Disposal",
    "rowid": "1079366",
    "final_x": "3680915.2301",
    "final_y": "535635.42887",
    "longitude": "-90.06977351231308",
    "latitude": "29.966829451771087",
    "geocoded_column": {
      "latitude": "29.966829451771087",
      "longitude": "-90.06977351231308"
    }
  },
  {
    "service_request": "2024-1079365",
    "request_type": "Trash/Recycling",
    "request_reason": "MIssed Recycling Pick-Up",
    "date_created": "2024-03-27T15:50:25.000",
    "date_modified": "2024-03-27T15:50:26.000",
    "request_status": "Pending",
    "responsible_agency": "Department of Sanitation",
    "final_address": "4735 Citrus Dr",
    "address_councildis": "E",
    "status": "Assigned to Contractor",
    "contractor": "Waste Pro",
    "rowid": "1079365",
    "final_x": "3710860.75589",
    "final_y": "555734.933081",
    "longitude": "-89.97445377013526",
    "latitude": "30.02115348433167",
    "geocoded_column": {
      "latitude": "30.02115348433167",
      "longitude": "-89.97445377013526"
    }
  },
  {
    "service_request": "2024-1079364",
    "request_type": "Trash/Recycling",
    "request_reason": "Order Recycling Cart",
    "date_created": "2024-03-27T15:49:43.000",
    "date_modified": "2024-03-27T15:50:59.000",
    "request_status": "Pending",
    "responsible_agency": "Department of Sanitation",
    "final_address": "9036 Edinburgh St",
    "address_councildis": "A",
    "status": "Pending",
    "rowid": "1079364",
    "final_x": "3664878.70669",
    "final_y": "536755.879048",
    "longitude": "-90.1203795908254",
    "latitude": "29.970386826228978",
    "geocoded_column": {
      "latitude": "29.970386826228978",
      "longitude": "-90.1203795908254"
    }
  },
  {
    "service_request": "2024-1079363",
    "request_type": "Roads/Drainage",
    "request_reason": "Catch Basin - Clogged",
    "date_created": "2024-03-27T15:48:23.000",
    "date_modified": "2024-03-27T15:48:23.000",
    "request_status": "Pending",
    "responsible_agency": "Department of Public Works",
    "final_address": "1400 Peniston St",
    "address_councildis": "B",
    "status": "Pending",
    "rowid": "1079363",
    "final_x": "3672970.60744",
    "final_y": "520589.04716",
    "longitude": "-90.09537603203857",
    "latitude": "29.925695347861396",
    "geocoded_column": {
      "latitude": "29.925695347861396",
      "longitude": "-90.09537603203857"
    }
  },
  {
    "service_request": "2024-1079362",
    "request_type": "Trash/Recycling",
    "request_reason": "Request a Large Item Pick Up",
    "date_created": "2024-03-27T15:47:13.000",
    "date_modified": "2024-03-27T17:44:46.000",
    "case_close_date": "2024-03-27T12:44:46.000",
    "request_status": "Closed",
    "responsible_agency": "Department of Sanitation",
    "final_address": "5709 Chartres St Apt 102",
    "address_councildis": "E",
    "status": "Assigned to Contractor",
    "contractor": "Waste Pro",
    "contractor_action": "Completed",
    "rowid": "1079362",
    "final_x": "3697985.14115",
    "final_y": "531852.460931",
    "longitude": "-90.01600441403816",
    "latitude": "29.95589900897041",
    "geocoded_column": {
      "latitude": "29.95589900897041",
      "longitude": "-90.01600441403816"
    }
  },
  {
    "service_request": "2024-1079361",
    "request_type": "Trash/Recycling",
    "request_reason": "MIssed Recycling Pick-Up",
    "date_created": "2024-03-27T15:45:57.000",
    "date_modified": "2024-03-27T15:45:58.000",
    "request_status": "Pending",
    "responsible_agency": "Department of Sanitation",
    "final_address": "2719 Pine St",
    "address_councildis": "B",
    "status": "Assigned to Contractor",
    "contractor": "Richards Disposal",
    "rowid": "1079361",
    "final_x": "3667064.95809",
    "final_y": "531326.021954",
    "longitude": "-90.11365767177112",
    "latitude": "29.95539269486613",
    "geocoded_column": {
      "latitude": "29.95539269486613",
      "longitude": "-90.11365767177112"
    }
  },
  {
    "service_request": "2024-1079360",
    "request_type": "Roads/Drainage",
    "request_reason": "Catch Basin - Clogged",
    "date_created": "2024-03-27T15:44:19.000",
    "date_modified": "2024-03-27T15:44:19.000",
    "request_status": "Pending",
    "responsible_agency": "Department of Public Works",
    "final_address": "1400 Peniston St",
    "address_councildis": "B",
    "status": "Pending",
    "rowid": "1079360",
    "final_x": "3672970.60744",
    "final_y": "520589.04716",
    "longitude": "-90.09537603203857",
    "latitude": "29.925695347861396",
    "geocoded_column": {
      "latitude": "29.925695347861396",
      "longitude": "-90.09537603203857"
    }
  },
  {
    "service_request": "2024-1079359",
    "request_type": "Trash/Recycling",
    "request_reason": "Request a Large Item Pick Up",
    "date_created": "2024-03-27T15:40:07.000",
    "date_modified": "2024-03-27T15:40:08.000",
    "request_status": "Pending",
    "responsible_agency": "Department of Sanitation",
    "final_address": "1410 Jackson Ave",
    "address_councildis": "B",
    "status": "Assigned to Contractor",
    "contractor": "Richards Disposal",
    "rowid": "1079359",
    "final_x": "3678103.46293",
    "final_y": "522922.013179",
    "longitude": "-90.0790925440959",
    "latitude": "29.93195676211378",
    "geocoded_column": {
      "latitude": "29.93195676211378",
      "longitude": "-90.0790925440959"
    }
  },
  {
    "service_request": "2024-1079358",
    "request_type": "Trash/Recycling",
    "request_reason": "Missed Trash Pick-Up",
    "date_created": "2024-03-27T15:39:12.000",
    "date_modified": "2024-03-27T15:39:13.000",
    "request_status": "Pending",
    "responsible_agency": "Department of Sanitation",
    "final_address": "1610 Bordeaux St",
    "address_councildis": "B",
    "status": "Assigned to Contractor",
    "contractor": "Richards Disposal",
    "rowid": "1079358",
    "final_x": "3669332.72654",
    "final_y": "520893.159737",
    "longitude": "-90.10684947904718",
    "latitude": "29.926639131006198",
    "geocoded_column": {
      "latitude": "29.926639131006198",
      "longitude": "-90.10684947904718"
    }
  },
  {
    "service_request": "2024-1079357",
    "request_type": "Trash/Recycling",
    "request_reason": "Request a Large Item Pick Up",
    "date_created": "2024-03-27T15:36:42.000",
    "date_modified": "2024-03-27T15:36:42.000",
    "request_status": "Pending",
    "responsible_agency": "Department of Sanitation",
    "final_address": "4610 Lancelot Dr",
    "address_councildis": "E",
    "status": "Assigned to Contractor",
    "contractor": "Waste Pro",
    "rowid": "1079357",
    "final_x": "3707474.7436",
    "final_y": "554524.211672",
    "longitude": "-89.98519753103969",
    "latitude": "30.017934448117064",
    "geocoded_column": {
      "latitude": "30.017934448117064",
      "longitude": "-89.98519753103969"
    }
  },
  {
    "service_request": "2024-1079356",
    "request_type": "Trash/Recycling",
    "request_reason": "Repair Trash Cart",
    "date_created": "2024-03-27T15:34:38.000",
    "date_modified": "2024-03-27T15:34:38.000",
    "request_status": "Pending",
    "responsible_agency": "Department of Sanitation",
    "final_address": "7905 St Charles Ave",
    "address_councildis": "A",
    "status": "Assigned to Contractor",
    "contractor": "Richards Disposal",
    "rowid": "1079356",
    "final_x": "3661173.36653",
    "final_y": "526455.974718",
    "longitude": "-90.1324224461731",
    "latitude": "29.94217274622751",
    "geocoded_column": {
      "latitude": "29.94217274622751",
      "longitude": "-90.1324224461731"
    }
  },
  {
    "service_request": "2024-1079355",
    "request_type": "Trash/Recycling",
    "request_reason": "Request a Large Item Pick Up",
    "date_created": "2024-03-27T15:32:18.000",
    "date_modified": "2024-03-27T15:32:19.000",
    "request_status": "Pending",
    "responsible_agency": "Department of Sanitation",
    "final_address": "3324 Third St",
    "address_councildis": "B",
    "status": "Assigned to Contractor",
    "contractor": "Richards Disposal",
    "rowid": "1079355",
    "final_x": "3672946.44852",
    "final_y": "528095.334527",
    "longitude": "-90.0951962574467",
    "latitude": "29.946335918411176",
    "geocoded_column": {
      "latitude": "29.946335918411176",
      "longitude": "-90.0951962574467"
    }
  },
  {
    "service_request": "2024-1079354",
    "request_type": "Trash/Recycling",
    "request_reason": "Missed Trash Pick-Up",
    "date_created": "2024-03-27T15:31:24.000",
    "date_modified": "2024-03-27T15:31:25.000",
    "request_status": "Pending",
    "responsible_agency": "Department of Sanitation",
    "final_address": "6014 St Claude Ave",
    "address_councildis": "E",
    "status": "Assigned to Contractor",
    "contractor": "Waste Pro",
    "rowid": "1079354",
    "final_x": "3699291.71901",
    "final_y": "533343.082372",
    "longitude": "-90.01182443609409",
    "latitude": "29.959956320525333",
    "geocoded_column": {
      "latitude": "29.959956320525333",
      "longitude": "-90.01182443609409"
    }
  },
  {
    "service_request": "2024-1079353",
    "request_type": "Trash/Recycling",
    "request_reason": "Replace Trash Cart",
    "date_created": "2024-03-27T15:30:18.000",
    "date_modified": "2024-03-27T15:30:19.000",
    "request_status": "Pending",
    "responsible_agency": "Department of Sanitation",
    "final_address": "2025 N Claiborne Ave",
    "address_councildis": "D",
    "status": "Assigned to Contractor",
    "contractor": "IV Waste",
    "rowid": "1079353",
    "final_x": "3684313.37013",
    "final_y": "538132.737737",
    "longitude": "-90.05895449591031",
    "latitude": "29.973592710056323",
    "geocoded_column": {
      "latitude": "29.973592710056323",
      "longitude": "-90.05895449591031"
    }
  },
  {
    "service_request": "2024-1079352",
    "request_type": "Trash/Recycling",
    "request_reason": "Replace Recycling Cart",
    "date_created": "2024-03-27T15:26:33.000",
    "date_modified": "2024-03-27T15:26:33.000",
    "request_status": "Pending",
    "responsible_agency": "Department of Sanitation",
    "final_address": "513 S Alexander St, New Orleans, Louisiana, 70119",
    "address_councildis": "A",
    "status": "Pending",
    "rowid": "1079352",
    "final_x": "3668909.06574",
    "final_y": "537809.883208",
    "longitude": "-90.10761562276417",
    "latitude": "29.973167056900298",
    "geocoded_column": {
      "latitude": "29.973167056900298",
      "longitude": "-90.10761562276417"
    }
  },
  {
    "service_request": "2024-1079351",
    "request_type": "Trash/Recycling",
    "request_reason": "Order Trash Cart",
    "date_created": "2024-03-27T15:26:03.000",
    "date_modified": "2024-03-27T15:31:44.000",
    "request_status": "Pending",
    "responsible_agency": "Department of Sanitation",
    "final_address": "4928 Desire Dr",
    "address_councildis": "D",
    "status": "Assigned to Contractor",
    "contractor": "IV Waste",
    "rowid": "1079351",
    "final_x": "3691551.61923",
    "final_y": "552086.625494",
    "longitude": "-90.03559554105233",
    "latitude": "30.011737505446042",
    "geocoded_column": {
      "latitude": "30.011737505446042",
      "longitude": "-90.03559554105233"
    }
  },
  {
    "service_request": "2024-1079350",
    "request_type": "Trash/Recycling",
    "request_reason": "Illegal Dumping",
    "date_created": "2024-03-27T15:24:02.000",
    "date_modified": "2024-03-27T15:24:03.000",
    "request_status": "Pending",
    "responsible_agency": "Department of Sanitation",
    "final_address": "6401 Florida Ave",
    "address_councildis": "E",
    "status": "Pending",
    "rowid": "1079350",
    "final_x": "3702982.03838",
    "final_y": "538679.735753",
    "longitude": "-89.99997520434388",
    "latitude": "29.97451264148602",
    "geocoded_column": {
      "latitude": "29.97451264148602",
      "longitude": "-89.99997520434388"
    }
  },
  {
    "service_request": "2024-1079349",
    "request_type": "Trash/Recycling",
    "request_reason": "Order Trash Cart",
    "date_created": "2024-03-27T15:23:46.000",
    "date_modified": "2024-03-27T15:23:46.000",
    "request_status": "Pending",
    "responsible_agency": "Department of Sanitation",
    "final_address": "2606 Third St",
    "address_councildis": "B",
    "status": "Assigned to Contractor",
    "contractor": "Richards Disposal",
    "rowid": "1079349",
    "final_x": "3674371.69096",
    "final_y": "525937.998781",
    "longitude": "-90.09077012588317",
    "latitude": "29.94036153088213",
    "geocoded_column": {
      "latitude": "29.94036153088213",
      "longitude": "-90.09077012588317"
    }
  },
  {
    "service_request": "2024-1079348",
    "request_type": "Trash/Recycling",
    "request_reason": "Order Recycling Cart",
    "date_created": "2024-03-27T15:22:39.000",
    "date_modified": "2024-03-27T15:22:40.000",
    "request_status": "Pending",
    "responsible_agency": "Department of Sanitation",
    "final_address": "1638 Joseph St",
    "address_councildis": "A",
    "status": "Pending",
    "rowid": "1079348",
    "final_x": "3666789.06663",
    "final_y": "522231.527354",
    "longitude": "-90.11483422121826",
    "latitude": "29.9303938375578",
    "geocoded_column": {
      "latitude": "29.9303938375578",
      "longitude": "-90.11483422121826"
    }
  },
  {
    "service_request": "2024-1079347",
    "request_type": "Roads/Drainage",
    "request_reason": "Pothole",
    "date_created": "2024-03-27T15:22:22.000",
    "date_modified": "2024-03-27T15:22:22.000",
    "request_status": "Pending",
    "responsible_agency": "Department of Public Works",
    "final_address": "1312 Milan St",
    "address_councildis": "B",
    "status": "Pending",
    "rowid": "1079347",
    "final_x": "3671625.82823",
    "final_y": "520286.919608",
    "longitude": "-90.09963137110304",
    "latitude": "29.92490447494246",
    "geocoded_column": {
      "latitude": "29.92490447494246",
      "longitude": "-90.09963137110304"
    }
  },
  {
    "service_request": "2024-1079346",
    "request_type": "Trash/Recycling",
    "request_reason": "Request a Large Item Pick Up",
    "date_created": "2024-03-27T15:17:32.000",
    "date_modified": "2024-03-27T15:17:33.000",
    "request_status": "Pending",
    "responsible_agency": "Department of Sanitation",
    "final_address": "47 Honeysuckle Ln",
    "address_councildis": "E",
    "status": "Assigned to Contractor",
    "contractor": "Waste Pro",
    "rowid": "1079346",
    "final_x": "3713198.22757",
    "final_y": "568195.634661",
    "longitude": "-89.96659847351799",
    "latitude": "30.055338984422793",
    "geocoded_column": {
      "latitude": "30.055338984422793",
      "longitude": "-89.96659847351799"
    }
  },
  {
    "service_request": "2024-1079345",
    "request_type": "Trash/Recycling",
    "request_reason": "Repair Recycling Cart",
    "date_created": "2024-03-27T15:16:45.000",
    "date_modified": "2024-03-27T15:16:45.000",
    "request_status": "Pending",
    "responsible_agency": "Department of Sanitation",
    "final_address": "2405 Octavia St",
    "address_councildis": "A",
    "status": "Pending",
    "rowid": "1079345",
    "final_x": "3667735.1474",
    "final_y": "524486.79718",
    "longitude": "-90.11177167955401",
    "latitude": "29.93656741132393",
    "geocoded_column": {
      "latitude": "29.93656741132393",
      "longitude": "-90.11177167955401"
    }
  },
  {
    "service_request": "2024-1079344",
    "request_type": "Roads/Drainage",
    "request_reason": "Street Subsidence (Sinking)",
    "date_created": "2024-03-27T15:15:35.000",
    "date_modified": "2024-03-27T15:15:35.000",
    "request_status": "Pending",
    "responsible_agency": "Department of Public Works",
    "final_address": "3900 BLK Paris Ave",
    "address_councildis": "D",
    "status": "Pending",
    "rowid": "1079344",
    "final_x": "3679544.18057",
    "final_y": "546768.235319",
    "longitude": "-90.07371680081597",
    "latitude": "29.997482296248336",
    "geocoded_column": {
      "latitude": "29.997482296248336",
      "longitude": "-90.07371680081597"
    }
  },
  {
    "service_request": "2024-1079343",
    "request_type": "Trash/Recycling",
    "request_reason": "Request a Large Item Pick Up",
    "date_created": "2024-03-27T15:15:08.000",
    "date_modified": "2024-03-27T15:15:08.000",
    "request_status": "Pending",
    "responsible_agency": "Department of Sanitation",
    "final_address": "3112 Royal St",
    "address_councildis": "C",
    "status": "Assigned to Contractor",
    "contractor": "IV Waste",
    "rowid": "1079343",
    "final_x": "3688740.46211",
    "final_y": "534440.981701",
    "longitude": "-90.04510392076872",
    "latitude": "29.96330554603509",
    "geocoded_column": {
      "latitude": "29.96330554603509",
      "longitude": "-90.04510392076872"
    }
  },
  {
    "service_request": "2024-1079342",
    "request_type": "Trash/Recycling",
    "request_reason": "Missed Trash Pick-Up",
    "date_created": "2024-03-27T15:12:01.000",
    "date_modified": "2024-03-27T15:12:02.000",
    "request_status": "Pending",
    "responsible_agency": "Department of Sanitation",
    "final_address": "7736 Benjamin St",
    "address_councildis": "A",
    "status": "Assigned to Contractor",
    "contractor": "Richards Disposal",
    "rowid": "1079342",
    "final_x": "3660677.7735",
    "final_y": "525231.652157",
    "longitude": "-90.13402760842291",
    "latitude": "29.938820519460734",
    "geocoded_column": {
      "latitude": "29.938820519460734",
      "longitude": "-90.13402760842291"
    }
  },
  {
    "service_request": "2024-1079341",
    "request_type": "Trash/Recycling",
    "request_reason": "Request a Large Item Pick Up",
    "date_created": "2024-03-27T15:10:41.000",
    "date_modified": "2024-03-27T15:10:42.000",
    "request_status": "Pending",
    "responsible_agency": "Department of Sanitation",
    "final_address": "7142 Boston Dr",
    "address_councildis": "E",
    "status": "Assigned to Contractor",
    "contractor": "Waste Pro",
    "rowid": "1079341",
    "final_x": "3706124.72843",
    "final_y": "561184.35811",
    "longitude": "-89.98921617735905",
    "latitude": "30.036290858359767",
    "geocoded_column": {
      "latitude": "30.036290858359767",
      "longitude": "-89.98921617735905"
    }
  },
  {
    "service_request": "2024-1079340",
    "request_type": "Roads/Drainage",
    "request_reason": "Street Subsidence (Sinking)",
    "date_created": "2024-03-27T15:10:10.000",
    "date_modified": "2024-03-27T15:10:10.000",
    "request_status": "Pending",
    "responsible_agency": "Department of Public Works",
    "final_address": "4100 BLK Paris Ave",
    "address_councildis": "D",
    "status": "Pending",
    "rowid": "1079340",
    "final_x": "3679483.22827",
    "final_y": "547534.763314",
    "longitude": "-90.07388273198492",
    "latitude": "29.99959181861576",
    "geocoded_column": {
      "latitude": "29.99959181861576",
      "longitude": "-90.07388273198492"
    }
  },
  {
    "service_request": "2024-1079339",
    "request_type": "Traffic Signals/Signs/Striping/Streetlights",
    "request_reason": "Street Light Outage/Malfunction",
    "date_created": "2024-03-27T15:08:42.000",
    "date_modified": "2024-03-27T15:08:43.000",
    "request_status": "Pending",
    "responsible_agency": "Department of Public Works",
    "final_address": "TOLEDANO ST & CHESTNUT ST",
    "address_councildis": "B",
    "status": "Assigned to Contractor",
    "contractor": "Legacy Professional Services",
    "rowid": "1079339",
    "final_x": "3675104.2",
    "final_y": "520474.68",
    "longitude": "-90.0886448395846",
    "latitude": "29.92531731941849",
    "geocoded_column": {
      "latitude": "29.92531731941849",
      "longitude": "-90.0886448395846"
    }
  },
  {
    "service_request": "2024-1079338",
    "request_type": "Trash/Recycling",
    "request_reason": "MIssed Recycling Pick-Up",
    "date_created": "2024-03-27T15:07:20.000",
    "date_modified": "2024-03-27T15:07:20.000",
    "request_status": "Pending",
    "responsible_agency": "Department of Sanitation",
    "final_address": "1210 Webster St, New Orleans, Louisiana, 70118",
    "address_councildis": "A",
    "status": "Assigned to Contractor",
    "contractor": "Richards Disposal",
    "rowid": "1079338",
    "final_x": "3664594.93383",
    "final_y": "520869.262329",
    "longitude": "-90.12180626028271",
    "latitude": "29.926712013028006",
    "geocoded_column": {
      "latitude": "29.926712013028006",
      "longitude": "-90.12180626028271"
    }
  },
  {
    "service_request": "2024-1079337",
    "request_type": "Trash/Recycling",
    "request_reason": "MIssed Recycling Pick-Up",
    "date_created": "2024-03-27T15:05:35.000",
    "date_modified": "2024-03-27T15:05:36.000",
    "request_status": "Pending",
    "responsible_agency": "Department of Sanitation",
    "final_address": "1210 Webster St, New Orleans, Louisiana, 70118",
    "address_councildis": "A",
    "status": "Assigned to Contractor",
    "contractor": "Richards Disposal",
    "rowid": "1079337",
    "final_x": "3664594.93383",
    "final_y": "520869.262329",
    "longitude": "-90.12180626028271",
    "latitude": "29.926712013028006",
    "geocoded_column": {
      "latitude": "29.926712013028006",
      "longitude": "-90.12180626028271"
    }
  },
  {
    "service_request": "2024-1079336",
    "request_type": "Roads/Drainage",
    "request_reason": "Pothole",
    "date_created": "2024-03-27T15:04:55.000",
    "date_modified": "2024-03-27T15:04:55.000",
    "request_status": "Pending",
    "responsible_agency": "Department of Public Works",
    "final_address": "1301 Constantinople St",
    "address_councildis": "B",
    "status": "Pending",
    "rowid": "1079336",
    "final_x": "3672430.66305",
    "final_y": "520250.7726",
    "longitude": "-90.09709199725775",
    "latitude": "29.924781230435865",
    "geocoded_column": {
      "latitude": "29.924781230435865",
      "longitude": "-90.09709199725775"
    }
  },
  {
    "service_request": "2024-1079335",
    "request_type": "Traffic Signals/Signs/Striping/Streetlights",
    "request_reason": "Traffic Sign Missing/Damaged",
    "date_created": "2024-03-27T15:04:30.000",
    "date_modified": "2024-03-27T15:04:30.000",
    "request_status": "Pending",
    "responsible_agency": "Department of Public Works",
    "final_address": "100 BLK Girod St",
    "address_councildis": "B",
    "status": "Pending",
    "rowid": "1079335",
    "final_x": "3682507.99321",
    "final_y": "528054.77734",
    "longitude": "-90.06500856067468",
    "latitude": "29.945936848499898",
    "geocoded_column": {
      "latitude": "29.945936848499898",
      "longitude": "-90.06500856067468"
    }
  },
  {
    "service_request": "2024-1079332",
    "request_type": "Trash/Recycling",
    "request_reason": "Request a Large Item Pick Up",
    "date_created": "2024-03-27T15:03:50.000",
    "date_modified": "2024-03-27T15:03:51.000",
    "request_status": "Pending",
    "responsible_agency": "Department of Sanitation",
    "final_address": "613 N Alexander St",
    "address_councildis": "A",
    "status": "Assigned to Contractor",
    "contractor": "Richards Disposal",
    "rowid": "1079332",
    "final_x": "3671124.59726",
    "final_y": "540731.983691",
    "longitude": "-90.10051922546391",
    "latitude": "29.981136490360154",
    "geocoded_column": {
      "latitude": "29.981136490360154",
      "longitude": "-90.10051922546391"
    }
  },
  {
    "service_request": "2024-1079331",
    "request_type": "Roads/Drainage",
    "request_reason": "Man hole cover issue",
    "date_created": "2024-03-27T15:02:01.000",
    "date_modified": "2024-03-27T15:03:32.000",
    "request_status": "Pending",
    "responsible_agency": "Department of Public Works",
    "final_address": "SYCAMORE ST & FERN ST",
    "address_councildis": "A",
    "rowid": "1079331",
    "final_x": "3664900.9",
    "final_y": "530445.78",
    "longitude": "-90.12052042940522",
    "latitude": "29.953035476840334",
    "geocoded_column": {
      "latitude": "29.953035476840334",
      "longitude": "-90.12052042940522"
    }
  },
  {
    "service_request": "2024-1079330",
    "request_type": "Trash/Recycling",
    "request_reason": "Request a Large Item Pick Up",
    "date_created": "2024-03-27T14:50:58.000",
    "date_modified": "2024-03-27T14:50:58.000",
    "request_status": "Pending",
    "responsible_agency": "Department of Sanitation",
    "final_address": "4616 Wright Rd",
    "address_councildis": "E",
    "status": "Assigned to Contractor",
    "contractor": "Waste Pro",
    "rowid": "1079330",
    "final_x": "3716678.92063",
    "final_y": "556214.28841",
    "longitude": "-89.95605201881217",
    "latitude": "30.022280516387756",
    "geocoded_column": {
      "latitude": "30.022280516387756",
      "longitude": "-89.95605201881217"
    }
  },
  {
    "service_request": "2024-1079329",
    "request_type": "Roads/Drainage",
    "request_reason": "Pothole",
    "date_created": "2024-03-27T14:50:08.000",
    "date_modified": "2024-03-27T14:50:09.000",
    "request_status": "Pending",
    "responsible_agency": "Department of Public Works",
    "final_address": "5316 Michoud Blvd",
    "address_councildis": "E",
    "status": "Pending",
    "rowid": "1079329",
    "final_x": "3724591.7422",
    "final_y": "563496.421856",
    "longitude": "-89.93076816003688",
    "latitude": "30.042039512735908",
    "geocoded_column": {
      "latitude": "30.042039512735908",
      "longitude": "-89.93076816003688"
    }
  },
  {
    "service_request": "2024-1079328",
    "request_type": "Trash/Recycling",
    "request_reason": "Request a Large Item Pick Up",
    "date_created": "2024-03-27T14:49:07.000",
    "date_modified": "2024-03-27T14:49:07.000",
    "request_status": "Pending",
    "responsible_agency": "Department of Sanitation",
    "final_address": "1222 Kentucky St",
    "address_councildis": "D",
    "status": "Assigned to Contractor",
    "contractor": "IV Waste",
    "rowid": "1079328",
    "final_x": "3693381.73168",
    "final_y": "535500.158086",
    "longitude": "-90.03040934690831",
    "latitude": "29.966073613662505",
    "geocoded_column": {
      "latitude": "29.966073613662505",
      "longitude": "-90.03040934690831"
    }
  },
  {
    "service_request": "2024-1079327",
    "request_type": "Trash/Recycling",
    "request_reason": "Request a Large Item Pick Up",
    "date_created": "2024-03-27T14:47:30.000",
    "date_modified": "2024-03-27T14:47:30.000",
    "request_status": "Pending",
    "responsible_agency": "Department of Sanitation",
    "final_address": "7824 Michigan St",
    "address_councildis": "E",
    "status": "Assigned to Contractor",
    "contractor": "Waste Pro",
    "rowid": "1079327",
    "final_x": "3711273.24274",
    "final_y": "567211.6465",
    "longitude": "-89.97271983982452",
    "latitude": "30.052696410095237",
    "geocoded_column": {
      "latitude": "30.052696410095237",
      "longitude": "-89.97271983982452"
    }
  },
  {
    "service_request": "2024-1079326",
    "request_type": "Trash/Recycling",
    "request_reason": "Request a Large Item Pick Up",
    "date_created": "2024-03-27T14:45:44.000",
    "date_modified": "2024-03-27T14:45:45.000",
    "request_status": "Pending",
    "responsible_agency": "Department of Sanitation",
    "final_address": "422 Burdette St",
    "address_councildis": "A",
    "status": "Assigned to Contractor",
    "contractor": "Richards Disposal",
    "rowid": "1079326",
    "final_x": "3660996.82637",
    "final_y": "525706.529853",
    "longitude": "-90.1330046118547",
    "latitude": "29.9401170967883",
    "geocoded_column": {
      "latitude": "29.9401170967883",
      "longitude": "-90.1330046118547"
    }
  },
  {
    "service_request": "2024-1079325",
    "request_type": "Trash/Recycling",
    "request_reason": "Request a Large Item Pick Up",
    "date_created": "2024-03-27T14:43:17.000",
    "date_modified": "2024-03-27T14:43:18.000",
    "request_status": "Pending",
    "responsible_agency": "Department of Sanitation",
    "final_address": "2914 Cleveland Ave",
    "address_councildis": "B",
    "status": "Assigned to Contractor",
    "contractor": "Richards Disposal",
    "rowid": "1079325",
    "final_x": "3674175.20769",
    "final_y": "535418.615558",
    "longitude": "-90.09106594884085",
    "latitude": "29.966435934485773",
    "geocoded_column": {
      "latitude": "29.966435934485773",
      "longitude": "-90.09106594884085"
    }
  },
  {
    "service_request": "2024-1079324",
    "request_type": "Roads/Drainage",
    "request_reason": "Catch Basin - Broken/Damage",
    "date_created": "2024-03-27T14:42:11.000",
    "date_modified": "2024-03-27T14:42:11.000",
    "request_status": "Pending",
    "responsible_agency": "Department of Public Works",
    "final_address": "3320 Banks St",
    "address_councildis": "B",
    "status": "Pending",
    "rowid": "1079324",
    "final_x": "3672657.36571",
    "final_y": "535547.022342",
    "longitude": "-90.09585490276433",
    "latitude": "29.966834170390843",
    "geocoded_column": {
      "latitude": "29.966834170390843",
      "longitude": "-90.09585490276433"
    }
  },
  {
    "service_request": "2024-1079323",
    "request_type": "Trash/Recycling",
    "request_reason": "Request a Large Item Pick Up",
    "date_created": "2024-03-27T14:39:51.000",
    "date_modified": "2024-03-27T14:39:51.000",
    "request_status": "Pending",
    "responsible_agency": "Department of Sanitation",
    "final_address": "4848 Dodt Ave",
    "address_councildis": "E",
    "status": "Assigned to Contractor",
    "contractor": "Waste Pro",
    "rowid": "1079323",
    "final_x": "3705282.76471",
    "final_y": "556063.886682",
    "longitude": "-89.99206634306535",
    "latitude": "30.02223868979049",
    "geocoded_column": {
      "latitude": "30.02223868979049",
      "longitude": "-89.99206634306535"
    }
  },
  {
    "service_request": "2024-1079322",
    "request_type": "Property Maintenance",
    "request_reason": "Property Maintenance",
    "date_created": "2024-03-27T14:39:45.000",
    "date_modified": "2024-03-27T14:39:46.000",
    "request_status": "Pending",
    "responsible_agency": "Department of Code Enforcement",
    "final_address": "1727 Benton St",
    "address_councildis": "E",
    "status": "Pending",
    "rowid": "1079322",
    "final_x": "3699807.85828",
    "final_y": "535930.603591",
    "longitude": "-90.01010023405935",
    "latitude": "29.967054700013353",
    "geocoded_column": {
      "latitude": "29.967054700013353",
      "longitude": "-90.01010023405935"
    }
  },
  {
    "service_request": "2024-1079321",
    "request_type": "Trash/Recycling",
    "request_reason": "Request a Large Item Pick Up",
    "date_created": "2024-03-27T14:39:11.000",
    "date_modified": "2024-03-27T14:39:12.000",
    "request_status": "Pending",
    "responsible_agency": "Department of Sanitation",
    "final_address": "36 Grand Canyon Dr",
    "address_councildis": "C",
    "status": "Assigned to Contractor",
    "contractor": "Richards Disposal",
    "rowid": "1079321",
    "final_x": "3699680.28944",
    "final_y": "516844.535541",
    "longitude": "-90.01119856726943",
    "latitude": "29.914578727803015",
    "geocoded_column": {
      "latitude": "29.914578727803015",
      "longitude": "-90.01119856726943"
    }
  },
  {
    "service_request": "2024-1079320",
    "request_type": "Roads/Drainage",
    "request_reason": "Street Subsidence (Sinking)",
    "date_created": "2024-03-27T14:38:31.000",
    "date_modified": "2024-03-27T14:38:31.000",
    "request_status": "Pending",
    "responsible_agency": "Department of Public Works",
    "final_address": "317 N Rampart St",
    "address_councildis": "C",
    "status": "Pending",
    "rowid": "1079320",
    "final_x": "3680552.70562",
    "final_y": "532386.586755",
    "longitude": "-90.07103138995821",
    "latitude": "29.957907230939046",
    "geocoded_column": {
      "latitude": "29.957907230939046",
      "longitude": "-90.07103138995821"
    }
  },
  {
    "service_request": "2024-1079319",
    "request_type": "Property Maintenance",
    "request_reason": "Property Maintenance",
    "date_created": "2024-03-27T14:37:41.000",
    "date_modified": "2024-03-27T14:37:41.000",
    "request_status": "Pending",
    "responsible_agency": "Department of Code Enforcement",
    "final_address": "13900 Hayne Blvd",
    "address_councildis": "E",
    "status": "Pending",
    "rowid": "1079319",
    "final_x": "3717393.92191",
    "final_y": "572843.408361",
    "longitude": "-89.95315992476364",
    "latitude": "30.06798015606697",
    "geocoded_column": {
      "latitude": "30.06798015606697",
      "longitude": "-89.95315992476364"
    }
  },
  {
    "service_request": "2024-1079318",
    "request_type": "Trash/Recycling",
    "request_reason": "Repair Recycling Cart",
    "date_created": "2024-03-27T14:36:56.000",
    "date_modified": "2024-03-27T14:36:56.000",
    "request_status": "Pending",
    "responsible_agency": "Department of Sanitation",
    "final_address": "2914 Annunciation St",
    "address_councildis": "B",
    "status": "Pending",
    "rowid": "1079318",
    "final_x": "3677134.08942",
    "final_y": "519513.446711",
    "longitude": "-90.08227024296154",
    "latitude": "29.922613452660002",
    "geocoded_column": {
      "latitude": "29.922613452660002",
      "longitude": "-90.08227024296154"
    }
  },
  {
    "service_request": "2024-1079317",
    "request_type": "Roads/Drainage",
    "request_reason": "Catch Basin - Clogged",
    "date_created": "2024-03-27T14:36:44.000",
    "date_modified": "2024-03-27T14:36:44.000",
    "request_status": "Pending",
    "responsible_agency": "Department of Public Works",
    "final_address": "9942 Morrison Rd",
    "address_councildis": "E",
    "status": "Pending",
    "rowid": "1079317",
    "final_x": "3708481.37867",
    "final_y": "563253.320288",
    "longitude": "-89.98169163711995",
    "latitude": "30.041903459723144",
    "geocoded_column": {
      "latitude": "30.041903459723144",
      "longitude": "-89.98169163711995"
    }
  },
  {
    "service_request": "2024-1079316",
    "request_type": "Traffic Signals/Signs/Striping/Streetlights",
    "request_reason": "Traffic Sign Missing/Damaged",
    "date_created": "2024-03-27T14:34:55.000",
    "date_modified": "2024-03-27T14:34:55.000",
    "request_status": "Pending",
    "responsible_agency": "Department of Public Works",
    "final_address": "MAJESTIC OAKS DR & DREUX AVE",
    "address_councildis": "D",
    "status": "Pending",
    "rowid": "1079316",
    "final_x": "3697769.1",
    "final_y": "553994.08",
    "longitude": "-90.01588272806416",
    "latitude": "30.016787200002423",
    "geocoded_column": {
      "latitude": "30.016787200002423",
      "longitude": "-90.01588272806416"
    }
  },
  {
    "service_request": "2024-1079315",
    "request_type": "Roads/Drainage",
    "request_reason": "Street Subsidence (Sinking)",
    "date_created": "2024-03-27T14:34:17.000",
    "date_modified": "2024-03-27T14:34:17.000",
    "request_status": "Pending",
    "responsible_agency": "Department of Public Works",
    "final_address": "238 N Rampart St",
    "address_councildis": "C",
    "status": "Pending",
    "rowid": "1079315",
    "final_x": "3680517.96347",
    "final_y": "532118.843907",
    "longitude": "-90.07115040875317",
    "latitude": "29.957172081224325",
    "geocoded_column": {
      "latitude": "29.957172081224325",
      "longitude": "-90.07115040875317"
    }
  },
  {
    "service_request": "2024-1079314",
    "request_type": "Trash/Recycling",
    "request_reason": "Request a Large Item Pick Up",
    "date_created": "2024-03-27T14:32:36.000",
    "date_modified": "2024-03-27T14:32:37.000",
    "request_status": "Pending",
    "responsible_agency": "Department of Sanitation",
    "final_address": "4675 Viola St",
    "address_councildis": "E",
    "status": "Assigned to Contractor",
    "contractor": "Waste Pro",
    "rowid": "1079314",
    "final_x": "3704064.81924",
    "final_y": "554846.352728",
    "longitude": "-89.99595962181994",
    "latitude": "30.01893008485932",
    "geocoded_column": {
      "latitude": "30.01893008485932",
      "longitude": "-89.99595962181994"
    }
  },
  {
    "service_request": "2024-1079313",
    "request_type": "Roads/Drainage",
    "request_reason": "Road Shoulder Repair",
    "date_created": "2024-03-27T14:28:06.000",
    "date_modified": "2024-03-27T14:28:06.000",
    "request_status": "Pending",
    "responsible_agency": "Department of Public Works",
    "final_address": "2854 Maurepas St",
    "address_councildis": "A",
    "status": "Pending",
    "rowid": "1079313",
    "final_x": "3677949.32072",
    "final_y": "540639.115595",
    "longitude": "-90.07896687067871",
    "latitude": "29.98067747002621",
    "geocoded_column": {
      "latitude": "29.98067747002621",
      "longitude": "-90.07896687067871"
    }
  },
  {
    "service_request": "2024-1079312",
    "request_type": "Roads/Drainage",
    "request_reason": "Street Subsidence (Sinking)",
    "date_created": "2024-03-27T14:27:46.000",
    "date_modified": "2024-03-27T14:27:46.000",
    "request_status": "Pending",
    "responsible_agency": "Department of Public Works",
    "final_address": "1100 BLK Bienville St",
    "address_councildis": "C",
    "status": "Pending",
    "rowid": "1079312",
    "final_x": "3680394.23563",
    "final_y": "532260.555673",
    "longitude": "-90.07153617547509",
    "latitude": "29.957565487505697",
    "geocoded_column": {
      "latitude": "29.957565487505697",
      "longitude": "-90.07153617547509"
    }
  },
  {
    "service_request": "2024-1079311",
    "request_type": "Parks & Parkways",
    "request_reason": "Request Tree Service (Right of Way/Public Property)",
    "date_created": "2024-03-27T14:26:46.000",
    "date_modified": "2024-03-27T14:26:46.000",
    "request_status": "Pending",
    "responsible_agency": "Department of Parks & Parkway",
    "final_address": "MUSIC ST & LOMBARD ST",
    "address_councildis": "D",
    "status": "Pending",
    "rowid": "1079311",
    "final_x": "3685707.6",
    "final_y": "549565.78",
    "longitude": "-90.0541481310499",
    "latitude": "30.004986794512114",
    "geocoded_column": {
      "latitude": "30.004986794512114",
      "longitude": "-90.0541481310499"
    }
  },
  {
    "service_request": "2024-1079310",
    "request_type": "Trash/Recycling",
    "request_reason": "Replace Trash Cart",
    "date_created": "2024-03-27T14:24:45.000",
    "date_modified": "2024-03-27T14:24:45.000",
    "request_status": "Pending",
    "responsible_agency": "Department of Sanitation",
    "final_address": "1631 Audubon St",
    "address_councildis": "A",
    "status": "Assigned to Contractor",
    "contractor": "Richards Disposal",
    "rowid": "1079310",
    "final_x": "3665388.40756",
    "final_y": "527700.642623",
    "longitude": "-90.11907294299851",
    "latitude": "29.945473039762895",
    "geocoded_column": {
      "latitude": "29.945473039762895",
      "longitude": "-90.11907294299851"
    }
  },
  {
    "service_request": "2024-1079309",
    "request_type": "Trash/Recycling",
    "request_reason": "Repair Trash Cart",
    "date_created": "2024-03-27T14:22:39.000",
    "date_modified": "2024-03-27T14:22:40.000",
    "request_status": "Pending",
    "responsible_agency": "Department of Sanitation",
    "final_address": "6123 Carlisle Ct",
    "address_councildis": "C",
    "status": "Assigned to Contractor",
    "contractor": "Richards Disposal",
    "rowid": "1079309",
    "final_x": "3706564.28772",
    "final_y": "516407.440373",
    "longitude": "-89.9894866543288",
    "latitude": "29.913156662124077",
    "geocoded_column": {
      "latitude": "29.913156662124077",
      "longitude": "-89.9894866543288"
    }
  },
  {
    "service_request": "2024-1079308",
    "request_type": "Trash/Recycling",
    "request_reason": "Request a Large Item Pick Up",
    "date_created": "2024-03-27T14:16:59.000",
    "date_modified": "2024-03-27T14:17:00.000",
    "request_status": "Pending",
    "responsible_agency": "Department of Sanitation",
    "final_address": "8300 Oleander St",
    "address_councildis": "A",
    "status": "Assigned to Contractor",
    "contractor": "Richards Disposal",
    "rowid": "1079308",
    "final_x": "3666188.37722",
    "final_y": "534142.591557",
    "longitude": "-90.11633114581072",
    "latitude": "29.963162964587863",
    "geocoded_column": {
      "latitude": "29.963162964587863",
      "longitude": "-90.11633114581072"
    }
  },
  {
    "service_request": "2024-1079307",
    "request_type": "Trash/Recycling",
    "request_reason": "Illegal Dumping",
    "date_created": "2024-03-27T14:16:38.000",
    "date_modified": "2024-03-27T14:20:41.000",
    "request_status": "Pending",
    "responsible_agency": "Department of Sanitation",
    "final_address": "6330 Dauphine St",
    "address_councildis": "E",
    "status": "Pending",
    "rowid": "1079307",
    "final_x": "3699948.34461",
    "final_y": "531813.189635",
    "longitude": "-90.00980677166505",
    "latitude": "29.955728820519557",
    "geocoded_column": {
      "latitude": "29.955728820519557",
      "longitude": "-90.00980677166505"
    }
  },
  {
    "service_request": "2024-1079306",
    "request_type": "Traffic Signals/Signs/Striping/Streetlights",
    "request_reason": "Request for Traffic Calming due to Speeding",
    "date_created": "2024-03-27T14:13:11.000",
    "date_modified": "2024-03-27T14:13:11.000",
    "request_status": "Pending",
    "responsible_agency": "Department of Public Works",
    "final_address": "6000 St Claude Ave",
    "address_councildis": "E",
    "status": "Pending",
    "rowid": "1079306",
    "final_x": "3699174.09828",
    "final_y": "533387.353092",
    "longitude": "-90.01219424246474",
    "latitude": "29.960081778716955",
    "geocoded_column": {
      "latitude": "29.960081778716955",
      "longitude": "-90.01219424246474"
    }
  },
  {
    "service_request": "2024-1079305",
    "request_type": "Roads/Drainage",
    "request_reason": "Catch Basin - Broken/Damage",
    "date_created": "2024-03-27T14:11:17.000",
    "date_modified": "2024-03-27T14:11:17.000",
    "request_status": "Pending",
    "responsible_agency": "Department of Public Works",
    "final_address": "3622 Toulouse St",
    "address_councildis": "A",
    "status": "Pending",
    "rowid": "1079305",
    "final_x": "3673449.94734",
    "final_y": "538767.380489",
    "longitude": "-90.09324186253743",
    "latitude": "29.975665505028562",
    "geocoded_column": {
      "latitude": "29.975665505028562",
      "longitude": "-90.09324186253743"
    }
  },
  {
    "service_request": "2024-1079304",
    "request_type": "Roads/Drainage",
    "request_reason": "Street Subsidence (Sinking)",
    "date_created": "2024-03-27T14:10:57.000",
    "date_modified": "2024-03-27T14:10:58.000",
    "request_status": "Pending",
    "responsible_agency": "Department of Public Works",
    "final_address": "2412 St Bernard Ave",
    "address_councildis": "D",
    "status": "Pending",
    "rowid": "1079304",
    "final_x": "3680629.59061",
    "final_y": "540654.649035",
    "longitude": "-90.07050087034246",
    "latitude": "29.980639231045327",
    "geocoded_column": {
      "latitude": "29.980639231045327",
      "longitude": "-90.07050087034246"
    }
  },
  {
    "service_request": "2024-1079303",
    "request_type": "Trash/Recycling",
    "request_reason": "Request a Large Item Pick Up",
    "date_created": "2024-03-27T14:10:19.000",
    "date_modified": "2024-03-27T14:10:20.000",
    "request_status": "Pending",
    "responsible_agency": "Department of Sanitation",
    "final_address": "7733 Dogwood Dr",
    "address_councildis": "E",
    "status": "Assigned to Contractor",
    "contractor": "Waste Pro",
    "rowid": "1079303",
    "final_x": "3701189.50801",
    "final_y": "561475.559775",
    "longitude": "-90.00480167669622",
    "latitude": "30.037249807357217",
    "geocoded_column": {
      "latitude": "30.037249807357217",
      "longitude": "-90.00480167669622"
    }
  },
  {
    "service_request": "2024-1079302",
    "request_type": "Trash/Recycling",
    "request_reason": "Request a Large Item Pick Up",
    "date_created": "2024-03-27T14:10:06.000",
    "date_modified": "2024-03-27T14:10:06.000",
    "request_status": "Pending",
    "responsible_agency": "Department of Sanitation",
    "final_address": "4610 Gabriel Dr",
    "address_councildis": "E",
    "status": "Assigned to Contractor",
    "contractor": "Waste Pro",
    "rowid": "1079302",
    "final_x": "3708902.67256",
    "final_y": "554848.884184",
    "longitude": "-89.98067375488039",
    "latitude": "30.01878089957786",
    "geocoded_column": {
      "latitude": "30.01878089957786",
      "longitude": "-89.98067375488039"
    }
  },
  {
    "service_request": "2024-1079301",
    "request_type": "Abandoned Vehicles",
    "request_reason": "Abandoned/Junk Vehicles",
    "date_created": "2024-03-27T14:09:16.000",
    "date_modified": "2024-03-27T14:09:16.000",
    "request_status": "Pending",
    "responsible_agency": "Department of Public Works",
    "final_address": "800 BLK Arabella St",
    "address_councildis": "A",
    "status": "Pending",
    "rowid": "1079301",
    "final_x": "3665864.67578",
    "final_y": "519102.257843",
    "longitude": "-90.11785718208797",
    "latitude": "29.92181633041719",
    "geocoded_column": {
      "latitude": "29.92181633041719",
      "longitude": "-90.11785718208797"
    }
  },
  {
    "service_request": "2024-1079300",
    "request_type": "Roads/Drainage",
    "request_reason": "Pothole",
    "date_created": "2024-03-27T14:09:14.000",
    "date_modified": "2024-03-27T14:09:38.000",
    "case_close_date": "2024-03-27T09:09:38.000",
    "request_status": "Closed",
    "responsible_agency": "Department of Public Works",
    "final_address": "1803 Bienville Ave",
    "address_councildis": "B",
    "status": "Resolved",
    "rowid": "1079300",
    "final_x": "3678564.5627",
    "final_y": "533721.527301",
    "longitude": "-90.07726317345937",
    "latitude": "29.961637939578438",
    "geocoded_column": {
      "latitude": "29.961637939578438",
      "longitude": "-90.07726317345937"
    }
  },
  {
    "service_request": "2024-1079299",
    "request_type": "Trash/Recycling",
    "request_reason": "Missed Trash Pick-Up",
    "date_created": "2024-03-27T14:07:36.000",
    "date_modified": "2024-03-27T14:07:37.000",
    "request_status": "Pending",
    "responsible_agency": "Department of Sanitation",
    "final_address": "4528 S Rocheblave St",
    "address_councildis": "B",
    "status": "Assigned to Contractor",
    "contractor": "Richards Disposal",
    "rowid": "1079299",
    "final_x": "3669523.40378",
    "final_y": "528383.827904",
    "longitude": "-90.10599428276413",
    "latitude": "29.947230441151326",
    "geocoded_column": {
      "latitude": "29.947230441151326",
      "longitude": "-90.10599428276413"
    }
  },
  {
    "service_request": "2024-1079298",
    "request_type": "Roads/Drainage",
    "request_reason": "Pothole",
    "date_created": "2024-03-27T14:06:46.000",
    "date_modified": "2024-03-27T14:07:22.000",
    "case_close_date": "2024-03-27T09:07:22.000",
    "request_status": "Closed",
    "responsible_agency": "Department of Public Works",
    "final_address": "2700 BLK Banks St",
    "address_councildis": "B",
    "status": "Resolved",
    "rowid": "1079298",
    "final_x": "3674273.1524",
    "final_y": "534429.694708",
    "longitude": "-90.09079050597947",
    "latitude": "29.96371381506504",
    "geocoded_column": {
      "latitude": "29.96371381506504",
      "longitude": "-90.09079050597947"
    }
  },
  {
    "service_request": "2024-1079297",
    "request_type": "Roads/Drainage",
    "request_reason": "Accessibility Ramps, Curbs and Sidewalk Repair",
    "date_created": "2024-03-27T14:05:54.000",
    "date_modified": "2024-03-27T14:08:30.000",
    "request_status": "Pending",
    "responsible_agency": "Department of Public Works",
    "final_address": "4754 E Adams Ct",
    "address_councildis": "E",
    "status": "Pending",
    "rowid": "1079297",
    "final_x": "3718678.00857",
    "final_y": "557259.076635",
    "longitude": "-89.94969560732036",
    "latitude": "30.025087044925503",
    "geocoded_column": {
      "latitude": "30.025087044925503",
      "longitude": "-89.94969560732036"
    }
  },
  {
    "service_request": "2024-1079296",
    "request_type": "Roads/Drainage",
    "request_reason": "Pothole",
    "date_created": "2024-03-27T14:05:34.000",
    "date_modified": "2024-03-27T14:05:52.000",
    "case_close_date": "2024-03-27T09:05:52.000",
    "request_status": "Closed",
    "responsible_agency": "Department of Public Works",
    "final_address": "3320 Banks St",
    "address_councildis": "B",
    "status": "Resolved",
    "rowid": "1079296",
    "final_x": "3672657.36571",
    "final_y": "535547.022342",
    "longitude": "-90.09585490276433",
    "latitude": "29.966834170390843",
    "geocoded_column": {
      "latitude": "29.966834170390843",
      "longitude": "-90.09585490276433"
    }
  },
  {
    "service_request": "2024-1079295",
    "request_type": "Roads/Drainage",
    "request_reason": "Pothole",
    "date_created": "2024-03-27T14:04:48.000",
    "date_modified": "2024-03-27T14:04:48.000",
    "request_status": "Pending",
    "responsible_agency": "Department of Public Works",
    "final_address": "800 BLK Arabella St",
    "address_councildis": "A",
    "status": "Pending",
    "rowid": "1079295",
    "final_x": "3665864.67578",
    "final_y": "519102.257843",
    "longitude": "-90.11785718208797",
    "latitude": "29.92181633041719",
    "geocoded_column": {
      "latitude": "29.92181633041719",
      "longitude": "-90.11785718208797"
    }
  },
  {
    "service_request": "2024-1079294",
    "request_type": "Roads/Drainage",
    "request_reason": "Pothole",
    "date_created": "2024-03-27T14:04:23.000",
    "date_modified": "2024-03-27T14:04:40.000",
    "case_close_date": "2024-03-27T09:04:40.000",
    "request_status": "Closed",
    "responsible_agency": "Department of Public Works",
    "final_address": "4910 Banks St",
    "address_councildis": "A",
    "status": "Resolved",
    "rowid": "1079294",
    "final_x": "3667626.85697",
    "final_y": "539365.54529",
    "longitude": "-90.11161272284218",
    "latitude": "29.97748225760335",
    "geocoded_column": {
      "latitude": "29.97748225760335",
      "longitude": "-90.11161272284218"
    }
  },
  {
    "service_request": "2024-1079293",
    "request_type": "Trash/Recycling",
    "request_reason": "Replace Trash Cart",
    "date_created": "2024-03-27T14:04:16.000",
    "date_modified": "2024-03-27T14:04:21.000",
    "request_status": "Pending",
    "responsible_agency": "Department of Sanitation",
    "final_address": "1519 Tchoupitoulas St",
    "address_councildis": "B",
    "status": "Assigned to Contractor",
    "contractor": "Richards Disposal",
    "rowid": "1079293",
    "final_x": "3682243.58133",
    "final_y": "523162.693435",
    "longitude": "-90.06601423235377",
    "latitude": "29.932493294647102",
    "geocoded_column": {
      "latitude": "29.932493294647102",
      "longitude": "-90.06601423235377"
    }
  },
  {
    "service_request": "2024-1079292",
    "request_type": "Healthy Homes",
    "request_reason": "Healthy Homes",
    "date_created": "2024-03-27T14:02:51.000",
    "date_modified": "2024-03-27T14:02:51.000",
    "request_status": "Pending",
    "responsible_agency": "Department of Code Enforcement",
    "final_address": "810 Bienville St Apt 319",
    "address_councildis": "C",
    "status": "Pending",
    "rowid": "1079292",
    "final_x": "3681199.815",
    "final_y": "531591.274563",
    "longitude": "-90.06901571380476",
    "latitude": "29.955700774615124",
    "geocoded_column": {
      "latitude": "29.955700774615124",
      "longitude": "-90.06901571380476"
    }
  },