[
  {
    "service_request": "2022-928203",
    "request_type": "Trash/Recycling",
    "request_reason": "MIssed Recycling Pick-Up",
    "date_created": "2022-10-12T22:46:34.000",
    "date_modified": "2022-10-12T22:46:35.000",
    "request_status": "Pending",
    "responsible_agency": "Department of Sanitation",
    "final_address": "723 Dante St",
    "address_councildis": "A",
    "status": "Assigned to Contractor",
    "contractor": "Richards Disposal",
    "rowid": "928203",
    "final_x": "3660440.65293",
    "final_y": "527722.234431",
    "longitude": "-90.13469397502544",
    "latitude": "29.94567565352224",
    "geocoded_column": {
      "latitude": "29.94567565352224",
      "longitude": "-90.13469397502544"
    }
  },
  {
    "service_request": "2022-928202",
    "request_type": "Parks & Parkways",
    "request_reason": "Request Grass Cutting Service (City Owned Property)",
    "date_created": "2022-10-12T22:45:40.000",
    "date_modified": "2022-10-12T22:45:40.000",
    "request_status": "Pending",
    "responsible_agency": "Department of Parks & Parkway",
    "final_address": "5301 Tullis Dr",
    "address_councildis": "C",
    "status": "Pending",
    "rowid": "928202",
    "final_x": "3703243.10385",
    "final_y": "511798.102512",
    "longitude": "-90.00013850348248",
    "latitude": "29.900589235480837",
    "geocoded_column": {
      "latitude": "29.900589235480837",
      "longitude": "-90.00013850348248"
    }
  },
  {
    "service_request": "2022-928201",
    "request_type": "Parks & Parkways",
    "request_reason": "Request Tree Service (Right of Way/Public Property)",
    "date_created": "2022-10-12T22:20:27.000",
    "date_modified": "2022-10-12T22:20:28.000",
    "request_status": "Pending",
    "responsible_agency": "Department of Parks & Parkway",
    "final_address": "COLISEUM ST & MARENGO ST",
    "address_councildis": "B",
    "status": "Pending",
    "rowid": "928201",
    "final_x": "3672065.1",
    "final_y": "519934.78",
    "longitude": "-90.0982567127123",
    "latitude": "29.923923191600174",
    "geocoded_column": {
      "latitude": "29.923923191600174",
      "longitude": "-90.0982567127123"
    }
  },
  {
    "service_request": "2022-928200",
    "request_type": "Property Maintenance",
    "request_reason": "Property Maintenance",
    "date_created": "2022-10-12T22:18:21.000",
    "date_modified": "2022-10-12T22:18:21.000",
    "request_status": "Pending",
    "responsible_agency": "Department of Code Enforcement",
    "final_address": "830 Second St",
    "address_councildis": "B",
    "status": "Pending",
    "rowid": "928200",
    "final_x": "3678264.85282",
    "final_y": "520611.410424",
    "longitude": "-90.07866292430965",
    "latitude": "29.925598500329755",
    "geocoded_column": {
      "latitude": "29.925598500329755",
      "longitude": "-90.07866292430965"
    }
  },
  {
    "service_request": "2022-928199",
    "request_type": "Traffic Signals/Signs/Striping/Streetlights",
    "request_reason": "Traffic Sign Missing/Damaged",
    "date_created": "2022-10-12T21:40:37.000",
    "date_modified": "2022-10-12T21:40:38.000",
    "request_status": "Pending",
    "responsible_agency": "Department of Public Works",
    "final_address": "2ND ST & WILLOW ST",
    "address_councildis": "B",
    "status": "Pending",
    "rowid": "928199",
    "final_x": "3674164.7",
    "final_y": "526878.38",
    "longitude": "-90.09139145127506",
    "latitude": "29.94295344137838",
    "geocoded_column": {
      "latitude": "29.94295344137838",
      "longitude": "-90.09139145127506"
    }
  },
  {
    "service_request": "2022-928198",
    "request_type": "Trash/Recycling",
    "request_reason": "Missed Trash Pick-Up",
    "date_created": "2022-10-12T21:27:36.000",
    "date_modified": "2022-10-12T21:27:37.000",
    "request_status": "Pending",
    "responsible_agency": "Department of Sanitation",
    "final_address": "868 Germain St",
    "address_councildis": "A",
    "status": "Assigned to Contractor",
    "contractor": "Metro Disposal",
    "rowid": "928198",
    "final_x": "3669745.40468",
    "final_y": "547732.97525",
    "longitude": "-90.10463823812113",
    "latitude": "30.00042754210439",
    "geocoded_column": {
      "latitude": "30.00042754210439",
      "longitude": "-90.10463823812113"
    }
  },
  {
    "service_request": "2022-928197",
    "request_type": "Trash/Recycling",
    "request_reason": "MIssed Recycling Pick-Up",
    "date_created": "2022-10-12T20:45:24.000",
    "date_modified": "2022-10-12T20:45:25.000",
    "request_status": "Pending",
    "responsible_agency": "Department of Sanitation",
    "final_address": "415 S Solomon St",
    "address_councildis": "A",
    "status": "Assigned to Contractor",
    "contractor": "Richards Disposal",
    "rowid": "928197",
    "final_x": "3669731.9483",
    "final_y": "537656.597768",
    "longitude": "-90.10502197789907",
    "latitude": "29.97272134404732",
    "geocoded_column": {
      "latitude": "29.97272134404732",
      "longitude": "-90.10502197789907"
    }
  },
  {
    "service_request": "2022-928196",
    "request_type": "Traffic Signals/Signs/Striping/Streetlights",
    "request_reason": "Street Light Outage/Malfunction",
    "date_created": "2022-10-12T20:42:24.000",
    "date_modified": "2022-10-12T20:42:24.000",
    "request_status": "Pending",
    "responsible_agency": "Department of Public Works",
    "final_address": "28 Newcomb Blvd",
    "address_councildis": "A",
    "status": "Pending",
    "contractor": "Legacy Professional Services",
    "rowid": "928196",
    "final_x": "3663903.99981",
    "final_y": "525385.999805",
    "longitude": "-90.12383685954111",
    "latitude": "29.939151682093406",
    "geocoded_column": {
      "latitude": "29.939151682093406",
      "longitude": "-90.12383685954111"
    }
  },
  {
    "service_request": "2022-928195",
    "request_type": "Trash/Recycling",
    "request_reason": "MIssed Recycling Pick-Up",
    "date_created": "2022-10-12T20:26:50.000",
    "date_modified": "2022-10-12T20:26:51.000",
    "request_status": "Pending",
    "responsible_agency": "Department of Sanitation",
    "final_address": "1105 N White St",
    "address_councildis": "A",
    "status": "Assigned to Contractor",
    "contractor": "Richards Disposal",
    "rowid": "928195",
    "final_x": "3677172.76552",
    "final_y": "538857.788361",
    "longitude": "-90.08148104019814",
    "latitude": "29.975802785744516",
    "geocoded_column": {
      "latitude": "29.975802785744516",
      "longitude": "-90.08148104019814"
    }
  },
  {
    "service_request": "2022-928193",
    "request_type": "Traffic Signals/Signs/Striping/Streetlights",
    "request_reason": "Traffic Sign Missing/Damaged",
    "date_created": "2022-10-12T19:56:29.000",
    "date_modified": "2022-10-12T19:56:29.000",
    "request_status": "Pending",
    "responsible_agency": "Department of Public Works",
    "final_address": "CANAL BLVD & AMETHYST ST",
    "address_councildis": "D",
    "status": "Pending",
    "rowid": "928193",
    "final_x": "3669409.5",
    "final_y": "556744.58",
    "longitude": "-90.10539430522898",
    "latitude": "30.025216178516906",
    "geocoded_column": {
      "latitude": "30.025216178516906",
      "longitude": "-90.10539430522898"
    }
  },
  {
    "service_request": "2022-928191",
    "request_type": "Trash/Recycling",
    "request_reason": "Missed Trash Pick-Up",
    "date_created": "2022-10-12T19:50:57.000",
    "date_modified": "2022-10-12T19:50:58.000",
    "request_status": "Pending",
    "responsible_agency": "Department of Sanitation",
    "final_address": "857 Polk St",
    "address_councildis": "A",
    "status": "Assigned to Contractor",
    "contractor": "Metro Disposal",
    "rowid": "928191",
    "final_x": "3669646.25543",
    "final_y": "547266.735249",
    "longitude": "-90.10496724729387",
    "latitude": "29.9991484669493",
    "geocoded_column": {
      "latitude": "29.9991484669493",
      "longitude": "-90.10496724729387"
    }
  },
  {
    "service_request": "2022-928190",
    "request_type": "Traffic Signals/Signs/Striping/Streetlights",
    "request_reason": "Traffic Signal Malfunctioning/Damaged",
    "date_created": "2022-10-12T19:47:13.000",
    "date_modified": "2022-10-12T19:47:13.000",
    "request_status": "Pending",
    "responsible_agency": "Department of Public Works",
    "final_address": "S CLAIBORNE AVE & TULANE AVE",
    "address_councildis": "B",
    "status": "Pending",
    "rowid": "928190",
    "final_x": "3677861.38",
    "final_y": "531973.19",
    "longitude": "-90.07954411965169",
    "latitude": "29.95685177850218",
    "geocoded_column": {
      "latitude": "29.95685177850218",
      "longitude": "-90.07954411965169"
    }
  },
  {
    "service_request": "2022-928189",
    "request_type": "Abandoned Vehicles",
    "request_reason": "Abandoned/Junk Vehicles",
    "date_created": "2022-10-12T19:46:10.000",
    "date_modified": "2022-10-12T19:46:10.000",
    "request_status": "Pending",
    "responsible_agency": "Department of Public Works",
    "final_address": "5137 Montegut Dr",
    "address_councildis": "D",
    "status": "Pending",
    "rowid": "928189",
    "final_x": "3689751.31817",
    "final_y": "552310.625622",
    "longitude": "-90.04127545046573",
    "latitude": "30.012409364151488",
    "geocoded_column": {
      "latitude": "30.012409364151488",
      "longitude": "-90.04127545046573"
    }
  },
  {
    "service_request": "2022-928188",
    "request_type": "Roads/Drainage",
    "request_reason": "Street Flooding / Drainage",
    "date_created": "2022-10-12T19:33:16.000",
    "date_modified": "2022-10-12T19:33:16.000",
    "request_status": "Pending",
    "responsible_agency": "Department of Public Works",
    "final_address": "5176 Feliciana Dr",
    "address_councildis": "D",
    "status": "Pending",
    "rowid": "928188",
    "final_x": "3689916.23536",
    "final_y": "552606.19631",
    "longitude": "-90.04074387157519",
    "latitude": "30.013216960009146",
    "geocoded_column": {
      "latitude": "30.013216960009146",
      "longitude": "-90.04074387157519"
    }
  },
  {
    "service_request": "2022-928187",
    "request_type": "Trash/Recycling",
    "request_reason": "Replace Trash Cart",
    "date_created": "2022-10-12T19:29:16.000",
    "date_modified": "2022-10-12T19:29:17.000",
    "request_status": "Pending",
    "responsible_agency": "Department of Sanitation",
    "final_address": "5336 Pasteur Blvd",
    "address_councildis": "D",
    "status": "Assigned to Contractor",
    "contractor": "Metro Disposal",
    "rowid": "928187",
    "final_x": "3682817.24533",
    "final_y": "552668.919318",
    "longitude": "-90.0631706774156",
    "latitude": "30.01360771054802",
    "geocoded_column": {
      "latitude": "30.01360771054802",
      "longitude": "-90.0631706774156"
    }
  },
  {
    "service_request": "2022-928186",
    "request_type": "Traffic Signals/Signs/Striping/Streetlights",
    "request_reason": "Street Light Outage/Malfunction",
    "date_created": "2022-10-12T19:21:18.000",
    "date_modified": "2022-10-12T19:22:28.000",
    "request_status": "Pending",
    "responsible_agency": "Department of Public Works",
    "final_address": "1740 Abundance St",
    "address_councildis": "D",
    "status": "Pending",
    "contractor": "Legacy Professional Services",
    "rowid": "928186",
    "final_x": "3680963.21647",
    "final_y": "543362.276942",
    "longitude": "-90.0693527991574",
    "latitude": "29.988074145599416",
    "geocoded_column": {
      "latitude": "29.988074145599416",
      "longitude": "-90.0693527991574"
    }
  },
  {
    "service_request": "2022-928184",
    "request_type": "Trash/Recycling",
    "request_reason": "Request a Large Item Pick Up",
    "date_created": "2022-10-12T19:14:21.000",
    "date_modified": "2022-10-12T19:14:22.000",
    "request_status": "Pending",
    "responsible_agency": "Department of Sanitation",
    "final_address": "835 Bourbon St Unit F",
    "address_councildis": "C",
    "status": "Assigned to Contractor",
    "contractor": "Empire Services",
    "rowid": "928184",
    "final_x": "3682585.82485",
    "final_y": "533252.96602",
    "longitude": "-90.06458109062584",
    "latitude": "29.960227735686587",
    "geocoded_column": {
      "latitude": "29.960227735686587",
      "longitude": "-90.06458109062584"
    }
  },
  {
    "service_request": "2022-928183",
    "request_type": "Property Maintenance",
    "request_reason": "Property Maintenance",
    "date_created": "2022-10-12T19:12:54.000",
    "date_modified": "2022-10-12T19:12:54.000",
    "request_status": "Pending",
    "responsible_agency": "Department of Code Enforcement",
    "final_address": "937 Caffin Ave",
    "address_councildis": "E",
    "status": "Pending",
    "rowid": "928183",
    "final_x": "3697942.42627",
    "final_y": "533287.40378",
    "longitude": "-90.01608720362415",
    "latitude": "29.959845944005593",
    "geocoded_column": {
      "latitude": "29.959845944005593",
      "longitude": "-90.01608720362415"
    }
  },
  {
    "service_request": "2022-928182",
    "request_type": "Trash/Recycling",
    "request_reason": "Repair Trash Cart",
    "date_created": "2022-10-12T19:12:28.000",
    "date_modified": "2022-10-12T19:12:29.000",
    "request_status": "Pending",
    "responsible_agency": "Department of Sanitation",
    "final_address": "2239 Andry St",
    "address_councildis": "E",
    "status": "Assigned to Contractor",
    "contractor": "Metro Disposal",
    "rowid": "928182",
    "final_x": "3698422.18743",
    "final_y": "538371.012361",
    "longitude": "-90.01438745338399",
    "latitude": "29.97380887410146",
    "geocoded_column": {
      "latitude": "29.97380887410146",
      "longitude": "-90.01438745338399"
    }
  },
  {
    "service_request": "2022-928181",
    "request_type": "Property Maintenance",
    "request_reason": "Property Maintenance",
    "date_created": "2022-10-12T19:06:51.000",
    "date_modified": "2022-10-12T19:06:51.000",
    "request_status": "Pending",
    "responsible_agency": "Department of Code Enforcement",
    "final_address": "1630 Canal St",
    "address_councildis": "B",
    "status": "Pending",
    "rowid": "928181",
    "final_x": "3678476.35298",
    "final_y": "532609.474116",
    "longitude": "-90.0775802105118",
    "latitude": "29.958582828073336",
    "geocoded_column": {
      "latitude": "29.958582828073336",
      "longitude": "-90.0775802105118"
    }
  },
  {
    "service_request": "2022-928180",
    "request_type": "Trash/Recycling",
    "request_reason": "Request a Large Item Pick Up",
    "date_created": "2022-10-12T19:00:31.000",
    "date_modified": "2022-10-12T19:00:32.000",
    "request_status": "Pending",
    "responsible_agency": "Department of Sanitation",
    "final_address": "3425 N Claiborne Ave",
    "address_councildis": "D",
    "status": "Assigned to Contractor",
    "contractor": "Metro Disposal",
    "rowid": "928180",
    "final_x": "3690835.5896",
    "final_y": "537563.673416",
    "longitude": "-90.03837632460952",
    "latitude": "29.97182691616684",
    "geocoded_column": {
      "latitude": "29.97182691616684",
      "longitude": "-90.03837632460952"
    }
  },
  {
    "service_request": "2022-928179",
    "request_type": "Trash/Recycling",
    "request_reason": "MIssed Recycling Pick-Up",
    "date_created": "2022-10-12T18:58:14.000",
    "date_modified": "2022-10-12T18:58:15.000",
    "request_status": "Pending",
    "responsible_agency": "Department of Sanitation",
    "final_address": "3212 St Charles Ave",
    "address_councildis": "B",
    "status": "Assigned to Contractor",
    "contractor": "Richards Disposal",
    "rowid": "928179",
    "final_x": "3674753.54094",
    "final_y": "521705.572025",
    "longitude": "-90.08970959013618",
    "latitude": "29.928712344124584",
    "geocoded_column": {
      "latitude": "29.928712344124584",
      "longitude": "-90.08970959013618"
    }
  },
  {
    "service_request": "2022-928178",
    "request_type": "Trash/Recycling",
    "request_reason": "Replace Recycling Cart",
    "date_created": "2022-10-12T18:57:45.000",
    "date_modified": "2022-10-12T18:57:45.000",
    "request_status": "Pending",
    "responsible_agency": "Department of Sanitation",
    "final_address": "6025 Constance St",
    "address_councildis": "A",
    "status": "Pending",
    "rowid": "928178",
    "final_x": "3664395.1984",
    "final_y": "519062.125047",
    "longitude": "-90.12249705614619",
    "latitude": "29.921748757473562",
    "geocoded_column": {
      "latitude": "29.921748757473562",
      "longitude": "-90.12249705614619"
    }
  },
  {
    "service_request": "2022-928177",
    "request_type": "Trash/Recycling",
    "request_reason": "Illegal Dumping",
    "date_created": "2022-10-12T18:56:03.000",
    "date_modified": "2022-10-12T18:56:03.000",
    "request_status": "Pending",
    "responsible_agency": "Department of Sanitation",
    "final_address": "3108 Delachaise St",
    "address_councildis": "B",
    "status": "Pending",
    "rowid": "928177",
    "final_x": "3671693.67963",
    "final_y": "526525.121918",
    "longitude": "-90.0992050934529",
    "latitude": "29.942055508949792",
    "geocoded_column": {
      "latitude": "29.942055508949792",
      "longitude": "-90.0992050934529"
    }
  },
  {
    "service_request": "2022-928176",
    "request_type": "Roads/Drainage",
    "request_reason": "Pothole",
    "date_created": "2022-10-12T18:49:33.000",
    "date_modified": "2022-10-12T18:49:34.000",
    "request_status": "Pending",
    "responsible_agency": "Department of Public Works",
    "final_address": "COLISEUM ST & GENERAL TAYLOR",
    "address_councildis": "B",
    "status": "Pending",
    "rowid": "928176",
    "final_x": "3672874.7",
    "final_y": "520015.98",
    "longitude": "-90.09569832258471",
    "latitude": "29.924122445708274",
    "geocoded_column": {
      "latitude": "29.924122445708274",
      "longitude": "-90.09569832258471"
    }
  },
  {
    "service_request": "2022-928175",
    "request_type": "Trash/Recycling",
    "request_reason": "Return Trash Cart",
    "date_created": "2022-10-12T18:39:51.000",
    "date_modified": "2022-10-12T18:39:52.000",
    "request_status": "Pending",
    "responsible_agency": "Department of Sanitation",
    "final_address": "637 S Dupre St",
    "address_councildis": "B",
    "status": "Assigned to Contractor",
    "contractor": "Richards Disposal",
    "rowid": "928175",
    "final_x": "3673244.24808",
    "final_y": "533944.138629",
    "longitude": "-90.09405627243919",
    "latitude": "29.96240933749384",
    "geocoded_column": {
      "latitude": "29.96240933749384",
      "longitude": "-90.09405627243919"
    }
  },
  {
    "service_request": "2022-928174",
    "request_type": "Trash/Recycling",
    "request_reason": "Replace Trash Cart",
    "date_created": "2022-10-12T18:33:53.000",
    "date_modified": "2022-10-12T18:33:54.000",
    "request_status": "Pending",
    "responsible_agency": "Department of Sanitation",
    "final_address": "4856 Haydel St",
    "address_councildis": "E",
    "status": "Assigned to Contractor",
    "contractor": "Metro Disposal",
    "rowid": "928174",
    "final_x": "3698892.00976",
    "final_y": "555120.849689",
    "longitude": "-90.0122937815167",
    "latitude": "30.019849840903802",
    "geocoded_column": {
      "latitude": "30.019849840903802",
      "longitude": "-90.0122937815167"
    }
  },
  {
    "service_request": "2022-928173",
    "request_type": "Trash/Recycling",
    "request_reason": "MIssed Recycling Pick-Up",
    "date_created": "2022-10-12T18:28:50.000",
    "date_modified": "2022-10-12T18:28:50.000",
    "request_status": "Pending",
    "responsible_agency": "Department of Sanitation",
    "final_address": "1548 Washington Ave",
    "address_councildis": "B",
    "status": "Assigned to Contractor",
    "contractor": "Richards Disposal",
    "rowid": "928173",
    "final_x": "3675974.31976",
    "final_y": "522362.31449",
    "longitude": "-90.08583326939706",
    "latitude": "29.930481684118206",
    "geocoded_column": {
      "latitude": "29.930481684118206",
      "longitude": "-90.08583326939706"
    }
  },
  {
    "service_request": "2022-928172",
    "request_type": "Abandoned Vehicles",
    "request_reason": "Abandoned/Junk Vehicles",
    "date_created": "2022-10-12T18:19:21.000",
    "date_modified": "2022-10-12T18:19:21.000",
    "request_status": "Pending",
    "responsible_agency": "Department of Public Works",
    "final_address": "1932 Joliet St",
    "address_councildis": "A",
    "status": "Pending",
    "rowid": "928172",
    "final_x": "3662707.26131",
    "final_y": "531366.180546",
    "longitude": "-90.1274164275475",
    "latitude": "29.95562994172527",
    "geocoded_column": {
      "latitude": "29.95562994172527",
      "longitude": "-90.1274164275475"
    }
  },
  {
    "service_request": "2022-928171",
    "request_type": "Abandoned Vehicles",
    "request_reason": "Abandoned/Junk Vehicles",
    "date_created": "2022-10-12T18:17:08.000",
    "date_modified": "2022-10-12T18:17:08.000",
    "request_status": "Pending",
    "responsible_agency": "Department of Public Works",
    "final_address": "5137 Montegut Dr",
    "address_councildis": "D",
    "status": "Pending",
    "rowid": "928171",
    "final_x": "3689751.31817",
    "final_y": "552310.625622",
    "longitude": "-90.04127545046573",
    "latitude": "30.012409364151488",
    "geocoded_column": {
      "latitude": "30.012409364151488",
      "longitude": "-90.04127545046573"
    }
  },
  {
    "service_request": "2022-928170",
    "request_type": "Roads/Drainage",
    "request_reason": "Unpermitted work in ROW",
    "date_created": "2022-10-12T18:16:27.000",
    "date_modified": "2022-10-12T18:16:27.000",
    "request_status": "Pending",
    "responsible_agency": "Department of Public Works",
    "final_address": "4902 Magnolia St",
    "address_councildis": "B",
    "status": "Pending",
    "rowid": "928170",
    "final_x": "3669095.82593",
    "final_y": "524581.5735",
    "longitude": "-90.10747274745053",
    "latitude": "29.936788058901676",
    "geocoded_column": {
      "latitude": "29.936788058901676",
      "longitude": "-90.10747274745053"
    }
  },
  {
    "service_request": "2022-928169",
    "request_type": "Parks & Parkways",
    "request_reason": "Request Tree Service (Right of Way/Public Property)",
    "date_created": "2022-10-12T18:13:08.000",
    "date_modified": "2022-10-12T18:14:38.000",
    "request_status": "Pending",
    "responsible_agency": "Department of Parks & Parkway",
    "final_address": "SHERWOOD FOREST DR & CITY PARK AVE",
    "address_councildis": "A",
    "status": "Pending",
    "rowid": "928169",
    "final_x": "3673232.0",
    "final_y": "541493.48",
    "longitude": "-90.0938370669972",
    "latitude": "29.9831678312731",
    "geocoded_column": {
      "latitude": "29.9831678312731",
      "longitude": "-90.0938370669972"
    }
  },
  {
    "service_request": "2022-928168",
    "request_type": "Trash/Recycling",
    "request_reason": "Missed Trash Pick-Up",
    "date_created": "2022-10-12T18:10:41.000",
    "date_modified": "2022-10-12T18:10:42.000",
    "request_status": "Pending",
    "responsible_agency": "Department of Sanitation",
    "final_address": "7710 Panola St",
    "address_councildis": "A",
    "status": "Assigned to Contractor",
    "contractor": "Richards Disposal",
    "rowid": "928168",
    "final_x": "3665084.45536",
    "final_y": "529750.342657",
    "longitude": "-90.11996409254937",
    "latitude": "29.951117906255288",
    "geocoded_column": {
      "latitude": "29.951117906255288",
      "longitude": "-90.11996409254937"
    }
  },
  {
    "service_request": "2022-928167",
    "request_type": "Traffic Signals/Signs/Striping/Streetlights",
    "request_reason": "Street Light Outage/Malfunction",
    "date_created": "2022-10-12T18:04:46.000",
    "date_modified": "2022-10-12T18:04:47.000",
    "request_status": "Pending",
    "responsible_agency": "Department of Public Works",
    "final_address": "28 Newcomb Blvd",
    "address_councildis": "A",
    "status": "Pending",
    "contractor": "Legacy Professional Services",
    "rowid": "928167",
    "final_x": "3663903.99981",
    "final_y": "525385.999805",
    "longitude": "-90.12383685954111",
    "latitude": "29.939151682093406",
    "geocoded_column": {
      "latitude": "29.939151682093406",
      "longitude": "-90.12383685954111"
    }
  },
  {
    "service_request": "2022-928166",
    "request_type": "Trash/Recycling",
    "request_reason": "Missed Trash Pick-Up",
    "date_created": "2022-10-12T18:04:29.000",
    "date_modified": "2022-10-12T18:04:30.000",
    "request_status": "Pending",
    "responsible_agency": "Department of Sanitation",
    "final_address": "5516 Pitt St",
    "address_councildis": "A",
    "status": "Assigned to Contractor",
    "contractor": "Richards Disposal",
    "rowid": "928166",
    "final_x": "3666679.66561",
    "final_y": "520596.17996",
    "longitude": "-90.11523446570138",
    "latitude": "29.925900348692355",
    "geocoded_column": {
      "latitude": "29.925900348692355",
      "longitude": "-90.11523446570138"
    }
  },
  {
    "service_request": "2022-928165",
    "request_type": "Trash/Recycling",
    "request_reason": "Return Trash Cart",
    "date_created": "2022-10-12T17:58:36.000",
    "date_modified": "2022-10-12T17:58:37.000",
    "request_status": "Pending",
    "responsible_agency": "Department of Sanitation",
    "final_address": "3631 Clermont Dr",
    "address_councildis": "D",
    "status": "Assigned to Contractor",
    "contractor": "Metro Disposal",
    "rowid": "928165",
    "final_x": "3685876.17705",
    "final_y": "545904.418384",
    "longitude": "-90.05374473385827",
    "latitude": "29.99491419473237",
    "geocoded_column": {
      "latitude": "29.99491419473237",
      "longitude": "-90.05374473385827"
    }
  },
  {
    "service_request": "2022-928164",
    "request_type": "Property Maintenance",
    "request_reason": "Property Maintenance",
    "date_created": "2022-10-12T17:57:36.000",
    "date_modified": "2022-10-12T17:57:36.000",
    "request_status": "Pending",
    "responsible_agency": "Department of Code Enforcement",
    "final_address": "1518 S Robertson St",
    "address_councildis": "B",
    "status": "Pending",
    "rowid": "928164",
    "final_x": "3676063.32232",
    "final_y": "527278.289983",
    "longitude": "-90.08538328209359",
    "latitude": "29.943996340986676",
    "geocoded_column": {
      "latitude": "29.943996340986676",
      "longitude": "-90.08538328209359"
    }
  },
  {
    "service_request": "2022-928163",
    "request_type": "Trash/Recycling",
    "request_reason": "Illegal Dumping",
    "date_created": "2022-10-12T17:56:53.000",
    "date_modified": "2022-10-12T17:56:53.000",
    "request_status": "Pending",
    "responsible_agency": "Department of Sanitation",
    "final_address": "5854 Colbert St",
    "address_councildis": "A",
    "status": "Pending",
    "rowid": "928163",
    "final_x": "3667272.52564",
    "final_y": "546476.865361",
    "longitude": "-90.11249252342736",
    "latitude": "29.997046353319465",
    "geocoded_column": {
      "latitude": "29.997046353319465",
      "longitude": "-90.11249252342736"
    }
  },
  {
    "service_request": "2022-928162",
    "request_type": "Trash/Recycling",
    "request_reason": "Illegal Dumping",
    "date_created": "2022-10-12T17:50:07.000",
    "date_modified": "2022-10-12T17:54:07.000",
    "request_status": "Pending",
    "responsible_agency": "Department of Code Enforcement",
    "final_address": "1416 Hendee St",
    "address_councildis": "C",
    "status": "Pending",
    "rowid": "928162",
    "final_x": "3690765.51356",
    "final_y": "526015.53555",
    "longitude": "-90.0390096033379",
    "latitude": "29.94007572321138",
    "geocoded_column": {
      "latitude": "29.94007572321138",
      "longitude": "-90.0390096033379"
    }
  },
  {
    "service_request": "2022-928161",
    "request_type": "Trash/Recycling",
    "request_reason": "Repair Trash Cart",
    "date_created": "2022-10-12T17:33:54.000",
    "date_modified": "2022-10-12T18:35:37.000",
    "request_status": "Pending",
    "responsible_agency": "Department of Sanitation",
    "final_address": "10121 Deerfield Dr",
    "address_councildis": "E",
    "contractor": "Metro Disposal",
    "rowid": "928161",
    "final_x": "3709668.59089",
    "final_y": "563377.701216",
    "longitude": "-89.97793498589819",
    "latitude": "30.04220689723152",
    "geocoded_column": {
      "latitude": "30.04220689723152",
      "longitude": "-89.97793498589819"
    }
  },
  {
    "service_request": "2022-928160",
    "request_type": "Abandoned Vehicles",
    "request_reason": "Abandoned/Junk Vehicles",
    "date_created": "2022-10-12T17:33:40.000",
    "date_modified": "2022-10-12T17:33:40.000",
    "request_status": "Pending",
    "responsible_agency": "Department of Public Works",
    "final_address": "7632 Mackenzie St",
    "address_councildis": "E",
    "status": "Pending",
    "rowid": "928160",
    "final_x": "3711008.49009",
    "final_y": "566034.749347",
    "longitude": "-89.97360078205085",
    "latitude": "30.049469061312482",
    "geocoded_column": {
      "latitude": "30.049469061312482",
      "longitude": "-89.97360078205085"
    }
  },
  {
    "service_request": "2022-928159",
    "request_type": "Abandoned Vehicles",
    "request_reason": "Abandoned/Junk Vehicles",
    "date_created": "2022-10-12T17:28:54.000",
    "date_modified": "2022-10-12T17:28:54.000",
    "request_status": "Pending",
    "responsible_agency": "Department of Public Works",
    "final_address": "7632 Mackenzie St",
    "address_councildis": "E",
    "status": "Pending",
    "rowid": "928159",
    "final_x": "3711008.49009",
    "final_y": "566034.749347",
    "longitude": "-89.97360078205085",
    "latitude": "30.049469061312482",
    "geocoded_column": {
      "latitude": "30.049469061312482",
      "longitude": "-89.97360078205085"
    }
  },
  {
    "service_request": "2022-928157",
    "request_type": "Trash/Recycling",
    "request_reason": "Repair Trash Cart",
    "date_created": "2022-10-12T17:14:10.000",
    "date_modified": "2022-10-12T17:14:11.000",
    "request_status": "Pending",
    "responsible_agency": "Department of Sanitation",
    "final_address": "4611 Sierra Madre Dr",
    "address_councildis": "E",
    "status": "Assigned to Contractor",
    "contractor": "Metro Disposal",
    "rowid": "928157",
    "final_x": "3714045.76351",
    "final_y": "555685.905561",
    "longitude": "-89.96439200340096",
    "latitude": "30.020914435164194",
    "geocoded_column": {
      "latitude": "30.020914435164194",
      "longitude": "-89.96439200340096"
    }
  },
  {
    "service_request": "2022-928156",
    "request_type": "Trash/Recycling",
    "request_reason": "Illegal Dumping",
    "date_created": "2022-10-12T17:08:44.000",
    "date_modified": "2022-10-12T17:08:44.000",
    "request_status": "Pending",
    "responsible_agency": "Department of Sanitation",
    "final_address": "2408 S Derbigny St",
    "address_councildis": "B",
    "status": "Pending",
    "rowid": "928156",
    "final_x": "3673913.21006",
    "final_y": "527635.037695",
    "longitude": "-90.09215959028283",
    "latitude": "29.945041494235543",
    "geocoded_column": {
      "latitude": "29.945041494235543",
      "longitude": "-90.09215959028283"
    }
  },
  {
    "service_request": "2022-928155",
    "request_type": "Abandoned Vehicles",
    "request_reason": "Abandoned/Junk Vehicles",
    "date_created": "2022-10-12T17:05:51.000",
    "date_modified": "2022-10-12T17:05:51.000",
    "request_status": "Pending",
    "responsible_agency": "Department of Public Works",
    "final_address": "1601 Basin St",
    "address_councildis": "C",
    "status": "Pending",
    "rowid": "928155",
    "final_x": "3680160.62171",
    "final_y": "534547.197445",
    "longitude": "-90.07219438822746",
    "latitude": "29.96386004655471",
    "geocoded_column": {
      "latitude": "29.96386004655471",
      "longitude": "-90.07219438822746"
    }
  },
  {
    "service_request": "2022-928154",
    "request_type": "Trash/Recycling",
    "request_reason": "Missed Trash Pick-Up",
    "date_created": "2022-10-12T17:03:26.000",
    "date_modified": "2022-10-12T17:03:27.000",
    "request_status": "Pending",
    "responsible_agency": "Department of Sanitation",
    "final_address": "4728 Shalimar Dr",
    "address_councildis": "D",
    "status": "Assigned to Contractor",
    "contractor": "Metro Disposal",
    "rowid": "928154",
    "final_x": "3697088.54058",
    "final_y": "554169.735256",
    "longitude": "-90.01802662759829",
    "latitude": "30.017291683548404",
    "geocoded_column": {
      "latitude": "30.017291683548404",
      "longitude": "-90.01802662759829"
    }
  },
  {
    "service_request": "2022-928153",
    "request_type": "Roads/Drainage",
    "request_reason": "Pothole",
    "date_created": "2022-10-12T17:01:49.000",
    "date_modified": "2022-10-12T17:04:05.000",
    "request_status": "Pending",
    "responsible_agency": "Department of Public Works",
    "final_address": "MARENGO ST & CAMP ST",
    "address_councildis": "B",
    "status": "Pending",
    "rowid": "928153",
    "final_x": "3672126.6",
    "final_y": "519255.68",
    "longitude": "-90.09808568828878",
    "latitude": "29.922054060560587",
    "geocoded_column": {
      "latitude": "29.922054060560587",
      "longitude": "-90.09808568828878"
    }
  },
  {
    "service_request": "2022-928152",
    "request_type": "Trash/Recycling",
    "request_reason": "MIssed Recycling Pick-Up",
    "date_created": "2022-10-12T17:00:33.000",
    "date_modified": "2022-10-12T17:00:34.000",
    "request_status": "Pending",
    "responsible_agency": "Department of Sanitation",
    "final_address": "1604 Robert C. Blakes, Sr. Dr",
    "address_councildis": "B",
    "status": "Assigned to Contractor",
    "contractor": "Richards Disposal",
    "rowid": "928152",
    "final_x": "3678647.1204",
    "final_y": "525437.572413",
    "longitude": "-90.07728922277693",
    "latitude": "29.938857347755224",
    "geocoded_column": {
      "latitude": "29.938857347755224",
      "longitude": "-90.07728922277693"
    }
  },
  {
    "service_request": "2022-928151",
    "request_type": "Trash/Recycling",
    "request_reason": "Replace Trash Cart",
    "date_created": "2022-10-12T16:56:06.000",
    "date_modified": "2022-10-12T16:56:07.000",
    "request_status": "Pending",
    "responsible_agency": "Department of Sanitation",
    "final_address": "4320 Royal St, New Orleans, Louisiana, 70117",
    "address_councildis": "C",
    "status": "Assigned to Contractor",
    "contractor": "Metro Disposal",
    "rowid": "928151",
    "final_x": "3692514.49174",
    "final_y": "533509.276868",
    "longitude": "-90.03321939375726",
    "latitude": "29.960626476720417",
    "geocoded_column": {
      "latitude": "29.960626476720417",
      "longitude": "-90.03321939375726"
    }
  },
  {
    "service_request": "2022-928150",
    "request_type": "Property Maintenance",
    "request_reason": "Property Maintenance",
    "date_created": "2022-10-12T16:51:10.000",
    "date_modified": "2022-10-12T16:51:10.000",
    "request_status": "Pending",
    "responsible_agency": "Department of Code Enforcement",
    "final_address": "3031 First St",
    "address_councildis": "B",
    "status": "Pending",
    "rowid": "928150",
    "final_x": "3674047.1755",
    "final_y": "527718.792063",
    "longitude": "-90.0917337539374",
    "latitude": "29.94526780043477",
    "geocoded_column": {
      "latitude": "29.94526780043477",
      "longitude": "-90.0917337539374"
    }
  },
  {
    "service_request": "2022-928149",
    "request_type": "Abandoned Vehicles",
    "request_reason": "Abandoned/Junk Vehicles",
    "date_created": "2022-10-12T16:50:51.000",
    "date_modified": "2022-10-12T16:50:51.000",
    "request_status": "Pending",
    "responsible_agency": "Department of Public Works",
    "final_address": "9200 Colapissa St",
    "address_councildis": "A",
    "status": "Pending",
    "rowid": "928149",
    "final_x": "3663620.36352",
    "final_y": "536002.728583",
    "longitude": "-90.12437869229288",
    "latitude": "29.968352477628024",
    "geocoded_column": {
      "latitude": "29.968352477628024",
      "longitude": "-90.12437869229288"
    }
  },
  {
    "service_request": "2022-928147",
    "request_type": "Trash/Recycling",
    "request_reason": "Request a Large Item Pick Up",
    "date_created": "2022-10-12T16:49:14.000",
    "date_modified": "2022-10-12T16:49:14.000",
    "request_status": "Pending",
    "responsible_agency": "Department of Sanitation",
    "final_address": "309 Bellaire Dr",
    "address_councildis": "A",
    "status": "Assigned to Contractor",
    "contractor": "Metro Disposal",
    "rowid": "928147",
    "final_x": "3664009.22765",
    "final_y": "541602.248524",
    "longitude": "-90.12296384128376",
    "latitude": "29.98373800671199",
    "geocoded_column": {
      "latitude": "29.98373800671199",
      "longitude": "-90.12296384128376"
    }
  },
  {
    "service_request": "2022-928146",
    "request_type": "Abandoned Vehicles",
    "request_reason": "Abandoned/Junk Vehicles",
    "date_created": "2022-10-12T16:48:48.000",
    "date_modified": "2022-10-12T16:48:48.000",
    "request_status": "Pending",
    "responsible_agency": "Department of Public Works",
    "final_address": "9200 Colapissa St",
    "address_councildis": "A",
    "status": "Pending",
    "rowid": "928146",
    "final_x": "3663620.36352",
    "final_y": "536002.728583",
    "longitude": "-90.12437869229288",
    "latitude": "29.968352477628024",
    "geocoded_column": {
      "latitude": "29.968352477628024",
      "longitude": "-90.12437869229288"
    }
  },
  {
    "service_request": "2022-928145",
    "request_type": "Trash/Recycling",
    "request_reason": "Request a Large Item Pick Up",
    "date_created": "2022-10-12T16:47:27.000",
    "date_modified": "2022-10-12T16:47:28.000",
    "request_status": "Pending",
    "responsible_agency": "Department of Sanitation",
    "final_address": "1129 N Villere St",
    "address_councildis": "C",
    "status": "Assigned to Contractor",
    "contractor": "Richards Disposal",
    "rowid": "928145",
    "final_x": "3681333.49621",
    "final_y": "535580.10279",
    "longitude": "-90.0684545581027",
    "latitude": "29.96666463497064",
    "geocoded_column": {
      "latitude": "29.96666463497064",
      "longitude": "-90.0684545581027"
    }
  },
  {
    "service_request": "2022-928144",
    "request_type": "Trash/Recycling",
    "request_reason": "Order Trash Cart",
    "date_created": "2022-10-12T16:46:55.000",
    "date_modified": "2022-10-12T16:46:56.000",
    "request_status": "Pending",
    "responsible_agency": "Department of Sanitation",
    "final_address": "309 Bellaire Dr",
    "address_councildis": "A",
    "status": "Assigned to Contractor",
    "contractor": "Metro Disposal",
    "rowid": "928144",
    "final_x": "3664009.22765",
    "final_y": "541602.248524",
    "longitude": "-90.12296384128376",
    "latitude": "29.98373800671199",
    "geocoded_column": {
      "latitude": "29.98373800671199",
      "longitude": "-90.12296384128376"
    }
  },
  {
    "service_request": "2022-928143",
    "request_type": "Trash/Recycling",
    "request_reason": "Order Trash Cart",
    "date_created": "2022-10-12T16:44:46.000",
    "date_modified": "2022-10-12T18:30:44.000",
    "request_status": "Pending",
    "responsible_agency": "Department of Sanitation",
    "final_address": "845 Pontalba St",
    "address_councildis": "A",
    "contractor": "Metro Disposal",
    "rowid": "928143",
    "final_x": "3669099.22362",
    "final_y": "544419.198159",
    "longitude": "-90.10679162778186",
    "latitude": "29.991334835089173",
    "geocoded_column": {
      "latitude": "29.991334835089173",
      "longitude": "-90.10679162778186"
    }
  },
  {
    "service_request": "2022-928142",
    "request_type": "Roads/Drainage",
    "request_reason": "Accessibility Ramps, Curbs and Sidewalk Repair",
    "date_created": "2022-10-12T16:43:37.000",
    "date_modified": "2022-10-12T16:43:37.000",
    "request_status": "Pending",
    "responsible_agency": "Department of Public Works",
    "final_address": "8721 Belfast St",
    "address_councildis": "A",
    "status": "Pending",
    "rowid": "928142",
    "final_x": "3663905.61197",
    "final_y": "533948.355909",
    "longitude": "-90.12354635908999",
    "latitude": "29.9626953492948",
    "geocoded_column": {
      "latitude": "29.9626953492948",
      "longitude": "-90.12354635908999"
    }
  },
  {
    "service_request": "2022-928141",
    "request_type": "Traffic Signals/Signs/Striping/Streetlights",
    "request_reason": "Street Light Outage/Malfunction",
    "date_created": "2022-10-12T16:43:29.000",
    "date_modified": "2022-10-12T16:43:30.000",
    "request_status": "Pending",
    "responsible_agency": "Department of Public Works",
    "final_address": "2060 Mirabeau Ave",
    "address_councildis": "D",
    "status": "Pending",
    "contractor": "Legacy Professional Services",
    "rowid": "928141",
    "final_x": "3682928.00898",
    "final_y": "550549.8253",
    "longitude": "-90.06289495497816",
    "latitude": "30.00777759411963",
    "geocoded_column": {
      "latitude": "30.00777759411963",
      "longitude": "-90.06289495497816"
    }
  },
  {
    "service_request": "2022-928140",
    "request_type": "Trash/Recycling",
    "request_reason": "Order Trash Cart",
    "date_created": "2022-10-12T16:40:43.000",
    "date_modified": "2022-10-12T16:40:44.000",
    "request_status": "Pending",
    "responsible_agency": "Department of Sanitation",
    "final_address": "5451 Burgundy St",
    "address_councildis": "E",
    "status": "Assigned to Contractor",
    "contractor": "Metro Disposal",
    "rowid": "928140",
    "final_x": "3697338.44701",
    "final_y": "533148.478916",
    "longitude": "-90.0179994609195",
    "latitude": "29.95948302765272",
    "geocoded_column": {
      "latitude": "29.95948302765272",
      "longitude": "-90.0179994609195"
    }
  },
  {
    "service_request": "2022-928139",
    "request_type": "Trash/Recycling",
    "request_reason": "Missed Trash Pick-Up",
    "date_created": "2022-10-12T16:39:45.000",
    "date_modified": "2022-10-12T16:39:46.000",
    "request_status": "Pending",
    "responsible_agency": "Department of Sanitation",
    "final_address": "7700 Sycamore St",
    "address_councildis": "A",
    "status": "Assigned to Contractor",
    "contractor": "Richards Disposal",
    "rowid": "928139",
    "final_x": "3665355.29293",
    "final_y": "529972.510849",
    "longitude": "-90.11910148535156",
    "latitude": "29.951720907934703",
    "geocoded_column": {
      "latitude": "29.951720907934703",
      "longitude": "-90.11910148535156"
    }
  },
  {
    "service_request": "2022-928138",
    "request_type": "Trash/Recycling",
    "request_reason": "Request a Large Item Pick Up",
    "date_created": "2022-10-12T16:39:33.000",
    "date_modified": "2022-10-12T16:39:33.000",
    "request_status": "Pending",
    "responsible_agency": "Department of Sanitation",
    "final_address": "1715 Pratt Dr",
    "address_councildis": "D",
    "status": "Assigned to Contractor",
    "contractor": "Metro Disposal",
    "rowid": "928138",
    "final_x": "3680133.5085",
    "final_y": "549212.283347",
    "longitude": "-90.07177012860228",
    "latitude": "30.004184731199924",
    "geocoded_column": {
      "latitude": "30.004184731199924",
      "longitude": "-90.07177012860228"
    }
  },
  {
    "service_request": "2022-928137",
    "request_type": "Trash/Recycling",
    "request_reason": "Order Trash Cart",
    "date_created": "2022-10-12T16:37:13.000",
    "date_modified": "2022-10-12T16:37:14.000",
    "request_status": "Pending",
    "responsible_agency": "Department of Sanitation",
    "final_address": "5451 Burgundy St",
    "address_councildis": "E",
    "status": "Assigned to Contractor",
    "contractor": "Metro Disposal",
    "rowid": "928137",
    "final_x": "3697338.44701",
    "final_y": "533148.478916",
    "longitude": "-90.0179994609195",
    "latitude": "29.95948302765272",
    "geocoded_column": {
      "latitude": "29.95948302765272",
      "longitude": "-90.0179994609195"
    }
  },
  {
    "service_request": "2022-928136",
    "request_type": "Abandoned Vehicles",
    "request_reason": "Abandoned/Junk Vehicles",
    "date_created": "2022-10-12T16:36:12.000",
    "date_modified": "2022-10-12T16:36:12.000",
    "request_status": "Pending",
    "responsible_agency": "Department of Public Works",
    "final_address": "1130 Tchoupitoulas St",
    "address_councildis": "B",
    "status": "Pending",
    "rowid": "928136",
    "final_x": "3681931.0836",
    "final_y": "525838.856509",
    "longitude": "-90.06690738444395",
    "latitude": "29.939861354008883",
    "geocoded_column": {
      "latitude": "29.939861354008883",
      "longitude": "-90.06690738444395"
    }
  },
  {
    "service_request": "2022-928135",
    "request_type": "Trash/Recycling",
    "request_reason": "Illegal Dumping",
    "date_created": "2022-10-12T16:30:02.000",
    "date_modified": "2022-10-12T16:30:02.000",
    "request_status": "Pending",
    "responsible_agency": "Department of Sanitation",
    "final_address": "3017 First St",
    "address_councildis": "B",
    "status": "Pending",
    "rowid": "928135",
    "final_x": "3674096.50856",
    "final_y": "527637.854719",
    "longitude": "-90.09158076297514",
    "latitude": "29.945043779417926",
    "geocoded_column": {
      "latitude": "29.945043779417926",
      "longitude": "-90.09158076297514"
    }
  },
  {
    "service_request": "2022-928134",
    "request_type": "Traffic Signals/Signs/Striping/Streetlights",
    "request_reason": "Street Light Outage/Malfunction",
    "date_created": "2022-10-12T16:27:24.000",
    "date_modified": "2022-10-12T16:27:25.000",
    "request_status": "Pending",
    "responsible_agency": "Department of Public Works",
    "final_address": "6368 Pandora St",
    "address_councildis": "D",
    "status": "Pending",
    "contractor": "Legacy Professional Services",
    "rowid": "928134",
    "final_x": "3697236.47991",
    "final_y": "557413.826587",
    "longitude": "-90.01744148985628",
    "latitude": "30.02620703248278",
    "geocoded_column": {
      "latitude": "30.02620703248278",
      "longitude": "-90.01744148985628"
    }
  },
  {
    "service_request": "2022-928133",
    "request_type": "Traffic Signals/Signs/Striping/Streetlights",
    "request_reason": "Street Light Outage/Malfunction",
    "date_created": "2022-10-12T16:26:12.000",
    "date_modified": "2022-10-12T16:26:51.000",
    "request_status": "Pending",
    "responsible_agency": "Department of Public Works",
    "final_address": "6368 Pandora St",
    "address_councildis": "D",
    "status": "Pending",
    "contractor": "Legacy Professional Services",
    "rowid": "928133",
    "final_x": "3697236.47991",
    "final_y": "557413.826587",
    "longitude": "-90.01744148985628",
    "latitude": "30.02620703248278",
    "geocoded_column": {
      "latitude": "30.02620703248278",
      "longitude": "-90.01744148985628"
    }
  },
  {
    "service_request": "2022-928132",
    "request_type": "Trash/Recycling",
    "request_reason": "Return Recycling Cart",
    "date_created": "2022-10-12T16:25:16.000",
    "date_modified": "2022-10-12T16:25:16.000",
    "request_status": "Pending",
    "responsible_agency": "Department of Sanitation",
    "final_address": "3631 Clermont Dr",
    "address_councildis": "D",
    "status": "Pending",
    "rowid": "928132",
    "final_x": "3685876.17705",
    "final_y": "545904.418384",
    "longitude": "-90.05374473385827",
    "latitude": "29.99491419473237",
    "geocoded_column": {
      "latitude": "29.99491419473237",
      "longitude": "-90.05374473385827"
    }
  },
  {
    "service_request": "2022-928131",
    "request_type": "Trash/Recycling",
    "request_reason": "Repair Trash Cart",
    "date_created": "2022-10-12T16:23:00.000",
    "date_modified": "2022-10-12T16:23:01.000",
    "request_status": "Pending",
    "responsible_agency": "Department of Sanitation",
    "final_address": "4971 Rhodes Dr",
    "address_councildis": "E",
    "status": "Assigned to Contractor",
    "contractor": "Metro Disposal",
    "rowid": "928131",
    "final_x": "3702448.8218",
    "final_y": "555657.969689",
    "longitude": "-90.00103575126572",
    "latitude": "30.021213482479396",
    "geocoded_column": {
      "latitude": "30.021213482479396",
      "longitude": "-90.00103575126572"
    }
  },
  {
    "service_request": "2022-928130",
    "request_type": "Traffic Signals/Signs/Striping/Streetlights",
    "request_reason": "Street Name Sign Damaged or Missing",
    "date_created": "2022-10-12T16:21:29.000",
    "date_modified": "2022-10-12T16:21:29.000",
    "request_status": "Pending",
    "responsible_agency": "Department of Public Works",
    "final_address": "7500 Dune Dr",
    "address_councildis": "E",
    "status": "Pending",
    "rowid": "928130",
    "final_x": "3715723.32696",
    "final_y": "568443.737253",
    "longitude": "-89.95860781765694",
    "latitude": "30.055938107488632",
    "geocoded_column": {
      "latitude": "30.055938107488632",
      "longitude": "-89.95860781765694"
    }
  },
  {
    "service_request": "2022-928129",
    "request_type": "Property Maintenance",
    "request_reason": "Property Maintenance",
    "date_created": "2022-10-12T16:18:13.000",
    "date_modified": "2022-10-12T16:18:14.000",
    "request_status": "Pending",
    "responsible_agency": "Department of Code Enforcement",
    "final_address": "4535 Baronne St",
    "address_councildis": "B",
    "status": "Pending",
    "rowid": "928129",
    "final_x": "3670084.73185",
    "final_y": "521580.838457",
    "longitude": "-90.10445231564991",
    "latitude": "29.928507873503527",
    "geocoded_column": {
      "latitude": "29.928507873503527",
      "longitude": "-90.10445231564991"
    }
  },
  {
    "service_request": "2022-928128",
    "request_type": "Roads/Drainage",
    "request_reason": "Catch Basin - Broken/Damage",
    "date_created": "2022-10-12T16:11:53.000",
    "date_modified": "2022-10-12T16:11:53.000",
    "request_status": "Pending",
    "responsible_agency": "Department of Public Works",
    "final_address": "3023 First St",
    "address_councildis": "B",
    "status": "Pending",
    "rowid": "928128",
    "final_x": "3674078.00878",
    "final_y": "527670.229567",
    "longitude": "-90.09163806490706",
    "latitude": "29.945133350847698",
    "geocoded_column": {
      "latitude": "29.945133350847698",
      "longitude": "-90.09163806490706"
    }
  },
  {
    "service_request": "2022-928127",
    "request_type": "Trash/Recycling",
    "request_reason": "Replace Trash Cart",
    "date_created": "2022-10-12T16:11:48.000",
    "date_modified": "2022-10-12T16:11:48.000",
    "request_status": "Pending",
    "responsible_agency": "Department of Sanitation",
    "final_address": "4475 Arts St",
    "address_councildis": "D",
    "status": "Assigned to Contractor",
    "contractor": "Metro Disposal",
    "rowid": "928127",
    "final_x": "3686047.82063",
    "final_y": "549498.420051",
    "longitude": "-90.05307568369992",
    "latitude": "30.00479113121108",
    "geocoded_column": {
      "latitude": "30.00479113121108",
      "longitude": "-90.05307568369992"
    }
  },
  {
    "service_request": "2022-928126",
    "request_type": "Trash/Recycling",
    "request_reason": "Repair Trash Cart",
    "date_created": "2022-10-12T16:10:43.000",
    "date_modified": "2022-10-12T16:10:44.000",
    "request_status": "Pending",
    "responsible_agency": "Department of Sanitation",
    "final_address": "6422 Memphis St",
    "address_councildis": "A",
    "status": "Assigned to Contractor",
    "contractor": "Metro Disposal",
    "rowid": "928126",
    "final_x": "3669368.32206",
    "final_y": "550190.088148",
    "longitude": "-90.10574630958378",
    "latitude": "30.007194858866978",
    "geocoded_column": {
      "latitude": "30.007194858866978",
      "longitude": "-90.10574630958378"
    }
  },
  {
    "service_request": "2022-928125",
    "request_type": "Trash/Recycling",
    "request_reason": "MIssed Recycling Pick-Up",
    "date_created": "2022-10-12T16:10:27.000",
    "date_modified": "2022-10-12T16:10:28.000",
    "request_status": "Pending",
    "responsible_agency": "Department of Sanitation",
    "final_address": "1926 Washington Ave",
    "address_councildis": "B",
    "status": "Assigned to Contractor",
    "contractor": "Richards Disposal",
    "rowid": "928125",
    "final_x": "3675163.64309",
    "final_y": "523605.399675",
    "longitude": "-90.0883498182861",
    "latitude": "29.933924007944164",
    "geocoded_column": {
      "latitude": "29.933924007944164",
      "longitude": "-90.0883498182861"
    }
  },
  {
    "service_request": "2022-928124",
    "request_type": "Traffic Signals/Signs/Striping/Streetlights",
    "request_reason": "Street Light Outage/Malfunction",
    "date_created": "2022-10-12T16:09:43.000",
    "date_modified": "2022-10-12T16:09:44.000",
    "request_status": "Pending",
    "responsible_agency": "Department of Public Works",
    "final_address": "1491 Filmore Ave",
    "address_councildis": "D",
    "status": "Pending",
    "contractor": "Legacy Professional Services",
    "rowid": "928124",
    "final_x": "3678476.01627",
    "final_y": "551953.758742",
    "longitude": "-90.07691148159748",
    "latitude": "30.01177288130767",
    "geocoded_column": {
      "latitude": "30.01177288130767",
      "longitude": "-90.07691148159748"
    }
  },
  {
    "service_request": "2022-928123",
    "request_type": "Trash/Recycling",
    "request_reason": "Repair Trash Cart",
    "date_created": "2022-10-12T16:05:54.000",
    "date_modified": "2022-10-12T16:05:55.000",
    "request_status": "Pending",
    "responsible_agency": "Department of Sanitation",
    "final_address": "3008 Baudin St",
    "address_councildis": "B",
    "status": "Assigned to Contractor",
    "contractor": "Richards Disposal",
    "rowid": "928123",
    "final_x": "3673281.3515",
    "final_y": "534613.402822",
    "longitude": "-90.09391624447242",
    "latitude": "29.964248486155807",
    "geocoded_column": {
      "latitude": "29.964248486155807",
      "longitude": "-90.09391624447242"
    }
  },
  {
    "service_request": "2022-928122",
    "request_type": "Property Maintenance",
    "request_reason": "Property Maintenance",
    "date_created": "2022-10-12T15:57:15.000",
    "date_modified": "2022-10-12T15:57:15.000",
    "request_status": "Pending",
    "responsible_agency": "Department of Code Enforcement",
    "final_address": "2429 Upperline St",
    "address_councildis": "B",
    "status": "Pending",
    "rowid": "928122",
    "final_x": "3669202.2258",
    "final_y": "523777.624955",
    "longitude": "-90.10716399734105",
    "latitude": "29.93457432850114",
    "geocoded_column": {
      "latitude": "29.93457432850114",
      "longitude": "-90.10716399734105"
    }
  },
  {
    "service_request": "2022-928121",
    "request_type": "Trash/Recycling",
    "request_reason": "Order Trash Cart",
    "date_created": "2022-10-12T15:55:38.000",
    "date_modified": "2022-10-12T15:55:39.000",
    "request_status": "Pending",
    "responsible_agency": "Department of Sanitation",
    "final_address": "408 Walnut St",
    "address_councildis": "A",
    "status": "Assigned to Contractor",
    "contractor": "Richards Disposal",
    "rowid": "928121",
    "final_x": "3662353.34963",
    "final_y": "522848.120187",
    "longitude": "-90.12881670421544",
    "latitude": "29.932218230623356",
    "geocoded_column": {
      "latitude": "29.932218230623356",
      "longitude": "-90.12881670421544"
    }
  },
  {
    "service_request": "2022-928119",
    "request_type": "Property Maintenance",
    "request_reason": "Property Maintenance",
    "date_created": "2022-10-12T15:50:13.000",
    "date_modified": "2022-10-12T15:50:14.000",
    "request_status": "Pending",
    "responsible_agency": "Department of Code Enforcement",
    "final_address": "4619 S Claiborne Ave",
    "address_councildis": "B",
    "status": "Pending",
    "rowid": "928119",
    "final_x": "3669404.21319",
    "final_y": "525924.372221",
    "longitude": "-90.10645376013751",
    "latitude": "29.940471246547833",
    "geocoded_column": {
      "latitude": "29.940471246547833",
      "longitude": "-90.10645376013751"
    }
  },
  {
    "service_request": "2022-928118",
    "request_type": "Trash/Recycling",
    "request_reason": "Missed Trash Pick-Up",
    "date_created": "2022-10-12T15:47:52.000",
    "date_modified": "2022-10-12T15:47:52.000",
    "request_status": "Pending",
    "responsible_agency": "Department of Sanitation",
    "final_address": "2809 Octavia St",
    "address_councildis": "A",
    "status": "Assigned to Contractor",
    "contractor": "Richards Disposal",
    "rowid": "928118",
    "final_x": "3668013.50362",
    "final_y": "525771.571133",
    "longitude": "-90.11084962066434",
    "latitude": "29.940091963979494",
    "geocoded_column": {
      "latitude": "29.940091963979494",
      "longitude": "-90.11084962066434"
    }
  },
  {
    "service_request": "2022-928117",
    "request_type": "Trash/Recycling",
    "request_reason": "Illegal Dumping",
    "date_created": "2022-10-12T15:46:56.000",
    "date_modified": "2022-10-12T15:46:56.000",
    "request_status": "Pending",
    "responsible_agency": "Department of Code Enforcement",
    "final_address": "4219 N Claiborne Ave",
    "address_councildis": "D",
    "status": "Pending",
    "rowid": "928117",
    "final_x": "3693026.99401",
    "final_y": "537022.488136",
    "longitude": "-90.03147497410414",
    "latitude": "29.97027056918445",
    "geocoded_column": {
      "latitude": "29.97027056918445",
      "longitude": "-90.03147497410414"
    }
  },
  {
    "service_request": "2022-928116",
    "request_type": "Traffic Signals/Signs/Striping/Streetlights",
    "request_reason": "Traffic Sign Missing/Damaged",
    "date_created": "2022-10-12T15:43:46.000",
    "date_modified": "2022-10-12T15:43:46.000",
    "request_status": "Pending",
    "responsible_agency": "Department of Public Works",
    "final_address": "8004 Belfast St",
    "address_councildis": "A",
    "status": "Pending",
    "rowid": "928116",
    "final_x": "3665845.38746",
    "final_y": "532028.569347",
    "longitude": "-90.11748510867781",
    "latitude": "29.957360109386986",
    "geocoded_column": {
      "latitude": "29.957360109386986",
      "longitude": "-90.11748510867781"
    }
  },
  {
    "service_request": "2022-928114",
    "request_type": "Trash/Recycling",
    "request_reason": "Missed Trash Pick-Up",
    "date_created": "2022-10-12T15:40:24.000",
    "date_modified": "2022-10-12T15:40:25.000",
    "request_status": "Pending",
    "responsible_agency": "Department of Sanitation",
    "final_address": "6030 Marshal Foch St",
    "address_councildis": "A",
    "status": "Assigned to Contractor",
    "contractor": "Metro Disposal",
    "rowid": "928114",
    "final_x": "3669759.33428",
    "final_y": "547444.382481",
    "longitude": "-90.10460400985929",
    "latitude": "29.999633601498655",
    "geocoded_column": {
      "latitude": "29.999633601498655",
      "longitude": "-90.10460400985929"
    }
  },
  {
    "service_request": "2022-928113",
    "request_type": "Roads/Drainage",
    "request_reason": "Alley Way",
    "date_created": "2022-10-12T15:38:19.000",
    "date_modified": "2022-10-12T15:38:19.000",
    "request_status": "Pending",
    "responsible_agency": "Department of Public Works",
    "final_address": "1528 Westbrook Dr",
    "address_councildis": "D",
    "status": "Pending",
    "rowid": "928113",
    "final_x": "3679054.02447",
    "final_y": "549468.643155",
    "longitude": "-90.0751715216808",
    "latitude": "30.00492226466874",
    "geocoded_column": {
      "latitude": "30.00492226466874",
      "longitude": "-90.0751715216808"
    }
  },
  {
    "service_request": "2022-928112",
    "request_type": "Trash/Recycling",
    "request_reason": "Replace Trash Cart",
    "date_created": "2022-10-12T15:33:22.000",
    "date_modified": "2022-10-12T15:33:23.000",
    "request_status": "Pending",
    "responsible_agency": "Department of Sanitation",
    "final_address": "4601 New Orleans St",
    "address_councildis": "D",
    "status": "Assigned to Contractor",
    "contractor": "Metro Disposal",
    "rowid": "928112",
    "final_x": "3681388.96143",
    "final_y": "549401.707859",
    "longitude": "-90.06779731851293",
    "latitude": "30.00466751408534",
    "geocoded_column": {
      "latitude": "30.00466751408534",
      "longitude": "-90.06779731851293"
    }
  },
  {
    "service_request": "2022-928111",
    "request_type": "Parks & Parkways",
    "request_reason": "Request Tree Service (Right of Way/Public Property)",
    "date_created": "2022-10-12T15:32:13.000",
    "date_modified": "2022-10-12T16:01:09.000",
    "case_close_date": "2022-10-12T11:01:09.000",
    "request_status": "Closed",
    "responsible_agency": "Department of Parks & Parkway",
    "final_address": "7830 Belfast St",
    "address_councildis": "A",
    "status": "Duplicate Request",
    "rowid": "928111",
    "final_x": "3666203.56583",
    "final_y": "531742.725507",
    "longitude": "-90.11636367126022",
    "latitude": "29.956563677024693",
    "geocoded_column": {
      "latitude": "29.956563677024693",
      "longitude": "-90.11636367126022"
    }
  },
  {
    "service_request": "2022-928110",
    "request_type": "Trash/Recycling",
    "request_reason": "MIssed Recycling Pick-Up",
    "date_created": "2022-10-12T15:25:49.000",
    "date_modified": "2022-10-12T15:25:50.000",
    "request_status": "Pending",
    "responsible_agency": "Department of Sanitation",
    "final_address": "1132 Merrill St",
    "address_councildis": "C",
    "status": "Assigned to Contractor",
    "contractor": "Richards Disposal",
    "rowid": "928110",
    "final_x": "3695023.62877",
    "final_y": "527778.731199",
    "longitude": "-90.02550261532149",
    "latitude": "29.944790958838567",
    "geocoded_column": {
      "latitude": "29.944790958838567",
      "longitude": "-90.02550261532149"
    }
  },
  {
    "service_request": "2022-928109",
    "request_type": "Trash/Recycling",
    "request_reason": "Replace Trash Cart",
    "date_created": "2022-10-12T15:25:23.000",
    "date_modified": "2022-10-12T15:25:24.000",
    "request_status": "Pending",
    "responsible_agency": "Department of Sanitation",
    "final_address": "4037 Ulloa St",
    "address_councildis": "A",
    "status": "Assigned to Contractor",
    "contractor": "Richards Disposal",
    "rowid": "928109",
    "final_x": "3669819.61492",
    "final_y": "536399.998919",
    "longitude": "-90.1047876599315",
    "latitude": "29.96926353446488",
    "geocoded_column": {
      "latitude": "29.96926353446488",
      "longitude": "-90.1047876599315"
    }
  },
  {
    "service_request": "2022-928108",
    "request_type": "Trash/Recycling",
    "request_reason": "Order Trash Cart",
    "date_created": "2022-10-12T15:23:54.000",
    "date_modified": "2022-10-12T15:23:55.000",
    "request_status": "Pending",
    "responsible_agency": "Department of Sanitation",
    "final_address": "5414 Freret St",
    "address_councildis": "A",
    "status": "Assigned to Contractor",
    "contractor": "Richards Disposal",
    "rowid": "928108",
    "final_x": "3667726.93799",
    "final_y": "523951.049404",
    "longitude": "-90.11181562795875",
    "latitude": "29.935094517232233",
    "geocoded_column": {
      "latitude": "29.935094517232233",
      "longitude": "-90.11181562795875"
    }
  },
  {
    "service_request": "2022-928107",
    "request_type": "Parks & Parkways",
    "request_reason": "Tree Stump (removal, grind)",
    "date_created": "2022-10-12T15:22:41.000",
    "date_modified": "2022-10-12T15:48:35.000",
    "case_close_date": "2022-10-12T10:48:35.000",
    "request_status": "Closed",
    "responsible_agency": "Department of Parks & Parkway",
    "final_address": "4560 Francis Dr",
    "address_councildis": "D",
    "status": "Resolved",
    "rowid": "928107",
    "final_x": "3698280.84547",
    "final_y": "553385.087511",
    "longitude": "-90.01428798677428",
    "latitude": "30.015096512488388",
    "geocoded_column": {
      "latitude": "30.015096512488388",
      "longitude": "-90.01428798677428"
    }
  },
  {
    "service_request": "2022-928106",
    "request_type": "Trash/Recycling",
    "request_reason": "Repair Trash Cart",
    "date_created": "2022-10-12T15:19:02.000",
    "date_modified": "2022-10-12T15:19:03.000",
    "request_status": "Pending",
    "responsible_agency": "Department of Sanitation",
    "final_address": "1209 S Genois St",
    "address_councildis": "B",
    "status": "Assigned to Contractor",
    "contractor": "Richards Disposal",
    "rowid": "928106",
    "final_x": "3669390.3835",
    "final_y": "532736.669636",
    "longitude": "-90.10626710105068",
    "latitude": "29.959203244249615",
    "geocoded_column": {
      "latitude": "29.959203244249615",
      "longitude": "-90.10626710105068"
    }
  },
  {
    "service_request": "2022-928105",
    "request_type": "Trash/Recycling",
    "request_reason": "Repair Recycling Cart",
    "date_created": "2022-10-12T15:17:47.000",
    "date_modified": "2022-10-12T15:17:47.000",
    "request_status": "Pending",
    "responsible_agency": "Department of Sanitation",
    "final_address": "4600 S Tonti St",
    "address_councildis": "B",
    "status": "Pending",
    "rowid": "928105",
    "final_x": "3669348.64372",
    "final_y": "527989.227199",
    "longitude": "-90.1065594070908",
    "latitude": "29.946150563692175",
    "geocoded_column": {
      "latitude": "29.946150563692175",
      "longitude": "-90.1065594070908"
    }
  },
  {
    "service_request": "2022-928104",
    "request_type": "Trash/Recycling",
    "request_reason": "Replace Trash Cart",
    "date_created": "2022-10-12T15:17:32.000",
    "date_modified": "2022-10-12T15:17:32.000",
    "request_status": "Pending",
    "responsible_agency": "Department of Sanitation",
    "final_address": "4558 Francis Dr",
    "address_councildis": "D",
    "status": "Assigned to Contractor",
    "contractor": "Metro Disposal",
    "rowid": "928104",
    "final_x": "3698258.86346",
    "final_y": "553458.642135",
    "longitude": "-90.01435476398579",
    "latitude": "30.015299455686737",
    "geocoded_column": {
      "latitude": "30.015299455686737",
      "longitude": "-90.01435476398579"
    }
  },
  {
    "service_request": "2022-928103",
    "request_type": "Trash/Recycling",
    "request_reason": "Repair Trash Cart",
    "date_created": "2022-10-12T15:15:59.000",
    "date_modified": "2022-10-12T15:16:00.000",
    "request_status": "Pending",
    "responsible_agency": "Department of Sanitation",
    "final_address": "4611 Camelot Dr",
    "address_councildis": "E",
    "status": "Assigned to Contractor",
    "contractor": "Metro Disposal",
    "rowid": "928103",
    "final_x": "3708525.59288",
    "final_y": "554808.097688",
    "longitude": "-89.98186670127134",
    "latitude": "30.018680986886043",
    "geocoded_column": {
      "latitude": "30.018680986886043",
      "longitude": "-89.98186670127134"
    }
  },
  {
    "service_request": "2022-928102",
    "request_type": "Trash/Recycling",
    "request_reason": "Return Trash Cart",
    "date_created": "2022-10-12T15:14:42.000",
    "date_modified": "2022-10-12T15:14:43.000",
    "request_status": "Pending",
    "responsible_agency": "Department of Sanitation",
    "final_address": "3346 Trafalgar St",
    "address_councildis": "A",
    "status": "Assigned to Contractor",
    "contractor": "Metro Disposal",
    "rowid": "928102",
    "final_x": "3677751.58779",
    "final_y": "543145.697741",
    "longitude": "-90.07950476794628",
    "latitude": "29.987575650887152",
    "geocoded_column": {
      "latitude": "29.987575650887152",
      "longitude": "-90.07950476794628"
    }
  },
  {
    "service_request": "2022-928101",
    "request_type": "Trash/Recycling",
    "request_reason": "Repair Trash Cart",
    "date_created": "2022-10-12T15:14:02.000",
    "date_modified": "2022-10-12T15:14:03.000",
    "request_status": "Pending",
    "responsible_agency": "Department of Sanitation",
    "final_address": "7710 Sandpiper Dr",
    "address_councildis": "E",
    "status": "Assigned to Contractor",
    "contractor": "Metro Disposal",
    "rowid": "928101",
    "final_x": "3715649.61816",
    "final_y": "569931.468838",
    "longitude": "-89.958784384936",
    "latitude": "30.06003118679438",
    "geocoded_column": {
      "latitude": "30.06003118679438",
      "longitude": "-89.958784384936"
    }
  },
  {
    "service_request": "2022-928100",
    "request_type": "Roads/Drainage",
    "request_reason": "Catch Basin - Broken/Damage",
    "date_created": "2022-10-12T15:11:56.000",
    "date_modified": "2022-10-12T15:11:56.000",
    "request_status": "Pending",
    "responsible_agency": "Department of Public Works",
    "final_address": "5807 Royal St",
    "address_councildis": "E",
    "status": "Pending",
    "rowid": "928100",
    "final_x": "3698341.88336",
    "final_y": "532118.033411",
    "longitude": "-90.01486830353541",
    "latitude": "29.956617957271405",
    "geocoded_column": {
      "latitude": "29.956617957271405",
      "longitude": "-90.01486830353541"
    }
  },
  {
    "service_request": "2022-928099",
    "request_type": "Roads/Drainage",
    "request_reason": "Leaking Hydrant",
    "date_created": "2022-10-12T15:11:22.000",
    "date_modified": "2022-10-12T15:11:23.000",
    "request_status": "Pending",
    "responsible_agency": "Department of Public Works",
    "final_address": "GENERAL PERSHING ST & LAUREL ST",
    "address_councildis": "B",
    "status": "Pending",
    "rowid": "928099",
    "final_x": "3671530.9",
    "final_y": "518094.48",
    "longitude": "-90.10000552147967",
    "latitude": "29.918878774222197",
    "geocoded_column": {
      "latitude": "29.918878774222197",
      "longitude": "-90.10000552147967"
    }
  },
  {
    "service_request": "2022-928098",
    "request_type": "Abandoned Vehicles",
    "request_reason": "Abandoned/Junk Vehicles",
    "date_created": "2022-10-12T15:08:56.000",
    "date_modified": "2022-10-12T15:13:32.000",
    "request_status": "Pending",
    "responsible_agency": "Department of Public Works",
    "final_address": "2742 Jasmine St",
    "address_councildis": "D",
    "status": "Pending",
    "rowid": "928098",
    "final_x": "3688015.1807",
    "final_y": "548116.639634",
    "longitude": "-90.04690942462837",
    "latitude": "30.000931149664495",
    "geocoded_column": {
      "latitude": "30.000931149664495",
      "longitude": "-90.04690942462837"
    }
  },
  {
    "service_request": "2022-928097",
    "request_type": "Trash/Recycling",
    "request_reason": "Illegal Dumping",
    "date_created": "2022-10-12T15:08:51.000",
    "date_modified": "2022-10-12T15:08:51.000",
    "request_status": "Pending",
    "responsible_agency": "Department of Sanitation",
    "final_address": "8500 Lake Forest Blvd",
    "address_councildis": "E",
    "status": "Pending",
    "rowid": "928097",
    "final_x": "3705935.25847",
    "final_y": "557946.256603",
    "longitude": "-89.98993490824265",
    "latitude": "30.02739345806355",
    "geocoded_column": {
      "latitude": "30.02739345806355",
      "longitude": "-89.98993490824265"
    }
  },
  {
    "service_request": "2022-928096",
    "request_type": "Trash/Recycling",
    "request_reason": "Order Recycling Cart",
    "date_created": "2022-10-12T15:08:41.000",
    "date_modified": "2022-10-12T15:08:41.000",
    "request_status": "Pending",
    "responsible_agency": "Department of Sanitation",
    "final_address": "3027 Sullen Pl",
    "address_councildis": "C",
    "status": "Pending",
    "rowid": "928096",
    "final_x": "3707770.59518",
    "final_y": "519501.337591",
    "longitude": "-89.9855643577684",
    "latitude": "29.921624847092247",
    "geocoded_column": {
      "latitude": "29.921624847092247",
      "longitude": "-89.9855643577684"
    }
  },
  {
    "service_request": "2022-928095",
    "request_type": "Trash/Recycling",
    "request_reason": "Replace Trash Cart",
    "date_created": "2022-10-12T15:07:29.000",
    "date_modified": "2022-10-12T15:07:30.000",
    "request_status": "Pending",
    "responsible_agency": "Department of Sanitation",
    "final_address": "2319 Leonidas St",
    "address_councildis": "A",
    "status": "Assigned to Contractor",
    "contractor": "Richards Disposal",
    "rowid": "928095",
    "final_x": "3663362.88749",
    "final_y": "532493.955972",
    "longitude": "-90.1253086398636",
    "latitude": "29.958711968738967",
    "geocoded_column": {
      "latitude": "29.958711968738967",
      "longitude": "-90.1253086398636"
    }
  },
  {
    "service_request": "2022-928094",
    "request_type": "Property Maintenance",
    "request_reason": "Property Maintenance",
    "date_created": "2022-10-12T15:05:11.000",
    "date_modified": "2022-10-12T15:05:11.000",
    "request_status": "Pending",
    "responsible_agency": "Department of Code Enforcement",
    "final_address": "4841 Alcee Fortier Blvd",
    "address_councildis": "E",
    "status": "Pending",
    "rowid": "928094",
    "final_x": "3730378.06938",
    "final_y": "562708.506848",
    "longitude": "-89.91251234211842",
    "latitude": "30.039677058304385",
    "geocoded_column": {
      "latitude": "30.039677058304385",
      "longitude": "-89.91251234211842"
    }
  },
  {
    "service_request": "2022-928093",
    "request_type": "Safety & Permits",
    "request_reason": "Licenses & Permits",
    "date_created": "2022-10-12T15:01:41.000",
    "date_modified": "2022-10-12T15:01:41.000",
    "request_status": "Pending",
    "responsible_agency": "Safety and Permits",
    "final_address": "816 N Rocheblave St",
    "address_councildis": "D",
    "status": "Pending",
    "rowid": "928093",
    "final_x": "3677853.54344",
    "final_y": "536708.240839",
    "longitude": "-90.07940524303834",
    "latitude": "29.969871798477342",
    "geocoded_column": {
      "latitude": "29.969871798477342",
      "longitude": "-90.07940524303834"
    }
  },
  {
    "service_request": "2022-928092",
    "request_type": "Abandoned Vehicles",
    "request_reason": "Abandoned/Junk Vehicles",
    "date_created": "2022-10-12T14:53:04.000",
    "date_modified": "2022-10-12T14:53:04.000",
    "request_status": "Pending",
    "responsible_agency": "Department of Public Works",
    "final_address": "KENILWORTH ST & GENERAL HAIG ST",
    "address_councildis": "A",
    "status": "Pending",
    "rowid": "928092",
    "final_x": "3670395.7",
    "final_y": "545616.08",
    "longitude": "-90.10265573470208",
    "latitude": "29.99458762440026",
    "geocoded_column": {
      "latitude": "29.99458762440026",
      "longitude": "-90.10265573470208"
    }
  },
  {
    "service_request": "2022-928091",
    "request_type": "Abandoned Vehicles",
    "request_reason": "Abandoned/Junk Vehicles",
    "date_created": "2022-10-12T14:43:10.000",
    "date_modified": "2022-10-12T14:47:02.000",
    "request_status": "Pending",
    "responsible_agency": "Department of Public Works",
    "final_address": "GRAND BAYOU DR & CADDO PL & WILLOWBROOK DR",
    "address_councildis": "E",
    "status": "Pending",
    "rowid": "928091",
    "final_x": "3725891.5",
    "final_y": "564170.88",
    "longitude": "-89.92663432427011",
    "latitude": "30.04385018316804",
    "geocoded_column": {
      "latitude": "30.04385018316804",
      "longitude": "-89.92663432427011"
    }
  },
  {
    "service_request": "2022-928090",
    "request_type": "Roads/Drainage",
    "request_reason": "Catch Basin - Clogged",
    "date_created": "2022-10-12T14:39:43.000",
    "date_modified": "2022-10-12T14:39:43.000",
    "request_status": "Pending",
    "responsible_agency": "Department of Public Works",
    "final_address": "210 Baronne St",
    "address_councildis": "B",
    "status": "Pending",
    "rowid": "928090",
    "final_x": "3680240.2836",
    "final_y": "530605.158914",
    "longitude": "-90.0720798481",
    "latitude": "29.953018366512932",
    "geocoded_column": {
      "latitude": "29.953018366512932",
      "longitude": "-90.0720798481"
    }
  },
  {
    "service_request": "2022-928089",
    "request_type": "Trash/Recycling",
    "request_reason": "Request a Large Item Pick Up",
    "date_created": "2022-10-12T14:36:11.000",
    "date_modified": "2022-10-12T14:36:12.000",
    "request_status": "Pending",
    "responsible_agency": "Department of Sanitation",
    "final_address": "3634 First St",
    "address_councildis": "B",
    "status": "Assigned to Contractor",
    "contractor": "Richards Disposal",
    "rowid": "928089",
    "final_x": "3672876.51969",
    "final_y": "529297.896321",
    "longitude": "-90.09537602612716",
    "latitude": "29.949644645097365",
    "geocoded_column": {
      "latitude": "29.949644645097365",
      "longitude": "-90.09537602612716"
    }
  },
  {
    "service_request": "2022-928088",
    "request_type": "Trash/Recycling",
    "request_reason": "Illegal Dumping",
    "date_created": "2022-10-12T14:21:39.000",
    "date_modified": "2022-10-12T14:21:39.000",
    "request_status": "Pending",
    "responsible_agency": "Department of Sanitation",
    "final_address": "2700 BLK S Derbigny St",
    "address_councildis": "B",
    "status": "Pending",
    "rowid": "928088",
    "final_x": "3673067.3474",
    "final_y": "527130.062982",
    "longitude": "-90.09484747784998",
    "latitude": "29.943678145751193",
    "geocoded_column": {
      "latitude": "29.943678145751193",
      "longitude": "-90.09484747784998"
    }
  },
  {
    "service_request": "2022-928087",
    "request_type": "Traffic Signals/Signs/Striping/Streetlights",
    "request_reason": "Street Light Outage/Malfunction",
    "date_created": "2022-10-12T14:17:35.000",
    "date_modified": "2022-10-12T14:17:35.000",
    "request_status": "Pending",
    "responsible_agency": "Department of Public Works",
    "final_address": "460 Broadway St",
    "address_councildis": "A",
    "status": "Pending",
    "contractor": "Legacy Professional Services",
    "rowid": "928087",
    "final_x": "3662258.61837",
    "final_y": "523806.016187",
    "longitude": "-90.12908398179272",
    "latitude": "29.934854880580396",
    "geocoded_column": {
      "latitude": "29.934854880580396",
      "longitude": "-90.12908398179272"
    }
  },
  {
    "service_request": "2022-928086",
    "request_type": "Property Maintenance",
    "request_reason": "Property Maintenance",
    "date_created": "2022-10-12T14:17:02.000",
    "date_modified": "2022-10-12T14:17:18.000",
    "request_status": "Pending",
    "responsible_agency": "Department of Code Enforcement",
    "final_address": "2515 N Robertson St Apt 402",
    "address_councildis": "C",
    "rowid": "928086",
    "final_x": "3687398.14351",
    "final_y": "538039.738569",
    "longitude": "-90.04921544164914",
    "latitude": "29.973242298784907",
    "geocoded_column": {
      "latitude": "29.973242298784907",
      "longitude": "-90.04921544164914"
    }
  },
  {
    "service_request": "2022-928085",
    "request_type": "Traffic Signals/Signs/Striping/Streetlights",
    "request_reason": "Street Light Outage/Malfunction",
    "date_created": "2022-10-12T14:14:18.000",
    "date_modified": "2022-10-12T14:44:36.000",
    "request_status": "Pending",
    "responsible_agency": "Department of Public Works",
    "final_address": "2 Five Oaks Dr",
    "address_councildis": "C",
    "status": "Pending",
    "contractor": "Legacy Professional Services",
    "rowid": "928085",
    "final_x": "3699235.93706",
    "final_y": "526320.835134",
    "longitude": "-90.01225624127927",
    "latitude": "29.940649383287365",
    "geocoded_column": {
      "latitude": "29.940649383287365",
      "longitude": "-90.01225624127927"
    }
  },
  {
    "service_request": "2022-928084",
    "request_type": "Roads/Drainage",
    "request_reason": "Pothole",
    "date_created": "2022-10-12T14:14:00.000",
    "date_modified": "2022-10-12T14:46:43.000",
    "case_close_date": "2022-10-12T09:46:43.000",
    "request_status": "Closed",
    "responsible_agency": "Department of Public Works",
    "final_address": "4600 St Charles Ave",
    "address_councildis": "B",
    "status": "Question Answered",
    "rowid": "928084",
    "final_x": "3670036.8329",
    "final_y": "520679.569337",
    "longitude": "-90.1046340313551",
    "latitude": "29.9260310834917",
    "geocoded_column": {
      "latitude": "29.9260310834917",
      "longitude": "-90.1046340313551"
    }
  },
  {
    "service_request": "2022-928083",
    "request_type": "Trash/Recycling",
    "request_reason": "Illegal Dumping",
    "date_created": "2022-10-12T14:13:30.000",
    "date_modified": "2022-10-12T14:13:31.000",
    "request_status": "Pending",
    "responsible_agency": "Department of Sanitation",
    "final_address": "N CLAIBORNE AVE & N ROBERTSON ST & MARIGNY ST",
    "address_councildis": "C",
    "status": "Pending",
    "rowid": "928083",
    "final_x": "3685303.0",
    "final_y": "537808.68",
    "longitude": "-90.05584045049869",
    "latitude": "29.97267136339053",
    "geocoded_column": {
      "latitude": "29.97267136339053",
      "longitude": "-90.05584045049869"
    }
  },
  {
    "service_request": "2022-928082",
    "request_type": "Property Maintenance",
    "request_reason": "Property Maintenance",
    "date_created": "2022-10-12T14:08:03.000",
    "date_modified": "2022-10-12T14:08:03.000",
    "request_status": "Pending",
    "responsible_agency": "Department of Code Enforcement",
    "final_address": "1701 Old Prieur St",
    "address_councildis": "D",
    "status": "Pending",
    "rowid": "928082",
    "final_x": "3681824.60706",
    "final_y": "539162.420042",
    "longitude": "-90.06677858707985",
    "latitude": "29.97649985337846",
    "geocoded_column": {
      "latitude": "29.97649985337846",
      "longitude": "-90.06677858707985"
    }
  },
  {
    "service_request": "2022-928081",
    "request_type": "Trash/Recycling",
    "request_reason": "Replace Trash Cart",
    "date_created": "2022-10-12T14:07:36.000",
    "date_modified": "2022-10-12T14:07:37.000",
    "request_status": "Pending",
    "responsible_agency": "Department of Sanitation",
    "final_address": "2037 Foucher St",
    "address_councildis": "B",
    "status": "Assigned to Contractor",
    "contractor": "Richards Disposal",
    "rowid": "928081",
    "final_x": "3672956.59003",
    "final_y": "522931.875771",
    "longitude": "-90.09534037698656",
    "latitude": "29.93213778826998",
    "geocoded_column": {
      "latitude": "29.93213778826998",
      "longitude": "-90.09534037698656"
    }
  },
  {
    "service_request": "2022-928080",
    "request_type": "Trash/Recycling",
    "request_reason": "Illegal Dumping",
    "date_created": "2022-10-12T14:07:08.000",
    "date_modified": "2022-10-12T14:07:09.000",
    "request_status": "Pending",
    "responsible_agency": "Department of Sanitation",
    "final_address": "TULSA ST & SAM ST",
    "address_councildis": "E",
    "status": "Pending",
    "rowid": "928080",
    "final_x": "3704269.6",
    "final_y": "553505.08",
    "longitude": "-89.99536207713068",
    "latitude": "30.01523552626332",
    "geocoded_column": {
      "latitude": "30.01523552626332",
      "longitude": "-89.99536207713068"
    }
  },
  {
    "service_request": "2022-928079",
    "request_type": "Traffic Signals/Signs/Striping/Streetlights",
    "request_reason": "Street Light Outage/Malfunction",
    "date_created": "2022-10-12T14:04:18.000",
    "date_modified": "2022-10-12T14:04:18.000",
    "request_status": "Pending",
    "responsible_agency": "Department of Public Works",
    "final_address": "1239 Seville Dr",
    "address_councildis": "D",
    "status": "Pending",
    "contractor": "Legacy Professional Services",
    "rowid": "928079",
    "final_x": "3677096.75029",
    "final_y": "551187.663253",
    "longitude": "-90.081295614549",
    "latitude": "30.009707905628115",
    "geocoded_column": {
      "latitude": "30.009707905628115",
      "longitude": "-90.081295614549"
    }
  },
  {
    "service_request": "2022-928078",
    "request_type": "Trash/Recycling",
    "request_reason": "Repair Trash Cart",
    "date_created": "2022-10-12T13:58:33.000",
    "date_modified": "2022-10-12T13:58:34.000",
    "request_status": "Pending",
    "responsible_agency": "Department of Sanitation",
    "final_address": "4626 Evangeline Dr",
    "address_councildis": "E",
    "status": "Assigned to Contractor",
    "contractor": "Metro Disposal",
    "rowid": "928078",
    "final_x": "3709114.87275",
    "final_y": "555001.413849",
    "longitude": "-89.97999759211365",
    "latitude": "30.019193407251713",
    "geocoded_column": {
      "latitude": "30.019193407251713",
      "longitude": "-89.97999759211365"
    }
  },
  {
    "service_request": "2022-928077",
    "request_type": "Trash/Recycling",
    "request_reason": "Replace Trash Cart",
    "date_created": "2022-10-12T13:58:13.000",
    "date_modified": "2022-10-12T13:58:14.000",
    "request_status": "Pending",
    "responsible_agency": "Department of Sanitation",
    "final_address": "6084 Warrington Dr",
    "address_councildis": "D",
    "status": "Assigned to Contractor",
    "contractor": "Metro Disposal",
    "rowid": "928077",
    "final_x": "3680621.97211",
    "final_y": "555419.519897",
    "longitude": "-90.07001078064727",
    "latitude": "30.021237590315067",
    "geocoded_column": {
      "latitude": "30.021237590315067",
      "longitude": "-90.07001078064727"
    }
  },
  {
    "service_request": "2022-928076",
    "request_type": "Trash/Recycling",
    "request_reason": "Request a Large Item Pick Up",
    "date_created": "2022-10-12T13:57:44.000",
    "date_modified": "2022-10-12T13:57:45.000",
    "request_status": "Pending",
    "responsible_agency": "Department of Sanitation",
    "final_address": "222 Bermuda St",
    "address_councildis": "C",
    "status": "Assigned to Contractor",
    "contractor": "Richards Disposal",
    "rowid": "928076",
    "final_x": "3686189.28252",
    "final_y": "530959.197314",
    "longitude": "-90.05328306967309",
    "latitude": "29.953810456675818",
    "geocoded_column": {
      "latitude": "29.953810456675818",
      "longitude": "-90.05328306967309"
    }
  },
  {
    "service_request": "2022-928075",
    "request_type": "Trash/Recycling",
    "request_reason": "Replace Trash Cart",
    "date_created": "2022-10-12T13:57:03.000",
    "date_modified": "2022-10-12T13:57:04.000",
    "request_status": "Pending",
    "responsible_agency": "Department of Sanitation",
    "final_address": "3609 Red Oak Ct",
    "address_councildis": "C",
    "status": "Assigned to Contractor",
    "contractor": "Richards Disposal",
    "rowid": "928075",
    "final_x": "3703046.09758",
    "final_y": "513768.122738",
    "longitude": "-90.00068792408335",
    "latitude": "29.906012425108145",
    "geocoded_column": {
      "latitude": "29.906012425108145",
      "longitude": "-90.00068792408335"
    }
  },
  {
    "service_request": "2022-928074",
    "request_type": "Trash/Recycling",
    "request_reason": "Missed Trash Pick-Up",
    "date_created": "2022-10-12T13:55:32.000",
    "date_modified": "2022-10-12T13:55:32.000",
    "request_status": "Pending",
    "responsible_agency": "Department of Sanitation",
    "final_address": "1521 N Derbigny St",
    "address_councildis": "D",
    "status": "Assigned to Contractor",
    "contractor": "Metro Disposal",
    "rowid": "928074",
    "final_x": "3681523.1366",
    "final_y": "537582.19092",
    "longitude": "-90.06778584438665",
    "latitude": "29.972163930034935",
    "geocoded_column": {
      "latitude": "29.972163930034935",
      "longitude": "-90.06778584438665"
    }
  },
  {
    "service_request": "2022-928073",
    "request_type": "Roads/Drainage",
    "request_reason": "Street Subsidence (Sinking)",
    "date_created": "2022-10-12T13:54:08.000",
    "date_modified": "2022-10-12T13:54:09.000",
    "request_status": "Pending",
    "responsible_agency": "Department of Public Works",
    "final_address": "3934 N Robertson St",
    "address_councildis": "D",
    "status": "Pending",
    "rowid": "928073",
    "final_x": "3692122.60893",
    "final_y": "536759.254216",
    "longitude": "-90.03434053236792",
    "latitude": "29.969574991433767",
    "geocoded_column": {
      "latitude": "29.969574991433767",
      "longitude": "-90.03434053236792"
    }
  },
  {
    "service_request": "2022-928072",
    "request_type": "Trash/Recycling",
    "request_reason": "Missed Trash Pick-Up",
    "date_created": "2022-10-12T13:54:05.000",
    "date_modified": "2022-10-12T13:54:06.000",
    "request_status": "Pending",
    "responsible_agency": "Department of Sanitation",
    "final_address": "3425 Magazine St",
    "address_councildis": "B",
    "status": "Assigned to Contractor",
    "contractor": "Richards Disposal",
    "rowid": "928072",
    "final_x": "3674794.36846",
    "final_y": "519573.490936",
    "longitude": "-90.08965375831765",
    "latitude": "29.922848590247476",
    "geocoded_column": {
      "latitude": "29.922848590247476",
      "longitude": "-90.08965375831765"
    }
  },
  {
    "service_request": "2022-928071",
    "request_type": "Trash/Recycling",
    "request_reason": "MIssed Recycling Pick-Up",
    "date_created": "2022-10-12T13:52:06.000",
    "date_modified": "2022-10-12T13:52:07.000",
    "request_status": "Pending",
    "responsible_agency": "Department of Sanitation",
    "final_address": "4822 Cleveland Ave",
    "address_councildis": "A",
    "status": "Assigned to Contractor",
    "contractor": "Richards Disposal",
    "rowid": "928071",
    "final_x": "3668365.69857",
    "final_y": "539808.562826",
    "longitude": "-90.10926425820907",
    "latitude": "29.97867872482772",
    "geocoded_column": {
      "latitude": "29.97867872482772",
      "longitude": "-90.10926425820907"
    }
  },
  {
    "service_request": "2022-928070",
    "request_type": "Trash/Recycling",
    "request_reason": "Repair Trash Cart",
    "date_created": "2022-10-12T13:41:32.000",
    "date_modified": "2022-10-12T14:48:39.000",
    "request_status": "Pending",
    "responsible_agency": "Department of Sanitation",
    "final_address": "4618 Evangeline Dr",
    "address_councildis": "E",
    "contractor": "Metro Disposal",
    "rowid": "928070",
    "final_x": "3709120.90168",
    "final_y": "554940.927576",
    "longitude": "-89.97998080020692",
    "latitude": "30.01902689774271",
    "geocoded_column": {
      "latitude": "30.01902689774271",
      "longitude": "-89.97998080020692"
    }
  },
  {
    "service_request": "2022-928069",
    "request_type": "Roads/Drainage",
    "request_reason": "Accessibility Ramps, Curbs and Sidewalk Repair",
    "date_created": "2022-10-12T13:38:56.000",
    "date_modified": "2022-10-12T13:38:56.000",
    "request_status": "Pending",
    "responsible_agency": "Department of Public Works",
    "final_address": "4788 Donna Dr",
    "address_councildis": "E",
    "status": "Pending",
    "rowid": "928069",
    "final_x": "3710904.33195",
    "final_y": "556155.86153",
    "longitude": "-89.97430030871489",
    "latitude": "30.022309451603167",
    "geocoded_column": {
      "latitude": "30.022309451603167",
      "longitude": "-89.97430030871489"
    }
  },
  {
    "service_request": "2022-928068",
    "request_type": "Roads/Drainage",
    "request_reason": "Man hole cover issue",
    "date_created": "2022-10-12T13:38:20.000",
    "date_modified": "2022-10-12T13:38:20.000",
    "request_status": "Pending",
    "responsible_agency": "Department of Public Works",
    "final_address": "100 Royal St",
    "address_councildis": "C",
    "status": "Pending",
    "rowid": "928068",
    "final_x": "3681301.39701",
    "final_y": "530756.489858",
    "longitude": "-90.06872404570724",
    "latitude": "29.95340231693619",
    "geocoded_column": {
      "latitude": "29.95340231693619",
      "longitude": "-90.06872404570724"
    }
  },
  {
    "service_request": "2022-928067",
    "request_type": "Roads/Drainage",
    "request_reason": "Man hole cover issue",
    "date_created": "2022-10-12T13:33:29.000",
    "date_modified": "2022-10-12T13:33:29.000",
    "request_status": "Pending",
    "responsible_agency": "Department of Public Works",
    "final_address": "100 Royal St",
    "address_councildis": "C",
    "status": "Pending",
    "rowid": "928067",
    "final_x": "3681301.39701",
    "final_y": "530756.489858",
    "longitude": "-90.06872404570724",
    "latitude": "29.95340231693619",
    "geocoded_column": {
      "latitude": "29.95340231693619",
      "longitude": "-90.06872404570724"
    }
  },
  {
    "service_request": "2022-928066",
    "request_type": "Trash/Recycling",
    "request_reason": "Missed Trash Pick-Up",
    "date_created": "2022-10-12T13:29:36.000",
    "date_modified": "2022-10-12T13:29:37.000",
    "request_status": "Pending",
    "responsible_agency": "Department of Sanitation",
    "final_address": "4228 Fontainebleau Dr",
    "address_councildis": "A",
    "status": "Assigned to Contractor",
    "contractor": "Richards Disposal",
    "rowid": "928066",
    "final_x": "3669526.60762",
    "final_y": "529250.469313",
    "longitude": "-90.10595485666136",
    "latitude": "29.949613327686013",
    "geocoded_column": {
      "latitude": "29.949613327686013",
      "longitude": "-90.10595485666136"
    }
  },
  {
    "service_request": "2022-928065",
    "request_type": "Roads/Drainage",
    "request_reason": "Pothole",
    "date_created": "2022-10-12T13:29:24.000",
    "date_modified": "2022-10-12T13:29:24.000",
    "request_status": "Pending",
    "responsible_agency": "Department of Public Works",
    "final_address": "2642 Elysian Fields Ave",
    "address_councildis": "D",
    "status": "Pending",
    "rowid": "928065",
    "final_x": "3684408.96124",
    "final_y": "542126.538253",
    "longitude": "-90.0585122686791",
    "latitude": "29.984571336816888",
    "geocoded_column": {
      "latitude": "29.984571336816888",
      "longitude": "-90.0585122686791"
    }
  },
  {
    "service_request": "2022-928064",
    "request_type": "Abandoned Vehicles",
    "request_reason": "Abandoned/Junk Vehicles",
    "date_created": "2022-10-12T13:28:05.000",
    "date_modified": "2022-10-12T13:31:03.000",
    "request_status": "Pending",
    "responsible_agency": "Department of Public Works",
    "final_address": "4166 Bienville Ave",
    "address_councildis": "A",
    "status": "Pending",
    "rowid": "928064",
    "final_x": "3671092.57057",
    "final_y": "539193.611594",
    "longitude": "-90.1006726507968",
    "latitude": "29.97690743715439",
    "geocoded_column": {
      "latitude": "29.97690743715439",
      "longitude": "-90.1006726507968"
    }
  },
  {
    "service_request": "2022-928063",
    "request_type": "Abandoned Vehicles",
    "request_reason": "Abandoned/Junk Vehicles",
    "date_created": "2022-10-12T13:25:29.000",
    "date_modified": "2022-10-12T13:25:29.000",
    "request_status": "Pending",
    "responsible_agency": "Department of Public Works",
    "final_address": "3131 Royal St",
    "address_councildis": "C",
    "status": "Pending",
    "rowid": "928063",
    "final_x": "3688878.20963",
    "final_y": "534468.565701",
    "longitude": "-90.0446679513037",
    "latitude": "29.96337713345516",
    "geocoded_column": {
      "latitude": "29.96337713345516",
      "longitude": "-90.0446679513037"
    }
  },
  {
    "service_request": "2022-928062",
    "request_type": "Trash/Recycling",
    "request_reason": "Order Trash Cart",
    "date_created": "2022-10-12T13:24:52.000",
    "date_modified": "2022-10-12T13:24:52.000",
    "request_status": "Pending",
    "responsible_agency": "Department of Sanitation",
    "final_address": "3821 Coliseum St",
    "address_councildis": "B",
    "status": "Assigned to Contractor",
    "contractor": "Richards Disposal",
    "rowid": "928062",
    "final_x": "3672942.99668",
    "final_y": "520070.047352",
    "longitude": "-90.09548088986583",
    "latitude": "29.924269085044312",
    "geocoded_column": {
      "latitude": "29.924269085044312",
      "longitude": "-90.09548088986583"
    }
  },
  {
    "service_request": "2022-928061",
    "request_type": "Trash/Recycling",
    "request_reason": "Request a Large Item Pick Up",
    "date_created": "2022-10-12T13:23:44.000",
    "date_modified": "2022-10-12T13:23:45.000",
    "request_status": "Pending",
    "responsible_agency": "Department of Sanitation",
    "final_address": "307 Henry Clay Ave",
    "address_councildis": "A",
    "status": "Assigned to Contractor",
    "contractor": "Richards Disposal",
    "rowid": "928061",
    "final_x": "3663231.02714",
    "final_y": "517979.95007",
    "longitude": "-90.12620785122093",
    "latitude": "29.91880688845604",
    "geocoded_column": {
      "latitude": "29.91880688845604",
      "longitude": "-90.12620785122093"
    }
  },
  {
    "service_request": "2022-928060",
    "request_type": "Trash/Recycling",
    "request_reason": "Order Recycling Cart",
    "date_created": "2022-10-12T13:21:55.000",
    "date_modified": "2022-10-12T13:21:55.000",
    "request_status": "Pending",
    "responsible_agency": "Department of Sanitation",
    "final_address": "3821 Coliseum St",
    "address_councildis": "B",
    "status": "Pending",
    "rowid": "928060",
    "final_x": "3672942.99668",
    "final_y": "520070.047352",
    "longitude": "-90.09548088986583",
    "latitude": "29.924269085044312",
    "geocoded_column": {
      "latitude": "29.924269085044312",
      "longitude": "-90.09548088986583"
    }
  },
  {
    "service_request": "2022-928059",
    "request_type": "Trash/Recycling",
    "request_reason": "MIssed Recycling Pick-Up",
    "date_created": "2022-10-12T13:20:33.000",
    "date_modified": "2022-10-12T13:20:34.000",
    "request_status": "Pending",
    "responsible_agency": "Department of Sanitation",
    "final_address": "2918 Conti St, New Orleans, Louisiana, 70119",
    "address_councildis": "B",
    "status": "Assigned to Contractor",
    "contractor": "Richards Disposal",
    "rowid": "928059",
    "final_x": "3675164.21441",
    "final_y": "536659.484103",
    "longitude": "-90.0879000831419",
    "latitude": "29.969818382783124",
    "geocoded_column": {
      "latitude": "29.969818382783124",
      "longitude": "-90.0879000831419"
    }
  },