[
  {
    "service_request": "2022-910680",
    "request_type": "Health Related Questions",
    "request_reason": "Noise Ordinance Complaint",
    "date_created": "2022-08-17T01:20:23.000",
    "date_modified": "2022-08-17T01:20:23.000",
    "request_status": "Pending",
    "responsible_agency": "Health Department",
    "final_address": "2112 music street New Orleans LA 70117",
    "address_councildis": "D",
    "status": "Pending",
    "rowid": "910680",
    "final_x": "3686505.94786",
    "final_y": "540267.607051",
    "longitude": "-90.05195448572452",
    "latitude": "29.979395616715358",
    "geocoded_column": {
      "latitude": "29.979395616715358",
      "longitude": "-90.05195448572452"
    }
  },
  {
    "service_request": "2022-910679",
    "request_type": "Abandoned Vehicles",
    "request_reason": "Abandoned/Junk Vehicles",
    "date_created": "2022-08-16T23:02:37.000",
    "date_modified": "2022-08-16T23:02:37.000",
    "request_status": "Pending",
    "responsible_agency": "Department of Public Works",
    "final_address": "1621 Bartholomew St",
    "address_councildis": "D",
    "status": "Pending",
    "rowid": "910679",
    "final_x": "3692354.12534",
    "final_y": "537328.645704",
    "longitude": "-90.03358898963921",
    "latitude": "29.971133397625408",
    "geocoded_column": {
      "latitude": "29.971133397625408",
      "longitude": "-90.03358898963921"
    }
  },
  {
    "service_request": "2022-910678",
    "request_type": "Parks & Parkways",
    "request_reason": "Request Tree Service (Right of Way/Public Property)",
    "date_created": "2022-08-16T23:01:11.000",
    "date_modified": "2022-08-16T23:01:12.000",
    "request_status": "Pending",
    "responsible_agency": "Department of Parks & Parkway",
    "final_address": "1120 Spain St",
    "address_councildis": "C",
    "status": "Pending",
    "rowid": "910678",
    "final_x": "3686083.92521",
    "final_y": "536635.964167",
    "longitude": "-90.0534155208057",
    "latitude": "29.969422841140723",
    "geocoded_column": {
      "latitude": "29.969422841140723",
      "longitude": "-90.0534155208057"
    }
  },
  {
    "service_request": "2022-910676",
    "request_type": "Mosquito, Termite & Rodent Control",
    "request_reason": "Rodent Complaint (Rats)",
    "date_created": "2022-08-16T22:18:43.000",
    "date_modified": "2022-08-16T22:18:43.000",
    "request_status": "Pending",
    "responsible_agency": "Mosquito, Termite & Rodent Control Board",
    "final_address": "2117 First St",
    "address_councildis": "B",
    "status": "Pending",
    "rowid": "910676",
    "final_x": "3675906.52136",
    "final_y": "524849.206652",
    "longitude": "-90.08596183503398",
    "latitude": "29.937321855402573",
    "geocoded_column": {
      "latitude": "29.937321855402573",
      "longitude": "-90.08596183503398"
    }
  },
  {
    "service_request": "2022-910675",
    "request_type": "Abandoned Vehicles",
    "request_reason": "Abandoned/Junk Vehicles",
    "date_created": "2022-08-16T22:17:37.000",
    "date_modified": "2022-08-16T22:24:43.000",
    "request_status": "Pending",
    "responsible_agency": "Department of Public Works",
    "final_address": "GUILDFORD RD & WRIGHT RD",
    "address_councildis": "E",
    "status": "Pending",
    "rowid": "910675",
    "final_x": "3711914.6",
    "final_y": "564332.88",
    "longitude": "-89.97080090756467",
    "latitude": "30.044760012066483",
    "geocoded_column": {
      "latitude": "30.044760012066483",
      "longitude": "-89.97080090756467"
    }
  },
  {
    "service_request": "2022-910674",
    "request_type": "Property Maintenance",
    "request_reason": "Property Maintenance",
    "date_created": "2022-08-16T22:08:07.000",
    "date_modified": "2022-08-16T22:08:07.000",
    "request_status": "Pending",
    "responsible_agency": "Department of Code Enforcement",
    "final_address": "3451 Catalina Dr",
    "address_councildis": "C",
    "status": "Pending",
    "rowid": "910674",
    "final_x": "3696883.60951",
    "final_y": "524319.052668",
    "longitude": "-90.0197553504604",
    "latitude": "29.935219536673067",
    "geocoded_column": {
      "latitude": "29.935219536673067",
      "longitude": "-90.0197553504604"
    }
  },
  {
    "service_request": "2022-910673",
    "request_type": "Trash/Recycling",
    "request_reason": "Missed Trash Pick-Up",
    "date_created": "2022-08-16T22:03:13.000",
    "date_modified": "2022-08-16T22:03:14.000",
    "request_status": "Pending",
    "responsible_agency": "Department of Sanitation",
    "final_address": "212 Filmore Ave",
    "address_councildis": "A",
    "status": "Assigned to Contractor",
    "contractor": "Metro Disposal",
    "rowid": "910673",
    "final_x": "3667204.64897",
    "final_y": "552072.498646",
    "longitude": "-90.11251861383882",
    "latitude": "30.01243439027857",
    "geocoded_column": {
      "latitude": "30.01243439027857",
      "longitude": "-90.11251861383882"
    }
  },
  {
    "service_request": "2022-910672",
    "request_type": "Trash/Recycling",
    "request_reason": "Missed Trash Pick-Up",
    "date_created": "2022-08-16T21:29:12.000",
    "date_modified": "2022-08-16T21:29:13.000",
    "request_status": "Pending",
    "responsible_agency": "Department of Sanitation",
    "final_address": "4600 BLK Constance St",
    "address_councildis": "B",
    "status": "Assigned to Contractor",
    "contractor": "Richards Disposal",
    "rowid": "910672",
    "final_x": "3670165.28365",
    "final_y": "518323.058942",
    "longitude": "-90.10430833733331",
    "latitude": "29.91954764044729",
    "geocoded_column": {
      "latitude": "29.91954764044729",
      "longitude": "-90.10430833733331"
    }
  },
  {
    "service_request": "2022-910671",
    "request_type": "Roads/Drainage",
    "request_reason": "Catch Basin - Clogged",
    "date_created": "2022-08-16T21:22:26.000",
    "date_modified": "2022-08-16T21:22:26.000",
    "request_status": "Pending",
    "responsible_agency": "Department of Public Works",
    "final_address": "2222 Leon C Simon Dr",
    "address_councildis": "D",
    "status": "Pending",
    "rowid": "910671",
    "final_x": "3683649.69154",
    "final_y": "556774.752218",
    "longitude": "-90.06039647236061",
    "latitude": "30.024871845095035",
    "geocoded_column": {
      "latitude": "30.024871845095035",
      "longitude": "-90.06039647236061"
    }
  },
  {
    "service_request": "2022-910670",
    "request_type": "Trash/Recycling",
    "request_reason": "Order Trash Cart",
    "date_created": "2022-08-16T21:20:16.000",
    "date_modified": "2022-08-16T21:20:16.000",
    "request_status": "Pending",
    "responsible_agency": "Department of Sanitation",
    "final_address": "860 Filmore Ave",
    "address_councildis": "A",
    "status": "Assigned to Contractor",
    "contractor": "Metro Disposal",
    "rowid": "910670",
    "final_x": "3670051.22055",
    "final_y": "551821.449686",
    "longitude": "-90.10353352276229",
    "latitude": "30.011660395076483",
    "geocoded_column": {
      "latitude": "30.011660395076483",
      "longitude": "-90.10353352276229"
    }
  },
  {
    "service_request": "2022-910669",
    "request_type": "Trash/Recycling",
    "request_reason": "Missed Trash Pick-Up",
    "date_created": "2022-08-16T21:13:19.000",
    "date_modified": "2022-08-16T21:13:20.000",
    "request_status": "Pending",
    "responsible_agency": "Department of Sanitation",
    "final_address": "2009 Josephine St",
    "address_councildis": "B",
    "status": "Assigned to Contractor",
    "contractor": "Richards Disposal",
    "rowid": "910669",
    "final_x": "3676912.33256",
    "final_y": "525300.132605",
    "longitude": "-90.0827708844359",
    "latitude": "29.938531608162933",
    "geocoded_column": {
      "latitude": "29.938531608162933",
      "longitude": "-90.0827708844359"
    }
  },
  {
    "service_request": "2022-910668",
    "request_type": "Traffic Signals/Signs/Striping/Streetlights",
    "request_reason": "Street Light Outage/Malfunction",
    "date_created": "2022-08-16T21:10:28.000",
    "date_modified": "2022-08-16T21:10:29.000",
    "request_status": "Pending",
    "responsible_agency": "Department of Public Works",
    "final_address": "377 Audubon St",
    "address_councildis": "A",
    "status": "Pending",
    "contractor": "Legacy Professional Services",
    "rowid": "910668",
    "final_x": "3662014.62695",
    "final_y": "522660.248314",
    "longitude": "-90.12989225357455",
    "latitude": "29.93171142840921",
    "geocoded_column": {
      "latitude": "29.93171142840921",
      "longitude": "-90.12989225357455"
    }
  },
  {
    "service_request": "2022-910667",
    "request_type": "Trash/Recycling",
    "request_reason": "Request a Large Item Pick Up",
    "date_created": "2022-08-16T21:08:20.000",
    "date_modified": "2022-08-16T21:08:20.000",
    "request_status": "Pending",
    "responsible_agency": "Department of Sanitation",
    "final_address": "2508 Dreux Ave",
    "address_councildis": "D",
    "status": "Assigned to Contractor",
    "contractor": "Metro Disposal",
    "rowid": "910667",
    "final_x": "3686163.53455",
    "final_y": "552112.927958",
    "longitude": "-90.05261780110418",
    "latitude": "30.01197651960955",
    "geocoded_column": {
      "latitude": "30.01197651960955",
      "longitude": "-90.05261780110418"
    }
  },
  {
    "service_request": "2022-910666",
    "request_type": "Trash/Recycling",
    "request_reason": "Missed Trash Pick-Up",
    "date_created": "2022-08-16T20:55:48.000",
    "date_modified": "2022-08-16T20:55:49.000",
    "request_status": "Pending",
    "responsible_agency": "Department of Sanitation",
    "final_address": "4913 Constance St",
    "address_councildis": "B",
    "status": "Assigned to Contractor",
    "contractor": "Richards Disposal",
    "rowid": "910666",
    "final_x": "3668860.43828",
    "final_y": "518246.404982",
    "longitude": "-90.1084296847542",
    "latitude": "29.919375285515766",
    "geocoded_column": {
      "latitude": "29.919375285515766",
      "longitude": "-90.1084296847542"
    }
  },
  {
    "service_request": "2022-910665",
    "request_type": "Trash/Recycling",
    "request_reason": "Request a Large Item Pick Up",
    "date_created": "2022-08-16T20:53:05.000",
    "date_modified": "2022-08-16T20:53:06.000",
    "request_status": "Pending",
    "responsible_agency": "Department of Sanitation",
    "final_address": "1109 Valmont St",
    "address_councildis": "B",
    "status": "Assigned to Contractor",
    "contractor": "Richards Disposal",
    "rowid": "910665",
    "final_x": "3667642.13114",
    "final_y": "519454.462775",
    "longitude": "-90.11223464447421",
    "latitude": "29.922732818703118",
    "geocoded_column": {
      "latitude": "29.922732818703118",
      "longitude": "-90.11223464447421"
    }
  },
  {
    "service_request": "2022-910664",
    "request_type": "Trash/Recycling",
    "request_reason": "Missed Trash Pick-Up",
    "date_created": "2022-08-16T20:51:34.000",
    "date_modified": "2022-08-16T20:51:35.000",
    "request_status": "Pending",
    "responsible_agency": "Department of Sanitation",
    "final_address": "1109 Valmont St",
    "address_councildis": "B",
    "status": "Assigned to Contractor",
    "contractor": "Richards Disposal",
    "rowid": "910664",
    "final_x": "3667642.13114",
    "final_y": "519454.462775",
    "longitude": "-90.11223464447421",
    "latitude": "29.922732818703118",
    "geocoded_column": {
      "latitude": "29.922732818703118",
      "longitude": "-90.11223464447421"
    }
  },
  {
    "service_request": "2022-910663",
    "request_type": "Traffic Signals/Signs/Striping/Streetlights",
    "request_reason": "Street Light Outage/Malfunction",
    "date_created": "2022-08-16T20:29:12.000",
    "date_modified": "2022-08-16T20:29:13.000",
    "request_status": "Pending",
    "responsible_agency": "Department of Public Works",
    "final_address": "411 38Th St",
    "address_councildis": "A",
    "status": "Pending",
    "contractor": "Legacy Professional Services",
    "rowid": "910663",
    "final_x": "3664920.16295",
    "final_y": "552760.054934",
    "longitude": "-90.11971333886758",
    "latitude": "30.014391657526946",
    "geocoded_column": {
      "latitude": "30.014391657526946",
      "longitude": "-90.11971333886758"
    }
  },
  {
    "service_request": "2022-910662",
    "request_type": "Trash/Recycling",
    "request_reason": "Illegal Dumping",
    "date_created": "2022-08-16T20:05:24.000",
    "date_modified": "2022-08-16T20:05:24.000",
    "request_status": "Pending",
    "responsible_agency": "Department of Sanitation",
    "final_address": "2405 Iberville St",
    "address_councildis": "B",
    "status": "Pending",
    "rowid": "910662",
    "final_x": "3676654.92456",
    "final_y": "534709.145094",
    "longitude": "-90.08325947447385",
    "latitude": "29.96441097644213",
    "geocoded_column": {
      "latitude": "29.96441097644213",
      "longitude": "-90.08325947447385"
    }
  },
  {
    "service_request": "2022-910661",
    "request_type": "Trash/Recycling",
    "request_reason": "Missed Trash Pick-Up",
    "date_created": "2022-08-16T19:46:49.000",
    "date_modified": "2022-08-16T19:46:49.000",
    "request_status": "Pending",
    "responsible_agency": "Department of Sanitation",
    "final_address": "7446 Hurst St",
    "address_councildis": "A",
    "status": "Assigned to Contractor",
    "contractor": "Richards Disposal",
    "rowid": "910661",
    "final_x": "3661349.5479",
    "final_y": "524121.773692",
    "longitude": "-90.13194346884009",
    "latitude": "29.935749353597995",
    "geocoded_column": {
      "latitude": "29.935749353597995",
      "longitude": "-90.13194346884009"
    }
  },
  {
    "service_request": "2022-910660",
    "request_type": "Trash/Recycling",
    "request_reason": "MIssed Recycling Pick-Up",
    "date_created": "2022-08-16T19:44:42.000",
    "date_modified": "2022-08-16T19:44:42.000",
    "request_status": "Pending",
    "responsible_agency": "Department of Sanitation",
    "final_address": "200 N Norman C Francis Prkwy",
    "address_councildis": "B",
    "status": "Assigned to Contractor",
    "contractor": "Richards Disposal",
    "rowid": "910660",
    "final_x": "3673629.28756",
    "final_y": "537008.522888",
    "longitude": "-90.09273559869602",
    "latitude": "29.970823905666588",
    "geocoded_column": {
      "latitude": "29.970823905666588",
      "longitude": "-90.09273559869602"
    }
  },
  {
    "service_request": "2022-910659",
    "request_type": "Trash/Recycling",
    "request_reason": "Missed Trash Pick-Up",
    "date_created": "2022-08-16T19:43:46.000",
    "date_modified": "2022-08-16T19:43:47.000",
    "request_status": "Pending",
    "responsible_agency": "Department of Sanitation",
    "final_address": "1818 Onzaga St",
    "address_councildis": "D",
    "status": "Assigned to Contractor",
    "contractor": "Metro Disposal",
    "rowid": "910659",
    "final_x": "3681697.00341",
    "final_y": "538555.855817",
    "longitude": "-90.06720276622964",
    "latitude": "29.974835890006897",
    "geocoded_column": {
      "latitude": "29.974835890006897",
      "longitude": "-90.06720276622964"
    }
  },
  {
    "service_request": "2022-910658",
    "request_type": "Trash/Recycling",
    "request_reason": "MIssed Recycling Pick-Up",
    "date_created": "2022-08-16T19:42:36.000",
    "date_modified": "2022-08-16T19:42:37.000",
    "request_status": "Pending",
    "responsible_agency": "Department of Sanitation",
    "final_address": "2726 Republic St",
    "address_councildis": "D",
    "status": "Assigned to Contractor",
    "contractor": "Metro Disposal",
    "rowid": "910658",
    "final_x": "3680663.64277",
    "final_y": "542546.486541",
    "longitude": "-90.07032745651374",
    "latitude": "29.985840091334772",
    "geocoded_column": {
      "latitude": "29.985840091334772",
      "longitude": "-90.07032745651374"
    }
  },
  {
    "service_request": "2022-910657",
    "request_type": "Trash/Recycling",
    "request_reason": "Missed Trash Pick-Up",
    "date_created": "2022-08-16T19:33:01.000",
    "date_modified": "2022-08-16T19:33:01.000",
    "request_status": "Pending",
    "responsible_agency": "Department of Sanitation",
    "final_address": "CAMP ST & BELLECASTLE ST",
    "address_councildis": "B",
    "status": "Assigned to Contractor",
    "contractor": "Richards Disposal",
    "rowid": "910657",
    "final_x": "3667708.1",
    "final_y": "518987.48",
    "longitude": "-90.11204211767738",
    "latitude": "29.92144683013037",
    "geocoded_column": {
      "latitude": "29.92144683013037",
      "longitude": "-90.11204211767738"
    }
  },
  {
    "service_request": "2022-910656",
    "request_type": "Trash/Recycling",
    "request_reason": "Missed Trash Pick-Up",
    "date_created": "2022-08-16T19:29:58.000",
    "date_modified": "2022-08-16T19:31:07.000",
    "request_status": "Pending",
    "responsible_agency": "Department of Sanitation",
    "final_address": "300 Filmore Ave",
    "address_councildis": "A",
    "status": "Assigned to Contractor",
    "contractor": "Metro Disposal",
    "rowid": "910656",
    "final_x": "3667540.07809",
    "final_y": "552065.409622",
    "longitude": "-90.1114590799534",
    "latitude": "30.01240506709764",
    "geocoded_column": {
      "latitude": "30.01240506709764",
      "longitude": "-90.1114590799534"
    }
  },
  {
    "service_request": "2022-910655",
    "request_type": "Safety & Permits",
    "request_reason": "Short term Rental (Enforcement)",
    "date_created": "2022-08-16T19:20:29.000",
    "date_modified": "2022-08-16T19:20:29.000",
    "request_status": "Pending",
    "responsible_agency": "Safety and Permits",
    "final_address": "4136 Erato St Unit A",
    "address_councildis": "B",
    "status": "Pending",
    "rowid": "910655",
    "final_x": "3671146.53121",
    "final_y": "531285.775874",
    "longitude": "-90.10077088279648",
    "latitude": "29.955161938857803",
    "geocoded_column": {
      "latitude": "29.955161938857803",
      "longitude": "-90.10077088279648"
    }
  },
  {
    "service_request": "2022-910654",
    "request_type": "Abandoned Vehicles",
    "request_reason": "Abandoned/Junk Vehicles",
    "date_created": "2022-08-16T19:19:58.000",
    "date_modified": "2022-08-16T19:19:58.000",
    "request_status": "Pending",
    "responsible_agency": "Department of Public Works",
    "final_address": "1444 Josephine St",
    "address_councildis": "B",
    "status": "Pending",
    "rowid": "910654",
    "final_x": "3678285.49954",
    "final_y": "523397.835707",
    "longitude": "-90.07850142339558",
    "latitude": "29.933259637873643",
    "geocoded_column": {
      "latitude": "29.933259637873643",
      "longitude": "-90.07850142339558"
    }
  },
  {
    "service_request": "2022-910653",
    "request_type": "Roads/Drainage",
    "request_reason": "Pothole",
    "date_created": "2022-08-16T19:16:05.000",
    "date_modified": "2022-08-16T19:16:05.000",
    "request_status": "Pending",
    "responsible_agency": "Department of Public Works",
    "final_address": "4800 BLK Calliope St",
    "address_councildis": "B",
    "status": "Pending",
    "rowid": "910653",
    "final_x": "3669547.29243",
    "final_y": "533124.67304",
    "longitude": "-90.10575849312993",
    "latitude": "29.960265503992982",
    "geocoded_column": {
      "latitude": "29.960265503992982",
      "longitude": "-90.10575849312993"
    }
  },
  {
    "service_request": "2022-910652",
    "request_type": "Trash/Recycling",
    "request_reason": "MIssed Recycling Pick-Up",
    "date_created": "2022-08-16T19:15:12.000",
    "date_modified": "2022-08-16T19:15:13.000",
    "request_status": "Pending",
    "responsible_agency": "Department of Sanitation",
    "final_address": "2749 Iberville St",
    "address_councildis": "B",
    "status": "Assigned to Contractor",
    "contractor": "Richards Disposal",
    "rowid": "910652",
    "final_x": "3675280.34235",
    "final_y": "535757.927047",
    "longitude": "-90.08756429491902",
    "latitude": "29.96733593533915",
    "geocoded_column": {
      "latitude": "29.96733593533915",
      "longitude": "-90.08756429491902"
    }
  },
  {
    "service_request": "2022-910651",
    "request_type": "Trash/Recycling",
    "request_reason": "Missed Trash Pick-Up",
    "date_created": "2022-08-16T19:05:56.000",
    "date_modified": "2022-08-16T19:05:57.000",
    "request_status": "Pending",
    "responsible_agency": "Department of Sanitation",
    "final_address": "630 Pacific Ave",
    "address_councildis": "C",
    "status": "Assigned to Contractor",
    "contractor": "Richards Disposal",
    "rowid": "910651",
    "final_x": "3688513.12099",
    "final_y": "529179.222976",
    "longitude": "-90.04600851343358",
    "latitude": "29.94884455201116",
    "geocoded_column": {
      "latitude": "29.94884455201116",
      "longitude": "-90.04600851343358"
    }
  },
  {
    "service_request": "2022-910650",
    "request_type": "Trash/Recycling",
    "request_reason": "MIssed Recycling Pick-Up",
    "date_created": "2022-08-16T19:04:54.000",
    "date_modified": "2022-08-16T19:04:55.000",
    "request_status": "Pending",
    "responsible_agency": "Department of Sanitation",
    "final_address": "3430 Bienville Ave",
    "address_councildis": "B",
    "status": "Assigned to Contractor",
    "contractor": "Richards Disposal",
    "rowid": "910650",
    "final_x": "3673371.61659",
    "final_y": "537511.879368",
    "longitude": "-90.09353215706241",
    "latitude": "29.97221563401953",
    "geocoded_column": {
      "latitude": "29.97221563401953",
      "longitude": "-90.09353215706241"
    }
  },
  {
    "service_request": "2022-910649",
    "request_type": "Property Maintenance",
    "request_reason": "Property Maintenance",
    "date_created": "2022-08-16T19:01:13.000",
    "date_modified": "2022-08-16T19:01:13.000",
    "request_status": "Pending",
    "responsible_agency": "Department of Code Enforcement",
    "final_address": "2404 St Maurice Ave",
    "address_councildis": "E",
    "status": "Pending",
    "rowid": "910649",
    "final_x": "3701653.51505",
    "final_y": "537909.598025",
    "longitude": "-90.0041991863989",
    "latitude": "29.97243748357265",
    "geocoded_column": {
      "latitude": "29.97243748357265",
      "longitude": "-90.0041991863989"
    }
  },
  {
    "service_request": "2022-910648",
    "request_type": "Trash/Recycling",
    "request_reason": "MIssed Recycling Pick-Up",
    "date_created": "2022-08-16T19:01:06.000",
    "date_modified": "2022-08-16T19:01:07.000",
    "request_status": "Pending",
    "responsible_agency": "Department of Sanitation",
    "final_address": "5216 Atlanta St",
    "address_councildis": "B",
    "status": "Assigned to Contractor",
    "contractor": "Richards Disposal",
    "rowid": "910648",
    "final_x": "3667950.65569",
    "final_y": "520683.950457",
    "longitude": "-90.11121935799825",
    "latitude": "29.9261044765486",
    "geocoded_column": {
      "latitude": "29.9261044765486",
      "longitude": "-90.11121935799825"
    }
  },
  {
    "service_request": "2022-910647",
    "request_type": "Property Maintenance",
    "request_reason": "Property Maintenance",
    "date_created": "2022-08-16T18:59:29.000",
    "date_modified": "2022-08-16T18:59:29.000",
    "request_status": "Pending",
    "responsible_agency": "Department of Code Enforcement",
    "final_address": "1823 Feliciana St",
    "address_councildis": "D",
    "status": "Pending",
    "rowid": "910647",
    "final_x": "3689473.14012",
    "final_y": "538869.278601",
    "longitude": "-90.04263269423187",
    "latitude": "29.975459137230605",
    "geocoded_column": {
      "latitude": "29.975459137230605",
      "longitude": "-90.04263269423187"
    }
  },
  {
    "service_request": "2022-910645",
    "request_type": "Property Maintenance",
    "request_reason": "Property Maintenance",
    "date_created": "2022-08-16T18:43:03.000",
    "date_modified": "2022-08-16T18:43:03.000",
    "request_status": "Pending",
    "responsible_agency": "Department of Code Enforcement",
    "final_address": "6128 N Rocheblave St",
    "address_councildis": "E",
    "status": "Pending",
    "rowid": "910645",
    "final_x": "3701549.90039",
    "final_y": "537830.808073",
    "longitude": "-90.00452930310676",
    "latitude": "29.972224144172642",
    "geocoded_column": {
      "latitude": "29.972224144172642",
      "longitude": "-90.00452930310676"
    }
  },
  {
    "service_request": "2022-910643",
    "request_type": "Property Maintenance",
    "request_reason": "Property Maintenance",
    "date_created": "2022-08-16T18:40:18.000",
    "date_modified": "2022-08-16T18:40:18.000",
    "request_status": "Pending",
    "responsible_agency": "Department of Code Enforcement",
    "final_address": "6129 N Rocheblave St",
    "address_councildis": "E",
    "status": "Pending",
    "rowid": "910643",
    "final_x": "3701641.52727",
    "final_y": "537880.304713",
    "longitude": "-90.00423811874326",
    "latitude": "29.972357319941345",
    "geocoded_column": {
      "latitude": "29.972357319941345",
      "longitude": "-90.00423811874326"
    }
  },
  {
    "service_request": "2022-910642",
    "request_type": "Trash/Recycling",
    "request_reason": "Request a Large Item Pick Up",
    "date_created": "2022-08-16T18:40:02.000",
    "date_modified": "2022-08-16T18:40:02.000",
    "request_status": "Pending",
    "responsible_agency": "Department of Sanitation",
    "final_address": "6750 Catina St",
    "address_councildis": "A",
    "status": "Assigned to Contractor",
    "contractor": "Metro Disposal",
    "rowid": "910642",
    "final_x": "3666972.82119",
    "final_y": "552669.240854",
    "longitude": "-90.11323098739844",
    "latitude": "30.014082011577372",
    "geocoded_column": {
      "latitude": "30.014082011577372",
      "longitude": "-90.11323098739844"
    }
  },
  {
    "service_request": "2022-910641",
    "request_type": "Property Maintenance",
    "request_reason": "Property Maintenance",
    "date_created": "2022-08-16T18:38:21.000",
    "date_modified": "2022-08-16T18:38:21.000",
    "request_status": "Pending",
    "responsible_agency": "Department of Code Enforcement",
    "final_address": "6118 N Rocheblave St",
    "address_councildis": "E",
    "status": "Pending",
    "rowid": "910641",
    "final_x": "3701520.93949",
    "final_y": "537842.111369",
    "longitude": "-90.00462035194818",
    "latitude": "29.972256147581408",
    "geocoded_column": {
      "latitude": "29.972256147581408",
      "longitude": "-90.00462035194818"
    }
  },
  {
    "service_request": "2022-910640",
    "request_type": "Property Maintenance",
    "request_reason": "Property Maintenance",
    "date_created": "2022-08-16T18:37:06.000",
    "date_modified": "2022-08-16T18:37:06.000",
    "request_status": "Pending",
    "responsible_agency": "Department of Code Enforcement",
    "final_address": "6116 N Rocheblave St",
    "address_councildis": "E",
    "status": "Pending",
    "rowid": "910640",
    "final_x": "3701489.00426",
    "final_y": "537852.333641",
    "longitude": "-90.00472083381283",
    "latitude": "29.972285273332503",
    "geocoded_column": {
      "latitude": "29.972285273332503",
      "longitude": "-90.00472083381283"
    }
  },
  {
    "service_request": "2022-910639",
    "request_type": "Property Maintenance",
    "request_reason": "Property Maintenance",
    "date_created": "2022-08-16T18:35:25.000",
    "date_modified": "2022-08-16T18:35:25.000",
    "request_status": "Pending",
    "responsible_agency": "Department of Code Enforcement",
    "final_address": "6115 N Rocheblave St",
    "address_councildis": "E",
    "status": "Pending",
    "rowid": "910639",
    "final_x": "3701527.91857",
    "final_y": "537930.532873",
    "longitude": "-90.00459507274776",
    "latitude": "29.97249905210447",
    "geocoded_column": {
      "latitude": "29.97249905210447",
      "longitude": "-90.00459507274776"
    }
  },
  {
    "service_request": "2022-910638",
    "request_type": "Trash/Recycling",
    "request_reason": "Missed Trash Pick-Up",
    "date_created": "2022-08-16T18:30:42.000",
    "date_modified": "2022-08-16T18:30:43.000",
    "request_status": "Pending",
    "responsible_agency": "Department of Sanitation",
    "final_address": "800 BLK Bellecastle St",
    "address_councildis": "B",
    "status": "Assigned to Contractor",
    "contractor": "Richards Disposal",
    "rowid": "910638",
    "final_x": "3667683.41591",
    "final_y": "518432.097766",
    "longitude": "-90.1121387187331",
    "latitude": "29.919920427277344",
    "geocoded_column": {
      "latitude": "29.919920427277344",
      "longitude": "-90.1121387187331"
    }
  },
  {
    "service_request": "2022-910637",
    "request_type": "Trash/Recycling",
    "request_reason": "Missed Trash Pick-Up",
    "date_created": "2022-08-16T18:28:17.000",
    "date_modified": "2022-08-16T18:28:18.000",
    "request_status": "Pending",
    "responsible_agency": "Department of Sanitation",
    "final_address": "1009 Bellecastle St, New Orleans, Louisiana, 70115",
    "address_councildis": "B",
    "status": "Assigned to Contractor",
    "contractor": "Richards Disposal",
    "rowid": "910637",
    "final_x": "3667794.50836",
    "final_y": "519098.920823",
    "longitude": "-90.11176561313958",
    "latitude": "29.921750724569968",
    "geocoded_column": {
      "latitude": "29.921750724569968",
      "longitude": "-90.11176561313958"
    }
  },
  {
    "service_request": "2022-910636",
    "request_type": "Parks & Parkways",
    "request_reason": "Request Tree Service (Right of Way/Public Property)",
    "date_created": "2022-08-16T18:24:39.000",
    "date_modified": "2022-08-16T18:24:40.000",
    "request_status": "Pending",
    "responsible_agency": "Department of Parks & Parkway",
    "final_address": "2551 St Ann St",
    "address_councildis": "D",
    "status": "Pending",
    "rowid": "910636",
    "final_x": "3677434.9156",
    "final_y": "536888.180296",
    "longitude": "-90.08072109798559",
    "latitude": "29.970379160567393",
    "geocoded_column": {
      "latitude": "29.970379160567393",
      "longitude": "-90.08072109798559"
    }
  },
  {
    "service_request": "2022-910635",
    "request_type": "Trash/Recycling",
    "request_reason": "Request a Large Item Pick Up",
    "date_created": "2022-08-16T18:20:09.000",
    "date_modified": "2022-08-16T18:20:09.000",
    "request_status": "Pending",
    "responsible_agency": "Department of Sanitation",
    "final_address": "1327 Saint Anthony St, New Orleans, Louisiana, 70116",
    "status": "Assigned to Contractor",
    "rowid": "910635",
    "longitude": "0.0",
    "latitude": "0.0",
    "geocoded_column": {
      "latitude": "0.0",
      "longitude": "0.0"
    }
  },
  {
    "service_request": "2022-910634",
    "request_type": "Abandoned Vehicles",
    "request_reason": "Abandoned/Junk Vehicles",
    "date_created": "2022-08-16T18:04:36.000",
    "date_modified": "2022-08-16T18:04:36.000",
    "request_status": "Pending",
    "responsible_agency": "Department of Public Works",
    "final_address": "2412 Laurel St",
    "address_councildis": "B",
    "status": "Pending",
    "rowid": "910634",
    "final_x": "3678421.59938",
    "final_y": "520755.572345",
    "longitude": "-90.07816313827632",
    "latitude": "29.92599017837887",
    "geocoded_column": {
      "latitude": "29.92599017837887",
      "longitude": "-90.07816313827632"
    }
  },
  {
    "service_request": "2022-910633",
    "request_type": "Traffic Signals/Signs/Striping/Streetlights",
    "request_reason": "Request for Traffic Calming due to Speeding",
    "date_created": "2022-08-16T18:03:31.000",
    "date_modified": "2022-08-16T18:03:31.000",
    "request_status": "Pending",
    "responsible_agency": "Department of Public Works",
    "final_address": "4238 Clio St",
    "address_councildis": "B",
    "status": "Pending",
    "rowid": "910633",
    "final_x": "3671335.18772",
    "final_y": "531595.528387",
    "longitude": "-90.10016464778742",
    "latitude": "29.95600807445176",
    "geocoded_column": {
      "latitude": "29.95600807445176",
      "longitude": "-90.10016464778742"
    }
  },
  {
    "service_request": "2022-910632",
    "request_type": "Trash/Recycling",
    "request_reason": "Missed Trash Pick-Up",
    "date_created": "2022-08-16T18:02:15.000",
    "date_modified": "2022-08-16T18:02:16.000",
    "request_status": "Pending",
    "responsible_agency": "Department of Sanitation",
    "final_address": "921 Bellecastle St",
    "address_councildis": "B",
    "status": "Assigned to Contractor",
    "contractor": "Richards Disposal",
    "rowid": "910632",
    "final_x": "3667800.23098",
    "final_y": "518770.234615",
    "longitude": "-90.11175861019325",
    "latitude": "29.920846773348178",
    "geocoded_column": {
      "latitude": "29.920846773348178",
      "longitude": "-90.11175861019325"
    }
  },
  {
    "service_request": "2022-910631",
    "request_type": "Abandoned Vehicles",
    "request_reason": "Abandoned/Junk Vehicles",
    "date_created": "2022-08-16T17:51:47.000",
    "date_modified": "2022-08-16T17:52:25.000",
    "request_status": "Pending",
    "responsible_agency": "Department of Public Works",
    "final_address": "2051 N Rocheblave St",
    "address_councildis": "D",
    "status": "Pending",
    "rowid": "910631",
    "final_x": "3682954.63023",
    "final_y": "540987.488843",
    "longitude": "-90.06314573729063",
    "latitude": "29.981483761140886",
    "geocoded_column": {
      "latitude": "29.981483761140886",
      "longitude": "-90.06314573729063"
    }
  },
  {
    "service_request": "2022-910629",
    "request_type": "Trash/Recycling",
    "request_reason": "Missed Trash Pick-Up",
    "date_created": "2022-08-16T17:43:52.000",
    "date_modified": "2022-08-16T17:44:15.000",
    "request_status": "Pending",
    "responsible_agency": "Department of Sanitation",
    "final_address": "2600 BLK De Soto St",
    "address_councildis": "A",
    "status": "Assigned to Contractor",
    "contractor": "Metro Disposal",
    "rowid": "910629",
    "final_x": "3678068.75242",
    "final_y": "539247.352067",
    "longitude": "-90.07863778705644",
    "latitude": "29.976847005459415",
    "geocoded_column": {
      "latitude": "29.976847005459415",
      "longitude": "-90.07863778705644"
    }
  },
  {
    "service_request": "2022-910628",
    "request_type": "Trash/Recycling",
    "request_reason": "Order Trash Cart",
    "date_created": "2022-08-16T17:41:49.000",
    "date_modified": "2022-08-16T17:41:50.000",
    "request_status": "Pending",
    "responsible_agency": "Department of Sanitation",
    "final_address": "1645 Port St, New Orleans, Louisiana, 70117",
    "address_councildis": "D",
    "status": "Assigned to Contractor",
    "contractor": "Metro Disposal",
    "rowid": "910628",
    "final_x": "3688007.61353",
    "final_y": "538569.254089",
    "longitude": "-90.04727184806073",
    "latitude": "29.974679485442014",
    "geocoded_column": {
      "latitude": "29.974679485442014",
      "longitude": "-90.04727184806073"
    }
  },
  {
    "service_request": "2022-910627",
    "request_type": "Trash/Recycling",
    "request_reason": "MIssed Recycling Pick-Up",
    "date_created": "2022-08-16T17:41:13.000",
    "date_modified": "2022-08-16T17:41:13.000",
    "request_status": "Pending",
    "responsible_agency": "Department of Sanitation",
    "final_address": "849 Olga St",
    "address_councildis": "A",
    "status": "Assigned to Contractor",
    "contractor": "Richards Disposal",
    "rowid": "910627",
    "final_x": "3673303.3876",
    "final_y": "540157.306763",
    "longitude": "-90.09365724713349",
    "latitude": "29.979491688927357",
    "geocoded_column": {
      "latitude": "29.979491688927357",
      "longitude": "-90.09365724713349"
    }
  },
  {
    "service_request": "2022-910626",
    "request_type": "Trash/Recycling",
    "request_reason": "Missed Trash Pick-Up",
    "date_created": "2022-08-16T17:39:18.000",
    "date_modified": "2022-08-16T17:39:18.000",
    "request_status": "Pending",
    "responsible_agency": "Department of Sanitation",
    "final_address": "1015 St Roch Ave",
    "address_councildis": "C",
    "status": "Assigned to Contractor",
    "contractor": "Metro Disposal",
    "rowid": "910626",
    "final_x": "3686538.13794",
    "final_y": "536206.521799",
    "longitude": "-90.05199624944935",
    "latitude": "29.96822806579005",
    "geocoded_column": {
      "latitude": "29.96822806579005",
      "longitude": "-90.05199624944935"
    }
  },
  {
    "service_request": "2022-910625",
    "request_type": "Trash/Recycling",
    "request_reason": "Replace Trash Cart",
    "date_created": "2022-08-16T17:34:37.000",
    "date_modified": "2022-08-16T17:34:37.000",
    "request_status": "Pending",
    "responsible_agency": "Department of Sanitation",
    "final_address": "906 Cherokee St",
    "address_councildis": "A",
    "status": "Assigned to Contractor",
    "contractor": "Richards Disposal",
    "rowid": "910625",
    "final_x": "3662852.17203",
    "final_y": "526242.327614",
    "longitude": "-90.12712916552726",
    "latitude": "29.94153679777587",
    "geocoded_column": {
      "latitude": "29.94153679777587",
      "longitude": "-90.12712916552726"
    }
  },
  {
    "service_request": "2022-910624",
    "request_type": "Trash/Recycling",
    "request_reason": "MIssed Recycling Pick-Up",
    "date_created": "2022-08-16T17:34:28.000",
    "date_modified": "2022-08-16T17:34:28.000",
    "request_status": "Pending",
    "responsible_agency": "Department of Sanitation",
    "final_address": "4839 Constance St",
    "address_councildis": "B",
    "status": "Assigned to Contractor",
    "contractor": "Richards Disposal",
    "rowid": "910624",
    "final_x": "3669330.31207",
    "final_y": "518318.385782",
    "longitude": "-90.10694409317796",
    "latitude": "29.919559390119236",
    "geocoded_column": {
      "latitude": "29.919559390119236",
      "longitude": "-90.10694409317796"
    }
  },
  {
    "service_request": "2022-910623",
    "request_type": "Parks & Parkways",
    "request_reason": "Request Tree Service (Right of Way/Public Property)",
    "date_created": "2022-08-16T17:34:17.000",
    "date_modified": "2022-08-16T17:34:17.000",
    "request_status": "Pending",
    "responsible_agency": "Department of Parks & Parkway",
    "final_address": "920 Spain St",
    "address_councildis": "C",
    "status": "Pending",
    "rowid": "910623",
    "final_x": "3686140.10678",
    "final_y": "535868.175687",
    "longitude": "-90.05326518303428",
    "latitude": "29.967309964323483",
    "geocoded_column": {
      "latitude": "29.967309964323483",
      "longitude": "-90.05326518303428"
    }
  },
  {
    "service_request": "2022-910622",
    "request_type": "Traffic Signals/Signs/Striping/Streetlights",
    "request_reason": "Traffic Sign Missing/Damaged",
    "date_created": "2022-08-16T17:34:07.000",
    "date_modified": "2022-08-16T17:34:07.000",
    "request_status": "Pending",
    "responsible_agency": "Department of Public Works",
    "final_address": "1500 Esplanade Ave",
    "address_councildis": "D",
    "status": "Pending",
    "rowid": "910622",
    "final_x": "3681501.83669",
    "final_y": "536307.698567",
    "longitude": "-90.0678975647068",
    "latitude": "29.96866016247136",
    "geocoded_column": {
      "latitude": "29.96866016247136",
      "longitude": "-90.0678975647068"
    }
  },
  {
    "service_request": "2022-910621",
    "request_type": "Trash/Recycling",
    "request_reason": "Missed Trash Pick-Up",
    "date_created": "2022-08-16T17:33:31.000",
    "date_modified": "2022-08-16T17:33:32.000",
    "request_status": "Pending",
    "responsible_agency": "Department of Sanitation",
    "final_address": "4839 Constance St",
    "address_councildis": "B",
    "status": "Assigned to Contractor",
    "contractor": "Richards Disposal",
    "rowid": "910621",
    "final_x": "3669330.31207",
    "final_y": "518318.385782",
    "longitude": "-90.10694409317796",
    "latitude": "29.919559390119236",
    "geocoded_column": {
      "latitude": "29.919559390119236",
      "longitude": "-90.10694409317796"
    }
  },
  {
    "service_request": "2022-910620",
    "request_type": "Trash/Recycling",
    "request_reason": "Request a Large Item Pick Up",
    "date_created": "2022-08-16T17:30:17.000",
    "date_modified": "2022-08-16T17:30:18.000",
    "request_status": "Pending",
    "responsible_agency": "Department of Sanitation",
    "final_address": "4968 De Montluzin St",
    "address_councildis": "D",
    "status": "Assigned to Contractor",
    "contractor": "Metro Disposal",
    "rowid": "910620",
    "final_x": "3687027.86345",
    "final_y": "551515.641493",
    "longitude": "-90.04990815937397",
    "latitude": "30.010307608974337",
    "geocoded_column": {
      "latitude": "30.010307608974337",
      "longitude": "-90.04990815937397"
    }
  },
  {
    "service_request": "2022-910619",
    "request_type": "Trash/Recycling",
    "request_reason": "MIssed Recycling Pick-Up",
    "date_created": "2022-08-16T17:26:35.000",
    "date_modified": "2022-08-16T17:26:35.000",
    "request_status": "Pending",
    "responsible_agency": "Department of Sanitation",
    "final_address": "3308 Palmyra St",
    "address_councildis": "B",
    "status": "Assigned to Contractor",
    "contractor": "Richards Disposal",
    "rowid": "910619",
    "final_x": "3672966.28404",
    "final_y": "535808.907911",
    "longitude": "-90.09487039838098",
    "latitude": "29.967545090427706",
    "geocoded_column": {
      "latitude": "29.967545090427706",
      "longitude": "-90.09487039838098"
    }
  },
  {
    "service_request": "2022-910618",
    "request_type": "Trash/Recycling",
    "request_reason": "Missed Trash Pick-Up",
    "date_created": "2022-08-16T17:11:52.000",
    "date_modified": "2022-08-16T17:11:53.000",
    "request_status": "Pending",
    "responsible_agency": "Department of Sanitation",
    "final_address": "2421 Upperline St",
    "address_councildis": "B",
    "status": "Assigned to Contractor",
    "contractor": "Richards Disposal",
    "rowid": "910618",
    "final_x": "3669200.54478",
    "final_y": "523715.961275",
    "longitude": "-90.10717138747205",
    "latitude": "29.934404822643426",
    "geocoded_column": {
      "latitude": "29.934404822643426",
      "longitude": "-90.10717138747205"
    }
  },
  {
    "service_request": "2022-910617",
    "request_type": "Abandoned Vehicles",
    "request_reason": "Abandoned/Junk Vehicles",
    "date_created": "2022-08-16T17:08:10.000",
    "date_modified": "2022-08-16T17:08:10.000",
    "request_status": "Pending",
    "responsible_agency": "Department of Public Works",
    "final_address": "832 Solomon Pl",
    "address_councildis": "A",
    "status": "Pending",
    "rowid": "910617",
    "final_x": "3672554.48161",
    "final_y": "540850.139211",
    "longitude": "-90.09599896632494",
    "latitude": "29.981418998984747",
    "geocoded_column": {
      "latitude": "29.981418998984747",
      "longitude": "-90.09599896632494"
    }
  },
  {
    "service_request": "2022-910614",
    "request_type": "Abandoned Vehicles",
    "request_reason": "Abandoned/Junk Vehicles",
    "date_created": "2022-08-16T17:00:50.000",
    "date_modified": "2022-08-16T17:01:30.000",
    "request_status": "Pending",
    "responsible_agency": "Department of Public Works",
    "final_address": "416 S Bernadotte St",
    "address_councildis": "A",
    "status": "Pending",
    "rowid": "910614",
    "final_x": "3668010.9954",
    "final_y": "538938.108106",
    "longitude": "-90.11041388869208",
    "latitude": "29.976295681569255",
    "geocoded_column": {
      "latitude": "29.976295681569255",
      "longitude": "-90.11041388869208"
    }
  },
  {
    "service_request": "2022-910613",
    "request_type": "Roads/Drainage",
    "request_reason": "Street Subsidence (Sinking)",
    "date_created": "2022-08-16T17:00:17.000",
    "date_modified": "2022-08-16T17:00:17.000",
    "request_status": "Pending",
    "responsible_agency": "Department of Public Works",
    "final_address": "70115, New Orleans, Louisiana",
    "address_councildis": "A",
    "status": "Pending",
    "rowid": "910613",
    "final_x": "3666303.53946",
    "final_y": "518051.487222",
    "longitude": "-90.1165070940269",
    "latitude": "29.918914232804074",
    "geocoded_column": {
      "latitude": "29.918914232804074",
      "longitude": "-90.1165070940269"
    }
  },
  {
    "service_request": "2022-910612",
    "request_type": "Roads/Drainage",
    "request_reason": "Street Subsidence (Sinking)",
    "date_created": "2022-08-16T16:58:37.000",
    "date_modified": "2022-08-16T16:58:37.000",
    "request_status": "Pending",
    "responsible_agency": "Department of Public Works",
    "final_address": "Street A, New Orleans, Louisiana, 70129",
    "status": "Pending",
    "rowid": "910612",
    "longitude": "0.0",
    "latitude": "0.0",
    "geocoded_column": {
      "latitude": "0.0",
      "longitude": "0.0"
    }
  },
  {
    "service_request": "2022-910611",
    "request_type": "Trash/Recycling",
    "request_reason": "Missed Trash Pick-Up",
    "date_created": "2022-08-16T16:58:25.000",
    "date_modified": "2022-08-16T16:58:26.000",
    "request_status": "Pending",
    "responsible_agency": "Department of Sanitation",
    "final_address": "5330 Camp St",
    "address_councildis": "B",
    "status": "Assigned to Contractor",
    "contractor": "Richards Disposal",
    "rowid": "910611",
    "final_x": "3667254.12948",
    "final_y": "519003.313463",
    "longitude": "-90.11347457721239",
    "latitude": "29.921503664049855",
    "geocoded_column": {
      "latitude": "29.921503664049855",
      "longitude": "-90.11347457721239"
    }
  },
  {
    "service_request": "2022-910610",
    "request_type": "Trash/Recycling",
    "request_reason": "Missed Trash Pick-Up",
    "date_created": "2022-08-16T16:56:43.000",
    "date_modified": "2022-08-16T16:56:44.000",
    "request_status": "Pending",
    "responsible_agency": "Department of Sanitation",
    "final_address": "2229 Bayou Rd",
    "address_councildis": "D",
    "status": "Assigned to Contractor",
    "contractor": "Metro Disposal",
    "rowid": "910610",
    "final_x": "3679503.72667",
    "final_y": "538122.224329",
    "longitude": "-90.07414473611482",
    "latitude": "29.973710009245995",
    "geocoded_column": {
      "latitude": "29.973710009245995",
      "longitude": "-90.07414473611482"
    }
  },
  {
    "service_request": "2022-910609",
    "request_type": "Property Maintenance",
    "request_reason": "Property Maintenance",
    "date_created": "2022-08-16T16:50:22.000",
    "date_modified": "2022-08-16T16:50:23.000",
    "request_status": "Pending",
    "responsible_agency": "Department of Code Enforcement",
    "final_address": "3279 Bloomingdale Ct",
    "address_councildis": "B",
    "status": "Pending",
    "rowid": "910609",
    "final_x": "3668985.3577",
    "final_y": "532566.048324",
    "longitude": "-90.10755184179882",
    "latitude": "29.95874601206309",
    "geocoded_column": {
      "latitude": "29.95874601206309",
      "longitude": "-90.10755184179882"
    }
  },
  {
    "service_request": "2022-910608",
    "request_type": "Trash/Recycling",
    "request_reason": "MIssed Recycling Pick-Up",
    "date_created": "2022-08-16T16:37:28.000",
    "date_modified": "2022-08-16T16:37:28.000",
    "request_status": "Pending",
    "responsible_agency": "Department of Sanitation",
    "final_address": "425 Hillary St",
    "address_councildis": "A",
    "status": "Assigned to Contractor",
    "contractor": "Richards Disposal",
    "rowid": "910608",
    "final_x": "3661567.31731",
    "final_y": "525213.009213",
    "longitude": "-90.13121982149099",
    "latitude": "29.938743626446502",
    "geocoded_column": {
      "latitude": "29.938743626446502",
      "longitude": "-90.13121982149099"
    }
  },
  {
    "service_request": "2022-910607",
    "request_type": "Trash/Recycling",
    "request_reason": "Replace Trash Cart",
    "date_created": "2022-08-16T16:36:28.000",
    "date_modified": "2022-08-16T16:36:29.000",
    "request_status": "Pending",
    "responsible_agency": "Department of Sanitation",
    "final_address": "4004 Camp St",
    "address_councildis": "B",
    "status": "Assigned to Contractor",
    "contractor": "Richards Disposal",
    "rowid": "910607",
    "final_x": "3672428.57025",
    "final_y": "519240.690167",
    "longitude": "-90.09713300293802",
    "latitude": "29.92200388876559",
    "geocoded_column": {
      "latitude": "29.92200388876559",
      "longitude": "-90.09713300293802"
    }
  },
  {
    "service_request": "2022-910606",
    "request_type": "Abandoned Vehicles",
    "request_reason": "Abandoned/Junk Vehicles",
    "date_created": "2022-08-16T16:25:36.000",
    "date_modified": "2022-08-16T16:25:36.000",
    "request_status": "Pending",
    "responsible_agency": "Department of Public Works",
    "final_address": "114 18th St, New Orleans, Louisiana, 70124",
    "address_councildis": "A",
    "status": "Pending",
    "rowid": "910606",
    "final_x": "3665964.55872",
    "final_y": "548632.483603",
    "longitude": "-90.11655203756354",
    "latitude": "30.00301181515178",
    "geocoded_column": {
      "latitude": "30.00301181515178",
      "longitude": "-90.11655203756354"
    }
  },
  {
    "service_request": "2022-910605",
    "request_type": "Trash/Recycling",
    "request_reason": "Missed Trash Pick-Up",
    "date_created": "2022-08-16T16:24:15.000",
    "date_modified": "2022-08-16T16:24:16.000",
    "request_status": "Pending",
    "responsible_agency": "Department of Sanitation",
    "final_address": "1011 St Roch Ave",
    "address_councildis": "C",
    "status": "Assigned to Contractor",
    "contractor": "Metro Disposal",
    "rowid": "910605",
    "final_x": "3686543.01711",
    "final_y": "536170.391303",
    "longitude": "-90.05198211681194",
    "latitude": "29.968128569482893",
    "geocoded_column": {
      "latitude": "29.968128569482893",
      "longitude": "-90.05198211681194"
    }
  },
  {
    "service_request": "2022-910604",
    "request_type": "Trash/Recycling",
    "request_reason": "Request a Large Item Pick Up",
    "date_created": "2022-08-16T16:23:46.000",
    "date_modified": "2022-08-16T16:23:46.000",
    "request_status": "Pending",
    "responsible_agency": "Department of Sanitation",
    "final_address": "3322 Cherry St",
    "address_councildis": "A",
    "status": "Assigned to Contractor",
    "contractor": "Richards Disposal",
    "rowid": "910604",
    "final_x": "3663978.30291",
    "final_y": "536925.697032",
    "longitude": "-90.12321751500458",
    "latitude": "29.970879946977632",
    "geocoded_column": {
      "latitude": "29.970879946977632",
      "longitude": "-90.12321751500458"
    }
  },
  {
    "service_request": "2022-910603",
    "request_type": "Trash/Recycling",
    "request_reason": "Request a Large Item Pick Up",
    "date_created": "2022-08-16T16:23:26.000",
    "date_modified": "2022-08-16T16:23:27.000",
    "request_status": "Pending",
    "responsible_agency": "Department of Sanitation",
    "final_address": "3322 Cherry St",
    "address_councildis": "A",
    "status": "Assigned to Contractor",
    "contractor": "Richards Disposal",
    "rowid": "910603",
    "final_x": "3663978.30291",
    "final_y": "536925.697032",
    "longitude": "-90.12321751500458",
    "latitude": "29.970879946977632",
    "geocoded_column": {
      "latitude": "29.970879946977632",
      "longitude": "-90.12321751500458"
    }
  },
  {
    "service_request": "2022-910602",
    "request_type": "Trash/Recycling",
    "request_reason": "Request a Large Item Pick Up",
    "date_created": "2022-08-16T16:21:27.000",
    "date_modified": "2022-08-16T16:22:17.000",
    "request_status": "Pending",
    "responsible_agency": "Department of Sanitation",
    "final_address": "5 Yosemite Dr",
    "address_councildis": "C",
    "contractor": "Richards Disposal",
    "rowid": "910602",
    "final_x": "3699429.76663",
    "final_y": "517716.636406",
    "longitude": "-90.01195755558766",
    "latitude": "29.916984654818734",
    "geocoded_column": {
      "latitude": "29.916984654818734",
      "longitude": "-90.01195755558766"
    }
  },
  {
    "service_request": "2022-910601",
    "request_type": "Trash/Recycling",
    "request_reason": "Missed Trash Pick-Up",
    "date_created": "2022-08-16T16:19:26.000",
    "date_modified": "2022-08-16T16:19:26.000",
    "request_status": "Pending",
    "responsible_agency": "Department of Sanitation",
    "final_address": "1011 St Roch Ave",
    "address_councildis": "C",
    "status": "Assigned to Contractor",
    "contractor": "Metro Disposal",
    "rowid": "910601",
    "final_x": "3686543.01711",
    "final_y": "536170.391303",
    "longitude": "-90.05198211681194",
    "latitude": "29.968128569482893",
    "geocoded_column": {
      "latitude": "29.968128569482893",
      "longitude": "-90.05198211681194"
    }
  },
  {
    "service_request": "2022-910600",
    "request_type": "Property Maintenance",
    "request_reason": "Property Maintenance",
    "date_created": "2022-08-16T16:18:37.000",
    "date_modified": "2022-08-16T16:18:37.000",
    "request_status": "Pending",
    "responsible_agency": "Department of Code Enforcement",
    "final_address": "6302 Marigny St",
    "address_councildis": "D",
    "status": "Pending",
    "rowid": "910600",
    "final_x": "3683733.60585",
    "final_y": "556202.54825",
    "longitude": "-90.06015140729761",
    "latitude": "30.02329593192223",
    "geocoded_column": {
      "latitude": "30.02329593192223",
      "longitude": "-90.06015140729761"
    }
  },
  {
    "service_request": "2022-910599",
    "request_type": "Roads/Drainage",
    "request_reason": "Pothole",
    "date_created": "2022-08-16T16:17:26.000",
    "date_modified": "2022-08-16T16:17:27.000",
    "request_status": "Pending",
    "responsible_agency": "Department of Public Works",
    "final_address": "2600 BLK dAbadie St",
    "address_councildis": "D",
    "status": "Pending",
    "rowid": "910599",
    "final_x": "3679384.84657",
    "final_y": "540866.819301",
    "longitude": "-90.07442495158564",
    "latitude": "29.981260287541264",
    "geocoded_column": {
      "latitude": "29.981260287541264",
      "longitude": "-90.07442495158564"
    }
  },
  {
    "service_request": "2022-910598",
    "request_type": "Roads/Drainage",
    "request_reason": "Leaking Hydrant",
    "date_created": "2022-08-16T16:17:01.000",
    "date_modified": "2022-08-16T16:17:02.000",
    "request_status": "Pending",
    "responsible_agency": "Department of Public Works",
    "final_address": "AUDUBON ST & ST CHARLES AVE",
    "address_councildis": "A",
    "status": "Pending",
    "rowid": "910598",
    "final_x": "3663217.3",
    "final_y": "524532.88",
    "longitude": "-90.12603324422797",
    "latitude": "29.936825786654794",
    "geocoded_column": {
      "latitude": "29.936825786654794",
      "longitude": "-90.12603324422797"
    }
  },
  {
    "service_request": "2022-910596",
    "request_type": "Parks & Parkways",
    "request_reason": "Request Tree Service (Right of Way/Public Property)",
    "date_created": "2022-08-16T16:07:58.000",
    "date_modified": "2022-08-16T16:10:18.000",
    "case_close_date": "2022-08-16T11:10:18.000",
    "request_status": "Closed",
    "responsible_agency": "Department of Parks & Parkway",
    "final_address": "830 Julia St",
    "address_councildis": "B",
    "status": "Resolved",
    "rowid": "910596",
    "final_x": "3679742.20469",
    "final_y": "528146.135743",
    "longitude": "-90.07373791615615",
    "latitude": "29.946271943078706",
    "geocoded_column": {
      "latitude": "29.946271943078706",
      "longitude": "-90.07373791615615"
    }
  },
  {
    "service_request": "2022-910595",
    "request_type": "Trash/Recycling",
    "request_reason": "Order Recycling Cart",
    "date_created": "2022-08-16T16:00:56.000",
    "date_modified": "2022-08-16T16:00:56.000",
    "request_status": "Pending",
    "responsible_agency": "Department of Sanitation",
    "final_address": "1512 N Robertson St",
    "address_councildis": "C",
    "status": "Pending",
    "rowid": "910595",
    "final_x": "3682146.09352",
    "final_y": "537037.090888",
    "longitude": "-90.06583748683254",
    "latitude": "29.970646160079063",
    "geocoded_column": {
      "latitude": "29.970646160079063",
      "longitude": "-90.06583748683254"
    }
  },
  {
    "service_request": "2022-910594",
    "request_type": "Traffic Signals/Signs/Striping/Streetlights",
    "request_reason": "Street Light Outage/Malfunction",
    "date_created": "2022-08-16T15:59:25.000",
    "date_modified": "2022-08-16T15:59:26.000",
    "request_status": "Pending",
    "responsible_agency": "Department of Public Works",
    "final_address": "7209 Warfield St",
    "address_councildis": "E",
    "status": "Pending",
    "contractor": "Legacy Professional Services",
    "rowid": "910594",
    "final_x": "3701981.50737",
    "final_y": "553167.570711",
    "longitude": "-90.00260371041107",
    "latitude": "30.01438076916618",
    "geocoded_column": {
      "latitude": "30.01438076916618",
      "longitude": "-90.00260371041107"
    }
  },
  {
    "service_request": "2022-910593",
    "request_type": "Abandoned Vehicles",
    "request_reason": "Abandoned/Junk Vehicles",
    "date_created": "2022-08-16T15:56:58.000",
    "date_modified": "2022-08-16T15:58:21.000",
    "request_status": "Pending",
    "responsible_agency": "Department of Public Works",
    "final_address": "4018 N Prieur St",
    "address_councildis": "D",
    "status": "Pending",
    "rowid": "910593",
    "final_x": "3692718.04285",
    "final_y": "538164.742281",
    "longitude": "-90.03240971508626",
    "latitude": "29.973421010763197",
    "geocoded_column": {
      "latitude": "29.973421010763197",
      "longitude": "-90.03240971508626"
    }
  },
  {
    "service_request": "2022-910592",
    "request_type": "Trash/Recycling",
    "request_reason": "Repair Trash Cart",
    "date_created": "2022-08-16T15:55:30.000",
    "date_modified": "2022-08-16T15:56:17.000",
    "request_status": "Pending",
    "responsible_agency": "Department of Sanitation",
    "final_address": "2275 Bayou Rd",
    "address_councildis": "D",
    "status": "Assigned to Contractor",
    "contractor": "Metro Disposal",
    "rowid": "910592",
    "final_x": "3679329.63419",
    "final_y": "538447.386057",
    "longitude": "-90.07468327746787",
    "latitude": "29.974609351283448",
    "geocoded_column": {
      "latitude": "29.974609351283448",
      "longitude": "-90.07468327746787"
    }
  },
  {
    "service_request": "2022-910591",
    "request_type": "Property Maintenance",
    "request_reason": "Property Maintenance",
    "date_created": "2022-08-16T15:55:10.000",
    "date_modified": "2022-08-16T15:55:10.000",
    "request_status": "Pending",
    "responsible_agency": "Department of Code Enforcement",
    "final_address": "2200 Westbend Prkwy",
    "address_councildis": "C",
    "status": "Pending",
    "rowid": "910591",
    "final_x": "3696946.85053",
    "final_y": "522293.408442",
    "longitude": "-90.01962901768334",
    "latitude": "29.929647717511468",
    "geocoded_column": {
      "latitude": "29.929647717511468",
      "longitude": "-90.01962901768334"
    }
  },
  {
    "service_request": "2022-910590",
    "request_type": "Roads/Drainage",
    "request_reason": "Catch Basin - Broken/Damage",
    "date_created": "2022-08-16T15:54:50.000",
    "date_modified": "2022-08-16T15:54:51.000",
    "request_status": "Pending",
    "responsible_agency": "Department of Public Works",
    "final_address": "2900 BLK Prytania St",
    "address_councildis": "B",
    "status": "Pending",
    "rowid": "910590",
    "final_x": "3675658.55055",
    "final_y": "521725.570838",
    "longitude": "-90.08685197260617",
    "latitude": "29.928740294929973",
    "geocoded_column": {
      "latitude": "29.928740294929973",
      "longitude": "-90.08685197260617"
    }
  },
  {
    "service_request": "2022-910589",
    "request_type": "Trash/Recycling",
    "request_reason": "Replace Trash Cart",
    "date_created": "2022-08-16T15:52:05.000",
    "date_modified": "2022-08-16T15:52:06.000",
    "request_status": "Pending",
    "responsible_agency": "Department of Sanitation",
    "final_address": "5248 Laurel St",
    "address_councildis": "B",
    "status": "Assigned to Contractor",
    "contractor": "Richards Disposal",
    "rowid": "910589",
    "final_x": "3667576.44532",
    "final_y": "517835.014646",
    "longitude": "-90.1124964547346",
    "latitude": "29.91828177067838",
    "geocoded_column": {
      "latitude": "29.91828177067838",
      "longitude": "-90.1124964547346"
    }
  },
  {
    "service_request": "2022-910588",
    "request_type": "Roads/Drainage",
    "request_reason": "Street Subsidence (Sinking)",
    "date_created": "2022-08-16T15:50:23.000",
    "date_modified": "2022-08-16T15:50:23.000",
    "request_status": "Pending",
    "responsible_agency": "Department of Public Works",
    "final_address": "9408 Palm St",
    "address_councildis": "A",
    "status": "Pending",
    "rowid": "910588",
    "final_x": "3664198.11546",
    "final_y": "537835.589001",
    "longitude": "-90.12249295035443",
    "latitude": "29.97337546338181",
    "geocoded_column": {
      "latitude": "29.97337546338181",
      "longitude": "-90.12249295035443"
    }
  },
  {
    "service_request": "2022-910587",
    "request_type": "Trash/Recycling",
    "request_reason": "Return Recycling Cart",
    "date_created": "2022-08-16T15:49:41.000",
    "date_modified": "2022-08-16T16:30:23.000",
    "request_status": "Pending",
    "responsible_agency": "Department of Sanitation",
    "final_address": "New Orleans,LA",
    "address_councildis": "A",
    "rowid": "910587",
    "final_x": "3661297.93715",
    "final_y": "528089.543423",
    "longitude": "-90.13197507310498",
    "latitude": "29.94666094952247",
    "geocoded_column": {
      "latitude": "29.94666094952247",
      "longitude": "-90.13197507310498"
    }
  },
  {
    "service_request": "2022-910585",
    "request_type": "Roads/Drainage",
    "request_reason": "Damaged Sidewalk",
    "date_created": "2022-08-16T15:48:16.000",
    "date_modified": "2022-08-16T15:48:17.000",
    "request_status": "Pending",
    "responsible_agency": "Department of Public Works",
    "final_address": "10231 Deerfield Dr",
    "address_councildis": "E",
    "status": "Pending",
    "rowid": "910585",
    "final_x": "3709988.21585",
    "final_y": "563576.413088",
    "longitude": "-89.97691742330777",
    "latitude": "30.04274287570664",
    "geocoded_column": {
      "latitude": "30.04274287570664",
      "longitude": "-89.97691742330777"
    }
  },
  {
    "service_request": "2022-910584",
    "request_type": "Trash/Recycling",
    "request_reason": "Replace Trash Cart",
    "date_created": "2022-08-16T15:46:45.000",
    "date_modified": "2022-08-16T16:11:35.000",
    "case_close_date": "2022-08-16T11:11:35.000",
    "request_status": "Closed",
    "responsible_agency": "Department of Sanitation",
    "final_address": "420 Bourbon St",
    "address_councildis": "C",
    "status": "Assigned to Contractor",
    "contractor": "Empire Services",
    "contractor_action": "Completed",
    "rowid": "910584",
    "final_x": "3681738.83669",
    "final_y": "531937.209411",
    "longitude": "-90.06730160603159",
    "latitude": "29.956635613222502",
    "geocoded_column": {
      "latitude": "29.956635613222502",
      "longitude": "-90.06730160603159"
    }
  },
  {
    "service_request": "2022-910583",
    "request_type": "Roads/Drainage",
    "request_reason": "Catch Basin - Clogged",
    "date_created": "2022-08-16T15:46:08.000",
    "date_modified": "2022-08-16T15:46:08.000",
    "request_status": "Pending",
    "responsible_agency": "Department of Public Works",
    "final_address": "9400 Palm St",
    "address_councildis": "A",
    "status": "Pending",
    "rowid": "910583",
    "final_x": "3664247.27514",
    "final_y": "537775.961864",
    "longitude": "-90.12233968350868",
    "latitude": "29.97321008005091",
    "geocoded_column": {
      "latitude": "29.97321008005091",
      "longitude": "-90.12233968350868"
    }
  },
  {
    "service_request": "2022-910580",
    "request_type": "Parks & Parkways",
    "request_reason": "Request Tree Service (Right of Way/Public Property)",
    "date_created": "2022-08-16T15:44:30.000",
    "date_modified": "2022-08-16T15:44:30.000",
    "request_status": "Pending",
    "responsible_agency": "Department of Parks & Parkway",
    "final_address": "10240 Deerfield Dr",
    "address_councildis": "E",
    "status": "Pending",
    "rowid": "910580",
    "final_x": "3710086.56945",
    "final_y": "563457.52592",
    "longitude": "-89.97661103812385",
    "latitude": "30.042412781901696",
    "geocoded_column": {
      "latitude": "30.042412781901696",
      "longitude": "-89.97661103812385"
    }
  },
  {
    "service_request": "2022-910579",
    "request_type": "Trash/Recycling",
    "request_reason": "Replace Trash Cart",
    "date_created": "2022-08-16T15:43:10.000",
    "date_modified": "2022-08-16T15:43:11.000",
    "request_status": "Pending",
    "responsible_agency": "Department of Sanitation",
    "final_address": "4161 Dumaine St",
    "address_councildis": "A",
    "status": "Assigned to Contractor",
    "contractor": "Richards Disposal",
    "rowid": "910579",
    "final_x": "3672709.26113",
    "final_y": "540988.027723",
    "longitude": "-90.09550539560679",
    "latitude": "29.981793548583557",
    "geocoded_column": {
      "latitude": "29.981793548583557",
      "longitude": "-90.09550539560679"
    }
  },
  {
    "service_request": "2022-910578",
    "request_type": "Parks & Parkways",
    "request_reason": "Request Tree Service (Right of Way/Public Property)",
    "date_created": "2022-08-16T15:41:33.000",
    "date_modified": "2022-08-16T15:42:23.000",
    "request_status": "Pending",
    "responsible_agency": "Department of Parks & Parkway",
    "final_address": "10231 Deerfield Dr",
    "address_councildis": "E",
    "status": "Pending",
    "rowid": "910578",
    "final_x": "3709988.21585",
    "final_y": "563576.413088",
    "longitude": "-89.97691742330777",
    "latitude": "30.04274287570664",
    "geocoded_column": {
      "latitude": "30.04274287570664",
      "longitude": "-89.97691742330777"
    }
  },
  {
    "service_request": "2022-910577",
    "request_type": "Trash/Recycling",
    "request_reason": "MIssed Recycling Pick-Up",
    "date_created": "2022-08-16T15:40:50.000",
    "date_modified": "2022-08-16T15:40:50.000",
    "request_status": "Pending",
    "responsible_agency": "Department of Sanitation",
    "final_address": "1256 Southlawn Blvd",
    "address_councildis": "C",
    "status": "Assigned to Contractor",
    "contractor": "Richards Disposal",
    "rowid": "910577",
    "final_x": "3695233.28918",
    "final_y": "526744.45587",
    "longitude": "-90.02487794699454",
    "latitude": "29.941940478104588",
    "geocoded_column": {
      "latitude": "29.941940478104588",
      "longitude": "-90.02487794699454"
    }
  },
  {
    "service_request": "2022-910576",
    "request_type": "Trash/Recycling",
    "request_reason": "Request a Large Item Pick Up",
    "date_created": "2022-08-16T15:39:13.000",
    "date_modified": "2022-08-16T15:39:14.000",
    "request_status": "Pending",
    "responsible_agency": "Department of Sanitation",
    "final_address": "9408 Palm St",
    "address_councildis": "A",
    "status": "Assigned to Contractor",
    "contractor": "Richards Disposal",
    "rowid": "910576",
    "final_x": "3664198.11546",
    "final_y": "537835.589001",
    "longitude": "-90.12249295035443",
    "latitude": "29.97337546338181",
    "geocoded_column": {
      "latitude": "29.97337546338181",
      "longitude": "-90.12249295035443"
    }
  },
  {
    "service_request": "2022-910574",
    "request_type": "Trash/Recycling",
    "request_reason": "Illegal Dumping",
    "date_created": "2022-08-16T15:37:30.000",
    "date_modified": "2022-08-16T15:37:30.000",
    "request_status": "Pending",
    "responsible_agency": "Department of Sanitation",
    "final_address": "8721 Peach St",
    "address_councildis": "A",
    "status": "Pending",
    "rowid": "910574",
    "final_x": "3666985.67962",
    "final_y": "537360.031752",
    "longitude": "-90.1137052034057",
    "latitude": "29.971986548701835",
    "geocoded_column": {
      "latitude": "29.971986548701835",
      "longitude": "-90.1137052034057"
    }
  },
  {
    "service_request": "2022-910573",
    "request_type": "Roads/Drainage",
    "request_reason": "Street Flooding / Drainage",
    "date_created": "2022-08-16T15:36:53.000",
    "date_modified": "2022-08-16T15:36:53.000",
    "request_status": "Pending",
    "responsible_agency": "Department of Public Works",
    "final_address": "118 City Park Ave, New Orleans, Louisiana, 70119",
    "address_councildis": "A",
    "status": "Pending",
    "rowid": "910573",
    "final_x": "3667651.43245",
    "final_y": "540854.232907",
    "longitude": "-90.1114849682831",
    "latitude": "29.98157492613766",
    "geocoded_column": {
      "latitude": "29.98157492613766",
      "longitude": "-90.1114849682831"
    }
  },
  {
    "service_request": "2022-910572",
    "request_type": "Trash/Recycling",
    "request_reason": "Illegal Dumping",
    "date_created": "2022-08-16T15:36:33.000",
    "date_modified": "2022-08-16T15:44:05.000",
    "request_status": "Pending",
    "responsible_agency": "Department of Sanitation",
    "final_address": "New Orleans,LA",
    "address_councildis": "A",
    "rowid": "910572",
    "final_x": "3669757.45972",
    "final_y": "540615.560907",
    "longitude": "-90.104841217569",
    "latitude": "29.98085674130354",
    "geocoded_column": {
      "latitude": "29.98085674130354",
      "longitude": "-90.104841217569"
    }
  },
  {
    "service_request": "2022-910571",
    "request_type": "Property Maintenance",
    "request_reason": "Property Maintenance",
    "date_created": "2022-08-16T15:36:07.000",
    "date_modified": "2022-08-16T15:36:07.000",
    "request_status": "Pending",
    "responsible_agency": "Department of Code Enforcement",
    "final_address": "4236 Thalia St",
    "address_councildis": "B",
    "status": "Pending",
    "rowid": "910571",
    "final_x": "3670943.16705",
    "final_y": "530975.413634",
    "longitude": "-90.1014235692515",
    "latitude": "29.954314558620606",
    "geocoded_column": {
      "latitude": "29.954314558620606",
      "longitude": "-90.1014235692515"
    }
  },
  {
    "service_request": "2022-910570",
    "request_type": "Trash/Recycling",
    "request_reason": "Request a Large Item Pick Up",
    "date_created": "2022-08-16T15:34:50.000",
    "date_modified": "2022-08-16T15:34:51.000",
    "request_status": "Pending",
    "responsible_agency": "Department of Sanitation",
    "final_address": "634 Broadway St",
    "address_councildis": "A",
    "status": "Assigned to Contractor",
    "contractor": "Richards Disposal",
    "rowid": "910570",
    "final_x": "3663082.3321",
    "final_y": "524978.824125",
    "longitude": "-90.12644451778826",
    "latitude": "29.938055901068036",
    "geocoded_column": {
      "latitude": "29.938055901068036",
      "longitude": "-90.12644451778826"
    }
  },
  {
    "service_request": "2022-910569",
    "request_type": "Mosquito, Termite & Rodent Control",
    "request_reason": "Rodent Complaint (Rats)",
    "date_created": "2022-08-16T15:33:29.000",
    "date_modified": "2022-08-16T15:34:34.000",
    "request_status": "Pending",
    "responsible_agency": "Mosquito, Termite & Rodent Control Board",
    "final_address": "464 Flood St",
    "address_councildis": "E",
    "status": "Pending",
    "rowid": "910569",
    "final_x": "3697063.3249",
    "final_y": "531622.795907",
    "longitude": "-90.0189234923804",
    "latitude": "29.95529661912823",
    "geocoded_column": {
      "latitude": "29.95529661912823",
      "longitude": "-90.0189234923804"
    }
  },
  {
    "service_request": "2022-910568",
    "request_type": "Roads/Drainage",
    "request_reason": "Damaged Sidewalk",
    "date_created": "2022-08-16T15:33:10.000",
    "date_modified": "2022-08-16T15:33:10.000",
    "request_status": "Pending",
    "responsible_agency": "Department of Public Works",
    "final_address": "4767 Lancelot Dr",
    "address_councildis": "E",
    "status": "Pending",
    "rowid": "910568",
    "final_x": "3707503.41643",
    "final_y": "555678.689369",
    "longitude": "-89.98506401555545",
    "latitude": "30.02110788641665",
    "geocoded_column": {
      "latitude": "30.02110788641665",
      "longitude": "-89.98506401555545"
    }
  },
  {
    "service_request": "2022-910566",
    "request_type": "Trash/Recycling",
    "request_reason": "Missed Trash Pick-Up",
    "date_created": "2022-08-16T15:26:51.000",
    "date_modified": "2022-08-16T15:26:51.000",
    "request_status": "Pending",
    "responsible_agency": "Department of Sanitation",
    "final_address": "1912 Foucher St",
    "address_councildis": "B",
    "status": "Assigned to Contractor",
    "contractor": "Richards Disposal",
    "rowid": "910566",
    "final_x": "3673054.33377",
    "final_y": "522410.486842",
    "longitude": "-90.09504959677437",
    "latitude": "29.93070123303622",
    "geocoded_column": {
      "latitude": "29.93070123303622",
      "longitude": "-90.09504959677437"
    }
  },
  {
    "service_request": "2022-910565",
    "request_type": "Abandoned Vehicles",
    "request_reason": "Abandoned/Junk Vehicles",
    "date_created": "2022-08-16T15:24:54.000",
    "date_modified": "2022-08-16T15:24:54.000",
    "request_status": "Pending",
    "responsible_agency": "Department of Public Works",
    "final_address": "6961 Memphis St",
    "address_councildis": "A",
    "status": "Pending",
    "rowid": "910565",
    "final_x": "3669875.59348",
    "final_y": "553768.547991",
    "longitude": "-90.10402240530419",
    "latitude": "30.017019408917793",
    "geocoded_column": {
      "latitude": "30.017019408917793",
      "longitude": "-90.10402240530419"
    }
  },
  {
    "service_request": "2022-910564",
    "request_type": "Trash/Recycling",
    "request_reason": "MIssed Recycling Pick-Up",
    "date_created": "2022-08-16T15:24:01.000",
    "date_modified": "2022-08-16T15:24:02.000",
    "request_status": "Pending",
    "responsible_agency": "Department of Sanitation",
    "final_address": "7703 Nelson St",
    "address_councildis": "A",
    "status": "Assigned to Contractor",
    "contractor": "Richards Disposal",
    "rowid": "910564",
    "final_x": "3666203.71885",
    "final_y": "530904.836354",
    "longitude": "-90.1163912876698",
    "latitude": "29.9542597509511",
    "geocoded_column": {
      "latitude": "29.9542597509511",
      "longitude": "-90.1163912876698"
    }
  },
  {
    "service_request": "2022-910562",
    "request_type": "Trash/Recycling",
    "request_reason": "Repair Trash Cart",
    "date_created": "2022-08-16T15:20:51.000",
    "date_modified": "2022-08-16T15:20:52.000",
    "request_status": "Pending",
    "responsible_agency": "Department of Sanitation",
    "final_address": "2929 Constance St",
    "address_councildis": "B",
    "status": "Assigned to Contractor",
    "contractor": "Richards Disposal",
    "rowid": "910562",
    "final_x": "3676588.41384",
    "final_y": "520119.659448",
    "longitude": "-90.08397185922037",
    "latitude": "29.924296712663338",
    "geocoded_column": {
      "latitude": "29.924296712663338",
      "longitude": "-90.08397185922037"
    }
  },
  {
    "service_request": "2022-910561",
    "request_type": "Roads/Drainage",
    "request_reason": "Street Subsidence (Sinking)",
    "date_created": "2022-08-16T15:17:24.000",
    "date_modified": "2022-08-16T15:21:16.000",
    "request_status": "Pending",
    "responsible_agency": "Department of Public Works",
    "final_address": "Franklin Ave & Abundance St, New Orleans, Louisiana, 70122",
    "address_councildis": "D",
    "rowid": "910561",
    "final_x": "3687361.8",
    "final_y": "543907.08",
    "longitude": "-90.04912254229029",
    "latitude": "29.98937652933079",
    "geocoded_column": {
      "latitude": "29.98937652933079",
      "longitude": "-90.04912254229029"
    }
  },
  {
    "service_request": "2022-910560",
    "request_type": "Trash/Recycling",
    "request_reason": "Order Recycling Cart",
    "date_created": "2022-08-16T15:17:05.000",
    "date_modified": "2022-08-16T15:17:05.000",
    "request_status": "Pending",
    "responsible_agency": "Department of Sanitation",
    "final_address": "1024 Jefferson Ave",
    "address_councildis": "A",
    "status": "Pending",
    "rowid": "910560",
    "final_x": "3666826.32461",
    "final_y": "519398.018423",
    "longitude": "-90.11481172652793",
    "latitude": "29.922601494682525",
    "geocoded_column": {
      "latitude": "29.922601494682525",
      "longitude": "-90.11481172652793"
    }
  },
  {
    "service_request": "2022-910559",
    "request_type": "Roads/Drainage",
    "request_reason": "Man hole cover issue",
    "date_created": "2022-08-16T15:16:24.000",
    "date_modified": "2022-08-16T15:16:24.000",
    "request_status": "Pending",
    "responsible_agency": "Department of Public Works",
    "final_address": "5404 S Johnson St, New Orleans, Louisiana, 70125",
    "address_councildis": "A",
    "status": "Pending",
    "rowid": "910559",
    "final_x": "3668493.43828",
    "final_y": "526893.007102",
    "longitude": "-90.10929656719308",
    "latitude": "29.943161462460946",
    "geocoded_column": {
      "latitude": "29.943161462460946",
      "longitude": "-90.10929656719308"
    }
  },
  {
    "service_request": "2022-910558",
    "request_type": "Mosquito, Termite & Rodent Control",
    "request_reason": "Non-Rodent Complaint (Mice, Possums, Snakes)",
    "date_created": "2022-08-16T15:15:09.000",
    "date_modified": "2022-08-16T15:15:09.000",
    "request_status": "Pending",
    "responsible_agency": "Mosquito, Termite & Rodent Control Board",
    "final_address": "702 Pauline St",
    "address_councildis": "C",
    "status": "Pending",
    "rowid": "910558",
    "final_x": "3690814.35305",
    "final_y": "534004.730693",
    "longitude": "-90.03857039756384",
    "latitude": "29.96204173423247",
    "geocoded_column": {
      "latitude": "29.96204173423247",
      "longitude": "-90.03857039756384"
    }
  },
  {
    "service_request": "2022-910557",
    "request_type": "Traffic Signals/Signs/Striping/Streetlights",
    "request_reason": "Traffic Sign Missing/Damaged",
    "date_created": "2022-08-16T15:15:04.000",
    "date_modified": "2022-08-16T15:15:04.000",
    "request_status": "Pending",
    "responsible_agency": "Department of Public Works",
    "final_address": "W ROBERT E LEE BLVD & REGENT ST & ROBERT E LEE BLVD",
    "address_councildis": "A",
    "status": "Pending",
    "rowid": "910557",
    "final_x": "3666176.3",
    "final_y": "554875.38",
    "longitude": "-90.11567352985205",
    "latitude": "30.02017141516951",
    "geocoded_column": {
      "latitude": "30.02017141516951",
      "longitude": "-90.11567352985205"
    }
  },
  {
    "service_request": "2022-910556",
    "request_type": "Roads/Drainage",
    "request_reason": "Road Shoulder Repair",
    "date_created": "2022-08-16T15:13:06.000",
    "date_modified": "2022-08-16T15:13:07.000",
    "request_status": "Pending",
    "responsible_agency": "Department of Public Works",
    "final_address": "7220 W Renaissance Ct",
    "address_councildis": "E",
    "status": "Pending",
    "rowid": "910556",
    "final_x": "3716415.29368",
    "final_y": "567829.356516",
    "longitude": "-89.95644399553201",
    "latitude": "30.054225968446996",
    "geocoded_column": {
      "latitude": "30.054225968446996",
      "longitude": "-89.95644399553201"
    }
  },
  {
    "service_request": "2022-910555",
    "request_type": "Trash/Recycling",
    "request_reason": "Illegal Dumping",
    "date_created": "2022-08-16T15:13:04.000",
    "date_modified": "2022-08-16T15:13:04.000",
    "request_status": "Pending",
    "responsible_agency": "Department of Sanitation",
    "final_address": "ST CLAUDE AVE & LIZARDI ST",
    "address_councildis": "E",
    "status": "Pending",
    "rowid": "910555",
    "final_x": "3696528.3",
    "final_y": "534129.58",
    "longitude": "-90.02052220663448",
    "latitude": "29.962206254870203",
    "geocoded_column": {
      "latitude": "29.962206254870203",
      "longitude": "-90.02052220663448"
    }
  },
  {
    "service_request": "2022-910554",
    "request_type": "Trash/Recycling",
    "request_reason": "Missed Trash Pick-Up",
    "date_created": "2022-08-16T15:10:36.000",
    "date_modified": "2022-08-16T15:10:37.000",
    "request_status": "Pending",
    "responsible_agency": "Department of Sanitation",
    "final_address": "5575 Woodlawn Pl",
    "address_councildis": "A",
    "status": "Assigned to Contractor",
    "contractor": "Metro Disposal",
    "rowid": "910554",
    "final_x": "3667552.61357",
    "final_y": "544593.875087",
    "longitude": "-90.11167115408053",
    "latitude": "29.991860567754156",
    "geocoded_column": {
      "latitude": "29.991860567754156",
      "longitude": "-90.11167115408053"
    }
  },
  {
    "service_request": "2022-910553",
    "request_type": "Property Maintenance",
    "request_reason": "Property Maintenance",
    "date_created": "2022-08-16T15:10:05.000",
    "date_modified": "2022-08-16T15:10:05.000",
    "request_status": "Pending",
    "responsible_agency": "Department of Code Enforcement",
    "final_address": "4329 Wellington Ave",
    "address_councildis": "D",
    "status": "Pending",
    "rowid": "910553",
    "final_x": "3677315.1947",
    "final_y": "548290.906386",
    "longitude": "-90.08070551850322",
    "latitude": "30.001736290288385",
    "geocoded_column": {
      "latitude": "30.001736290288385",
      "longitude": "-90.08070551850322"
    }
  },
  {
    "service_request": "2022-910552",
    "request_type": "Trash/Recycling",
    "request_reason": "Missed Trash Pick-Up",
    "date_created": "2022-08-16T15:08:15.000",
    "date_modified": "2022-08-16T15:08:16.000",
    "request_status": "Pending",
    "responsible_agency": "Department of Sanitation",
    "final_address": "4527 Magazine St",
    "address_councildis": "B",
    "status": "Assigned to Contractor",
    "contractor": "Richards Disposal",
    "rowid": "910552",
    "final_x": "3670425.97742",
    "final_y": "518766.249143",
    "longitude": "-90.10347043940386",
    "latitude": "29.920758581833628",
    "geocoded_column": {
      "latitude": "29.920758581833628",
      "longitude": "-90.10347043940386"
    }
  },
  {
    "service_request": "2022-910551",
    "request_type": "Roads/Drainage",
    "request_reason": "Pothole",
    "date_created": "2022-08-16T15:07:59.000",
    "date_modified": "2022-08-16T15:07:59.000",
    "request_status": "Pending",
    "responsible_agency": "Department of Public Works",
    "final_address": "7200 Pontchartrain Blvd",
    "address_councildis": "A",
    "status": "Pending",
    "rowid": "910551",
    "final_x": "3666497.56218",
    "final_y": "554931.40412",
    "longitude": "-90.11465655515066",
    "latitude": "30.020316070566768",
    "geocoded_column": {
      "latitude": "30.020316070566768",
      "longitude": "-90.11465655515066"
    }
  },
  {
    "service_request": "2022-910549",
    "request_type": "Trash/Recycling",
    "request_reason": "Missed Trash Pick-Up",
    "date_created": "2022-08-16T15:05:05.000",
    "date_modified": "2022-08-16T15:05:06.000",
    "request_status": "Pending",
    "responsible_agency": "Department of Sanitation",
    "final_address": "531 Bellecastle St",
    "address_councildis": "B",
    "status": "Assigned to Contractor",
    "contractor": "Richards Disposal",
    "rowid": "910549",
    "final_x": "3667693.14951",
    "final_y": "517447.747126",
    "longitude": "-90.11214110886084",
    "latitude": "29.917213487010432",
    "geocoded_column": {
      "latitude": "29.917213487010432",
      "longitude": "-90.11214110886084"
    }
  },
  {
    "service_request": "2022-910550",
    "request_type": "Trash/Recycling",
    "request_reason": "Missed Trash Pick-Up",
    "date_created": "2022-08-16T15:05:05.000",
    "date_modified": "2022-08-16T15:05:06.000",
    "request_status": "Pending",
    "responsible_agency": "Department of Sanitation",
    "final_address": "531 Bellecastle St",
    "address_councildis": "B",
    "status": "Assigned to Contractor",
    "contractor": "Richards Disposal",
    "rowid": "910550",
    "final_x": "3667693.14951",
    "final_y": "517447.747126",
    "longitude": "-90.11214110886084",
    "latitude": "29.917213487010432",
    "geocoded_column": {
      "latitude": "29.917213487010432",
      "longitude": "-90.11214110886084"
    }
  },
  {
    "service_request": "2022-910548",
    "request_type": "Trash/Recycling",
    "request_reason": "Missed Trash Pick-Up",
    "date_created": "2022-08-16T15:01:53.000",
    "date_modified": "2022-08-16T15:01:54.000",
    "request_status": "Pending",
    "responsible_agency": "Department of Sanitation",
    "final_address": "3723 DHemecourt St",
    "address_councildis": "B",
    "status": "Assigned to Contractor",
    "contractor": "Richards Disposal",
    "rowid": "910548",
    "final_x": "3671012.44155",
    "final_y": "535999.306951",
    "longitude": "-90.10103422299287",
    "latitude": "29.96812654604858",
    "geocoded_column": {
      "latitude": "29.96812654604858",
      "longitude": "-90.10103422299287"
    }
  },
  {
    "service_request": "2022-910547",
    "request_type": "Property Maintenance",
    "request_reason": "Property Maintenance",
    "date_created": "2022-08-16T15:00:11.000",
    "date_modified": "2022-08-16T15:00:11.000",
    "request_status": "Pending",
    "responsible_agency": "Department of Code Enforcement",
    "final_address": "2619 Tricou St",
    "address_councildis": "E",
    "status": "Pending",
    "rowid": "910547",
    "final_x": "3702403.52657",
    "final_y": "538548.822601",
    "longitude": "-90.00180707583904",
    "latitude": "29.974171175584363",
    "geocoded_column": {
      "latitude": "29.974171175584363",
      "longitude": "-90.00180707583904"
    }
  },
  {
    "service_request": "2022-910546",
    "request_type": "Property Maintenance",
    "request_reason": "Property Maintenance",
    "date_created": "2022-08-16T14:59:55.000",
    "date_modified": "2022-08-16T14:59:55.000",
    "request_status": "Pending",
    "responsible_agency": "Department of Code Enforcement",
    "final_address": "6323 Law St",
    "address_councildis": "E",
    "status": "Pending",
    "rowid": "910546",
    "final_x": "3702522.90135",
    "final_y": "538363.589321",
    "longitude": "-90.0014368654439",
    "latitude": "29.97365803670769",
    "geocoded_column": {
      "latitude": "29.97365803670769",
      "longitude": "-90.0014368654439"
    }
  },
  {
    "service_request": "2022-910545",
    "request_type": "Property Maintenance",
    "request_reason": "Property Maintenance",
    "date_created": "2022-08-16T14:59:42.000",
    "date_modified": "2022-08-16T14:59:42.000",
    "request_status": "Pending",
    "responsible_agency": "Department of Code Enforcement",
    "final_address": "6321 Law St",
    "address_councildis": "E",
    "status": "Pending",
    "rowid": "910545",
    "final_x": "3702481.41802",
    "final_y": "538380.261257",
    "longitude": "-90.00156726578541",
    "latitude": "29.973705204252905",
    "geocoded_column": {
      "latitude": "29.973705204252905",
      "longitude": "-90.00156726578541"
    }
  },
  {
    "service_request": "2022-910544",
    "request_type": "Property Maintenance",
    "request_reason": "Property Maintenance",
    "date_created": "2022-08-16T14:59:30.000",
    "date_modified": "2022-08-16T14:59:30.000",
    "request_status": "Pending",
    "responsible_agency": "Department of Code Enforcement",
    "final_address": "6313 Law St",
    "address_councildis": "E",
    "status": "Pending",
    "rowid": "910544",
    "final_x": "3702439.93354",
    "final_y": "538397.046857",
    "longitude": "-90.00169766571032",
    "latitude": "29.97375268423995",
    "geocoded_column": {
      "latitude": "29.97375268423995",
      "longitude": "-90.00169766571032"
    }
  },
  {
    "service_request": "2022-910543",
    "request_type": "Property Maintenance",
    "request_reason": "Property Maintenance",
    "date_created": "2022-08-16T14:59:00.000",
    "date_modified": "2022-08-16T14:59:01.000",
    "request_status": "Pending",
    "responsible_agency": "Department of Code Enforcement",
    "final_address": "2537 Tricou St",
    "address_councildis": "E",
    "status": "Pending",
    "rowid": "910543",
    "final_x": "3702329.27076",
    "final_y": "538365.489097",
    "longitude": "-90.00204831830277",
    "latitude": "29.97366944765265",
    "geocoded_column": {
      "latitude": "29.97366944765265",
      "longitude": "-90.00204831830277"
    }
  },
  {
    "service_request": "2022-910542",
    "request_type": "Trash/Recycling",
    "request_reason": "Order Trash Cart",
    "date_created": "2022-08-16T14:55:48.000",
    "date_modified": "2022-08-16T15:04:41.000",
    "request_status": "Pending",
    "responsible_agency": "Department of Sanitation",
    "final_address": "New Orleans,LA",
    "address_councildis": "A",
    "status": "Assigned to Contractor",
    "contractor": "Richards Disposal",
    "rowid": "910542",
    "final_x": "3663287.19527",
    "final_y": "525849.362109",
    "longitude": "-90.12576877945969",
    "latitude": "29.94044366884792",
    "geocoded_column": {
      "latitude": "29.94044366884792",
      "longitude": "-90.12576877945969"
    }
  },
  {
    "service_request": "2022-910541",
    "request_type": "Trash/Recycling",
    "request_reason": "MIssed Recycling Pick-Up",
    "date_created": "2022-08-16T14:54:28.000",
    "date_modified": "2022-08-16T14:54:29.000",
    "request_status": "Pending",
    "responsible_agency": "Department of Sanitation",
    "final_address": "2711 Holiday Dr",
    "address_councildis": "C",
    "status": "Assigned to Contractor",
    "contractor": "Richards Disposal",
    "rowid": "910541",
    "final_x": "3698723.44215",
    "final_y": "521316.340921",
    "longitude": "-90.01405618047525",
    "latitude": "29.92690499120668",
    "geocoded_column": {
      "latitude": "29.92690499120668",
      "longitude": "-90.01405618047525"
    }
  },
  {
    "service_request": "2022-910539",
    "request_type": "Trash/Recycling",
    "request_reason": "MIssed Recycling Pick-Up",
    "date_created": "2022-08-16T14:51:47.000",
    "date_modified": "2022-08-16T15:06:14.000",
    "request_status": "Pending",
    "responsible_agency": "Department of Sanitation",
    "final_address": "New Orleans,LA",
    "address_councildis": "C",
    "status": "Assigned to Contractor",
    "contractor": "Richards Disposal",
    "rowid": "910539",
    "final_x": "3698723.44215",
    "final_y": "521316.340921",
    "longitude": "-90.01405618047525",
    "latitude": "29.92690499120668",
    "geocoded_column": {
      "latitude": "29.92690499120668",
      "longitude": "-90.01405618047525"
    }
  },
  {
    "service_request": "2022-910537",
    "request_type": "Trash/Recycling",
    "request_reason": "Return Trash Cart",
    "date_created": "2022-08-16T14:50:26.000",
    "date_modified": "2022-08-16T14:50:26.000",
    "request_status": "Pending",
    "responsible_agency": "Department of Sanitation",
    "final_address": "2340 Audubon St",
    "address_councildis": "A",
    "status": "Assigned to Contractor",
    "contractor": "Richards Disposal",
    "rowid": "910537",
    "final_x": "3666785.08205",
    "final_y": "529910.882049",
    "longitude": "-90.11458894999286",
    "latitude": "29.951509710346222",
    "geocoded_column": {
      "latitude": "29.951509710346222",
      "longitude": "-90.11458894999286"
    }
  },
  {
    "service_request": "2022-910536",
    "request_type": "Trash/Recycling",
    "request_reason": "Request a Large Item Pick Up",
    "date_created": "2022-08-16T14:50:15.000",
    "date_modified": "2022-08-16T14:50:16.000",
    "request_status": "Pending",
    "responsible_agency": "Department of Sanitation",
    "final_address": "8210 Aberdeen Rd",
    "address_councildis": "E",
    "status": "Assigned to Contractor",
    "contractor": "Metro Disposal",
    "rowid": "910536",
    "final_x": "3702993.89335",
    "final_y": "561349.399006",
    "longitude": "-89.99910409091869",
    "latitude": "30.036845267065075",
    "geocoded_column": {
      "latitude": "30.036845267065075",
      "longitude": "-89.99910409091869"
    }
  },
  {
    "service_request": "2022-910535",
    "request_type": "Trash/Recycling",
    "request_reason": "Request a Large Item Pick Up",
    "date_created": "2022-08-16T14:49:45.000",
    "date_modified": "2022-08-16T14:49:45.000",
    "request_status": "Pending",
    "responsible_agency": "Department of Sanitation",
    "final_address": "1310 Arts St, New Orleans, Louisiana, 70117",
    "address_councildis": "C",
    "status": "Assigned to Contractor",
    "contractor": "Metro Disposal",
    "rowid": "910535",
    "final_x": "3687057.97052",
    "final_y": "537314.853896",
    "longitude": "-90.05031540796423",
    "latitude": "29.971259597829626",
    "geocoded_column": {
      "latitude": "29.971259597829626",
      "longitude": "-90.05031540796423"
    }
  },
  {
    "service_request": "2022-910534",
    "request_type": "Trash/Recycling",
    "request_reason": "Replace Trash Cart",
    "date_created": "2022-08-16T14:48:16.000",
    "date_modified": "2022-08-16T14:48:32.000",
    "request_status": "Pending",
    "responsible_agency": "Department of Sanitation",
    "final_address": "248 26Th St",
    "address_councildis": "A",
    "status": "Assigned to Contractor",
    "contractor": "Metro Disposal",
    "rowid": "910534",
    "final_x": "3665357.08775",
    "final_y": "549876.448724",
    "longitude": "-90.11842946642531",
    "latitude": "30.006450012615048",
    "geocoded_column": {
      "latitude": "30.006450012615048",
      "longitude": "-90.11842946642531"
    }
  },
  {
    "service_request": "2022-910533",
    "request_type": "Property Maintenance",
    "request_reason": "Property Maintenance",
    "date_created": "2022-08-16T14:43:12.000",
    "date_modified": "2022-08-16T14:43:12.000",
    "request_status": "Pending",
    "responsible_agency": "Department of Code Enforcement",
    "final_address": "4321 Paris Ave",
    "address_councildis": "D",
    "status": "Pending",
    "rowid": "910533",
    "final_x": "3679560.51707",
    "final_y": "548052.368466",
    "longitude": "-90.0736205976197",
    "latitude": "30.001012712682407",
    "geocoded_column": {
      "latitude": "30.001012712682407",
      "longitude": "-90.0736205976197"
    }
  },
  {
    "service_request": "2022-910532",
    "request_type": "Trash/Recycling",
    "request_reason": "Request a Large Item Pick Up",
    "date_created": "2022-08-16T14:43:09.000",
    "date_modified": "2022-08-16T14:43:10.000",
    "request_status": "Pending",
    "responsible_agency": "Department of Sanitation",
    "final_address": "3008 Toulouse St",
    "address_councildis": "A",
    "status": "Assigned to Contractor",
    "contractor": "Richards Disposal",
    "rowid": "910532",
    "final_x": "3675353.15374",
    "final_y": "537348.488648",
    "longitude": "-90.0872797319936",
    "latitude": "29.97170726298513",
    "geocoded_column": {
      "latitude": "29.97170726298513",
      "longitude": "-90.0872797319936"
    }
  },
  {
    "service_request": "2022-910531",
    "request_type": "Property Maintenance",
    "request_reason": "Property Maintenance",
    "date_created": "2022-08-16T14:42:59.000",
    "date_modified": "2022-08-16T14:42:59.000",
    "request_status": "Pending",
    "responsible_agency": "Department of Code Enforcement",
    "final_address": "4901 Friar Tuck Dr",
    "address_councildis": "E",
    "status": "Pending",
    "rowid": "910531",
    "final_x": "3717756.92773",
    "final_y": "557699.564571",
    "longitude": "-89.9525892708059",
    "latitude": "30.026328760694202",
    "geocoded_column": {
      "latitude": "30.026328760694202",
      "longitude": "-89.9525892708059"
    }
  },
  {
    "service_request": "2022-910530",
    "request_type": "Trash/Recycling",
    "request_reason": "Replace Trash Cart",
    "date_created": "2022-08-16T14:37:54.000",
    "date_modified": "2022-08-16T14:37:55.000",
    "request_status": "Pending",
    "responsible_agency": "Department of Sanitation",
    "final_address": "1626 S Carrollton Ave",
    "address_councildis": "A",
    "status": "Assigned to Contractor",
    "contractor": "Richards Disposal",
    "rowid": "910530",
    "final_x": "3663054.50144",
    "final_y": "529602.393089",
    "longitude": "-90.12637862623927",
    "latitude": "29.950770043025027",
    "geocoded_column": {
      "latitude": "29.950770043025027",
      "longitude": "-90.12637862623927"
    }
  },
  {
    "service_request": "2022-910529",
    "request_type": "Trash/Recycling",
    "request_reason": "MIssed Recycling Pick-Up",
    "date_created": "2022-08-16T14:36:53.000",
    "date_modified": "2022-08-16T14:36:54.000",
    "request_status": "Pending",
    "responsible_agency": "Department of Sanitation",
    "final_address": "1205 Valence St",
    "address_councildis": "B",
    "status": "Assigned to Contractor",
    "contractor": "Richards Disposal",
    "rowid": "910529",
    "final_x": "3669899.03559",
    "final_y": "519801.370488",
    "longitude": "-90.10509873404295",
    "latitude": "29.923620378319395",
    "geocoded_column": {
      "latitude": "29.923620378319395",
      "longitude": "-90.10509873404295"
    }
  },
  {
    "service_request": "2022-910528",
    "request_type": "Trash/Recycling",
    "request_reason": "Missed Trash Pick-Up",
    "date_created": "2022-08-16T14:36:04.000",
    "date_modified": "2022-08-16T14:36:05.000",
    "request_status": "Pending",
    "responsible_agency": "Department of Sanitation",
    "final_address": "6923 West End Blvd",
    "address_councildis": "A",
    "status": "Assigned to Contractor",
    "contractor": "Metro Disposal",
    "rowid": "910528",
    "final_x": "3666907.73933",
    "final_y": "553956.939608",
    "longitude": "-90.11339329810102",
    "latitude": "30.0176246355466",
    "geocoded_column": {
      "latitude": "30.0176246355466",
      "longitude": "-90.11339329810102"
    }
  },