[
  {
    "service_request": "2024-1151000",
    "request_type": "Streetlights",
    "request_reason": "Streetlight Outage/Malfunction",
    "date_created": "2024-11-24T23:10:14.000",
    "date_modified": "2024-11-24T23:10:15.000",
    "request_status": "Pending",
    "responsible_agency": "Department of Public Works",
    "final_address": "9142 Bunker Hill Rd",
    "address_councildis": "E",
    "status": "Pending",
    "contractor": "Legacy Professional Services",
    "rowid": "1151000",
    "final_x": "3707114.82136",
    "final_y": "560367.500894",
    "longitude": "-89.98611766555759",
    "latitude": "30.03401285141108",
    "geocoded_column": {
      "latitude": "30.03401285141108",
      "longitude": "-89.98611766555759"
    }
  },
  {
    "service_request": "2024-1150999",
    "request_type": "Streetlights",
    "request_reason": "Streetlight Outage/Malfunction",
    "date_created": "2024-11-24T22:59:27.000",
    "date_modified": "2024-11-24T22:59:28.000",
    "request_status": "Pending",
    "responsible_agency": "Department of Public Works",
    "final_address": "13774 Lourdes St",
    "address_councildis": "E",
    "status": "Pending",
    "contractor": "Legacy Professional Services",
    "rowid": "1150999",
    "final_x": "3727836.71155",
    "final_y": "561570.255647",
    "longitude": "-89.920588035472",
    "latitude": "30.036633741503586",
    "geocoded_column": {
      "latitude": "30.036633741503586",
      "longitude": "-89.920588035472"
    }
  },
  {
    "service_request": "2024-1150998",
    "request_type": "City-Owned Cemeteries",
    "request_reason": "Property Maintenance",
    "date_created": "2024-11-24T22:32:25.000",
    "date_modified": "2024-11-24T22:32:25.000",
    "request_status": "Pending",
    "responsible_agency": "Department of Property Management",
    "final_address": "501 City Park Ave",
    "address_councildis": "A",
    "status": "Pending",
    "rowid": "1150998",
    "final_x": "3669315.41806",
    "final_y": "541791.181452",
    "longitude": "-90.10619761914771",
    "latitude": "29.98410232241459",
    "geocoded_column": {
      "latitude": "29.98410232241459",
      "longitude": "-90.10619761914771"
    }
  },
  {
    "service_request": "2024-1150997",
    "request_type": "Streetlights",
    "request_reason": "Streetlight Outage/Malfunction",
    "date_created": "2024-11-24T20:33:21.000",
    "date_modified": "2024-11-24T20:33:22.000",
    "request_status": "Pending",
    "responsible_agency": "Department of Public Works",
    "final_address": "5563 Rosemary Pl",
    "address_councildis": "A",
    "status": "Pending",
    "contractor": "Legacy Professional Services",
    "rowid": "1150997",
    "final_x": "3667186.42394",
    "final_y": "544460.624399",
    "longitude": "-90.11283235808882",
    "latitude": "29.991504904029423",
    "geocoded_column": {
      "latitude": "29.991504904029423",
      "longitude": "-90.11283235808882"
    }
  },
  {
    "service_request": "2024-1150996",
    "request_type": "Trash/Recycling",
    "request_reason": "Request a Large Item Pick Up",
    "date_created": "2024-11-24T20:32:35.000",
    "date_modified": "2024-11-24T20:32:36.000",
    "request_status": "Pending",
    "responsible_agency": "Department of Sanitation",
    "final_address": "4601 Murano Rd",
    "address_councildis": "E",
    "status": "Assigned to Contractor",
    "contractor": "Waste Pro",
    "rowid": "1150996",
    "final_x": "3761457.84086",
    "final_y": "573989.479402",
    "longitude": "-89.81382068365772",
    "latitude": "30.06959832373683",
    "geocoded_column": {
      "latitude": "30.06959832373683",
      "longitude": "-89.81382068365772"
    }
  },
  {
    "service_request": "2024-1150995",
    "request_type": "Roads and Streets",
    "request_reason": "Sidewalk Damaged or Missing",
    "date_created": "2024-11-24T20:31:17.000",
    "date_modified": "2024-11-24T20:31:17.000",
    "request_status": "Pending",
    "responsible_agency": "Department of Public Works",
    "final_address": "4741 St Anthony Ave",
    "address_councildis": "D",
    "status": "Pending",
    "rowid": "1150995",
    "final_x": "3682479.86012",
    "final_y": "550147.297108",
    "longitude": "-90.06432487206015",
    "latitude": "30.006684441657036",
    "geocoded_column": {
      "latitude": "30.006684441657036",
      "longitude": "-90.06432487206015"
    }
  },
  {
    "service_request": "2024-1150994",
    "request_type": "Trash/Recycling",
    "request_reason": "Request a Large Item Pick Up",
    "date_created": "2024-11-24T19:43:04.000",
    "date_modified": "2024-11-24T19:43:05.000",
    "request_status": "Pending",
    "responsible_agency": "Department of Sanitation",
    "final_address": "901 Porteous St",
    "address_councildis": "A",
    "status": "Assigned to Contractor",
    "contractor": "IV Waste",
    "rowid": "1150994",
    "final_x": "3670296.16058",
    "final_y": "551299.520789",
    "longitude": "-90.10277736183275",
    "latitude": "30.010218043777957",
    "geocoded_column": {
      "latitude": "30.010218043777957",
      "longitude": "-90.10277736183275"
    }
  },
  {
    "service_request": "2024-1150993",
    "request_type": "Roads and Streets",
    "request_reason": "Street Subsidence (Sinking)",
    "date_created": "2024-11-24T19:25:56.000",
    "date_modified": "2024-11-24T19:25:56.000",
    "request_status": "Pending",
    "responsible_agency": "Department of Public Works",
    "final_address": "1 English Turn Prkwy",
    "address_councildis": "C",
    "status": "Pending",
    "rowid": "1150993",
    "final_x": "3713690.71429",
    "final_y": "516301.512564",
    "longitude": "-89.96699773956271",
    "latitude": "29.912633659868995",
    "geocoded_column": {
      "latitude": "29.912633659868995",
      "longitude": "-89.96699773956271"
    }
  },
  {
    "service_request": "2024-1150992",
    "request_type": "Roads and Streets",
    "request_reason": "Sidewalk Damaged or Missing",
    "date_created": "2024-11-24T19:15:16.000",
    "date_modified": "2024-11-24T19:15:16.000",
    "request_status": "Pending",
    "responsible_agency": "Department of Public Works",
    "final_address": "914 N Dorgenois St",
    "address_councildis": "D",
    "status": "Pending",
    "rowid": "1150992",
    "final_x": "3677695.18075",
    "final_y": "537258.56948",
    "longitude": "-90.07988635560078",
    "latitude": "29.971389778369478",
    "geocoded_column": {
      "latitude": "29.971389778369478",
      "longitude": "-90.07988635560078"
    }
  },
  {
    "service_request": "2024-1150991",
    "request_type": "Roads and Streets",
    "request_reason": "Sidewalk Damaged or Missing",
    "date_created": "2024-11-24T19:13:57.000",
    "date_modified": "2024-11-24T19:13:57.000",
    "request_status": "Pending",
    "responsible_agency": "Department of Public Works",
    "final_address": "929 N Dorgenois St",
    "address_councildis": "D",
    "status": "Pending",
    "rowid": "1150991",
    "final_x": "3677645.78952",
    "final_y": "537467.23956",
    "longitude": "-90.08003513211125",
    "latitude": "29.97196503522215",
    "geocoded_column": {
      "latitude": "29.97196503522215",
      "longitude": "-90.08003513211125"
    }
  },
  {
    "service_request": "2024-1150990",
    "request_type": "Trash/Recycling",
    "request_reason": "Request a Large Item Pick Up",
    "date_created": "2024-11-24T19:11:14.000",
    "date_modified": "2024-11-24T19:11:15.000",
    "request_status": "Pending",
    "responsible_agency": "Department of Sanitation",
    "final_address": "3032 Marais St",
    "address_councildis": "C",
    "status": "Assigned to Contractor",
    "contractor": "IV Waste",
    "rowid": "1150990",
    "final_x": "3688774.57468",
    "final_y": "536397.610055",
    "longitude": "-90.04492672168405",
    "latitude": "29.968684535984448",
    "geocoded_column": {
      "latitude": "29.968684535984448",
      "longitude": "-90.04492672168405"
    }
  },
  {
    "service_request": "2024-1150989",
    "request_type": "Streetlights",
    "request_reason": "Streetlight Outage/Malfunction",
    "date_created": "2024-11-24T19:10:45.000",
    "date_modified": "2024-11-24T19:10:47.000",
    "request_status": "Pending",
    "responsible_agency": "Department of Public Works",
    "final_address": "2550 Dumaine St",
    "address_councildis": "D",
    "status": "Pending",
    "contractor": "Legacy Professional Services",
    "rowid": "1150989",
    "final_x": "3677612.72328",
    "final_y": "537123.734216",
    "longitude": "-90.08015142540307",
    "latitude": "29.971021507466098",
    "geocoded_column": {
      "latitude": "29.971021507466098",
      "longitude": "-90.08015142540307"
    }
  },
  {
    "service_request": "2024-1150988",
    "request_type": "Trash/Recycling",
    "request_reason": "Request a Large Item Pick Up",
    "date_created": "2024-11-24T18:52:24.000",
    "date_modified": "2024-11-24T18:52:25.000",
    "request_status": "Pending",
    "responsible_agency": "Department of Sanitation",
    "final_address": "2000 S Carrollton Ave",
    "address_councildis": "A",
    "status": "Assigned to Contractor",
    "contractor": "IV Waste",
    "rowid": "1150988",
    "final_x": "3663869.15655",
    "final_y": "530500.026242",
    "longitude": "-90.12377643009548",
    "latitude": "29.953214623781495",
    "geocoded_column": {
      "latitude": "29.953214623781495",
      "longitude": "-90.12377643009548"
    }
  },
  {
    "service_request": "2024-1150987",
    "request_type": "Drainage",
    "request_reason": "Catch Basin Clogged",
    "date_created": "2024-11-24T18:39:04.000",
    "date_modified": "2024-11-24T18:39:04.000",
    "request_status": "Pending",
    "responsible_agency": "Department of Public Works",
    "final_address": "5800 BLK Saint Bernard Ave",
    "address_councildis": "D",
    "status": "Pending",
    "rowid": "1150987",
    "final_x": "3676832.37497",
    "final_y": "553935.626824",
    "longitude": "-90.08203606271354",
    "latitude": "30.0172717598272",
    "geocoded_column": {
      "latitude": "30.0172717598272",
      "longitude": "-90.08203606271354"
    }
  },
  {
    "service_request": "2024-1150986",
    "request_type": "Drainage",
    "request_reason": "Catch Basin Clogged",
    "date_created": "2024-11-24T18:37:28.000",
    "date_modified": "2024-11-24T18:37:28.000",
    "request_status": "Pending",
    "responsible_agency": "Department of Public Works",
    "final_address": "5800 BLK Saint Bernard Ave",
    "address_councildis": "D",
    "status": "Pending",
    "rowid": "1150986",
    "final_x": "3676832.37497",
    "final_y": "553935.626824",
    "longitude": "-90.08203606271354",
    "latitude": "30.0172717598272",
    "geocoded_column": {
      "latitude": "30.0172717598272",
      "longitude": "-90.08203606271354"
    }
  },
  {
    "service_request": "2024-1150985",
    "request_type": "Trash/Recycling",
    "request_reason": "Request a Large Item Pick Up",
    "date_created": "2024-11-24T18:22:37.000",
    "date_modified": "2024-11-24T18:22:38.000",
    "request_status": "Pending",
    "responsible_agency": "Department of Sanitation",
    "final_address": "2317 Barracks St",
    "address_councildis": "D",
    "status": "Assigned to Contractor",
    "contractor": "IV Waste",
    "rowid": "1150985",
    "final_x": "3679330.22671",
    "final_y": "537769.473288",
    "longitude": "-90.07470492374357",
    "latitude": "29.972745306730104",
    "geocoded_column": {
      "latitude": "29.972745306730104",
      "longitude": "-90.07470492374357"
    }
  },
  {
    "service_request": "2024-1150984",
    "request_type": "General Services",
    "request_reason": "General Service Request",
    "date_created": "2024-11-24T18:21:04.000",
    "date_modified": "2024-11-24T18:21:04.000",
    "request_status": "Pending",
    "responsible_agency": "Orleans Parish Communication District",
    "final_address": " & BALDWIN ST",
    "address_councildis": "D",
    "status": "Pending",
    "rowid": "1150984",
    "final_x": "3687880.8",
    "final_y": "560035.64",
    "longitude": "-90.04691121641319",
    "latitude": "30.03370814054373",
    "geocoded_column": {
      "latitude": "30.03370814054373",
      "longitude": "-90.04691121641319"
    }
  },
  {
    "service_request": "2024-1150983",
    "request_type": "Roads and Streets",
    "request_reason": "Street Subsidence (Sinking)",
    "date_created": "2024-11-24T18:19:24.000",
    "date_modified": "2024-11-24T18:19:24.000",
    "request_status": "Pending",
    "responsible_agency": "Department of Public Works",
    "final_address": "1 English Turn Prkwy",
    "address_councildis": "C",
    "status": "Pending",
    "rowid": "1150983",
    "final_x": "3713690.71429",
    "final_y": "516301.512564",
    "longitude": "-89.96699773956271",
    "latitude": "29.912633659868995",
    "geocoded_column": {
      "latitude": "29.912633659868995",
      "longitude": "-89.96699773956271"
    }
  },
  {
    "service_request": "2024-1150982",
    "request_type": "Roads and Streets",
    "request_reason": "Street Subsidence (Sinking)",
    "date_created": "2024-11-24T18:18:54.000",
    "date_modified": "2024-11-24T18:18:54.000",
    "request_status": "Pending",
    "responsible_agency": "Department of Public Works",
    "final_address": "1 English Turn Ct",
    "address_councildis": "C",
    "status": "Pending",
    "rowid": "1150982",
    "final_x": "3718246.48012",
    "final_y": "514951.349171",
    "longitude": "-89.95266997347049",
    "latitude": "29.908771029725997",
    "geocoded_column": {
      "latitude": "29.908771029725997",
      "longitude": "-89.95266997347049"
    }
  },
  {
    "service_request": "2024-1150981",
    "request_type": "Trash/Recycling",
    "request_reason": "Request a Large Item Pick Up",
    "date_created": "2024-11-24T18:09:08.000",
    "date_modified": "2024-11-24T18:09:09.000",
    "request_status": "Pending",
    "responsible_agency": "Department of Sanitation",
    "final_address": "2915 Coliseum St",
    "address_councildis": "B",
    "status": "Assigned to Contractor",
    "contractor": "IV Waste",
    "rowid": "1150981",
    "final_x": "3675914.36705",
    "final_y": "521361.773113",
    "longitude": "-90.08605691292797",
    "latitude": "29.9277323147534",
    "geocoded_column": {
      "latitude": "29.9277323147534",
      "longitude": "-90.08605691292797"
    }
  },
  {
    "service_request": "2024-1150980",
    "request_type": "Trash/Recycling",
    "request_reason": "Request a Large Item Pick Up",
    "date_created": "2024-11-24T18:01:48.000",
    "date_modified": "2024-11-24T18:01:49.000",
    "request_status": "Pending",
    "responsible_agency": "Department of Sanitation",
    "final_address": "5651 Marshal Foch St",
    "address_councildis": "A",
    "status": "Assigned to Contractor",
    "contractor": "IV Waste",
    "rowid": "1150980",
    "final_x": "3669703.25498",
    "final_y": "545030.876815",
    "longitude": "-90.10486290872099",
    "latitude": "29.992998948662798",
    "geocoded_column": {
      "latitude": "29.992998948662798",
      "longitude": "-90.10486290872099"
    }
  },
  {
    "service_request": "2024-1150979",
    "request_type": "Abandoned Vehicles",
    "request_reason": "Abandoned/Junk Vehicles",
    "date_created": "2024-11-24T17:56:59.000",
    "date_modified": "2024-11-24T17:56:59.000",
    "request_status": "Pending",
    "responsible_agency": "Department of Public Works",
    "final_address": "424 Pacific Ave",
    "address_councildis": "C",
    "status": "Pending",
    "rowid": "1150979",
    "final_x": "3688563.15369",
    "final_y": "530087.210881",
    "longitude": "-90.04581832540329",
    "latitude": "29.951339661628523",
    "geocoded_column": {
      "latitude": "29.951339661628523",
      "longitude": "-90.04581832540329"
    }
  },
  {
    "service_request": "2024-1150978",
    "request_type": "Trash/Recycling",
    "request_reason": "Request a Large Item Pick Up",
    "date_created": "2024-11-24T17:50:09.000",
    "date_modified": "2024-11-24T17:50:10.000",
    "request_status": "Pending",
    "responsible_agency": "Department of Sanitation",
    "final_address": "921 N Miro St",
    "address_councildis": "D",
    "status": "Assigned to Contractor",
    "contractor": "IV Waste",
    "rowid": "1150978",
    "final_x": "3678648.73947",
    "final_y": "551142.778581",
    "longitude": "-90.07639388268083",
    "latitude": "30.00953776837034",
    "geocoded_column": {
      "latitude": "30.00953776837034",
      "longitude": "-90.07639388268083"
    }
  },
  {
    "service_request": "2024-1150977",
    "request_type": "Trash/Recycling",
    "request_reason": "Request a Large Item Pick Up",
    "date_created": "2024-11-24T17:40:34.000",
    "date_modified": "2024-11-24T17:40:35.000",
    "request_status": "Pending",
    "responsible_agency": "Department of Sanitation",
    "final_address": "230 Bermuda St",
    "address_councildis": "C",
    "status": "Assigned to Contractor",
    "contractor": "Richards Disposal",
    "rowid": "1150977",
    "final_x": "3686226.27554",
    "final_y": "530919.130562",
    "longitude": "-90.05316767471204",
    "latitude": "29.95369915045133",
    "geocoded_column": {
      "latitude": "29.95369915045133",
      "longitude": "-90.05316767471204"
    }
  },
  {
    "service_request": "2024-1150976",
    "request_type": "Trash/Recycling",
    "request_reason": "Request a Large Item Pick Up",
    "date_created": "2024-11-24T17:38:42.000",
    "date_modified": "2024-11-24T17:38:43.000",
    "request_status": "Pending",
    "responsible_agency": "Department of Sanitation",
    "final_address": "6125 Patton St",
    "address_councildis": "A",
    "status": "Assigned to Contractor",
    "contractor": "IV Waste",
    "rowid": "1150976",
    "final_x": "3663704.36954",
    "final_y": "518927.199991",
    "longitude": "-90.12468221000961",
    "latitude": "29.92139781066274",
    "geocoded_column": {
      "latitude": "29.92139781066274",
      "longitude": "-90.12468221000961"
    }
  },
  {
    "service_request": "2024-1150975",
    "request_type": "Roads and Streets",
    "request_reason": "Sidewalk Damaged or Missing",
    "date_created": "2024-11-24T17:30:16.000",
    "date_modified": "2024-11-24T17:30:16.000",
    "request_status": "Pending",
    "responsible_agency": "Department of Public Works",
    "final_address": "2501 St Philip St",
    "address_councildis": "D",
    "status": "Pending",
    "rowid": "1150975",
    "final_x": "3678205.40424",
    "final_y": "537278.2114",
    "longitude": "-90.07827431697983",
    "latitude": "29.971428430152542",
    "geocoded_column": {
      "latitude": "29.971428430152542",
      "longitude": "-90.07827431697983"
    }
  },
  {
    "service_request": "2024-1150974",
    "request_type": "Trash/Recycling",
    "request_reason": "Order Recycling Cart",
    "date_created": "2024-11-24T17:07:00.000",
    "date_modified": "2024-11-24T17:07:00.000",
    "request_status": "Pending",
    "responsible_agency": "Department of Sanitation",
    "final_address": "6418 Music St",
    "address_councildis": "D",
    "status": "Pending",
    "rowid": "1150974",
    "final_x": "3685161.09935",
    "final_y": "556831.899418",
    "longitude": "-90.0556186657788",
    "latitude": "30.02498272430916",
    "geocoded_column": {
      "latitude": "30.02498272430916",
      "longitude": "-90.0556186657788"
    }
  },
  {
    "service_request": "2024-1150973",
    "request_type": "Trash/Recycling",
    "request_reason": "Request a Large Item Pick Up",
    "date_created": "2024-11-24T17:02:13.000",
    "date_modified": "2024-11-24T17:02:15.000",
    "request_status": "Pending",
    "responsible_agency": "Department of Sanitation",
    "final_address": "1500 Crescent St",
    "address_councildis": "D",
    "status": "Assigned to Contractor",
    "contractor": "IV Waste",
    "rowid": "1150973",
    "final_x": "3678544.07925",
    "final_y": "552388.871062",
    "longitude": "-90.07668136542954",
    "latitude": "30.012967231372674",
    "geocoded_column": {
      "latitude": "30.012967231372674",
      "longitude": "-90.07668136542954"
    }
  },
  {
    "service_request": "2024-1150972",
    "request_type": "Property Maintenance",
    "request_reason": "Property Maintenance",
    "date_created": "2024-11-24T17:00:11.000",
    "date_modified": "2024-11-24T17:00:11.000",
    "request_status": "Pending",
    "responsible_agency": "Department of Code Enforcement",
    "final_address": "701 Loyola Ave",
    "address_councildis": "B",
    "status": "Pending",
    "rowid": "1150972",
    "final_x": "3678722.31176",
    "final_y": "528709.077568",
    "longitude": "-90.07693858467589",
    "latitude": "29.947850633637767",
    "geocoded_column": {
      "latitude": "29.947850633637767",
      "longitude": "-90.07693858467589"
    }
  },
  {
    "service_request": "2024-1150971",
    "request_type": "Roads and Streets",
    "request_reason": "Street Subsidence (Sinking)",
    "date_created": "2024-11-24T16:56:47.000",
    "date_modified": "2024-11-24T16:56:47.000",
    "request_status": "Pending",
    "responsible_agency": "Department of Public Works",
    "final_address": "1 English Turn Prkwy",
    "address_councildis": "C",
    "status": "Pending",
    "rowid": "1150971",
    "final_x": "3713690.71429",
    "final_y": "516301.512564",
    "longitude": "-89.96699773956271",
    "latitude": "29.912633659868995",
    "geocoded_column": {
      "latitude": "29.912633659868995",
      "longitude": "-89.96699773956271"
    }
  },
  {
    "service_request": "2024-1150970",
    "request_type": "Roads and Streets",
    "request_reason": "Street Subsidence (Sinking)",
    "date_created": "2024-11-24T16:53:51.000",
    "date_modified": "2024-11-24T16:53:51.000",
    "request_status": "Pending",
    "responsible_agency": "Department of Public Works",
    "final_address": "1 English Turn Prkwy",
    "address_councildis": "C",
    "status": "Pending",
    "rowid": "1150970",
    "final_x": "3713690.71429",
    "final_y": "516301.512564",
    "longitude": "-89.96699773956271",
    "latitude": "29.912633659868995",
    "geocoded_column": {
      "latitude": "29.912633659868995",
      "longitude": "-89.96699773956271"
    }
  },
  {
    "service_request": "2024-1150969",
    "request_type": "Trash/Recycling",
    "request_reason": "Request a Large Item Pick Up",
    "date_created": "2024-11-24T16:42:47.000",
    "date_modified": "2024-11-24T16:42:48.000",
    "request_status": "Pending",
    "responsible_agency": "Department of Sanitation",
    "final_address": "6458 Colbert St",
    "address_councildis": "A",
    "status": "Assigned to Contractor",
    "contractor": "IV Waste",
    "rowid": "1150969",
    "final_x": "3667623.46708",
    "final_y": "550658.996308",
    "longitude": "-90.11124300817106",
    "latitude": "30.008535477415492",
    "geocoded_column": {
      "latitude": "30.008535477415492",
      "longitude": "-90.11124300817106"
    }
  },
  {
    "service_request": "2024-1150968",
    "request_type": "Drainage",
    "request_reason": "Ditch and Culvert Maintenance",
    "date_created": "2024-11-24T16:40:09.000",
    "date_modified": "2024-11-24T16:40:09.000",
    "request_status": "Pending",
    "responsible_agency": "Department of Public Works",
    "final_address": "1339 Elmira Ave",
    "address_councildis": "C",
    "status": "Pending",
    "rowid": "1150968",
    "final_x": "3688010.53174",
    "final_y": "526468.021054",
    "longitude": "-90.04769144787012",
    "latitude": "29.941405186615576",
    "geocoded_column": {
      "latitude": "29.941405186615576",
      "longitude": "-90.04769144787012"
    }
  },
  {
    "service_request": "2024-1150967",
    "request_type": "Trash/Recycling",
    "request_reason": "Return Trash Cart",
    "date_created": "2024-11-24T16:38:23.000",
    "date_modified": "2024-11-24T16:38:24.000",
    "request_status": "Pending",
    "responsible_agency": "Department of Sanitation",
    "final_address": "2540 DAbadie St",
    "address_councildis": "D",
    "status": "Assigned to Contractor",
    "contractor": "IV Waste",
    "rowid": "1150967",
    "final_x": "3679680.04194",
    "final_y": "540597.525323",
    "longitude": "-90.07350194200791",
    "latitude": "29.980510901603438",
    "geocoded_column": {
      "latitude": "29.980510901603438",
      "longitude": "-90.07350194200791"
    }
  },
  {
    "service_request": "2024-1150966",
    "request_type": "Drainage",
    "request_reason": "Ditch and Culvert Maintenance",
    "date_created": "2024-11-24T16:37:23.000",
    "date_modified": "2024-11-24T16:37:23.000",
    "request_status": "Pending",
    "responsible_agency": "Department of Public Works",
    "final_address": "1339 Elmira Ave",
    "address_councildis": "C",
    "status": "Pending",
    "rowid": "1150966",
    "final_x": "3688010.53174",
    "final_y": "526468.021054",
    "longitude": "-90.04769144787012",
    "latitude": "29.941405186615576",
    "geocoded_column": {
      "latitude": "29.941405186615576",
      "longitude": "-90.04769144787012"
    }
  },
  {
    "service_request": "2024-1150965",
    "request_type": "Trash/Recycling",
    "request_reason": "Replace Recycling Cart",
    "date_created": "2024-11-24T16:29:13.000",
    "date_modified": "2024-11-24T16:29:13.000",
    "request_status": "Pending",
    "responsible_agency": "Department of Sanitation",
    "final_address": "1029 Hagan St",
    "address_councildis": "A",
    "status": "Pending",
    "rowid": "1150965",
    "final_x": "3675501.59041",
    "final_y": "539621.314122",
    "longitude": "-90.08673285448813",
    "latitude": "29.97795231719794",
    "geocoded_column": {
      "latitude": "29.97795231719794",
      "longitude": "-90.08673285448813"
    }
  },
  {
    "service_request": "2024-1150964",
    "request_type": "General Services",
    "request_reason": "General Service Request",
    "date_created": "2024-11-24T16:20:13.000",
    "date_modified": "2024-11-24T16:20:13.000",
    "request_status": "Pending",
    "responsible_agency": "Orleans Parish Communication District",
    "final_address": "the intersection of Octavia St and Loyola Ave",
    "status": "Pending",
    "rowid": "1150964",
    "longitude": "0.0",
    "latitude": "0.0",
    "geocoded_column": {
      "latitude": "0.0",
      "longitude": "0.0"
    }
  },
  {
    "service_request": "2024-1150963",
    "request_type": "Trash/Recycling",
    "request_reason": "Request a Large Item Pick Up",
    "date_created": "2024-11-24T16:13:28.000",
    "date_modified": "2024-11-24T16:13:29.000",
    "request_status": "Pending",
    "responsible_agency": "Department of Sanitation",
    "final_address": "1415 Socrates St",
    "address_councildis": "C",
    "status": "Assigned to Contractor",
    "contractor": "Richards Disposal",
    "rowid": "1150963",
    "final_x": "3689786.8918",
    "final_y": "526308.046398",
    "longitude": "-90.04208884413336",
    "latitude": "29.940910387977283",
    "geocoded_column": {
      "latitude": "29.940910387977283",
      "longitude": "-90.04208884413336"
    }
  },
  {
    "service_request": "2024-1150962",
    "request_type": "Traffic Signals",
    "request_reason": "Traffic Signal Malfunctioning or Damaged",
    "date_created": "2024-11-24T16:01:02.000",
    "date_modified": "2024-11-24T16:01:02.000",
    "request_status": "Pending",
    "responsible_agency": "Department of Public Works",
    "final_address": "BULLARD AVE & HAYNE BLVD",
    "address_councildis": "E",
    "status": "Pending",
    "rowid": "1150962",
    "final_x": "3712142.2",
    "final_y": "568794.68",
    "longitude": "-89.96991380312626",
    "latitude": "30.057020706348293",
    "geocoded_column": {
      "latitude": "30.057020706348293",
      "longitude": "-89.96991380312626"
    }
  },
  {
    "service_request": "2024-1150961",
    "request_type": "Trash/Recycling",
    "request_reason": "Request a Large Item Pick Up",
    "date_created": "2024-11-24T15:57:53.000",
    "date_modified": "2024-11-24T15:57:54.000",
    "request_status": "Pending",
    "responsible_agency": "Department of Sanitation",
    "final_address": "420 40Th St",
    "address_councildis": "A",
    "status": "Assigned to Contractor",
    "contractor": "IV Waste",
    "rowid": "1150961",
    "final_x": "3664858.84967",
    "final_y": "553317.453783",
    "longitude": "-90.11988840916199",
    "latitude": "30.015926094866252",
    "geocoded_column": {
      "latitude": "30.015926094866252",
      "longitude": "-90.11988840916199"
    }
  },
  {
    "service_request": "2024-1150960",
    "request_type": "Trash/Recycling",
    "request_reason": "Replace Recycling Cart",
    "date_created": "2024-11-24T15:37:05.000",
    "date_modified": "2024-11-24T15:37:05.000",
    "request_status": "Pending",
    "responsible_agency": "Department of Sanitation",
    "final_address": "1550 N Galvez St",
    "address_councildis": "D",
    "status": "Pending",
    "rowid": "1150960",
    "final_x": "3680665.92987",
    "final_y": "538587.473161",
    "longitude": "-90.07045805427593",
    "latitude": "29.97495411371902",
    "geocoded_column": {
      "latitude": "29.97495411371902",
      "longitude": "-90.07045805427593"
    }
  },
  {
    "service_request": "2024-1150959",
    "request_type": "Trash/Recycling",
    "request_reason": "Request a Large Item Pick Up",
    "date_created": "2024-11-24T15:34:13.000",
    "date_modified": "2024-11-24T15:34:14.000",
    "request_status": "Pending",
    "responsible_agency": "Department of Sanitation",
    "final_address": "4532 Laurel St",
    "address_councildis": "B",
    "status": "Assigned to Contractor",
    "contractor": "IV Waste",
    "rowid": "1150959",
    "final_x": "3670454.41819",
    "final_y": "517950.357174",
    "longitude": "-90.10340830858514",
    "latitude": "29.918514297964627",
    "geocoded_column": {
      "latitude": "29.918514297964627",
      "longitude": "-90.10340830858514"
    }
  },
  {
    "service_request": "2024-1150958",
    "request_type": "Trash/Recycling",
    "request_reason": "Request a Large Item Pick Up",
    "date_created": "2024-11-24T15:19:59.000",
    "date_modified": "2024-11-24T15:20:01.000",
    "request_status": "Pending",
    "responsible_agency": "Department of Sanitation",
    "final_address": "131 N Rendon St",
    "address_councildis": "B",
    "status": "Assigned to Contractor",
    "contractor": "IV Waste",
    "rowid": "1150958",
    "final_x": "3673699.21851",
    "final_y": "536747.590408",
    "longitude": "-90.0925236712219",
    "latitude": "29.970104347596102",
    "geocoded_column": {
      "latitude": "29.970104347596102",
      "longitude": "-90.0925236712219"
    }
  },
  {
    "service_request": "2024-1150957",
    "request_type": "Trash/Recycling",
    "request_reason": "Request a Large Item Pick Up",
    "date_created": "2024-11-24T15:00:30.000",
    "date_modified": "2024-11-24T15:00:31.000",
    "request_status": "Pending",
    "responsible_agency": "Department of Sanitation",
    "final_address": "31 Honeysuckle Ln",
    "address_councildis": "E",
    "status": "Assigned to Contractor",
    "contractor": "Waste Pro",
    "rowid": "1150957",
    "final_x": "3713101.01355",
    "final_y": "568474.356453",
    "longitude": "-89.96689523863546",
    "latitude": "30.05610854322975",
    "geocoded_column": {
      "latitude": "30.05610854322975",
      "longitude": "-89.96689523863546"
    }
  },
  {
    "service_request": "2024-1150956",
    "request_type": "Trash/Recycling",
    "request_reason": "Request a Large Item Pick Up",
    "date_created": "2024-11-24T14:58:16.000",
    "date_modified": "2024-11-24T14:58:17.000",
    "request_status": "Pending",
    "responsible_agency": "Department of Sanitation",
    "final_address": "29 Honeysuckle Ln",
    "address_councildis": "E",
    "status": "Assigned to Contractor",
    "contractor": "Waste Pro",
    "rowid": "1150956",
    "final_x": "3713081.17816",
    "final_y": "568505.198245",
    "longitude": "-89.96695677171455",
    "latitude": "30.056193995910597",
    "geocoded_column": {
      "latitude": "30.056193995910597",
      "longitude": "-89.96695677171455"
    }
  },
  {
    "service_request": "2024-1150955",
    "request_type": "Trash/Recycling",
    "request_reason": "Request a Large Item Pick Up",
    "date_created": "2024-11-24T14:56:01.000",
    "date_modified": "2024-11-24T14:56:03.000",
    "request_status": "Pending",
    "responsible_agency": "Department of Sanitation",
    "final_address": "27 Honeysuckle Ln",
    "address_councildis": "E",
    "status": "Assigned to Contractor",
    "contractor": "Waste Pro",
    "rowid": "1150955",
    "final_x": "3713039.35275",
    "final_y": "568522.473637",
    "longitude": "-89.96708832220801",
    "latitude": "30.056242867478442",
    "geocoded_column": {
      "latitude": "30.056242867478442",
      "longitude": "-89.96708832220801"
    }
  },
  {
    "service_request": "2024-1150954",
    "request_type": "Roads and Streets",
    "request_reason": "Street Subsidence (Sinking)",
    "date_created": "2024-11-24T14:53:40.000",
    "date_modified": "2024-11-24T14:53:40.000",
    "request_status": "Pending",
    "responsible_agency": "Department of Public Works",
    "final_address": "1 English Turn Prkwy",
    "address_councildis": "C",
    "status": "Pending",
    "rowid": "1150954",
    "final_x": "3713690.71429",
    "final_y": "516301.512564",
    "longitude": "-89.96699773956271",
    "latitude": "29.912633659868995",
    "geocoded_column": {
      "latitude": "29.912633659868995",
      "longitude": "-89.96699773956271"
    }
  },
  {
    "service_request": "2024-1150953",
    "request_type": "Property Maintenance",
    "request_reason": "Property Maintenance",
    "date_created": "2024-11-24T14:49:17.000",
    "date_modified": "2024-11-24T14:49:17.000",
    "request_status": "Pending",
    "responsible_agency": "Department of Code Enforcement",
    "final_address": "4220 Burgundy St",
    "address_councildis": "C",
    "status": "Pending",
    "rowid": "1150953",
    "final_x": "3692344.49904",
    "final_y": "534258.756421",
    "longitude": "-90.03372935191993",
    "latitude": "29.96269258512722",
    "geocoded_column": {
      "latitude": "29.96269258512722",
      "longitude": "-90.03372935191993"
    }
  },
  {
    "service_request": "2024-1150952",
    "request_type": "Parks & Parkways",
    "request_reason": "Request Tree Service (Right of Way/Public Property)",
    "date_created": "2024-11-24T14:28:53.000",
    "date_modified": "2024-11-24T14:28:54.000",
    "request_status": "Pending",
    "responsible_agency": "Department of Parks & Parkway",
    "final_address": "4052 St Ferdinand St",
    "address_councildis": "D",
    "status": "Pending",
    "rowid": "1150952",
    "final_x": "3689807.21372",
    "final_y": "548265.788754",
    "longitude": "-90.04124295750238",
    "latitude": "30.001285813672673",
    "geocoded_column": {
      "latitude": "30.001285813672673",
      "longitude": "-90.04124295750238"
    }
  },
  {
    "service_request": "2024-1150951",
    "request_type": "General Services",
    "request_reason": "General Service Request",
    "date_created": "2024-11-24T14:18:47.000",
    "date_modified": "2024-11-24T14:18:47.000",
    "request_status": "Pending",
    "responsible_agency": "Orleans Parish Communication District",
    "final_address": "2933 Serantine St",
    "address_councildis": "D",
    "status": "Pending",
    "rowid": "1150951",
    "final_x": "3679386.6125",
    "final_y": "542782.392333",
    "longitude": "-90.0743528974547",
    "latitude": "29.986527392376534",
    "geocoded_column": {
      "latitude": "29.986527392376534",
      "longitude": "-90.0743528974547"
    }
  },
  {
    "service_request": "2024-1150950",
    "request_type": "Property Maintenance",
    "request_reason": "Property Maintenance",
    "date_created": "2024-11-24T14:16:08.000",
    "date_modified": "2024-11-24T14:16:08.000",
    "request_status": "Pending",
    "responsible_agency": "Department of Code Enforcement",
    "final_address": "4052 St Ferdinand St",
    "address_councildis": "D",
    "status": "Pending",
    "rowid": "1150950",
    "final_x": "3689807.21372",
    "final_y": "548265.788754",
    "longitude": "-90.04124295750238",
    "latitude": "30.001285813672673",
    "geocoded_column": {
      "latitude": "30.001285813672673",
      "longitude": "-90.04124295750238"
    }
  },
  {
    "service_request": "2024-1150949",
    "request_type": "Trash/Recycling",
    "request_reason": "Request a Large Item Pick Up",
    "date_created": "2024-11-24T14:15:10.000",
    "date_modified": "2024-11-24T14:15:11.000",
    "request_status": "Pending",
    "responsible_agency": "Department of Sanitation",
    "final_address": "5028 E Lemans St",
    "address_councildis": "E",
    "status": "Assigned to Contractor",
    "contractor": "Waste Pro",
    "rowid": "1150949",
    "final_x": "3727241.69926",
    "final_y": "562810.264288",
    "longitude": "-89.92242011790297",
    "latitude": "30.040063409630758",
    "geocoded_column": {
      "latitude": "30.040063409630758",
      "longitude": "-89.92242011790297"
    }
  },
  {
    "service_request": "2024-1150948",
    "request_type": "Trash/Recycling",
    "request_reason": "Damaged Caused By Contractor",
    "date_created": "2024-11-24T14:07:34.000",
    "date_modified": "2024-11-24T14:07:35.000",
    "request_status": "Pending",
    "responsible_agency": "Department of Sanitation",
    "final_address": "3819 Herschel St",
    "address_councildis": "C",
    "status": "Assigned to Contractor",
    "contractor": "Richards Disposal",
    "rowid": "1150948",
    "final_x": "3697822.90141",
    "final_y": "521008.288313",
    "longitude": "-90.01691010511081",
    "latitude": "29.92608643113844",
    "geocoded_column": {
      "latitude": "29.92608643113844",
      "longitude": "-90.01691010511081"
    }
  },
  {
    "service_request": "2024-1150947",
    "request_type": "Trash/Recycling",
    "request_reason": "Return Recycling Cart",
    "date_created": "2024-11-24T13:39:36.000",
    "date_modified": "2024-11-24T13:39:36.000",
    "request_status": "Pending",
    "responsible_agency": "Department of Sanitation",
    "final_address": "3720 Huntlee Dr",
    "address_councildis": "C",
    "status": "Pending",
    "rowid": "1150947",
    "final_x": "3701743.9697",
    "final_y": "517387.645109",
    "longitude": "-90.00466504686942",
    "latitude": "29.91600645735733",
    "geocoded_column": {
      "latitude": "29.91600645735733",
      "longitude": "-90.00466504686942"
    }
  },
  {
    "service_request": "2024-1150946",
    "request_type": "Abandoned Vehicles",
    "request_reason": "Abandoned/Junk Vehicles",
    "date_created": "2024-11-24T13:34:56.000",
    "date_modified": "2024-11-24T13:34:56.000",
    "request_status": "Pending",
    "responsible_agency": "Department of Public Works",
    "final_address": "3400 Burgundy St",
    "address_councildis": "C",
    "status": "Pending",
    "rowid": "1150946",
    "final_x": "3690040.14838",
    "final_y": "534844.789894",
    "longitude": "-90.04098528975295",
    "latitude": "29.96437563562714",
    "geocoded_column": {
      "latitude": "29.96437563562714",
      "longitude": "-90.04098528975295"
    }
  },
  {
    "service_request": "2024-1150945",
    "request_type": "Trash/Recycling",
    "request_reason": "Request a Large Item Pick Up",
    "date_created": "2024-11-24T13:28:46.000",
    "date_modified": "2024-11-24T13:28:47.000",
    "request_status": "Pending",
    "responsible_agency": "Department of Sanitation",
    "final_address": "7364 Canterbury St",
    "address_councildis": "E",
    "status": "Assigned to Contractor",
    "contractor": "Waste Pro",
    "rowid": "1150945",
    "final_x": "3698740.93514",
    "final_y": "559402.014813",
    "longitude": "-90.01261520998483",
    "latitude": "30.031626194263133",
    "geocoded_column": {
      "latitude": "30.031626194263133",
      "longitude": "-90.01261520998483"
    }
  },
  {
    "service_request": "2024-1150944",
    "request_type": "General Services",
    "request_reason": "General Service Request",
    "date_created": "2024-11-24T13:12:25.000",
    "date_modified": "2024-11-24T13:12:25.000",
    "request_status": "Pending",
    "responsible_agency": "Orleans Parish Communication District",
    "final_address": "214 N Alexander St",
    "address_councildis": "A",
    "status": "Pending",
    "rowid": "1150944",
    "final_x": "3670354.9954",
    "final_y": "539588.490634",
    "longitude": "-90.10298876225767",
    "latitude": "29.97801501768856",
    "geocoded_column": {
      "latitude": "29.97801501768856",
      "longitude": "-90.10298876225767"
    }
  },
  {
    "service_request": "2024-1150943",
    "request_type": "Trash/Recycling",
    "request_reason": "Request a Large Item Pick Up",
    "date_created": "2024-11-24T12:52:05.000",
    "date_modified": "2024-11-24T12:52:06.000",
    "request_status": "Pending",
    "responsible_agency": "Department of Sanitation",
    "final_address": "6733 Colbert St",
    "address_councildis": "A",
    "status": "Assigned to Contractor",
    "contractor": "IV Waste",
    "rowid": "1150943",
    "final_x": "3667961.01351",
    "final_y": "552364.620374",
    "longitude": "-90.11011906285809",
    "latitude": "30.01321544259928",
    "geocoded_column": {
      "latitude": "30.01321544259928",
      "longitude": "-90.11011906285809"
    }
  },
  {
    "service_request": "2024-1150942",
    "request_type": "Trash/Recycling",
    "request_reason": "Return Trash Cart",
    "date_created": "2024-11-24T12:28:12.000",
    "date_modified": "2024-11-24T12:28:13.000",
    "request_status": "Pending",
    "responsible_agency": "Department of Sanitation",
    "final_address": "3232 Banks St",
    "address_councildis": "B",
    "status": "Assigned to Contractor",
    "contractor": "IV Waste",
    "rowid": "1150942",
    "final_x": "3672901.57646",
    "final_y": "535372.316806",
    "longitude": "-90.09508964619403",
    "latitude": "29.966346534662755",
    "geocoded_column": {
      "latitude": "29.966346534662755",
      "longitude": "-90.09508964619403"
    }
  },
  {
    "service_request": "2024-1150941",
    "request_type": "Roads and Streets",
    "request_reason": "Street Subsidence (Sinking)",
    "date_created": "2024-11-24T12:16:23.000",
    "date_modified": "2024-11-24T12:16:23.000",
    "request_status": "Pending",
    "responsible_agency": "Department of Public Works",
    "final_address": "1 English Turn Prkwy",
    "address_councildis": "C",
    "status": "Pending",
    "rowid": "1150941",
    "final_x": "3713690.71429",
    "final_y": "516301.512564",
    "longitude": "-89.96699773956271",
    "latitude": "29.912633659868995",
    "geocoded_column": {
      "latitude": "29.912633659868995",
      "longitude": "-89.96699773956271"
    }
  },
  {
    "service_request": "2024-1150940",
    "request_type": "Property Maintenance",
    "request_reason": "Property Maintenance",
    "date_created": "2024-11-24T12:08:02.000",
    "date_modified": "2024-11-24T12:08:02.000",
    "request_status": "Pending",
    "responsible_agency": "Department of Code Enforcement",
    "final_address": "2929 Music St",
    "address_councildis": "D",
    "status": "Pending",
    "rowid": "1150940",
    "final_x": "3686301.9967",
    "final_y": "543666.520654",
    "longitude": "-90.0524786426619",
    "latitude": "29.988747694181058",
    "geocoded_column": {
      "latitude": "29.988747694181058",
      "longitude": "-90.0524786426619"
    }
  },
  {
    "service_request": "2024-1150939",
    "request_type": "Roads and Streets",
    "request_reason": "Pothole",
    "date_created": "2024-11-24T12:06:39.000",
    "date_modified": "2024-11-24T12:06:39.000",
    "request_status": "Pending",
    "responsible_agency": "Department of Public Works",
    "final_address": "1 English Turn Prkwy",
    "address_councildis": "C",
    "status": "Pending",
    "rowid": "1150939",
    "final_x": "3713690.71429",
    "final_y": "516301.512564",
    "longitude": "-89.96699773956271",
    "latitude": "29.912633659868995",
    "geocoded_column": {
      "latitude": "29.912633659868995",
      "longitude": "-89.96699773956271"
    }
  },
  {
    "service_request": "2024-1150938",
    "request_type": "Trash/Recycling",
    "request_reason": "Order Trash Cart",
    "date_created": "2024-11-24T11:51:40.000",
    "date_modified": "2024-11-24T11:51:41.000",
    "request_status": "Pending",
    "responsible_agency": "Department of Sanitation",
    "final_address": "1437 Gallier St",
    "address_councildis": "C",
    "status": "Assigned to Contractor",
    "contractor": "IV Waste",
    "rowid": "1150938",
    "final_x": "3690861.26467",
    "final_y": "537048.735688",
    "longitude": "-90.03831361877585",
    "latitude": "29.97041022136453",
    "geocoded_column": {
      "latitude": "29.97041022136453",
      "longitude": "-90.03831361877585"
    }
  },
  {
    "service_request": "2024-1150937",
    "request_type": "Trash/Recycling",
    "request_reason": "Request a Large Item Pick Up",
    "date_created": "2024-11-24T11:38:16.000",
    "date_modified": "2024-11-24T11:38:17.000",
    "request_status": "Pending",
    "responsible_agency": "Department of Sanitation",
    "final_address": "12540 N Lake Carmel Dr",
    "address_councildis": "E",
    "status": "Assigned to Contractor",
    "contractor": "Waste Pro",
    "rowid": "1150937",
    "final_x": "3715844.74936",
    "final_y": "567899.210341",
    "longitude": "-89.9582446825664",
    "latitude": "30.05443687644844",
    "geocoded_column": {
      "latitude": "30.05443687644844",
      "longitude": "-89.9582446825664"
    }
  },
  {
    "service_request": "2024-1150936",
    "request_type": "Roads and Streets",
    "request_reason": "Pothole",
    "date_created": "2024-11-24T11:37:39.000",
    "date_modified": "2024-11-24T11:37:39.000",
    "request_status": "Pending",
    "responsible_agency": "Department of Public Works",
    "final_address": "1 English Turn Prkwy",
    "address_councildis": "C",
    "status": "Pending",
    "rowid": "1150936",
    "final_x": "3713690.71429",
    "final_y": "516301.512564",
    "longitude": "-89.96699773956271",
    "latitude": "29.912633659868995",
    "geocoded_column": {
      "latitude": "29.912633659868995",
      "longitude": "-89.96699773956271"
    }
  },
  {
    "service_request": "2024-1150935",
    "request_type": "Roads and Streets",
    "request_reason": "Street Subsidence (Sinking)",
    "date_created": "2024-11-24T11:32:17.000",
    "date_modified": "2024-11-24T11:32:17.000",
    "request_status": "Pending",
    "responsible_agency": "Department of Public Works",
    "final_address": "1 English Turn Prkwy",
    "address_councildis": "C",
    "status": "Pending",
    "rowid": "1150935",
    "final_x": "3713690.71429",
    "final_y": "516301.512564",
    "longitude": "-89.96699773956271",
    "latitude": "29.912633659868995",
    "geocoded_column": {
      "latitude": "29.912633659868995",
      "longitude": "-89.96699773956271"
    }
  },
  {
    "service_request": "2024-1150934",
    "request_type": "Roads and Streets",
    "request_reason": "Street Subsidence (Sinking)",
    "date_created": "2024-11-24T11:31:07.000",
    "date_modified": "2024-11-24T11:31:07.000",
    "request_status": "Pending",
    "responsible_agency": "Department of Public Works",
    "final_address": "English Turn Drive & English Turn Lane",
    "address_councildis": "C",
    "status": "Pending",
    "rowid": "1150934",
    "final_x": "3720824.88626",
    "final_y": "512125.844209",
    "longitude": "-89.94464029073316",
    "latitude": "29.900916215992186",
    "geocoded_column": {
      "latitude": "29.900916215992186",
      "longitude": "-89.94464029073316"
    }
  },
  {
    "service_request": "2024-1150933",
    "request_type": "Property Maintenance",
    "request_reason": "Property Maintenance",
    "date_created": "2024-11-24T11:18:57.000",
    "date_modified": "2024-11-24T11:18:57.000",
    "request_status": "Pending",
    "responsible_agency": "Department of Code Enforcement",
    "final_address": "8041 Wave Dr",
    "address_councildis": "E",
    "status": "Pending",
    "rowid": "1150933",
    "final_x": "3714065.3964",
    "final_y": "570122.969447",
    "longitude": "-89.96378474204845",
    "latitude": "30.060609893722436",
    "geocoded_column": {
      "latitude": "30.060609893722436",
      "longitude": "-89.96378474204845"
    }
  },
  {
    "service_request": "2024-1150932",
    "request_type": "General Services",
    "request_reason": "General Service Request",
    "date_created": "2024-11-24T11:01:44.000",
    "date_modified": "2024-11-24T11:01:44.000",
    "request_status": "Pending",
    "responsible_agency": "Orleans Parish Communication District",
    "final_address": "456 Audubon Blvd",
    "address_councildis": "B",
    "status": "Pending",
    "rowid": "1150932",
    "final_x": "3667568.21741",
    "final_y": "530818.911746",
    "longitude": "-90.11208562269114",
    "latitude": "29.95398356854783",
    "geocoded_column": {
      "latitude": "29.95398356854783",
      "longitude": "-90.11208562269114"
    }
  },
  {
    "service_request": "2024-1150931",
    "request_type": "Trash/Recycling",
    "request_reason": "Request a Large Item Pick Up",
    "date_created": "2024-11-24T10:32:47.000",
    "date_modified": "2024-11-24T10:32:48.000",
    "request_status": "Pending",
    "responsible_agency": "Department of Sanitation",
    "final_address": "5067 Charmes Ct",
    "address_councildis": "E",
    "status": "Assigned to Contractor",
    "contractor": "Waste Pro",
    "rowid": "1150931",
    "final_x": "3726568.20525",
    "final_y": "561350.49027",
    "longitude": "-89.92460525831369",
    "latitude": "30.03607241995089",
    "geocoded_column": {
      "latitude": "30.03607241995089",
      "longitude": "-89.92460525831369"
    }
  },
  {
    "service_request": "2024-1150930",
    "request_type": "Trash/Recycling",
    "request_reason": "Request a Large Item Pick Up",
    "date_created": "2024-11-24T10:31:30.000",
    "date_modified": "2024-11-24T10:31:31.000",
    "request_status": "Pending",
    "responsible_agency": "Department of Sanitation",
    "final_address": "5067 Charmes Ct",
    "address_councildis": "E",
    "status": "Assigned to Contractor",
    "contractor": "Waste Pro",
    "rowid": "1150930",
    "final_x": "3726568.20525",
    "final_y": "561350.49027",
    "longitude": "-89.92460525831369",
    "latitude": "30.03607241995089",
    "geocoded_column": {
      "latitude": "30.03607241995089",
      "longitude": "-89.92460525831369"
    }
  },
  {
    "service_request": "2024-1150929",
    "request_type": "Trash/Recycling",
    "request_reason": "Replace Trash Cart",
    "date_created": "2024-11-24T10:28:15.000",
    "date_modified": "2024-11-24T10:28:16.000",
    "request_status": "Pending",
    "responsible_agency": "Department of Sanitation",
    "final_address": "2222 St Louis St",
    "address_councildis": "B",
    "status": "Assigned to Contractor",
    "contractor": "IV Waste",
    "rowid": "1150929",
    "final_x": "3677653.04469",
    "final_y": "535157.371334",
    "longitude": "-90.08009200609985",
    "latitude": "29.96561346717206",
    "geocoded_column": {
      "latitude": "29.96561346717206",
      "longitude": "-90.08009200609985"
    }
  },
  {
    "service_request": "2024-1150928",
    "request_type": "Trash/Recycling",
    "request_reason": "Replace Trash Cart",
    "date_created": "2024-11-24T10:26:02.000",
    "date_modified": "2024-11-24T10:26:03.000",
    "request_status": "Pending",
    "responsible_agency": "Department of Sanitation",
    "final_address": "1517 S White St",
    "address_councildis": "B",
    "status": "Assigned to Contractor",
    "contractor": "IV Waste",
    "rowid": "1150928",
    "final_x": "3671246.59585",
    "final_y": "530317.868354",
    "longitude": "-90.10048779863762",
    "latitude": "29.95249755249957",
    "geocoded_column": {
      "latitude": "29.95249755249957",
      "longitude": "-90.10048779863762"
    }
  },
  {
    "service_request": "2024-1150927",
    "request_type": "Safety & Permits",
    "request_reason": "Zoning Enforcement",
    "date_created": "2024-11-24T10:05:05.000",
    "date_modified": "2024-11-24T10:05:05.000",
    "request_status": "Pending",
    "responsible_agency": "Safety and Permits",
    "final_address": "828 Verret St",
    "address_councildis": "C",
    "status": "Pending",
    "rowid": "1150927",
    "final_x": "3687194.81692",
    "final_y": "528485.740992",
    "longitude": "-90.05019547523901",
    "latitude": "29.946978372003187",
    "geocoded_column": {
      "latitude": "29.946978372003187",
      "longitude": "-90.05019547523901"
    }
  },
  {
    "service_request": "2024-1150926",
    "request_type": "Abandoned Vehicles",
    "request_reason": "Abandoned/Junk Vehicles",
    "date_created": "2024-11-24T10:04:34.000",
    "date_modified": "2024-11-24T10:04:34.000",
    "request_status": "Pending",
    "responsible_agency": "Department of Public Works",
    "final_address": "2029 Baronne St",
    "address_councildis": "B",
    "status": "Pending",
    "rowid": "1150926",
    "final_x": "3677294.28725",
    "final_y": "524832.975612",
    "longitude": "-90.0815811252219",
    "latitude": "29.937235612233497",
    "geocoded_column": {
      "latitude": "29.937235612233497",
      "longitude": "-90.0815811252219"
    }
  },
  {
    "service_request": "2024-1150925",
    "request_type": "Roads and Streets",
    "request_reason": "Street Subsidence (Sinking)",
    "date_created": "2024-11-24T09:53:36.000",
    "date_modified": "2024-11-24T09:53:36.000",
    "request_status": "Pending",
    "responsible_agency": "Department of Public Works",
    "final_address": "1 English Turn Prkwy",
    "address_councildis": "C",
    "status": "Pending",
    "rowid": "1150925",
    "final_x": "3713690.71429",
    "final_y": "516301.512564",
    "longitude": "-89.96699773956271",
    "latitude": "29.912633659868995",
    "geocoded_column": {
      "latitude": "29.912633659868995",
      "longitude": "-89.96699773956271"
    }
  },
  {
    "service_request": "2024-1150924",
    "request_type": "Trash/Recycling",
    "request_reason": "Request a Large Item Pick Up",
    "date_created": "2024-11-24T09:35:29.000",
    "date_modified": "2024-11-24T09:35:30.000",
    "request_status": "Pending",
    "responsible_agency": "Department of Sanitation",
    "final_address": "1231 Seville Dr",
    "address_councildis": "D",
    "status": "Assigned to Contractor",
    "contractor": "IV Waste",
    "rowid": "1150924",
    "final_x": "3677036.87752",
    "final_y": "551182.821973",
    "longitude": "-90.08148494118241",
    "latitude": "30.009696392567847",
    "geocoded_column": {
      "latitude": "30.009696392567847",
      "longitude": "-90.08148494118241"
    }
  },
  {
    "service_request": "2024-1150923",
    "request_type": "Streetlights",
    "request_reason": "Streetlight Outage/Malfunction",
    "date_created": "2024-11-24T09:20:10.000",
    "date_modified": "2024-11-24T09:20:11.000",
    "request_status": "Pending",
    "responsible_agency": "Department of Public Works",
    "final_address": "4500 BLK N Rampart St",
    "address_councildis": "C",
    "status": "Pending",
    "contractor": "Legacy Professional Services",
    "rowid": "1150923",
    "final_x": "3693458.76495",
    "final_y": "534431.210125",
    "longitude": "-90.03020446971715",
    "latitude": "29.96313197510511",
    "geocoded_column": {
      "latitude": "29.96313197510511",
      "longitude": "-90.03020446971715"
    }
  },
  {
    "service_request": "2024-1150922",
    "request_type": "Trash/Recycling",
    "request_reason": "Request a Large Item Pick Up",
    "date_created": "2024-11-24T09:19:51.000",
    "date_modified": "2024-11-24T09:19:52.000",
    "request_status": "Pending",
    "responsible_agency": "Department of Sanitation",
    "final_address": "6153 Carlisle Ct",
    "address_councildis": "C",
    "status": "Assigned to Contractor",
    "contractor": "Richards Disposal",
    "rowid": "1150922",
    "final_x": "3706792.22238",
    "final_y": "516403.656373",
    "longitude": "-89.98876737033036",
    "latitude": "29.913138904969",
    "geocoded_column": {
      "latitude": "29.913138904969",
      "longitude": "-89.98876737033036"
    }
  },
  {
    "service_request": "2024-1150921",
    "request_type": "Streetlights",
    "request_reason": "Streetlight Outage/Malfunction",
    "date_created": "2024-11-24T08:47:58.000",
    "date_modified": "2024-11-24T08:47:59.000",
    "request_status": "Pending",
    "responsible_agency": "Department of Public Works",
    "final_address": "1100 BLK Tennessee St",
    "address_councildis": "E",
    "status": "Pending",
    "contractor": "Legacy Professional Services",
    "rowid": "1150921",
    "final_x": "3695797.92825",
    "final_y": "534739.483786",
    "longitude": "-90.02280657292567",
    "latitude": "29.96390626318737",
    "geocoded_column": {
      "latitude": "29.96390626318737",
      "longitude": "-90.02280657292567"
    }
  },
  {
    "service_request": "2024-1150920",
    "request_type": "Trash/Recycling",
    "request_reason": "Order Recycling Cart",
    "date_created": "2024-11-24T08:43:54.000",
    "date_modified": "2024-11-24T08:43:54.000",
    "request_status": "Pending",
    "responsible_agency": "Department of Sanitation",
    "final_address": "7860 Tulsa St",
    "address_councildis": "E",
    "status": "Pending",
    "rowid": "1150920",
    "final_x": "3704330.45098",
    "final_y": "553459.666775",
    "longitude": "-89.99517149373516",
    "latitude": "30.015108703422385",
    "geocoded_column": {
      "latitude": "30.015108703422385",
      "longitude": "-89.99517149373516"
    }
  },
  {
    "service_request": "2024-1150919",
    "request_type": "Property Maintenance",
    "request_reason": "Property Maintenance",
    "date_created": "2024-11-24T08:43:49.000",
    "date_modified": "2024-11-24T08:43:49.000",
    "request_status": "Pending",
    "responsible_agency": "Department of Code Enforcement",
    "final_address": "4152 DHemecourt St",
    "address_councildis": "A",
    "status": "Pending",
    "rowid": "1150919",
    "final_x": "3669403.9618",
    "final_y": "537083.946568",
    "longitude": "-90.1060771934209",
    "latitude": "29.97115640891978",
    "geocoded_column": {
      "latitude": "29.97115640891978",
      "longitude": "-90.1060771934209"
    }
  },
  {
    "service_request": "2024-1150918",
    "request_type": "Trash/Recycling",
    "request_reason": "Return Trash Cart",
    "date_created": "2024-11-24T08:34:16.000",
    "date_modified": "2024-11-24T08:34:17.000",
    "request_status": "Pending",
    "responsible_agency": "Department of Sanitation",
    "final_address": "1321 Sere St",
    "address_councildis": "D",
    "status": "Assigned to Contractor",
    "contractor": "IV Waste",
    "rowid": "1150918",
    "final_x": "3677635.33966",
    "final_y": "545386.768848",
    "longitude": "-90.0797945147756",
    "latitude": "29.9937413095196",
    "geocoded_column": {
      "latitude": "29.9937413095196",
      "longitude": "-90.0797945147756"
    }
  },
  {
    "service_request": "2024-1150917",
    "request_type": "Roads and Streets",
    "request_reason": "Street Subsidence (Sinking)",
    "date_created": "2024-11-24T08:08:51.000",
    "date_modified": "2024-11-24T08:08:51.000",
    "request_status": "Pending",
    "responsible_agency": "Department of Public Works",
    "final_address": "1 English Turn Prkwy",
    "address_councildis": "C",
    "status": "Pending",
    "rowid": "1150917",
    "final_x": "3713690.71429",
    "final_y": "516301.512564",
    "longitude": "-89.96699773956271",
    "latitude": "29.912633659868995",
    "geocoded_column": {
      "latitude": "29.912633659868995",
      "longitude": "-89.96699773956271"
    }
  },
  {
    "service_request": "2024-1150916",
    "request_type": "Abandoned Vehicles",
    "request_reason": "Vehicle Blocking Your Driveway",
    "date_created": "2024-11-24T07:43:40.000",
    "date_modified": "2024-11-24T07:43:40.000",
    "request_status": "Pending",
    "responsible_agency": "Department of Public Works",
    "final_address": "8534 Palm St",
    "address_councildis": "A",
    "status": "Pending",
    "rowid": "1150916",
    "final_x": "3666414.3385",
    "final_y": "535831.456647",
    "longitude": "-90.1155609034477",
    "latitude": "29.967800184336767",
    "geocoded_column": {
      "latitude": "29.967800184336767",
      "longitude": "-90.1155609034477"
    }
  },
  {
    "service_request": "2024-1150915",
    "request_type": "Trash/Recycling",
    "request_reason": "Repair Recycling Cart",
    "date_created": "2024-11-24T07:37:02.000",
    "date_modified": "2024-11-24T07:37:02.000",
    "request_status": "Pending",
    "responsible_agency": "Department of Sanitation",
    "final_address": "826 Verret St",
    "address_councildis": "C",
    "status": "Pending",
    "rowid": "1150915",
    "final_x": "3687193.09737",
    "final_y": "528501.974912",
    "longitude": "-90.05020033050293",
    "latitude": "29.94702306270024",
    "geocoded_column": {
      "latitude": "29.94702306270024",
      "longitude": "-90.05020033050293"
    }
  },
  {
    "service_request": "2024-1150914",
    "request_type": "Trash/Recycling",
    "request_reason": "Repair Trash Cart",
    "date_created": "2024-11-24T07:36:08.000",
    "date_modified": "2024-11-24T07:36:09.000",
    "request_status": "Pending",
    "responsible_agency": "Department of Sanitation",
    "final_address": "826 Verret St",
    "address_councildis": "C",
    "status": "Assigned to Contractor",
    "contractor": "Richards Disposal",
    "rowid": "1150914",
    "final_x": "3687193.09737",
    "final_y": "528501.974912",
    "longitude": "-90.05020033050293",
    "latitude": "29.94702306270024",
    "geocoded_column": {
      "latitude": "29.94702306270024",
      "longitude": "-90.05020033050293"
    }
  },
  {
    "service_request": "2024-1150913",
    "request_type": "Roads and Streets",
    "request_reason": "Pothole",
    "date_created": "2024-11-24T04:47:17.000",
    "date_modified": "2024-11-24T04:47:17.000",
    "request_status": "Pending",
    "responsible_agency": "Department of Public Works",
    "final_address": "1234 Chartres St",
    "address_councildis": "C",
    "status": "Pending",
    "rowid": "1150913",
    "final_x": "3684118.27682",
    "final_y": "533877.608325",
    "longitude": "-90.05972001252022",
    "latitude": "29.961898541351673",
    "geocoded_column": {
      "latitude": "29.961898541351673",
      "longitude": "-90.05972001252022"
    }
  },
  {
    "service_request": "2024-1150912",
    "request_type": "Health Related Request",
    "request_reason": "Noise Ordinance Complaint",
    "date_created": "2024-11-24T04:31:11.000",
    "date_modified": "2024-11-24T04:31:11.000",
    "request_status": "Pending",
    "responsible_agency": "Health Department",
    "final_address": "8334 Belfast St",
    "status": "Pending",
    "rowid": "1150912",
    "longitude": "0.0",
    "latitude": "0.0",
    "geocoded_column": {
      "latitude": "0.0",
      "longitude": "0.0"
    }
  },
  {
    "service_request": "2024-1150911",
    "request_type": "Abandoned Vehicles",
    "request_reason": "Abandoned/Junk Vehicles",
    "date_created": "2024-11-24T02:48:23.000",
    "date_modified": "2024-11-24T02:48:23.000",
    "request_status": "Pending",
    "responsible_agency": "Department of Public Works",
    "final_address": "3919 Ford St",
    "address_councildis": "D",
    "status": "Pending",
    "rowid": "1150911",
    "final_x": "3688930.05705",
    "final_y": "547762.600402",
    "longitude": "-90.04403185198228",
    "latitude": "29.999929396519413",
    "geocoded_column": {
      "latitude": "29.999929396519413",
      "longitude": "-90.04403185198228"
    }
  },
  {
    "service_request": "2024-1150910",
    "request_type": "Abandoned Vehicles",
    "request_reason": "Abandoned/Junk Vehicles",
    "date_created": "2024-11-24T02:11:18.000",
    "date_modified": "2024-11-24T02:11:18.000",
    "request_status": "Pending",
    "responsible_agency": "Department of Public Works",
    "final_address": "3919 Ford St",
    "address_councildis": "D",
    "status": "Pending",
    "rowid": "1150910",
    "final_x": "3688930.05705",
    "final_y": "547762.600402",
    "longitude": "-90.04403185198228",
    "latitude": "29.999929396519413",
    "geocoded_column": {
      "latitude": "29.999929396519413",
      "longitude": "-90.04403185198228"
    }
  },
  {
    "service_request": "2024-1150909",
    "request_type": "Roads and Streets",
    "request_reason": "Street Subsidence (Sinking)",
    "date_created": "2024-11-24T00:56:27.000",
    "date_modified": "2024-11-24T00:56:27.000",
    "request_status": "Pending",
    "responsible_agency": "Department of Public Works",
    "final_address": "0 BLK English Turn Pkwy",
    "address_councildis": "C",
    "status": "Pending",
    "rowid": "1150909",
    "final_x": "3714478.8315",
    "final_y": "516189.451005",
    "longitude": "-89.96451447055301",
    "latitude": "29.912299665809115",
    "geocoded_column": {
      "latitude": "29.912299665809115",
      "longitude": "-89.96451447055301"
    }
  },
  {
    "service_request": "2024-1150908",
    "request_type": "Roads and Streets",
    "request_reason": "Street Subsidence (Sinking)",
    "date_created": "2024-11-23T23:10:40.000",
    "date_modified": "2024-11-23T23:10:40.000",
    "request_status": "Pending",
    "responsible_agency": "Department of Public Works",
    "final_address": "1 English Turn Prkwy",
    "address_councildis": "C",
    "status": "Pending",
    "rowid": "1150908",
    "final_x": "3713690.71429",
    "final_y": "516301.512564",
    "longitude": "-89.96699773956271",
    "latitude": "29.912633659868995",
    "geocoded_column": {
      "latitude": "29.912633659868995",
      "longitude": "-89.96699773956271"
    }
  },
  {
    "service_request": "2024-1150907",
    "request_type": "Trash/Recycling",
    "request_reason": "Order Recycling Cart",
    "date_created": "2024-11-23T22:54:11.000",
    "date_modified": "2024-11-23T22:54:11.000",
    "request_status": "Pending",
    "responsible_agency": "Department of Sanitation",
    "final_address": "2308 Ap Tureaud Ave",
    "address_councildis": "D",
    "status": "Pending",
    "rowid": "1150907",
    "final_x": "3681559.20911",
    "final_y": "540579.665483",
    "longitude": "-90.06756734838459",
    "latitude": "29.980404848573567",
    "geocoded_column": {
      "latitude": "29.980404848573567",
      "longitude": "-90.06756734838459"
    }
  },
  {
    "service_request": "2024-1150906",
    "request_type": "Trash/Recycling",
    "request_reason": "Replace Trash Cart",
    "date_created": "2024-11-23T22:48:00.000",
    "date_modified": "2024-11-23T22:48:02.000",
    "request_status": "Pending",
    "responsible_agency": "Department of Sanitation",
    "final_address": "2308 Ap Tureaud Ave",
    "address_councildis": "D",
    "status": "Assigned to Contractor",
    "contractor": "IV Waste",
    "rowid": "1150906",
    "final_x": "3681559.20911",
    "final_y": "540579.665483",
    "longitude": "-90.06756734838459",
    "latitude": "29.980404848573567",
    "geocoded_column": {
      "latitude": "29.980404848573567",
      "longitude": "-90.06756734838459"
    }
  },
  {
    "service_request": "2024-1150905",
    "request_type": "Roads and Streets",
    "request_reason": "Street Subsidence (Sinking)",
    "date_created": "2024-11-23T22:33:02.000",
    "date_modified": "2024-11-23T22:33:02.000",
    "request_status": "Pending",
    "responsible_agency": "Department of Public Works",
    "final_address": "1 English Turn Prkwy",
    "address_councildis": "C",
    "status": "Pending",
    "rowid": "1150905",
    "final_x": "3713690.71429",
    "final_y": "516301.512564",
    "longitude": "-89.96699773956271",
    "latitude": "29.912633659868995",
    "geocoded_column": {
      "latitude": "29.912633659868995",
      "longitude": "-89.96699773956271"
    }
  },
  {
    "service_request": "2024-1150904",
    "request_type": "Trash/Recycling",
    "request_reason": "Repair Recycling Cart",
    "date_created": "2024-11-23T22:32:15.000",
    "date_modified": "2024-11-23T22:32:15.000",
    "request_status": "Pending",
    "responsible_agency": "Department of Sanitation",
    "final_address": "4900 Mandeville St",
    "address_councildis": "D",
    "status": "Pending",
    "rowid": "1150904",
    "final_x": "3684612.01813",
    "final_y": "550821.280917",
    "longitude": "-90.05756513348277",
    "latitude": "30.008472551739526",
    "geocoded_column": {
      "latitude": "30.008472551739526",
      "longitude": "-90.05756513348277"
    }
  },
  {
    "service_request": "2024-1150903",
    "request_type": "Trash/Recycling",
    "request_reason": "Repair Trash Cart",
    "date_created": "2024-11-23T22:29:59.000",
    "date_modified": "2024-11-23T22:30:00.000",
    "request_status": "Pending",
    "responsible_agency": "Department of Sanitation",
    "final_address": "4900 Mandeville St",
    "address_councildis": "D",
    "status": "Assigned to Contractor",
    "contractor": "IV Waste",
    "rowid": "1150903",
    "final_x": "3684612.01813",
    "final_y": "550821.280917",
    "longitude": "-90.05756513348277",
    "latitude": "30.008472551739526",
    "geocoded_column": {
      "latitude": "30.008472551739526",
      "longitude": "-90.05756513348277"
    }
  },
  {
    "service_request": "2024-1150902",
    "request_type": "Roads and Streets",
    "request_reason": "Street Subsidence (Sinking)",
    "date_created": "2024-11-23T22:29:01.000",
    "date_modified": "2024-11-23T22:29:01.000",
    "request_status": "Pending",
    "responsible_agency": "Department of Public Works",
    "final_address": "1 English Turn Prkwy",
    "address_councildis": "C",
    "status": "Pending",
    "rowid": "1150902",
    "final_x": "3713690.71429",
    "final_y": "516301.512564",
    "longitude": "-89.96699773956271",
    "latitude": "29.912633659868995",
    "geocoded_column": {
      "latitude": "29.912633659868995",
      "longitude": "-89.96699773956271"
    }
  },
  {
    "service_request": "2024-1150901",
    "request_type": "Trash/Recycling",
    "request_reason": "Request a Large Item Pick Up",
    "date_created": "2024-11-23T22:19:07.000",
    "date_modified": "2024-11-23T22:19:08.000",
    "request_status": "Pending",
    "responsible_agency": "Department of Sanitation",
    "final_address": "237 Delaronde St",
    "address_councildis": "C",
    "status": "Assigned to Contractor",
    "contractor": "Richards Disposal",
    "rowid": "1150901",
    "final_x": "3686239.55433",
    "final_y": "530712.643074",
    "longitude": "-90.05313303045718",
    "latitude": "29.953130972603677",
    "geocoded_column": {
      "latitude": "29.953130972603677",
      "longitude": "-90.05313303045718"
    }
  },
  {
    "service_request": "2024-1150900",
    "request_type": "Trash/Recycling",
    "request_reason": "Order Recycling Cart",
    "date_created": "2024-11-23T22:09:37.000",
    "date_modified": "2024-11-23T22:09:37.000",
    "request_status": "Pending",
    "responsible_agency": "Department of Sanitation",
    "final_address": "7401 Onyx St",
    "address_councildis": "D",
    "status": "Pending",
    "rowid": "1150900",
    "final_x": "3669008.52826",
    "final_y": "556034.285337",
    "longitude": "-90.10668534571867",
    "latitude": "30.023274930975376",
    "geocoded_column": {
      "latitude": "30.023274930975376",
      "longitude": "-90.10668534571867"
    }
  },
  {
    "service_request": "2024-1150899",
    "request_type": "Health Related Request",
    "request_reason": "Noise Ordinance Complaint",
    "date_created": "2024-11-23T21:26:44.000",
    "date_modified": "2024-11-23T21:26:44.000",
    "request_status": "Pending",
    "responsible_agency": "Health Department",
    "final_address": "DESIRE ST & N CLAIBORNE AVE",
    "address_councildis": "D",
    "status": "Pending",
    "rowid": "1150899",
    "final_x": "3690646.9",
    "final_y": "537574.48",
    "longitude": "-90.03897184831987",
    "latitude": "29.971862492608903",
    "geocoded_column": {
      "latitude": "29.971862492608903",
      "longitude": "-90.03897184831987"
    }
  },
  {
    "service_request": "2024-1150898",
    "request_type": "Trash/Recycling",
    "request_reason": "Request a Large Item Pick Up",
    "date_created": "2024-11-23T21:17:34.000",
    "date_modified": "2024-11-23T21:17:35.000",
    "request_status": "Pending",
    "responsible_agency": "Department of Sanitation",
    "final_address": "5609 Canal Blvd",
    "address_councildis": "A",
    "status": "Assigned to Contractor",
    "contractor": "IV Waste",
    "rowid": "1150898",
    "final_x": "3668409.06055",
    "final_y": "544722.813583",
    "longitude": "-90.1089614563456",
    "latitude": "29.99218996901636",
    "geocoded_column": {
      "latitude": "29.99218996901636",
      "longitude": "-90.1089614563456"
    }
  },
  {
    "service_request": "2024-1150897",
    "request_type": "Roads and Streets",
    "request_reason": "Street Subsidence (Sinking)",
    "date_created": "2024-11-23T20:49:10.000",
    "date_modified": "2024-11-23T20:49:10.000",
    "request_status": "Pending",
    "responsible_agency": "Department of Public Works",
    "final_address": "1 English Turn Prkwy",
    "address_councildis": "C",
    "status": "Pending",
    "rowid": "1150897",
    "final_x": "3713690.71429",
    "final_y": "516301.512564",
    "longitude": "-89.96699773956271",
    "latitude": "29.912633659868995",
    "geocoded_column": {
      "latitude": "29.912633659868995",
      "longitude": "-89.96699773956271"
    }
  },
  {
    "service_request": "2024-1150896",
    "request_type": "Trash/Recycling",
    "request_reason": "Missed Trash Pick-Up",
    "date_created": "2024-11-23T20:43:37.000",
    "date_modified": "2024-11-24T11:42:17.000",
    "case_close_date": "2024-11-24T05:42:17.000",
    "request_status": "Closed",
    "responsible_agency": "Department of Sanitation",
    "final_address": "1239 Carondelet St",
    "address_councildis": "B",
    "status": "Invalid Request",
    "contractor": "IV Waste",
    "contractor_action": "Invalid Request",
    "rowid": "1150896",
    "final_x": "3679127.26907",
    "final_y": "526367.810878",
    "longitude": "-90.07574110592219",
    "latitude": "29.941400714325162",
    "geocoded_column": {
      "latitude": "29.941400714325162",
      "longitude": "-90.07574110592219"
    }
  },
  {
    "service_request": "2024-1150895",
    "request_type": "Roads and Streets",
    "request_reason": "Street Subsidence (Sinking)",
    "date_created": "2024-11-23T20:16:44.000",
    "date_modified": "2024-11-23T20:16:44.000",
    "request_status": "Pending",
    "responsible_agency": "Department of Public Works",
    "final_address": "1 English Turn Prkwy",
    "address_councildis": "C",
    "status": "Pending",
    "rowid": "1150895",
    "final_x": "3713690.71429",
    "final_y": "516301.512564",
    "longitude": "-89.96699773956271",
    "latitude": "29.912633659868995",
    "geocoded_column": {
      "latitude": "29.912633659868995",
      "longitude": "-89.96699773956271"
    }
  },
  {
    "service_request": "2024-1150894",
    "request_type": "Trash/Recycling",
    "request_reason": "Request a Large Item Pick Up",
    "date_created": "2024-11-23T20:15:23.000",
    "date_modified": "2024-11-23T20:15:25.000",
    "request_status": "Pending",
    "responsible_agency": "Department of Sanitation",
    "final_address": "11211 N Idlewood Ct, New Orleans, Louisiana, 70128",
    "address_councildis": "E",
    "status": "Assigned to Contractor",
    "contractor": "Waste Pro",
    "rowid": "1150894",
    "final_x": "3716025.86207",
    "final_y": "560277.469149",
    "longitude": "-89.9579613954362",
    "latitude": "30.03347420878148",
    "geocoded_column": {
      "latitude": "30.03347420878148",
      "longitude": "-89.9579613954362"
    }
  },
  {
    "service_request": "2024-1150893",
    "request_type": "Property Maintenance",
    "request_reason": "Property Maintenance",
    "date_created": "2024-11-23T20:00:12.000",
    "date_modified": "2024-11-23T20:00:12.000",
    "request_status": "Pending",
    "responsible_agency": "Department of Code Enforcement",
    "final_address": "1201 Gallier St",
    "address_councildis": "C",
    "status": "Pending",
    "rowid": "1150893",
    "final_x": "3690590.1295",
    "final_y": "536016.562695",
    "longitude": "-90.03920670660904",
    "latitude": "29.967580532098367",
    "geocoded_column": {
      "latitude": "29.967580532098367",
      "longitude": "-90.03920670660904"
    }
  },
  {
    "service_request": "2024-1150892",
    "request_type": "Streetlights",
    "request_reason": "Streetlight Outage/Malfunction",
    "date_created": "2024-11-23T19:50:43.000",
    "date_modified": "2024-11-23T19:50:44.000",
    "request_status": "Pending",
    "responsible_agency": "Department of Public Works",
    "final_address": "Highway 406 & Woodland Highway",
    "status": "Pending",
    "contractor": "Legacy Professional Services",
    "rowid": "1150892",
    "final_x": "3709507.51774",
    "final_y": "512687.528241",
    "longitude": "-89.98033566129362",
    "latitude": "29.902832948951364",
    "geocoded_column": {
      "latitude": "29.902832948951364",
      "longitude": "-89.98033566129362"
    }
  },
  {
    "service_request": "2024-1150891",
    "request_type": "Roads and Streets",
    "request_reason": "Street Subsidence (Sinking)",
    "date_created": "2024-11-23T19:44:00.000",
    "date_modified": "2024-11-23T19:44:00.000",
    "request_status": "Pending",
    "responsible_agency": "Department of Public Works",
    "final_address": "1 English Turn Prkwy",
    "address_councildis": "C",
    "status": "Pending",
    "rowid": "1150891",
    "final_x": "3713690.71429",
    "final_y": "516301.512564",
    "longitude": "-89.96699773956271",
    "latitude": "29.912633659868995",
    "geocoded_column": {
      "latitude": "29.912633659868995",
      "longitude": "-89.96699773956271"
    }
  },
  {
    "service_request": "2024-1150890",
    "request_type": "Trash/Recycling",
    "request_reason": "Order Trash Cart",
    "date_created": "2024-11-23T19:13:41.000",
    "date_modified": "2024-11-23T19:13:42.000",
    "request_status": "Pending",
    "responsible_agency": "Department of Sanitation",
    "final_address": "3661 Rue Michelle",
    "address_councildis": "C",
    "status": "Assigned to Contractor",
    "contractor": "Richards Disposal",
    "rowid": "1150890",
    "final_x": "3703526.2385",
    "final_y": "517000.922613",
    "longitude": "-89.99905376628935",
    "latitude": "29.914886157070235",
    "geocoded_column": {
      "latitude": "29.914886157070235",
      "longitude": "-89.99905376628935"
    }
  },
  {
    "service_request": "2024-1150889",
    "request_type": "Roads and Streets",
    "request_reason": "Street Subsidence (Sinking)",
    "date_created": "2024-11-23T18:58:36.000",
    "date_modified": "2024-11-23T18:58:36.000",
    "request_status": "Pending",
    "responsible_agency": "Department of Public Works",
    "final_address": "14 Island Club Dr",
    "address_councildis": "C",
    "status": "Pending",
    "rowid": "1150889",
    "final_x": "3715783.74802",
    "final_y": "513124.02629",
    "longitude": "-89.96051176312794",
    "latitude": "29.903827898342445",
    "geocoded_column": {
      "latitude": "29.903827898342445",
      "longitude": "-89.96051176312794"
    }
  },
  {
    "service_request": "2024-1150888",
    "request_type": "Trash/Recycling",
    "request_reason": "Request a Large Item Pick Up",
    "date_created": "2024-11-23T18:51:42.000",
    "date_modified": "2024-11-23T18:51:43.000",
    "request_status": "Pending",
    "responsible_agency": "Department of Sanitation",
    "final_address": "13001 Sevres St",
    "address_councildis": "E",
    "status": "Assigned to Contractor",
    "contractor": "Waste Pro",
    "rowid": "1150888",
    "final_x": "3723874.14854",
    "final_y": "560182.019037",
    "longitude": "-89.93316399353245",
    "latitude": "30.032950398591936",
    "geocoded_column": {
      "latitude": "30.032950398591936",
      "longitude": "-89.93316399353245"
    }
  },
  {
    "service_request": "2024-1150887",
    "request_type": "Streetlights",
    "request_reason": "Streetlight Outage/Malfunction",
    "date_created": "2024-11-23T18:18:02.000",
    "date_modified": "2024-11-23T18:18:04.000",
    "request_status": "Pending",
    "responsible_agency": "Department of Public Works",
    "final_address": "10800 Morrison Rd Ste 119",
    "address_councildis": "E",
    "status": "Pending",
    "contractor": "Legacy Professional Services",
    "rowid": "1150887",
    "final_x": "3710652.83653",
    "final_y": "564225.141217",
    "longitude": "-89.97479266680826",
    "latitude": "30.044504967977748",
    "geocoded_column": {
      "latitude": "30.044504967977748",
      "longitude": "-89.97479266680826"
    }
  },
  {
    "service_request": "2024-1150886",
    "request_type": "Property Maintenance",
    "request_reason": "Property Maintenance",
    "date_created": "2024-11-23T18:17:24.000",
    "date_modified": "2024-11-23T18:17:24.000",
    "request_status": "Pending",
    "responsible_agency": "Department of Code Enforcement",
    "final_address": "2935 Serantine St",
    "address_councildis": "D",
    "status": "Pending",
    "rowid": "1150886",
    "final_x": "3679377.72149",
    "final_y": "542788.962765",
    "longitude": "-90.07438075277176",
    "latitude": "29.986545727375205",
    "geocoded_column": {
      "latitude": "29.986545727375205",
      "longitude": "-90.07438075277176"
    }
  },
  {
    "service_request": "2024-1150885",
    "request_type": "Streetlights",
    "request_reason": "Streetlight Outage/Malfunction",
    "date_created": "2024-11-23T18:12:40.000",
    "date_modified": "2024-11-23T18:12:41.000",
    "request_status": "Pending",
    "responsible_agency": "Department of Public Works",
    "final_address": "MORRISON RD & WRIGHT RD",
    "address_councildis": "E",
    "status": "Pending",
    "contractor": "Legacy Professional Services",
    "rowid": "1150885",
    "final_x": "3711407.5",
    "final_y": "565075.08",
    "longitude": "-89.97237570338713",
    "latitude": "30.04681733326063",
    "geocoded_column": {
      "latitude": "30.04681733326063",
      "longitude": "-89.97237570338713"
    }
  },
  {
    "service_request": "2024-1150884",
    "request_type": "Roads and Streets",
    "request_reason": "Street Subsidence (Sinking)",
    "date_created": "2024-11-23T18:06:53.000",
    "date_modified": "2024-11-23T18:06:53.000",
    "request_status": "Pending",
    "responsible_agency": "Department of Public Works",
    "final_address": "1 English Turn Prkwy",
    "address_councildis": "C",
    "status": "Pending",
    "rowid": "1150884",
    "final_x": "3713690.71429",
    "final_y": "516301.512564",
    "longitude": "-89.96699773956271",
    "latitude": "29.912633659868995",
    "geocoded_column": {
      "latitude": "29.912633659868995",
      "longitude": "-89.96699773956271"
    }
  },
  {
    "service_request": "2024-1150883",
    "request_type": "Streetlights",
    "request_reason": "Streetlight Outage/Malfunction",
    "date_created": "2024-11-23T18:04:39.000",
    "date_modified": "2024-11-23T18:04:40.000",
    "request_status": "Pending",
    "responsible_agency": "Department of Public Works",
    "final_address": "5525 Wimbledon Ct",
    "address_councildis": "C",
    "status": "Pending",
    "contractor": "Legacy Professional Services",
    "rowid": "1150883",
    "final_x": "3704486.58474",
    "final_y": "518999.667831",
    "longitude": "-89.99594896277956",
    "latitude": "29.920351233040307",
    "geocoded_column": {
      "latitude": "29.920351233040307",
      "longitude": "-89.99594896277956"
    }
  },
  {
    "service_request": "2024-1150882",
    "request_type": "Trash/Recycling",
    "request_reason": "Replace Trash Cart",
    "date_created": "2024-11-23T17:57:23.000",
    "date_modified": "2024-11-23T17:57:24.000",
    "request_status": "Pending",
    "responsible_agency": "Department of Sanitation",
    "final_address": "2620 Magazine St Unit B",
    "address_councildis": "B",
    "status": "Assigned to Contractor",
    "contractor": "IV Waste",
    "rowid": "1150882",
    "final_x": "3677434.88482",
    "final_y": "520999.539001",
    "longitude": "-90.08126949304283",
    "latitude": "29.926690690709684",
    "geocoded_column": {
      "latitude": "29.926690690709684",
      "longitude": "-90.08126949304283"
    }
  },
  {
    "service_request": "2024-1150881",
    "request_type": "Safety & Permits",
    "request_reason": "Licenses & Permits",
    "date_created": "2024-11-23T17:56:19.000",
    "date_modified": "2024-11-23T17:56:19.000",
    "request_status": "Pending",
    "responsible_agency": "Safety and Permits",
    "final_address": "7400 Lakeshore Dr",
    "address_councildis": "D",
    "status": "Pending",
    "rowid": "1150881",
    "final_x": "3666808.79802",
    "final_y": "556202.373082",
    "longitude": "-90.11363039460369",
    "latitude": "30.023801679293893",
    "geocoded_column": {
      "latitude": "30.023801679293893",
      "longitude": "-90.11363039460369"
    }
  },
  {
    "service_request": "2024-1150880",
    "request_type": "Abandoned Vehicles",
    "request_reason": "Abandoned/Junk Vehicles",
    "date_created": "2024-11-23T17:49:48.000",
    "date_modified": "2024-11-23T17:49:48.000",
    "request_status": "Pending",
    "responsible_agency": "Department of Public Works",
    "final_address": "4401 S Claiborne Ave",
    "address_councildis": "B",
    "status": "Pending",
    "rowid": "1150880",
    "final_x": "3670179.75175",
    "final_y": "525957.600509",
    "longitude": "-90.1040041251433",
    "latitude": "29.940539757842572",
    "geocoded_column": {
      "latitude": "29.940539757842572",
      "longitude": "-90.1040041251433"
    }
  },
  {
    "service_request": "2024-1150879",
    "request_type": "Roads and Streets",
    "request_reason": "Street Subsidence (Sinking)",
    "date_created": "2024-11-23T17:39:43.000",
    "date_modified": "2024-11-23T17:39:43.000",
    "request_status": "Pending",
    "responsible_agency": "Department of Public Works",
    "final_address": "4821 Press Dr",
    "address_councildis": "D",
    "status": "Pending",
    "rowid": "1150879",
    "final_x": "3689650.14217",
    "final_y": "551228.347221",
    "longitude": "-90.0416336557399",
    "latitude": "30.009436633967574",
    "geocoded_column": {
      "latitude": "30.009436633967574",
      "longitude": "-90.0416336557399"
    }
  },
  {
    "service_request": "2024-1150878",
    "request_type": "Roads and Streets",
    "request_reason": "Push-up/Pavement Expansion",
    "date_created": "2024-11-23T17:32:12.000",
    "date_modified": "2024-11-23T17:32:12.000",
    "request_status": "Pending",
    "responsible_agency": "Department of Public Works",
    "final_address": "4811 Press Dr",
    "address_councildis": "D",
    "status": "Pending",
    "rowid": "1150878",
    "final_x": "3689661.08412",
    "final_y": "551165.465109",
    "longitude": "-90.04160132603725",
    "latitude": "30.009263392123643",
    "geocoded_column": {
      "latitude": "30.009263392123643",
      "longitude": "-90.04160132603725"
    }
  },
  {
    "service_request": "2024-1150877",
    "request_type": "Trash/Recycling",
    "request_reason": "Request a Large Item Pick Up",
    "date_created": "2024-11-23T17:25:33.000",
    "date_modified": "2024-11-23T17:25:34.000",
    "request_status": "Pending",
    "responsible_agency": "Department of Sanitation",
    "final_address": "7711 Hansbrough Ave",
    "address_councildis": "E",
    "status": "Assigned to Contractor",
    "contractor": "Waste Pro",
    "rowid": "1150877",
    "final_x": "3707535.90993",
    "final_y": "564756.963234",
    "longitude": "-89.98462371346729",
    "latitude": "30.04606851022154",
    "geocoded_column": {
      "latitude": "30.04606851022154",
      "longitude": "-89.98462371346729"
    }
  },
  {
    "service_request": "2024-1150876",
    "request_type": "Roads and Streets",
    "request_reason": "Street Subsidence (Sinking)",
    "date_created": "2024-11-23T17:10:05.000",
    "date_modified": "2024-11-23T17:10:05.000",
    "request_status": "Pending",
    "responsible_agency": "Department of Public Works",
    "final_address": "1 English Turn Prkwy",
    "address_councildis": "C",
    "status": "Pending",
    "rowid": "1150876",
    "final_x": "3713690.71429",
    "final_y": "516301.512564",
    "longitude": "-89.96699773956271",
    "latitude": "29.912633659868995",
    "geocoded_column": {
      "latitude": "29.912633659868995",
      "longitude": "-89.96699773956271"
    }
  },
  {
    "service_request": "2024-1150875",
    "request_type": "Roads and Streets",
    "request_reason": "Street Subsidence (Sinking)",
    "date_created": "2024-11-23T17:07:30.000",
    "date_modified": "2024-11-23T17:07:30.000",
    "request_status": "Pending",
    "responsible_agency": "Department of Public Works",
    "final_address": "1 English Turn Prkwy",
    "address_councildis": "C",
    "status": "Pending",
    "rowid": "1150875",
    "final_x": "3713690.71429",
    "final_y": "516301.512564",
    "longitude": "-89.96699773956271",
    "latitude": "29.912633659868995",
    "geocoded_column": {
      "latitude": "29.912633659868995",
      "longitude": "-89.96699773956271"
    }
  },
  {
    "service_request": "2024-1150874",
    "request_type": "Trash/Recycling",
    "request_reason": "Request a Large Item Pick Up",
    "date_created": "2024-11-23T17:00:23.000",
    "date_modified": "2024-11-23T17:00:24.000",
    "request_status": "Pending",
    "responsible_agency": "Department of Sanitation",
    "final_address": "805 Tupelo St",
    "address_councildis": "E",
    "status": "Assigned to Contractor",
    "contractor": "Waste Pro",
    "rowid": "1150874",
    "final_x": "3699152.78512",
    "final_y": "532278.732867",
    "longitude": "-90.01230190463954",
    "latitude": "29.957034142731764",
    "geocoded_column": {
      "latitude": "29.957034142731764",
      "longitude": "-90.01230190463954"
    }
  },
  {
    "service_request": "2024-1150873",
    "request_type": "Trash/Recycling",
    "request_reason": "Request a Large Item Pick Up",
    "date_created": "2024-11-23T16:55:15.000",
    "date_modified": "2024-11-23T16:55:16.000",
    "request_status": "Pending",
    "responsible_agency": "Department of Sanitation",
    "final_address": "3632 Constance St",
    "address_councildis": "B",
    "status": "Assigned to Contractor",
    "contractor": "IV Waste",
    "rowid": "1150873",
    "final_x": "3674041.84148",
    "final_y": "518819.710135",
    "longitude": "-90.09205496985324",
    "latitude": "29.920798372040863",
    "geocoded_column": {
      "latitude": "29.920798372040863",
      "longitude": "-90.09205496985324"
    }
  },
  {
    "service_request": "2024-1150872",
    "request_type": "Roads and Streets",
    "request_reason": "Street Subsidence (Sinking)",
    "date_created": "2024-11-23T16:49:17.000",
    "date_modified": "2024-11-23T16:49:17.000",
    "request_status": "Pending",
    "responsible_agency": "Department of Public Works",
    "final_address": "1 English Turn Prkwy",
    "address_councildis": "C",
    "status": "Pending",
    "rowid": "1150872",
    "final_x": "3713690.71429",
    "final_y": "516301.512564",
    "longitude": "-89.96699773956271",
    "latitude": "29.912633659868995",
    "geocoded_column": {
      "latitude": "29.912633659868995",
      "longitude": "-89.96699773956271"
    }
  },
  {
    "service_request": "2024-1150871",
    "request_type": "Roads and Streets",
    "request_reason": "Street Subsidence (Sinking)",
    "date_created": "2024-11-23T16:45:11.000",
    "date_modified": "2024-11-23T16:45:11.000",
    "request_status": "Pending",
    "responsible_agency": "Department of Public Works",
    "final_address": "1 English Turn Prkwy",
    "address_councildis": "C",
    "status": "Pending",
    "rowid": "1150871",
    "final_x": "3713690.71429",
    "final_y": "516301.512564",
    "longitude": "-89.96699773956271",
    "latitude": "29.912633659868995",
    "geocoded_column": {
      "latitude": "29.912633659868995",
      "longitude": "-89.96699773956271"
    }
  },
  {
    "service_request": "2024-1150870",
    "request_type": "Roads and Streets",
    "request_reason": "Street Subsidence (Sinking)",
    "date_created": "2024-11-23T16:32:05.000",
    "date_modified": "2024-11-23T16:32:05.000",
    "request_status": "Pending",
    "responsible_agency": "Department of Public Works",
    "final_address": "1 English Turn Prkwy",
    "address_councildis": "C",
    "status": "Pending",
    "rowid": "1150870",
    "final_x": "3713690.71429",
    "final_y": "516301.512564",
    "longitude": "-89.96699773956271",
    "latitude": "29.912633659868995",
    "geocoded_column": {
      "latitude": "29.912633659868995",
      "longitude": "-89.96699773956271"
    }
  },
  {
    "service_request": "2024-1150869",
    "request_type": "Roads and Streets",
    "request_reason": "Street Subsidence (Sinking)",
    "date_created": "2024-11-23T16:27:12.000",
    "date_modified": "2024-11-23T16:27:12.000",
    "request_status": "Pending",
    "responsible_agency": "Department of Public Works",
    "final_address": "1 English Turn Prkwy",
    "address_councildis": "C",
    "status": "Pending",
    "rowid": "1150869",
    "final_x": "3713690.71429",
    "final_y": "516301.512564",
    "longitude": "-89.96699773956271",
    "latitude": "29.912633659868995",
    "geocoded_column": {
      "latitude": "29.912633659868995",
      "longitude": "-89.96699773956271"
    }
  },
  {
    "service_request": "2024-1150868",
    "request_type": "Roads and Streets",
    "request_reason": "Street Subsidence (Sinking)",
    "date_created": "2024-11-23T16:05:34.000",
    "date_modified": "2024-11-23T16:05:34.000",
    "request_status": "Pending",
    "responsible_agency": "Department of Public Works",
    "final_address": "1 English Turn Prkwy",
    "address_councildis": "C",
    "status": "Pending",
    "rowid": "1150868",
    "final_x": "3713690.71429",
    "final_y": "516301.512564",
    "longitude": "-89.96699773956271",
    "latitude": "29.912633659868995",
    "geocoded_column": {
      "latitude": "29.912633659868995",
      "longitude": "-89.96699773956271"
    }
  },
  {
    "service_request": "2024-1150867",
    "request_type": "Roads and Streets",
    "request_reason": "Street Subsidence (Sinking)",
    "date_created": "2024-11-23T15:59:06.000",
    "date_modified": "2024-11-23T15:59:06.000",
    "request_status": "Pending",
    "responsible_agency": "Department of Public Works",
    "final_address": "1 English Turn Prkwy",
    "address_councildis": "C",
    "status": "Pending",
    "rowid": "1150867",
    "final_x": "3713690.71429",
    "final_y": "516301.512564",
    "longitude": "-89.96699773956271",
    "latitude": "29.912633659868995",
    "geocoded_column": {
      "latitude": "29.912633659868995",
      "longitude": "-89.96699773956271"
    }
  },
  {
    "service_request": "2024-1150866",
    "request_type": "Trash/Recycling",
    "request_reason": "Missed Trash Pick-Up",
    "date_created": "2024-11-23T15:58:33.000",
    "date_modified": "2024-11-24T07:02:40.000",
    "case_close_date": "2024-11-24T01:02:40.000",
    "request_status": "Closed",
    "responsible_agency": "Department of Sanitation",
    "final_address": "1422 Urania St",
    "address_councildis": "B",
    "status": "Invalid Request",
    "contractor": "IV Waste",
    "contractor_action": "Invalid Request",
    "rowid": "1150866",
    "final_x": "3679170.02408",
    "final_y": "524012.449404",
    "longitude": "-90.07568773937474",
    "latitude": "29.93492295866107",
    "geocoded_column": {
      "latitude": "29.93492295866107",
      "longitude": "-90.07568773937474"
    }
  },
  {
    "service_request": "2024-1150865",
    "request_type": "Roads and Streets",
    "request_reason": "Street Subsidence (Sinking)",
    "date_created": "2024-11-23T15:56:25.000",
    "date_modified": "2024-11-23T15:56:25.000",
    "request_status": "Pending",
    "responsible_agency": "Department of Public Works",
    "final_address": "1 English Turn Prkwy",
    "address_councildis": "C",
    "status": "Pending",
    "rowid": "1150865",
    "final_x": "3713690.71429",
    "final_y": "516301.512564",
    "longitude": "-89.96699773956271",
    "latitude": "29.912633659868995",
    "geocoded_column": {
      "latitude": "29.912633659868995",
      "longitude": "-89.96699773956271"
    }
  },
  {
    "service_request": "2024-1150864",
    "request_type": "Street and Traffic Signs",
    "request_reason": "Additional Signage Request",
    "date_created": "2024-11-23T15:54:54.000",
    "date_modified": "2024-11-23T15:54:54.000",
    "request_status": "Pending",
    "responsible_agency": "Department of Public Works",
    "final_address": "MARTIN LUTHER KING JR BLVD & S NORMAN C FRANCIS PKWY",
    "address_councildis": "B",
    "status": "Pending",
    "rowid": "1150864",
    "final_x": "3669529.6",
    "final_y": "531648.88",
    "longitude": "-90.10586428470513",
    "latitude": "29.95620808171242",
    "geocoded_column": {
      "latitude": "29.95620808171242",
      "longitude": "-90.10586428470513"
    }
  },
  {
    "service_request": "2024-1150863",
    "request_type": "Roads and Streets",
    "request_reason": "Street Subsidence (Sinking)",
    "date_created": "2024-11-23T15:52:35.000",
    "date_modified": "2024-11-23T15:52:35.000",
    "request_status": "Pending",
    "responsible_agency": "Department of Public Works",
    "final_address": "1 English Turn Prkwy",
    "address_councildis": "C",
    "status": "Pending",
    "rowid": "1150863",
    "final_x": "3713690.71429",
    "final_y": "516301.512564",
    "longitude": "-89.96699773956271",
    "latitude": "29.912633659868995",
    "geocoded_column": {
      "latitude": "29.912633659868995",
      "longitude": "-89.96699773956271"
    }
  },
  {
    "service_request": "2024-1150862",
    "request_type": "Roads and Streets",
    "request_reason": "Street Subsidence (Sinking)",
    "date_created": "2024-11-23T15:52:30.000",
    "date_modified": "2024-11-23T15:52:30.000",
    "request_status": "Pending",
    "responsible_agency": "Department of Public Works",
    "final_address": "1 English Turn Prkwy",
    "address_councildis": "C",
    "status": "Pending",
    "rowid": "1150862",
    "final_x": "3713690.71429",
    "final_y": "516301.512564",
    "longitude": "-89.96699773956271",
    "latitude": "29.912633659868995",
    "geocoded_column": {
      "latitude": "29.912633659868995",
      "longitude": "-89.96699773956271"
    }
  },