[
  {
    "service_request": "2025-1244524",
    "request_type": "Trash/Recycling",
    "request_reason": "Repair Trash Cart",
    "date_created": "2025-12-08T23:35:39.000",
    "date_modified": "2025-12-08T23:35:42.000",
    "request_status": "Pending",
    "responsible_agency": "Department of Sanitation",
    "final_address": "8127 Birch St",
    "address_councildis": "A",
    "status": "Assigned to Contractor",
    "contractor": "IV Waste",
    "rowid": "1244524",
    "final_x": "3662766.96429",
    "final_y": "529602.767105",
    "longitude": "-90.12728651401748",
    "latitude": "29.950779396325682",
    "geocoded_column": {
      "latitude": "29.950779396325682",
      "longitude": "-90.12728651401748"
    }
  },
  {
    "service_request": "2025-1244523",
    "request_type": "Street and Traffic Signs",
    "request_reason": "Street Name Sign Damaged or Missing",
    "date_created": "2025-12-08T23:04:00.000",
    "date_modified": "2025-12-08T23:04:01.000",
    "request_status": "Pending",
    "responsible_agency": "Department of Public Works",
    "final_address": "JULIA ST & S PETERS ST",
    "address_councildis": "B",
    "status": "Pending",
    "rowid": "1244523",
    "final_x": "3682258.1",
    "final_y": "527566.58",
    "longitude": "-90.06581460801043",
    "latitude": "29.94460207313212",
    "geocoded_column": {
      "latitude": "29.94460207313212",
      "longitude": "-90.06581460801043"
    }
  },
  {
    "service_request": "2025-1244522",
    "request_type": "Trash/Recycling",
    "request_reason": "Request a Large Item Pick Up",
    "date_created": "2025-12-08T21:40:26.000",
    "date_modified": "2025-12-08T21:40:28.000",
    "request_status": "Pending",
    "responsible_agency": "Department of Sanitation",
    "final_address": "13111 Deauville Ct",
    "address_councildis": "E",
    "status": "Assigned to Contractor",
    "contractor": "Waste Pro",
    "rowid": "1244522",
    "final_x": "3724559.14182",
    "final_y": "560973.258398",
    "longitude": "-89.9309687813321",
    "latitude": "30.035102949584697",
    "geocoded_column": {
      "latitude": "30.035102949584697",
      "longitude": "-89.9309687813321"
    }
  },
  {
    "service_request": "2025-1244521",
    "request_type": "Streetlights",
    "request_reason": "Streetlight Outage/Malfunction",
    "date_created": "2025-12-08T21:36:52.000",
    "date_modified": "2025-12-08T21:36:53.000",
    "request_status": "Pending",
    "responsible_agency": "Department of Public Works",
    "final_address": "2424 Marengo St",
    "address_councildis": "B",
    "status": "Pending",
    "rowid": "1244521",
    "final_x": "3671602.6955",
    "final_y": "524005.061756",
    "longitude": "-90.09957801885793",
    "latitude": "29.93512885559905",
    "geocoded_column": {
      "latitude": "29.93512885559905",
      "longitude": "-90.09957801885793"
    }
  },
  {
    "service_request": "2025-1244520",
    "request_type": "Trash/Recycling",
    "request_reason": "Request a Large Item Pick Up",
    "date_created": "2025-12-08T21:19:16.000",
    "date_modified": "2025-12-08T21:19:18.000",
    "request_status": "Pending",
    "responsible_agency": "Department of Sanitation",
    "final_address": "8400 Aberdeen Rd",
    "address_councildis": "E",
    "status": "Assigned to Contractor",
    "contractor": "Waste Pro",
    "rowid": "1244520",
    "final_x": "3703633.90481",
    "final_y": "561659.238047",
    "longitude": "-89.99707011311357",
    "latitude": "30.037676696165075",
    "geocoded_column": {
      "latitude": "30.037676696165075",
      "longitude": "-89.99707011311357"
    }
  },
  {
    "service_request": "2025-1244519",
    "request_type": "Healthy Homes",
    "request_reason": "Healthy Homes",
    "date_created": "2025-12-08T21:03:37.000",
    "date_modified": "2025-12-08T21:03:39.000",
    "request_status": "Pending",
    "responsible_agency": "Department of Code Enforcement",
    "final_address": "6530 Peoples Ave",
    "address_councildis": "D",
    "status": "Pending",
    "rowid": "1244519",
    "final_x": "3687593.69359",
    "final_y": "557463.585179",
    "longitude": "-90.04790968497832",
    "latitude": "30.0266448145985",
    "geocoded_column": {
      "latitude": "30.0266448145985",
      "longitude": "-90.04790968497832"
    }
  },
  {
    "service_request": "2025-1244518",
    "request_type": "General Services",
    "request_reason": "General Service Request",
    "date_created": "2025-12-08T20:56:23.000",
    "date_modified": "2025-12-08T20:56:26.000",
    "request_status": "Pending",
    "responsible_agency": "Orleans Parish Communication District",
    "final_address": "3015 Dumaine St",
    "address_councildis": "A",
    "status": "Pending",
    "rowid": "1244518",
    "final_x": "3676090.0331",
    "final_y": "538387.267273",
    "longitude": "-90.08491680904632",
    "latitude": "29.974541495214105",
    "geocoded_column": {
      "latitude": "29.974541495214105",
      "longitude": "-90.08491680904632"
    }
  },
  {
    "service_request": "2025-1244517",
    "request_type": "Roads and Streets",
    "request_reason": "Debris in Driving Lanes",
    "date_created": "2025-12-08T20:02:42.000",
    "date_modified": "2025-12-08T20:02:44.000",
    "request_status": "Pending",
    "responsible_agency": "Department of Public Works",
    "final_address": "5403 Spain St",
    "address_councildis": "D",
    "status": "Pending",
    "rowid": "1244517",
    "final_x": "3684877.31541",
    "final_y": "552819.188822",
    "longitude": "-90.05665664921462",
    "latitude": "30.013957945534585",
    "geocoded_column": {
      "latitude": "30.013957945534585",
      "longitude": "-90.05665664921462"
    }
  },
  {
    "service_request": "2025-1244516",
    "request_type": "Trash/Recycling",
    "request_reason": "Repair Trash Cart",
    "date_created": "2025-12-08T19:43:47.000",
    "date_modified": "2025-12-08T19:43:49.000",
    "request_status": "Pending",
    "responsible_agency": "Department of Sanitation",
    "final_address": "408 22Nd St",
    "address_councildis": "A",
    "status": "Assigned to Contractor",
    "contractor": "IV Waste",
    "rowid": "1244516",
    "final_x": "3664707.9401",
    "final_y": "549291.791187",
    "longitude": "-90.12049984767879",
    "latitude": "30.004861315565606",
    "geocoded_column": {
      "latitude": "30.004861315565606",
      "longitude": "-90.12049984767879"
    }
  },
  {
    "service_request": "2025-1244515",
    "request_type": "Trash/Recycling",
    "request_reason": "Request a Large Item Pick Up",
    "date_created": "2025-12-08T19:17:32.000",
    "date_modified": "2025-12-08T19:17:34.000",
    "request_status": "Pending",
    "responsible_agency": "Department of Sanitation",
    "final_address": "446 Elmira Ave",
    "address_councildis": "C",
    "status": "Assigned to Contractor",
    "contractor": "IV Waste",
    "rowid": "1244515",
    "final_x": "3688268.89206",
    "final_y": "529943.938113",
    "longitude": "-90.04675253589362",
    "latitude": "29.950954799013644",
    "geocoded_column": {
      "latitude": "29.950954799013644",
      "longitude": "-90.04675253589362"
    }
  },
  {
    "service_request": "2025-1244514",
    "request_type": "General Services",
    "request_reason": "General Service Request",
    "date_created": "2025-12-08T19:05:18.000",
    "date_modified": "2025-12-08T19:05:25.000",
    "request_status": "Pending",
    "responsible_agency": "Orleans Parish Communication District",
    "final_address": "8202 Plum St",
    "address_councildis": "A",
    "status": "Pending",
    "rowid": "1244514",
    "final_x": "3661878.87264",
    "final_y": "528871.282368",
    "longitude": "-90.13011492267508",
    "latitude": "29.94879372082046",
    "geocoded_column": {
      "latitude": "29.94879372082046",
      "longitude": "-90.13011492267508"
    }
  },
  {
    "service_request": "2025-1244513",
    "request_type": "Healthy Homes",
    "request_reason": "Healthy Homes",
    "date_created": "2025-12-08T18:52:48.000",
    "date_modified": "2025-12-08T18:52:49.000",
    "request_status": "Pending",
    "responsible_agency": "Department of Code Enforcement",
    "final_address": "4437 Carondelet St",
    "address_councildis": "B",
    "status": "Pending",
    "rowid": "1244513",
    "final_x": "3670471.49697",
    "final_y": "521275.684409",
    "longitude": "-90.10324171902985",
    "latitude": "29.927657386290356",
    "geocoded_column": {
      "latitude": "29.927657386290356",
      "longitude": "-90.10324171902985"
    }
  },
  {
    "service_request": "2025-1244512",
    "request_type": "Property Maintenance",
    "request_reason": "Property Maintenance",
    "date_created": "2025-12-08T18:47:50.000",
    "date_modified": "2025-12-08T18:47:51.000",
    "request_status": "Pending",
    "responsible_agency": "Department of Code Enforcement",
    "final_address": "1420 N Dorgenois St",
    "address_councildis": "D",
    "status": "Pending",
    "rowid": "1244512",
    "final_x": "3678794.81883",
    "final_y": "538738.111561",
    "longitude": "-90.07636228317067",
    "latitude": "29.975424888799026",
    "geocoded_column": {
      "latitude": "29.975424888799026",
      "longitude": "-90.07636228317067"
    }
  },
  {
    "service_request": "2025-1244511",
    "request_type": "Trash/Recycling",
    "request_reason": "Illegal Dumping",
    "date_created": "2025-12-08T18:47:02.000",
    "date_modified": "2025-12-08T18:47:04.000",
    "request_status": "Pending",
    "responsible_agency": "Department of Sanitation",
    "final_address": "1800 BLK Toledano St",
    "address_councildis": "B",
    "status": "Pending",
    "rowid": "1244511",
    "final_x": "3674239.74007",
    "final_y": "522553.860848",
    "longitude": "-90.09130252863801",
    "latitude": "29.93106018742883",
    "geocoded_column": {
      "latitude": "29.93106018742883",
      "longitude": "-90.09130252863801"
    }
  },
  {
    "service_request": "2025-1244510",
    "request_type": "Trash/Recycling",
    "request_reason": "MIssed Recycling Pick-Up",
    "date_created": "2025-12-08T18:40:41.000",
    "date_modified": "2025-12-08T18:40:43.000",
    "request_status": "Pending",
    "responsible_agency": "Department of Sanitation",
    "final_address": "2618 Cupid St",
    "address_councildis": "C",
    "status": "Assigned to Contractor",
    "contractor": "IV Waste",
    "rowid": "1244510",
    "final_x": "3700410.05136",
    "final_y": "521423.851385",
    "longitude": "-90.00872811303307",
    "latitude": "29.927147104449098",
    "geocoded_column": {
      "latitude": "29.927147104449098",
      "longitude": "-90.00872811303307"
    }
  },
  {
    "service_request": "2025-1244509",
    "request_type": "Trash/Recycling",
    "request_reason": "Request a Large Item Pick Up",
    "date_created": "2025-12-08T18:30:58.000",
    "date_modified": "2025-12-08T18:31:00.000",
    "request_status": "Pending",
    "responsible_agency": "Department of Sanitation",
    "final_address": "361 Millaudon St",
    "address_councildis": "A",
    "status": "Assigned to Contractor",
    "contractor": "IV Waste",
    "rowid": "1244509",
    "final_x": "3661824.15021",
    "final_y": "524487.801596",
    "longitude": "-90.13043300340226",
    "latitude": "29.936742123533673",
    "geocoded_column": {
      "latitude": "29.936742123533673",
      "longitude": "-90.13043300340226"
    }
  },
  {
    "service_request": "2025-1244508",
    "request_type": "Trash/Recycling",
    "request_reason": "Replace Trash Cart",
    "date_created": "2025-12-08T18:22:50.000",
    "date_modified": "2025-12-08T18:23:01.000",
    "request_status": "Pending",
    "responsible_agency": "Department of Sanitation",
    "final_address": "941 Wilson Dr",
    "address_councildis": "A",
    "status": "Assigned to Contractor",
    "contractor": "IV Waste",
    "rowid": "1244508",
    "final_x": "3674085.1371",
    "final_y": "540207.404555",
    "longitude": "-90.09118645094348",
    "latitude": "29.97960616181824",
    "geocoded_column": {
      "latitude": "29.97960616181824",
      "longitude": "-90.09118645094348"
    }
  },
  {
    "service_request": "2025-1244507",
    "request_type": "Abandoned Vehicles",
    "request_reason": "Abandoned/Junk Vehicles",
    "date_created": "2025-12-08T18:13:56.000",
    "date_modified": "2025-12-08T18:13:59.000",
    "request_status": "Pending",
    "responsible_agency": "Department of Public Works",
    "final_address": "6025 Wildair Dr",
    "address_councildis": "D",
    "status": "Pending",
    "rowid": "1244507",
    "final_x": "3681511.83189",
    "final_y": "554946.28956",
    "longitude": "-90.06721559592441",
    "latitude": "30.019909373406023",
    "geocoded_column": {
      "latitude": "30.019909373406023",
      "longitude": "-90.06721559592441"
    }
  },
  {
    "service_request": "2025-1244506",
    "request_type": "Streetlights",
    "request_reason": "Streetlight Outage/Malfunction",
    "date_created": "2025-12-08T18:00:12.000",
    "date_modified": "2025-12-08T18:00:25.000",
    "request_status": "Pending",
    "responsible_agency": "Department of Public Works",
    "final_address": "5919 Chef Menteur Hwy",
    "address_councildis": "D",
    "status": "Pending",
    "rowid": "1244506",
    "final_x": "3696521.82256",
    "final_y": "551705.913109",
    "longitude": "-90.01990645051472",
    "latitude": "30.010534973495616",
    "geocoded_column": {
      "latitude": "30.010534973495616",
      "longitude": "-90.01990645051472"
    }
  },
  {
    "service_request": "2025-1244505",
    "request_type": "Streetlights",
    "request_reason": "Streetlight Outage/Malfunction",
    "date_created": "2025-12-08T17:56:41.000",
    "date_modified": "2025-12-08T17:56:43.000",
    "request_status": "Pending",
    "responsible_agency": "Department of Public Works",
    "final_address": "6324 Chef Menteur Hwy",
    "address_councildis": "E",
    "status": "Pending",
    "rowid": "1244505",
    "final_x": "3698361.32567",
    "final_y": "551369.806869",
    "longitude": "-90.01410701701765",
    "latitude": "30.00955270210462",
    "geocoded_column": {
      "latitude": "30.00955270210462",
      "longitude": "-90.01410701701765"
    }
  },
  {
    "service_request": "2025-1244504",
    "request_type": "Trash/Recycling",
    "request_reason": "Request a Large Item Pick Up",
    "date_created": "2025-12-08T17:44:38.000",
    "date_modified": "2025-12-08T17:44:40.000",
    "request_status": "Pending",
    "responsible_agency": "Department of Sanitation",
    "final_address": "7901 Means Ave",
    "address_councildis": "E",
    "status": "Assigned to Contractor",
    "contractor": "Waste Pro",
    "rowid": "1244504",
    "final_x": "3707697.22276",
    "final_y": "565496.02141",
    "longitude": "-89.9840863831204",
    "latitude": "30.04809540252796",
    "geocoded_column": {
      "latitude": "30.04809540252796",
      "longitude": "-89.9840863831204"
    }
  },
  {
    "service_request": "2025-1244503",
    "request_type": "Drainage",
    "request_reason": "Catch Basin Not Draining",
    "date_created": "2025-12-08T17:44:01.000",
    "date_modified": "2025-12-08T17:44:04.000",
    "request_status": "Pending",
    "responsible_agency": "Sewerage & Water Board",
    "final_address": "2027 Dearmas St",
    "address_councildis": "C",
    "status": "Pending",
    "rowid": "1244503",
    "final_x": "3691638.29763",
    "final_y": "526953.78739",
    "longitude": "-90.03622056918074",
    "latitude": "29.942628457231102",
    "geocoded_column": {
      "latitude": "29.942628457231102",
      "longitude": "-90.03622056918074"
    }
  },
  {
    "service_request": "2025-1244502",
    "request_type": "Property Maintenance",
    "request_reason": "Property Maintenance",
    "date_created": "2025-12-08T17:34:30.000",
    "date_modified": "2025-12-08T17:34:33.000",
    "request_status": "Pending",
    "responsible_agency": "Department of Code Enforcement",
    "final_address": "7552 Expedition Dr",
    "address_councildis": "E",
    "status": "Pending",
    "rowid": "1244502",
    "final_x": "3726047.43488",
    "final_y": "571166.398696",
    "longitude": "-89.9258699415383",
    "latitude": "30.063079656105952",
    "geocoded_column": {
      "latitude": "30.063079656105952",
      "longitude": "-89.9258699415383"
    }
  },
  {
    "service_request": "2025-1244501",
    "request_type": "Roads and Streets",
    "request_reason": "Pothole",
    "date_created": "2025-12-08T17:20:14.000",
    "date_modified": "2025-12-08T17:20:22.000",
    "request_status": "Pending",
    "responsible_agency": "Department of Public Works",
    "final_address": "1115 Bellecastle St",
    "address_councildis": "B",
    "status": "Pending",
    "rowid": "1244501",
    "final_x": "3667753.8009",
    "final_y": "519509.186167",
    "longitude": "-90.11188030471433",
    "latitude": "29.922880018050805",
    "geocoded_column": {
      "latitude": "29.922880018050805",
      "longitude": "-90.11188030471433"
    }
  },
  {
    "service_request": "2025-1244500",
    "request_type": "Trash/Recycling",
    "request_reason": "Order Trash Cart",
    "date_created": "2025-12-08T17:07:57.000",
    "date_modified": "2025-12-08T17:07:59.000",
    "request_status": "Pending",
    "responsible_agency": "Department of Sanitation",
    "final_address": "2613 Dauphine St",
    "address_councildis": "C",
    "status": "Assigned to Contractor",
    "contractor": "IV Waste",
    "rowid": "1244500",
    "final_x": "3686972.79926",
    "final_y": "535377.019846",
    "longitude": "-90.05065289806113",
    "latitude": "29.9659338520946",
    "geocoded_column": {
      "latitude": "29.9659338520946",
      "longitude": "-90.05065289806113"
    }
  },
  {
    "service_request": "2025-1244499",
    "request_type": "Trash/Recycling",
    "request_reason": "Replace Trash Cart",
    "date_created": "2025-12-08T16:54:02.000",
    "date_modified": "2025-12-08T16:54:05.000",
    "request_status": "Pending",
    "responsible_agency": "Department of Sanitation",
    "final_address": "1130 Octavia St",
    "address_councildis": "A",
    "status": "Assigned to Contractor",
    "contractor": "IV Waste",
    "rowid": "1244499",
    "final_x": "3666683.46324",
    "final_y": "520192.703928",
    "longitude": "-90.11523601739137",
    "latitude": "29.92479080599275",
    "geocoded_column": {
      "latitude": "29.92479080599275",
      "longitude": "-90.11523601739137"
    }
  },
  {
    "service_request": "2025-1244498",
    "request_type": "Trash/Recycling",
    "request_reason": "Dead Animal Pick Up",
    "date_created": "2025-12-08T16:48:30.000",
    "date_modified": "2025-12-08T16:48:32.000",
    "request_status": "Pending",
    "responsible_agency": "Department of Sanitation",
    "final_address": "4902 Treves St",
    "address_councildis": "E",
    "status": "Assigned to Contractor",
    "contractor": "Waste Pro",
    "rowid": "1244498",
    "final_x": "3729883.90016",
    "final_y": "562716.755296",
    "longitude": "-89.91407371955931",
    "latitude": "30.03971657738039",
    "geocoded_column": {
      "latitude": "30.03971657738039",
      "longitude": "-89.91407371955931"
    }
  },
  {
    "service_request": "2025-1244497",
    "request_type": "Trash/Recycling",
    "request_reason": "Request a Large Item Pick Up",
    "date_created": "2025-12-08T16:35:48.000",
    "date_modified": "2025-12-08T16:35:50.000",
    "request_status": "Pending",
    "responsible_agency": "Department of Sanitation",
    "final_address": "11201 Morrison Rd",
    "address_councildis": "E",
    "status": "Assigned to Contractor",
    "contractor": "Waste Pro",
    "rowid": "1244497",
    "final_x": "3711566.52568",
    "final_y": "565375.900514",
    "longitude": "-89.97186180607981",
    "latitude": "30.0476392737113",
    "geocoded_column": {
      "latitude": "30.0476392737113",
      "longitude": "-89.97186180607981"
    }
  },
  {
    "service_request": "2025-1244496",
    "request_type": "Trash/Recycling",
    "request_reason": "Request a Large Item Pick Up",
    "date_created": "2025-12-08T16:28:06.000",
    "date_modified": "2025-12-08T16:28:07.000",
    "request_status": "Pending",
    "responsible_agency": "Department of Sanitation",
    "final_address": "8945 Bunker Hill Rd",
    "address_councildis": "E",
    "status": "Assigned to Contractor",
    "contractor": "Waste Pro",
    "rowid": "1244496",
    "final_x": "3706021.03697",
    "final_y": "561716.880223",
    "longitude": "-89.9895241239623",
    "latitude": "30.037758428268422",
    "geocoded_column": {
      "latitude": "30.037758428268422",
      "longitude": "-89.9895241239623"
    }
  },
  {
    "service_request": "2025-1244495",
    "request_type": "Trash/Recycling",
    "request_reason": "Request a Large Item Pick Up",
    "date_created": "2025-12-08T16:27:30.000",
    "date_modified": "2025-12-08T16:27:31.000",
    "request_status": "Pending",
    "responsible_agency": "Department of Sanitation",
    "final_address": "8953 Dinkins St",
    "address_councildis": "E",
    "status": "Assigned to Contractor",
    "contractor": "Waste Pro",
    "rowid": "1244495",
    "final_x": "3704992.66692",
    "final_y": "563654.651937",
    "longitude": "-89.99270235043876",
    "latitude": "30.043119656680545",
    "geocoded_column": {
      "latitude": "30.043119656680545",
      "longitude": "-89.99270235043876"
    }
  },
  {
    "service_request": "2025-1244494",
    "request_type": "Trash/Recycling",
    "request_reason": "Order Recycling Cart",
    "date_created": "2025-12-08T16:26:13.000",
    "date_modified": "2025-12-08T16:26:14.000",
    "request_status": "Pending",
    "responsible_agency": "Department of Sanitation",
    "final_address": "2514 Philip St",
    "address_councildis": "B",
    "status": "Pending",
    "rowid": "1244494",
    "final_x": "3675205.50203",
    "final_y": "526212.73203",
    "longitude": "-90.08812822088616",
    "latitude": "29.941092068419966",
    "geocoded_column": {
      "latitude": "29.941092068419966",
      "longitude": "-90.08812822088616"
    }
  },
  {
    "service_request": "2025-1244493",
    "request_type": "Trash/Recycling",
    "request_reason": "Request a Large Item Pick Up",
    "date_created": "2025-12-08T16:25:30.000",
    "date_modified": "2025-12-08T16:25:31.000",
    "request_status": "Pending",
    "responsible_agency": "Department of Sanitation",
    "final_address": "4343 Genoa St",
    "address_councildis": "E",
    "status": "Assigned to Contractor",
    "contractor": "Waste Pro",
    "rowid": "1244493",
    "final_x": "3760916.38589",
    "final_y": "573658.667946",
    "longitude": "-89.8155461661284",
    "latitude": "30.068708476580923",
    "geocoded_column": {
      "latitude": "30.068708476580923",
      "longitude": "-89.8155461661284"
    }
  },
  {
    "service_request": "2025-1244492",
    "request_type": "Trash/Recycling",
    "request_reason": "Order Trash Cart",
    "date_created": "2025-12-08T16:24:38.000",
    "date_modified": "2025-12-08T16:24:39.000",
    "request_status": "Pending",
    "responsible_agency": "Department of Sanitation",
    "final_address": "2514 Philip St",
    "address_councildis": "B",
    "status": "Assigned to Contractor",
    "contractor": "IV Waste",
    "rowid": "1244492",
    "final_x": "3675205.50203",
    "final_y": "526212.73203",
    "longitude": "-90.08812822088616",
    "latitude": "29.941092068419966",
    "geocoded_column": {
      "latitude": "29.941092068419966",
      "longitude": "-90.08812822088616"
    }
  },
  {
    "service_request": "2025-1244491",
    "request_type": "Trash/Recycling",
    "request_reason": "Request a Large Item Pick Up",
    "date_created": "2025-12-08T16:22:49.000",
    "date_modified": "2025-12-08T16:22:51.000",
    "request_status": "Pending",
    "responsible_agency": "Department of Sanitation",
    "final_address": "7810 Sandpiper Dr",
    "address_councildis": "E",
    "status": "Assigned to Contractor",
    "contractor": "Waste Pro",
    "rowid": "1244491",
    "final_x": "3715482.12952",
    "final_y": "570157.726567",
    "longitude": "-89.95930522611017",
    "latitude": "30.060658825395677",
    "geocoded_column": {
      "latitude": "30.060658825395677",
      "longitude": "-89.95930522611017"
    }
  },
  {
    "service_request": "2025-1244490",
    "request_type": "Street and Traffic Signs",
    "request_reason": "Street Name Sign Damaged or Missing",
    "date_created": "2025-12-08T16:16:18.000",
    "date_modified": "2025-12-08T16:16:19.000",
    "request_status": "Pending",
    "responsible_agency": "Department of Public Works",
    "final_address": "CHEF MENTEUR HWY & CAMELOT DR",
    "address_councildis": "E",
    "status": "Pending",
    "rowid": "1244490",
    "final_x": "3708571.1",
    "final_y": "553629.78",
    "longitude": "-89.98176683137203",
    "latitude": "30.015439594195445",
    "geocoded_column": {
      "latitude": "30.015439594195445",
      "longitude": "-89.98176683137203"
    }
  },
  {
    "service_request": "2025-1244489",
    "request_type": "Utility Poles",
    "request_reason": "Wires Sagging/Hanging Low",
    "date_created": "2025-12-08T16:16:00.000",
    "date_modified": "2025-12-08T16:16:03.000",
    "request_status": "Pending",
    "responsible_agency": "Utility Company Collective",
    "final_address": "MILAN ST & FRERET ST",
    "address_councildis": "B",
    "status": "Pending",
    "rowid": "1244489",
    "final_x": "3671281.8",
    "final_y": "524119.28",
    "longitude": "-90.10058720759136",
    "latitude": "29.935452415534673",
    "geocoded_column": {
      "latitude": "29.935452415534673",
      "longitude": "-90.10058720759136"
    }
  },
  {
    "service_request": "2025-1244488",
    "request_type": "Road Striping",
    "request_reason": "Lane Striping or other Pavement Markings",
    "date_created": "2025-12-08T16:13:06.000",
    "date_modified": "2025-12-08T16:13:07.000",
    "request_status": "Pending",
    "responsible_agency": "Department of Public Works",
    "final_address": "2900 Toledano St",
    "address_councildis": "B",
    "status": "Pending",
    "rowid": "1244488",
    "final_x": "3672698.98036",
    "final_y": "525755.773053",
    "longitude": "-90.09605736530874",
    "latitude": "29.939910240021483",
    "geocoded_column": {
      "latitude": "29.939910240021483",
      "longitude": "-90.09605736530874"
    }
  },
  {
    "service_request": "2025-1244487",
    "request_type": "Trash/Recycling",
    "request_reason": "Request a Large Item Pick Up",
    "date_created": "2025-12-08T16:13:02.000",
    "date_modified": "2025-12-08T16:13:03.000",
    "request_status": "Pending",
    "responsible_agency": "Department of Sanitation",
    "final_address": "5508 Urquhart St",
    "address_councildis": "E",
    "status": "Assigned to Contractor",
    "contractor": "Waste Pro",
    "rowid": "1244487",
    "final_x": "3697981.83357",
    "final_y": "534510.161349",
    "longitude": "-90.01591837135078",
    "latitude": "29.96320684693446",
    "geocoded_column": {
      "latitude": "29.96320684693446",
      "longitude": "-90.01591837135078"
    }
  },
  {
    "service_request": "2025-1244486",
    "request_type": "Trash/Recycling",
    "request_reason": "Request a Large Item Pick Up",
    "date_created": "2025-12-08T16:10:32.000",
    "date_modified": "2025-12-08T16:10:35.000",
    "request_status": "Pending",
    "responsible_agency": "Department of Sanitation",
    "final_address": "10921 Willowbrae Dr",
    "address_councildis": "E",
    "status": "Assigned to Contractor",
    "contractor": "Waste Pro",
    "rowid": "1244486",
    "final_x": "3711219.65752",
    "final_y": "564499.065761",
    "longitude": "-89.97299099263039",
    "latitude": "30.04523965953626",
    "geocoded_column": {
      "latitude": "30.04523965953626",
      "longitude": "-89.97299099263039"
    }
  },
  {
    "service_request": "2025-1244485",
    "request_type": "Trash/Recycling",
    "request_reason": "Illegal Dumping",
    "date_created": "2025-12-08T16:06:42.000",
    "date_modified": "2025-12-08T16:06:44.000",
    "request_status": "Pending",
    "responsible_agency": "Department of Sanitation",
    "final_address": "1726 Toledano St",
    "address_councildis": "B",
    "status": "Pending",
    "rowid": "1244485",
    "final_x": "3674296.04513",
    "final_y": "522259.246714",
    "longitude": "-90.09113486349497",
    "latitude": "29.930248415677898",
    "geocoded_column": {
      "latitude": "29.930248415677898",
      "longitude": "-90.09113486349497"
    }
  },
  {
    "service_request": "2025-1244484",
    "request_type": "Trash/Recycling",
    "request_reason": "Request a Large Item Pick Up",
    "date_created": "2025-12-08T16:04:34.000",
    "date_modified": "2025-12-08T16:04:37.000",
    "request_status": "Pending",
    "responsible_agency": "Department of Sanitation",
    "final_address": "106 Lark St",
    "address_councildis": "D",
    "status": "Assigned to Contractor",
    "contractor": "IV Waste",
    "rowid": "1244484",
    "final_x": "3674733.21249",
    "final_y": "556516.560858",
    "longitude": "-90.08857998996923",
    "latitude": "30.02443126296365",
    "geocoded_column": {
      "latitude": "30.02443126296365",
      "longitude": "-90.08857998996923"
    }
  },
  {
    "service_request": "2025-1244483",
    "request_type": "Trash/Recycling",
    "request_reason": "Request a Large Item Pick Up",
    "date_created": "2025-12-08T16:02:59.000",
    "date_modified": "2025-12-08T16:03:01.000",
    "request_status": "Pending",
    "responsible_agency": "Department of Sanitation",
    "final_address": "1927 Ellen Park Pl",
    "address_councildis": "C",
    "status": "Assigned to Contractor",
    "contractor": "IV Waste",
    "rowid": "1244483",
    "final_x": "3702867.06289",
    "final_y": "523752.228859",
    "longitude": "-90.00088654515385",
    "latitude": "29.93347100376474",
    "geocoded_column": {
      "latitude": "29.93347100376474",
      "longitude": "-90.00088654515385"
    }
  },
  {
    "service_request": "2025-1244482",
    "request_type": "Trash/Recycling",
    "request_reason": "Request a Large Item Pick Up",
    "date_created": "2025-12-08T16:01:32.000",
    "date_modified": "2025-12-08T16:01:33.000",
    "request_status": "Pending",
    "responsible_agency": "Department of Sanitation",
    "final_address": "4452 Cessna Ct",
    "address_councildis": "D",
    "status": "Assigned to Contractor",
    "contractor": "Waste Pro",
    "rowid": "1244482",
    "final_x": "3696542.70551",
    "final_y": "552688.555094",
    "longitude": "-90.0198048849489",
    "latitude": "30.013236212390012",
    "geocoded_column": {
      "latitude": "30.013236212390012",
      "longitude": "-90.0198048849489"
    }
  },
  {
    "service_request": "2025-1244481",
    "request_type": "Trash/Recycling",
    "request_reason": "Request a Large Item Pick Up",
    "date_created": "2025-12-08T16:01:27.000",
    "date_modified": "2025-12-08T16:01:35.000",
    "request_status": "Pending",
    "responsible_agency": "Department of Sanitation",
    "final_address": "7801 Arcadia Ln",
    "address_councildis": "E",
    "status": "Assigned to Contractor",
    "contractor": "Waste Pro",
    "rowid": "1244481",
    "final_x": "3712083.34046",
    "final_y": "567574.543012",
    "longitude": "-89.97014572979624",
    "latitude": "30.053667753238766",
    "geocoded_column": {
      "latitude": "30.053667753238766",
      "longitude": "-89.97014572979624"
    }
  },
  {
    "service_request": "2025-1244480",
    "request_type": "Trash/Recycling",
    "request_reason": "Request a Large Item Pick Up",
    "date_created": "2025-12-08T15:55:12.000",
    "date_modified": "2025-12-08T15:55:13.000",
    "request_status": "Pending",
    "responsible_agency": "Department of Sanitation",
    "final_address": "2101 Adams St",
    "address_councildis": "A",
    "status": "Assigned to Contractor",
    "contractor": "IV Waste",
    "rowid": "1244480",
    "final_x": "3665232.16711",
    "final_y": "529714.857217",
    "longitude": "-90.11949887749869",
    "latitude": "29.95101603102012",
    "geocoded_column": {
      "latitude": "29.95101603102012",
      "longitude": "-90.11949887749869"
    }
  },
  {
    "service_request": "2025-1244479",
    "request_type": "Drainage",
    "request_reason": "Ditch and Culvert Maintenance",
    "date_created": "2025-12-08T15:51:21.000",
    "date_modified": "2025-12-08T15:51:22.000",
    "request_status": "Pending",
    "responsible_agency": "Department of Public Works",
    "final_address": "10 Elysian Fields Ave",
    "address_councildis": "D",
    "status": "Pending",
    "rowid": "1244479",
    "final_x": "3683547.89602",
    "final_y": "552090.847318",
    "longitude": "-90.06088248659371",
    "latitude": "30.011995932794086",
    "geocoded_column": {
      "latitude": "30.011995932794086",
      "longitude": "-90.06088248659371"
    }
  },
  {
    "service_request": "2025-1244478",
    "request_type": "Roads and Streets",
    "request_reason": "Abandoned Service Cut",
    "date_created": "2025-12-08T15:51:18.000",
    "date_modified": "2025-12-08T15:51:20.000",
    "request_status": "Pending",
    "responsible_agency": "Department of Public Works",
    "final_address": "400 BLK Andrew Higgins Dr",
    "address_councildis": "B",
    "status": "Pending",
    "rowid": "1244478",
    "final_x": "3681089.10235",
    "final_y": "526851.67804",
    "longitude": "-90.06953037191094",
    "latitude": "29.942671836832087",
    "geocoded_column": {
      "latitude": "29.942671836832087",
      "longitude": "-90.06953037191094"
    }
  },
  {
    "service_request": "2025-1244477",
    "request_type": "Street and Traffic Signs",
    "request_reason": "Stop Sign Missing or Damaged",
    "date_created": "2025-12-08T15:46:49.000",
    "date_modified": "2025-12-08T15:46:51.000",
    "request_status": "Pending",
    "responsible_agency": "Department of Public Works",
    "final_address": "JACKSON AVE & CHIPPEWA ST",
    "address_councildis": "B",
    "status": "Pending",
    "rowid": "1244477",
    "final_x": "3679725.7",
    "final_y": "520910.98",
    "longitude": "-90.07404108440998",
    "latitude": "29.92637815430834",
    "geocoded_column": {
      "latitude": "29.92637815430834",
      "longitude": "-90.07404108440998"
    }
  },
  {
    "service_request": "2025-1244476",
    "request_type": "Trash/Recycling",
    "request_reason": "Illegal Dumping",
    "date_created": "2025-12-08T15:45:56.000",
    "date_modified": "2025-12-08T15:45:57.000",
    "request_status": "Pending",
    "responsible_agency": "Department of Sanitation",
    "final_address": "3923 Delachaise St",
    "address_councildis": "B",
    "status": "Pending",
    "rowid": "1244476",
    "final_x": "3670985.57281",
    "final_y": "529171.2272",
    "longitude": "-90.10135092028851",
    "latitude": "29.94935238583841",
    "geocoded_column": {
      "latitude": "29.94935238583841",
      "longitude": "-90.10135092028851"
    }
  },
  {
    "service_request": "2025-1244475",
    "request_type": "Drainage",
    "request_reason": "Ditch and Culvert Maintenance",
    "date_created": "2025-12-08T15:41:29.000",
    "date_modified": "2025-12-08T15:41:30.000",
    "request_status": "Pending",
    "responsible_agency": "Department of Public Works",
    "final_address": "1000 Elysian Fields Ave",
    "address_councildis": "C",
    "status": "Pending",
    "rowid": "1244475",
    "final_x": "3684949.99791",
    "final_y": "535971.320263",
    "longitude": "-90.05701992842498",
    "latitude": "29.967630079782495",
    "geocoded_column": {
      "latitude": "29.967630079782495",
      "longitude": "-90.05701992842498"
    }
  },
  {
    "service_request": "2025-1244474",
    "request_type": "Trash/Recycling",
    "request_reason": "Request a Large Item Pick Up",
    "date_created": "2025-12-08T15:40:28.000",
    "date_modified": "2025-12-08T15:40:30.000",
    "request_status": "Pending",
    "responsible_agency": "Department of Sanitation",
    "final_address": "8022 Haney Dr",
    "address_councildis": "E",
    "status": "Assigned to Contractor",
    "contractor": "Waste Pro",
    "rowid": "1244474",
    "final_x": "3711776.24331",
    "final_y": "568353.482213",
    "longitude": "-89.97108710684539",
    "latitude": "30.055819560626343",
    "geocoded_column": {
      "latitude": "30.055819560626343",
      "longitude": "-89.97108710684539"
    }
  },
  {
    "service_request": "2025-1244473",
    "request_type": "Abandoned Vehicles",
    "request_reason": "Abandoned/Junk Vehicles",
    "date_created": "2025-12-08T15:35:48.000",
    "date_modified": "2025-12-08T15:37:19.000",
    "request_status": "Pending",
    "responsible_agency": "Department of Public Works",
    "final_address": "4114 S Liberty St",
    "address_councildis": "B",
    "status": "Pending",
    "rowid": "1244473",
    "final_x": "3671578.68347",
    "final_y": "523390.180667",
    "longitude": "-90.09967472442258",
    "latitude": "29.933438842065975",
    "geocoded_column": {
      "latitude": "29.933438842065975",
      "longitude": "-90.09967472442258"
    }
  },
  {
    "service_request": "2025-1244472",
    "request_type": "Trash/Recycling",
    "request_reason": "Request a Large Item Pick Up",
    "date_created": "2025-12-08T15:35:14.000",
    "date_modified": "2025-12-08T15:35:16.000",
    "request_status": "Pending",
    "responsible_agency": "Department of Sanitation",
    "final_address": "7331 Beauvoir Ct",
    "address_councildis": "E",
    "status": "Assigned to Contractor",
    "contractor": "Waste Pro",
    "rowid": "1244472",
    "final_x": "3716054.63365",
    "final_y": "567975.436773",
    "longitude": "-89.95757840081707",
    "latitude": "30.05463954050383",
    "geocoded_column": {
      "latitude": "30.05463954050383",
      "longitude": "-89.95757840081707"
    }
  },
  {
    "service_request": "2025-1244471",
    "request_type": "Trash/Recycling",
    "request_reason": "Request a Large Item Pick Up",
    "date_created": "2025-12-08T15:35:02.000",
    "date_modified": "2025-12-08T15:35:04.000",
    "request_status": "Pending",
    "responsible_agency": "Department of Sanitation",
    "final_address": "7160 Deanne St",
    "address_councildis": "D",
    "status": "Assigned to Contractor",
    "contractor": "Waste Pro",
    "rowid": "1244471",
    "final_x": "3695366.92451",
    "final_y": "556997.46377",
    "longitude": "-90.02336407005002",
    "latitude": "30.025121095238553",
    "geocoded_column": {
      "latitude": "30.025121095238553",
      "longitude": "-90.02336407005002"
    }
  },
  {
    "service_request": "2025-1244470",
    "request_type": "Roads and Streets",
    "request_reason": "Push-up/Pavement Expansion",
    "date_created": "2025-12-08T15:34:40.000",
    "date_modified": "2025-12-08T15:34:42.000",
    "request_status": "Pending",
    "responsible_agency": "Department of Public Works",
    "final_address": "11041 Kinneil Rd",
    "address_councildis": "E",
    "status": "Pending",
    "rowid": "1244470",
    "final_x": "3711680.70629",
    "final_y": "564566.614113",
    "longitude": "-89.97153133397583",
    "latitude": "30.04541033198751",
    "geocoded_column": {
      "latitude": "30.04541033198751",
      "longitude": "-89.97153133397583"
    }
  },
  {
    "service_request": "2025-1244469",
    "request_type": "Trash/Recycling",
    "request_reason": "Request a Large Item Pick Up",
    "date_created": "2025-12-08T15:33:11.000",
    "date_modified": "2025-12-08T15:33:12.000",
    "request_status": "Pending",
    "responsible_agency": "Department of Sanitation",
    "final_address": "7801 Parry St",
    "address_councildis": "E",
    "status": "Assigned to Contractor",
    "contractor": "Waste Pro",
    "rowid": "1244469",
    "final_x": "3714030.77829",
    "final_y": "569023.663526",
    "longitude": "-89.96393569579035",
    "latitude": "30.057588392666045",
    "geocoded_column": {
      "latitude": "30.057588392666045",
      "longitude": "-89.96393569579035"
    }
  },
  {
    "service_request": "2025-1244468",
    "request_type": "Trash/Recycling",
    "request_reason": "Request a Large Item Pick Up",
    "date_created": "2025-12-08T15:32:28.000",
    "date_modified": "2025-12-08T15:32:29.000",
    "request_status": "Pending",
    "responsible_agency": "Department of Sanitation",
    "final_address": "7720 Windward Ct",
    "address_councildis": "E",
    "status": "Assigned to Contractor",
    "contractor": "Waste Pro",
    "rowid": "1244468",
    "final_x": "3715450.21931",
    "final_y": "569846.184998",
    "longitude": "-89.95941790004419",
    "latitude": "30.059803267004344",
    "geocoded_column": {
      "latitude": "30.059803267004344",
      "longitude": "-89.95941790004419"
    }
  },
  {
    "service_request": "2025-1244467",
    "request_type": "Streetlights",
    "request_reason": "Streetlight Outage/Malfunction",
    "date_created": "2025-12-08T15:28:17.000",
    "date_modified": "2025-12-08T15:28:19.000",
    "request_status": "Pending",
    "responsible_agency": "Department of Public Works",
    "final_address": "CONSTANCE ST & JOHN CHURCHILL CHASE ST",
    "address_councildis": "B",
    "status": "Pending",
    "rowid": "1244467",
    "final_x": "3681084.4",
    "final_y": "526240.48",
    "longitude": "-90.06956650125481",
    "latitude": "29.940991388712288",
    "geocoded_column": {
      "latitude": "29.940991388712288",
      "longitude": "-90.06956650125481"
    }
  },
  {
    "service_request": "2025-1244466",
    "request_type": "Trash/Recycling",
    "request_reason": "Illegal Dumping",
    "date_created": "2025-12-08T15:24:39.000",
    "date_modified": "2025-12-08T15:24:41.000",
    "request_status": "Pending",
    "responsible_agency": "Department of Sanitation",
    "final_address": "1900 BLK Tchoupitoulas St",
    "address_councildis": "B",
    "status": "Pending",
    "rowid": "1244466",
    "final_x": "3681468.81714",
    "final_y": "520501.886934",
    "longitude": "-90.06855281182442",
    "latitude": "29.925200491823556",
    "geocoded_column": {
      "latitude": "29.925200491823556",
      "longitude": "-90.06855281182442"
    }
  },
  {
    "service_request": "2025-1244465",
    "request_type": "Health Related Request",
    "request_reason": "Noise Ordinance Complaint",
    "date_created": "2025-12-08T15:08:07.000",
    "date_modified": "2025-12-08T15:08:09.000",
    "request_status": "Pending",
    "responsible_agency": "Health Department",
    "final_address": "8200 Willow St",
    "address_councildis": "A",
    "status": "Pending",
    "rowid": "1244465",
    "final_x": "3662101.86599",
    "final_y": "529136.635328",
    "longitude": "-90.12940203059486",
    "latitude": "29.949516915823203",
    "geocoded_column": {
      "latitude": "29.949516915823203",
      "longitude": "-90.12940203059486"
    }
  },
  {
    "service_request": "2025-1244464",
    "request_type": "Trash/Recycling",
    "request_reason": "Damaged Caused By Contractor",
    "date_created": "2025-12-08T15:07:53.000",
    "date_modified": "2025-12-08T15:07:55.000",
    "request_status": "Pending",
    "responsible_agency": "Department of Sanitation",
    "final_address": "128 N Norman C Francis Prkwy",
    "address_councildis": "B",
    "status": "Assigned to Contractor",
    "contractor": "IV Waste",
    "rowid": "1244464",
    "final_x": "3673529.33723",
    "final_y": "536902.178248",
    "longitude": "-90.09305489016792",
    "latitude": "29.970534469081773",
    "geocoded_column": {
      "latitude": "29.970534469081773",
      "longitude": "-90.09305489016792"
    }
  },
  {
    "service_request": "2025-1244463",
    "request_type": "Trash/Recycling",
    "request_reason": "Repair Trash Cart",
    "date_created": "2025-12-08T15:03:25.000",
    "date_modified": "2025-12-08T15:03:27.000",
    "request_status": "Pending",
    "responsible_agency": "Department of Sanitation",
    "final_address": "1323 Ferry Pl, New Orleans, Louisiana, 70118",
    "address_councildis": "A",
    "status": "Assigned to Contractor",
    "contractor": "IV Waste",
    "rowid": "1244463",
    "final_x": "3660129.72794",
    "final_y": "530765.554306",
    "longitude": "-90.13557523158875",
    "latitude": "29.95405275042451",
    "geocoded_column": {
      "latitude": "29.95405275042451",
      "longitude": "-90.13557523158875"
    }
  },
  {
    "service_request": "2025-1244462",
    "request_type": "Streetlights",
    "request_reason": "New Streetlight Request",
    "date_created": "2025-12-08T15:02:46.000",
    "date_modified": "2025-12-08T15:02:48.000",
    "request_status": "Pending",
    "responsible_agency": "Department of Public Works",
    "final_address": "5411 Piety Dr",
    "address_councildis": "D",
    "status": "Pending",
    "rowid": "1244462",
    "final_x": "3690838.52848",
    "final_y": "553616.376407",
    "longitude": "-90.03779384102687",
    "latitude": "30.01596594059401",
    "geocoded_column": {
      "latitude": "30.01596594059401",
      "longitude": "-90.03779384102687"
    }
  },
  {
    "service_request": "2025-1244461",
    "request_type": "Trash/Recycling",
    "request_reason": "Replace Trash Cart",
    "date_created": "2025-12-08T15:01:40.000",
    "date_modified": "2025-12-08T15:01:42.000",
    "request_status": "Pending",
    "responsible_agency": "Department of Sanitation",
    "final_address": "2237 Allen St",
    "address_councildis": "D",
    "status": "Assigned to Contractor",
    "contractor": "IV Waste",
    "rowid": "1244461",
    "final_x": "3682461.92911",
    "final_y": "540482.111755",
    "longitude": "-90.06471958615366",
    "latitude": "29.98010915951112",
    "geocoded_column": {
      "latitude": "29.98010915951112",
      "longitude": "-90.06471958615366"
    }
  },
  {
    "service_request": "2025-1244460",
    "request_type": "Trash/Recycling",
    "request_reason": "Order Second Trash Cart",
    "date_created": "2025-12-08T15:00:30.000",
    "date_modified": "2025-12-08T15:00:39.000",
    "request_status": "Pending",
    "responsible_agency": "Department of Sanitation",
    "final_address": "5411 Piety Dr",
    "address_councildis": "D",
    "status": "Assigned to Contractor",
    "contractor": "IV Waste",
    "rowid": "1244460",
    "final_x": "3690838.52848",
    "final_y": "553616.376407",
    "longitude": "-90.03779384102687",
    "latitude": "30.01596594059401",
    "geocoded_column": {
      "latitude": "30.01596594059401",
      "longitude": "-90.03779384102687"
    }
  },
  {
    "service_request": "2025-1244459",
    "request_type": "Trash/Recycling",
    "request_reason": "Order Second Trash Cart",
    "date_created": "2025-12-08T14:59:31.000",
    "date_modified": "2025-12-08T14:59:33.000",
    "request_status": "Pending",
    "responsible_agency": "Department of Sanitation",
    "final_address": "125 N Rendon St",
    "address_councildis": "B",
    "status": "Assigned to Contractor",
    "contractor": "IV Waste",
    "rowid": "1244459",
    "final_x": "3673656.34542",
    "final_y": "536734.193159",
    "longitude": "-90.09265952716379",
    "latitude": "29.97006878619333",
    "geocoded_column": {
      "latitude": "29.97006878619333",
      "longitude": "-90.09265952716379"
    }
  },
  {
    "service_request": "2025-1244458",
    "request_type": "Trash/Recycling",
    "request_reason": "Order Trash Cart",
    "date_created": "2025-12-08T14:57:51.000",
    "date_modified": "2025-12-08T14:57:53.000",
    "request_status": "Pending",
    "responsible_agency": "Department of Sanitation",
    "final_address": "4801 Bright Dr",
    "address_councildis": "E",
    "status": "Assigned to Contractor",
    "contractor": "Waste Pro",
    "rowid": "1244458",
    "final_x": "3715884.24946",
    "final_y": "557073.052058",
    "longitude": "-89.95853039860516",
    "latitude": "30.024668015346546",
    "geocoded_column": {
      "latitude": "30.024668015346546",
      "longitude": "-89.95853039860516"
    }
  },
  {
    "service_request": "2025-1244457",
    "request_type": "Trash/Recycling",
    "request_reason": "Request a Large Item Pick Up",
    "date_created": "2025-12-08T14:56:14.000",
    "date_modified": "2025-12-08T14:56:16.000",
    "request_status": "Pending",
    "responsible_agency": "Department of Sanitation",
    "final_address": "8511 Morrison Rd",
    "address_councildis": "E",
    "status": "Assigned to Contractor",
    "contractor": "Waste Pro",
    "rowid": "1244457",
    "final_x": "3704387.56964",
    "final_y": "561341.972382",
    "longitude": "-89.99470008165738",
    "latitude": "30.0367801519222",
    "geocoded_column": {
      "latitude": "30.0367801519222",
      "longitude": "-89.99470008165738"
    }
  },
  {
    "service_request": "2025-1244456",
    "request_type": "Trash/Recycling",
    "request_reason": "Request a Large Item Pick Up",
    "date_created": "2025-12-08T14:51:57.000",
    "date_modified": "2025-12-08T14:51:59.000",
    "request_status": "Pending",
    "responsible_agency": "Department of Sanitation",
    "final_address": "8720 Hickory St",
    "address_councildis": "A",
    "status": "Assigned to Contractor",
    "contractor": "IV Waste",
    "rowid": "1244456",
    "final_x": "3661646.9481",
    "final_y": "531455.816195",
    "longitude": "-90.13076156623289",
    "latitude": "29.955907051901747",
    "geocoded_column": {
      "latitude": "29.955907051901747",
      "longitude": "-90.13076156623289"
    }
  },
  {
    "service_request": "2025-1244455",
    "request_type": "Trash/Recycling",
    "request_reason": "Request a Large Item Pick Up",
    "date_created": "2025-12-08T14:50:20.000",
    "date_modified": "2025-12-08T14:50:22.000",
    "request_status": "Pending",
    "responsible_agency": "Department of Sanitation",
    "final_address": "7301 Bullard Ave",
    "address_councildis": "E",
    "status": "Assigned to Contractor",
    "contractor": "Waste Pro",
    "rowid": "1244455",
    "final_x": "3714123.98533",
    "final_y": "566187.113443",
    "longitude": "-89.96374825032612",
    "latitude": "30.04978597758632",
    "geocoded_column": {
      "latitude": "30.04978597758632",
      "longitude": "-89.96374825032612"
    }
  },
  {
    "service_request": "2025-1244454",
    "request_type": "Trash/Recycling",
    "request_reason": "Request a Large Item Pick Up",
    "date_created": "2025-12-08T14:47:20.000",
    "date_modified": "2025-12-08T14:47:35.000",
    "request_status": "Pending",
    "responsible_agency": "Department of Sanitation",
    "final_address": "7425 Mayo Rd",
    "address_councildis": "E",
    "status": "Assigned to Contractor",
    "contractor": "Waste Pro",
    "rowid": "1244454",
    "final_x": "3701059.73137",
    "final_y": "560329.909533",
    "longitude": "-90.00525376107944",
    "latitude": "30.034103851870203",
    "geocoded_column": {
      "latitude": "30.034103851870203",
      "longitude": "-90.00525376107944"
    }
  },
  {
    "service_request": "2025-1244453",
    "request_type": "Trash/Recycling",
    "request_reason": "Repair Trash Cart",
    "date_created": "2025-12-08T14:44:16.000",
    "date_modified": "2025-12-08T14:44:18.000",
    "request_status": "Pending",
    "responsible_agency": "Department of Sanitation",
    "final_address": "4429 Duplessis St",
    "address_councildis": "D",
    "status": "Assigned to Contractor",
    "contractor": "IV Waste",
    "rowid": "1244453",
    "final_x": "3678338.54158",
    "final_y": "548817.680275",
    "longitude": "-90.07745441930514",
    "latitude": "30.003153930815156",
    "geocoded_column": {
      "latitude": "30.003153930815156",
      "longitude": "-90.07745441930514"
    }
  },
  {
    "service_request": "2025-1244452",
    "request_type": "Trash/Recycling",
    "request_reason": "Request a Large Item Pick Up",
    "date_created": "2025-12-08T14:44:09.000",
    "date_modified": "2025-12-08T14:44:10.000",
    "request_status": "Pending",
    "responsible_agency": "Department of Sanitation",
    "final_address": "2510 Madrid St",
    "address_councildis": "D",
    "status": "Assigned to Contractor",
    "contractor": "IV Waste",
    "rowid": "1244452",
    "final_x": "3685786.43586",
    "final_y": "555462.387289",
    "longitude": "-90.05369103395849",
    "latitude": "30.02119788519782",
    "geocoded_column": {
      "latitude": "30.02119788519782",
      "longitude": "-90.05369103395849"
    }
  },
  {
    "service_request": "2025-1244451",
    "request_type": "Trash/Recycling",
    "request_reason": "Repair Trash Cart",
    "date_created": "2025-12-08T14:42:47.000",
    "date_modified": "2025-12-08T14:42:49.000",
    "request_status": "Pending",
    "responsible_agency": "Department of Sanitation",
    "final_address": "1620 Agriculture St",
    "address_councildis": "D",
    "status": "Assigned to Contractor",
    "contractor": "IV Waste",
    "rowid": "1244451",
    "final_x": "3680092.77935",
    "final_y": "542911.566029",
    "longitude": "-90.07211789291034",
    "latitude": "29.98686122153539",
    "geocoded_column": {
      "latitude": "29.98686122153539",
      "longitude": "-90.07211789291034"
    }
  },
  {
    "service_request": "2025-1244450",
    "request_type": "Trash/Recycling",
    "request_reason": "Return Recycling Cart",
    "date_created": "2025-12-08T14:42:44.000",
    "date_modified": "2025-12-08T14:42:45.000",
    "request_status": "Pending",
    "responsible_agency": "Department of Sanitation",
    "final_address": "5323 Warrington Dr",
    "address_councildis": "D",
    "status": "Pending",
    "rowid": "1244450",
    "final_x": "3680966.44725",
    "final_y": "552714.663126",
    "longitude": "-90.06901663856864",
    "latitude": "30.01378977137237",
    "geocoded_column": {
      "latitude": "30.01378977137237",
      "longitude": "-90.06901663856864"
    }
  },
  {
    "service_request": "2025-1244449",
    "request_type": "Trash/Recycling",
    "request_reason": "Request a Large Item Pick Up",
    "date_created": "2025-12-08T14:39:23.000",
    "date_modified": "2025-12-08T14:39:24.000",
    "request_status": "Pending",
    "responsible_agency": "Department of Sanitation",
    "final_address": "7718 Belfast St",
    "address_councildis": "A",
    "status": "Assigned to Contractor",
    "contractor": "IV Waste",
    "rowid": "1244449",
    "final_x": "3666594.42785",
    "final_y": "531394.049347",
    "longitude": "-90.11514115718226",
    "latitude": "29.955593511279886",
    "geocoded_column": {
      "latitude": "29.955593511279886",
      "longitude": "-90.11514115718226"
    }
  },
  {
    "service_request": "2025-1244448",
    "request_type": "Trash/Recycling",
    "request_reason": "Missed Trash Pick-Up",
    "date_created": "2025-12-08T14:36:21.000",
    "date_modified": "2025-12-08T15:29:50.000",
    "case_close_date": "2025-12-08T09:29:49.000",
    "request_status": "Closed",
    "responsible_agency": "Department of Sanitation",
    "final_address": "2546 Dumaine St",
    "address_councildis": "D",
    "status": "Invalid Request",
    "contractor": "IV Waste",
    "contractor_action": "Invalid",
    "rowid": "1244448",
    "final_x": "3677631.4349",
    "final_y": "537108.97012",
    "longitude": "-90.08009284159667",
    "latitude": "29.97098034853283",
    "geocoded_column": {
      "latitude": "29.97098034853283",
      "longitude": "-90.08009284159667"
    }
  },
  {
    "service_request": "2025-1244447",
    "request_type": "Trash/Recycling",
    "request_reason": "Start Trash Service",
    "date_created": "2025-12-08T14:35:04.000",
    "date_modified": "2025-12-08T14:37:02.000",
    "request_status": "Pending",
    "responsible_agency": "Department of Sanitation",
    "final_address": "1932 Arts St",
    "address_councildis": "D",
    "status": "Assigned to Contractor",
    "contractor": "IV Waste",
    "rowid": "1244447",
    "final_x": "3686912.67202",
    "final_y": "539672.09153",
    "longitude": "-90.0506909469642",
    "latitude": "29.977745646444756",
    "geocoded_column": {
      "latitude": "29.977745646444756",
      "longitude": "-90.0506909469642"
    }
  },
  {
    "service_request": "2025-1244446",
    "request_type": "Trash/Recycling",
    "request_reason": "Request a Large Item Pick Up",
    "date_created": "2025-12-08T14:34:18.000",
    "date_modified": "2025-12-08T14:34:19.000",
    "request_status": "Pending",
    "responsible_agency": "Department of Sanitation",
    "final_address": "13 Winners Cir",
    "address_councildis": "E",
    "status": "Assigned to Contractor",
    "contractor": "Waste Pro",
    "rowid": "1244446",
    "final_x": "3715676.88517",
    "final_y": "570494.049575",
    "longitude": "-89.95867686231298",
    "latitude": "30.061577151508803",
    "geocoded_column": {
      "latitude": "30.061577151508803",
      "longitude": "-89.95867686231298"
    }
  },
  {
    "service_request": "2025-1244445",
    "request_type": "Streetlights",
    "request_reason": "Streetlight Outage/Malfunction",
    "date_created": "2025-12-08T14:30:06.000",
    "date_modified": "2025-12-08T14:30:08.000",
    "request_status": "Pending",
    "responsible_agency": "Department of Public Works",
    "final_address": "3213 Constance St",
    "address_councildis": "B",
    "status": "Pending",
    "rowid": "1244445",
    "final_x": "3675861.45211",
    "final_y": "519644.422904",
    "longitude": "-90.08628295412464",
    "latitude": "29.92301174047606",
    "geocoded_column": {
      "latitude": "29.92301174047606",
      "longitude": "-90.08628295412464"
    }
  },
  {
    "service_request": "2025-1244444",
    "request_type": "Safety & Permits",
    "request_reason": "Zoning Enforcement",
    "date_created": "2025-12-08T14:18:27.000",
    "date_modified": "2025-12-08T14:18:29.000",
    "request_status": "Pending",
    "responsible_agency": "Safety and Permits",
    "final_address": "900 Eleonore St",
    "address_councildis": "A",
    "status": "Pending",
    "rowid": "1244444",
    "final_x": "3665264.99066",
    "final_y": "519444.149431",
    "longitude": "-90.11973871053087",
    "latitude": "29.92277390299219",
    "geocoded_column": {
      "latitude": "29.92277390299219",
      "longitude": "-90.11973871053087"
    }
  },
  {
    "service_request": "2025-1244443",
    "request_type": "Trash/Recycling",
    "request_reason": "Order Second Trash Cart",
    "date_created": "2025-12-08T14:17:34.000",
    "date_modified": "2025-12-08T14:17:35.000",
    "request_status": "Pending",
    "responsible_agency": "Department of Sanitation",
    "final_address": "1520 Dufossat St",
    "address_councildis": "B",
    "status": "Assigned to Contractor",
    "contractor": "IV Waste",
    "rowid": "1244443",
    "final_x": "3668021.84634",
    "final_y": "520604.332856",
    "longitude": "-90.1109973100833",
    "latitude": "29.925883465381688",
    "geocoded_column": {
      "latitude": "29.925883465381688",
      "longitude": "-90.1109973100833"
    }
  },
  {
    "service_request": "2025-1244442",
    "request_type": "Trash/Recycling",
    "request_reason": "Repair Trash Cart",
    "date_created": "2025-12-08T14:14:08.000",
    "date_modified": "2025-12-08T14:14:10.000",
    "request_status": "Pending",
    "responsible_agency": "Department of Sanitation",
    "final_address": "4949 Music St",
    "address_councildis": "D",
    "status": "Assigned to Contractor",
    "contractor": "IV Waste",
    "rowid": "1244442",
    "final_x": "3685631.52745",
    "final_y": "551203.697621",
    "longitude": "-90.05433070082286",
    "latitude": "30.009492807479266",
    "geocoded_column": {
      "latitude": "30.009492807479266",
      "longitude": "-90.05433070082286"
    }
  },
  {
    "service_request": "2025-1244441",
    "request_type": "Trash/Recycling",
    "request_reason": "Request a Large Item Pick Up",
    "date_created": "2025-12-08T14:12:42.000",
    "date_modified": "2025-12-08T14:12:44.000",
    "request_status": "Pending",
    "responsible_agency": "Department of Sanitation",
    "final_address": "11 New Basin Way",
    "address_councildis": "A",
    "status": "Assigned to Contractor",
    "contractor": "IV Waste",
    "rowid": "1244441",
    "final_x": "3666688.3746",
    "final_y": "554712.42652",
    "longitude": "-90.11406100681539",
    "latitude": "30.019708378005763",
    "geocoded_column": {
      "latitude": "30.019708378005763",
      "longitude": "-90.11406100681539"
    }
  },
  {
    "service_request": "2025-1244440",
    "request_type": "Trash/Recycling",
    "request_reason": "Illegal Dumping",
    "date_created": "2025-12-08T14:12:16.000",
    "date_modified": "2025-12-08T14:12:18.000",
    "request_status": "Pending",
    "responsible_agency": "Department of Sanitation",
    "final_address": "1913 Tricou St",
    "address_councildis": "E",
    "status": "Pending",
    "rowid": "1244440",
    "final_x": "3701360.48753",
    "final_y": "535994.555783",
    "longitude": "-90.0051947149331",
    "latitude": "29.96718115290895",
    "geocoded_column": {
      "latitude": "29.96718115290895",
      "longitude": "-90.0051947149331"
    }
  },
  {
    "service_request": "2025-1244439",
    "request_type": "Trash/Recycling",
    "request_reason": "Request a Large Item Pick Up",
    "date_created": "2025-12-08T14:07:14.000",
    "date_modified": "2025-12-08T14:07:16.000",
    "request_status": "Pending",
    "responsible_agency": "Department of Sanitation",
    "final_address": "6628 W Laverne St",
    "address_councildis": "D",
    "status": "Assigned to Contractor",
    "contractor": "Waste Pro",
    "rowid": "1244439",
    "final_x": "3696237.85917",
    "final_y": "555489.951641",
    "longitude": "-90.02066663673556",
    "latitude": "30.020948602475386",
    "geocoded_column": {
      "latitude": "30.020948602475386",
      "longitude": "-90.02066663673556"
    }
  },
  {
    "service_request": "2025-1244438",
    "request_type": "Property Maintenance",
    "request_reason": "Property Maintenance",
    "date_created": "2025-12-08T14:06:28.000",
    "date_modified": "2025-12-08T14:06:29.000",
    "request_status": "Pending",
    "responsible_agency": "Department of Code Enforcement",
    "final_address": "1300 BLK S Roman St",
    "address_councildis": "B",
    "status": "Pending",
    "rowid": "1244438",
    "final_x": "3674711.45303",
    "final_y": "528909.690328",
    "longitude": "-90.08959560391482",
    "latitude": "29.948522568846382",
    "geocoded_column": {
      "latitude": "29.948522568846382",
      "longitude": "-90.08959560391482"
    }
  },
  {
    "service_request": "2025-1244437",
    "request_type": "Trash/Recycling",
    "request_reason": "Request a Large Item Pick Up",
    "date_created": "2025-12-08T14:06:26.000",
    "date_modified": "2025-12-08T14:06:28.000",
    "request_status": "Pending",
    "responsible_agency": "Department of Sanitation",
    "final_address": "1614 Broadway St",
    "address_councildis": "A",
    "status": "Assigned to Contractor",
    "contractor": "IV Waste",
    "rowid": "1244437",
    "final_x": "3664979.81588",
    "final_y": "527819.382335",
    "longitude": "-90.12035903562797",
    "latitude": "29.945811435213955",
    "geocoded_column": {
      "latitude": "29.945811435213955",
      "longitude": "-90.12035903562797"
    }
  },
  {
    "service_request": "2025-1244436",
    "request_type": "Trash/Recycling",
    "request_reason": "Request a Large Item Pick Up",
    "date_created": "2025-12-08T14:04:14.000",
    "date_modified": "2025-12-08T14:04:17.000",
    "request_status": "Pending",
    "responsible_agency": "Department of Sanitation",
    "final_address": "1717 Hollygrove St",
    "address_councildis": "A",
    "status": "Assigned to Contractor",
    "contractor": "IV Waste",
    "rowid": "1244436",
    "final_x": "3660929.21907",
    "final_y": "531902.431555",
    "longitude": "-90.13301314453578",
    "latitude": "29.95715579275957",
    "geocoded_column": {
      "latitude": "29.95715579275957",
      "longitude": "-90.13301314453578"
    }
  },
  {
    "service_request": "2025-1244435",
    "request_type": "Abandoned Vehicles",
    "request_reason": "Abandoned/Junk Vehicles",
    "date_created": "2025-12-08T14:01:50.000",
    "date_modified": "2025-12-08T14:01:51.000",
    "request_status": "Pending",
    "responsible_agency": "Department of Public Works",
    "final_address": "4777 Eastern St",
    "address_councildis": "D",
    "status": "Pending",
    "rowid": "1244435",
    "final_x": "3688032.26422",
    "final_y": "550949.001685",
    "longitude": "-90.0467549901984",
    "latitude": "30.008718585449735",
    "geocoded_column": {
      "latitude": "30.008718585449735",
      "longitude": "-90.0467549901984"
    }
  },
  {
    "service_request": "2025-1244434",
    "request_type": "Trash/Recycling",
    "request_reason": "Return Trash Cart",
    "date_created": "2025-12-08T14:00:51.000",
    "date_modified": "2025-12-08T14:00:53.000",
    "request_status": "Pending",
    "responsible_agency": "Department of Sanitation",
    "final_address": "3933 Prytania St",
    "address_councildis": "B",
    "status": "Assigned to Contractor",
    "contractor": "IV Waste",
    "rowid": "1244434",
    "final_x": "3672477.91841",
    "final_y": "520624.272312",
    "longitude": "-90.09693010545448",
    "latitude": "29.92580683299585",
    "geocoded_column": {
      "latitude": "29.92580683299585",
      "longitude": "-90.09693010545448"
    }
  },
  {
    "service_request": "2025-1244433",
    "request_type": "Trash/Recycling",
    "request_reason": "Request a Large Item Pick Up",
    "date_created": "2025-12-08T13:57:33.000",
    "date_modified": "2025-12-08T13:57:35.000",
    "request_status": "Pending",
    "responsible_agency": "Department of Sanitation",
    "final_address": "124 Central Park Pl",
    "address_councildis": "A",
    "status": "Assigned to Contractor",
    "contractor": "IV Waste",
    "rowid": "1244433",
    "final_x": "3670369.22926",
    "final_y": "544084.503246",
    "longitude": "-90.10279130976097",
    "latitude": "29.990377097887",
    "geocoded_column": {
      "latitude": "29.990377097887",
      "longitude": "-90.10279130976097"
    }
  },
  {
    "service_request": "2025-1244432",
    "request_type": "Trash/Recycling",
    "request_reason": "Request a Large Item Pick Up",
    "date_created": "2025-12-08T13:49:12.000",
    "date_modified": "2025-12-08T13:49:13.000",
    "request_status": "Pending",
    "responsible_agency": "Department of Sanitation",
    "final_address": "5300 Norgate Dr",
    "address_councildis": "E",
    "status": "Assigned to Contractor",
    "contractor": "Waste Pro",
    "rowid": "1244432",
    "final_x": "3707316.3642",
    "final_y": "557463.235931",
    "longitude": "-89.98558872040506",
    "latitude": "30.026020745012026",
    "geocoded_column": {
      "latitude": "30.026020745012026",
      "longitude": "-89.98558872040506"
    }
  },
  {
    "service_request": "2025-1244431",
    "request_type": "Parks & Parkways",
    "request_reason": "Request Tree Service (Right of Way/Public Property)",
    "date_created": "2025-12-08T13:47:54.000",
    "date_modified": "2025-12-08T13:47:55.000",
    "request_status": "Pending",
    "responsible_agency": "Department of Parks & Parkway",
    "final_address": "9301 Palmetto St",
    "address_councildis": "A",
    "status": "Pending",
    "rowid": "1244431",
    "final_x": "3665055.05844",
    "final_y": "538290.148361",
    "longitude": "-90.11977133232848",
    "latitude": "29.974600422833525",
    "geocoded_column": {
      "latitude": "29.974600422833525",
      "longitude": "-90.11977133232848"
    }
  },
  {
    "service_request": "2025-1244430",
    "request_type": "Abandoned Vehicles",
    "request_reason": "Abandoned/Junk Vehicles",
    "date_created": "2025-12-08T13:43:06.000",
    "date_modified": "2025-12-08T13:43:08.000",
    "request_status": "Pending",
    "responsible_agency": "Department of Public Works",
    "final_address": "2816 Danneel St",
    "address_councildis": "B",
    "status": "Pending",
    "rowid": "1244430",
    "final_x": "3675003.49166",
    "final_y": "523612.389051",
    "longitude": "-90.0888551705368",
    "latitude": "29.933948010141513",
    "geocoded_column": {
      "latitude": "29.933948010141513",
      "longitude": "-90.0888551705368"
    }
  },
  {
    "service_request": "2025-1244429",
    "request_type": "General Services",
    "request_reason": "General Service Request",
    "date_created": "2025-12-08T13:41:21.000",
    "date_modified": "2025-12-08T14:14:11.000",
    "case_close_date": "2025-12-08T08:14:09.000",
    "request_status": "Closed",
    "responsible_agency": "Orleans Parish Communication District",
    "final_address": "1000 Magazine St",
    "address_councildis": "B",
    "status": "Referred to Risk Management",
    "rowid": "1244429",
    "final_x": "3680973.22095",
    "final_y": "526830.277182",
    "longitude": "-90.06989698145186",
    "latitude": "29.94261650549003",
    "geocoded_column": {
      "latitude": "29.94261650549003",
      "longitude": "-90.06989698145186"
    }
  },
  {
    "service_request": "2025-1244428",
    "request_type": "Trash/Recycling",
    "request_reason": "Request a Large Item Pick Up",
    "date_created": "2025-12-08T13:38:38.000",
    "date_modified": "2025-12-08T13:38:39.000",
    "request_status": "Pending",
    "responsible_agency": "Department of Sanitation",
    "final_address": "2701 Gallinghouse St",
    "address_councildis": "C",
    "status": "Assigned to Contractor",
    "contractor": "IV Waste",
    "rowid": "1244428",
    "final_x": "3700027.93514",
    "final_y": "521031.347257",
    "longitude": "-90.00994865817064",
    "latitude": "29.926079993804144",
    "geocoded_column": {
      "latitude": "29.926079993804144",
      "longitude": "-90.00994865817064"
    }
  },
  {
    "service_request": "2025-1244427",
    "request_type": "Trash/Recycling",
    "request_reason": "Request a Large Item Pick Up",
    "date_created": "2025-12-08T13:38:16.000",
    "date_modified": "2025-12-08T13:38:26.000",
    "request_status": "Pending",
    "responsible_agency": "Department of Sanitation",
    "final_address": "1017 Henriette Delille St",
    "address_councildis": "C",
    "status": "Assigned to Contractor",
    "contractor": "IV Waste",
    "rowid": "1244427",
    "final_x": "3681789.92661",
    "final_y": "534618.192198",
    "longitude": "-90.06704672524569",
    "latitude": "29.964005848923456",
    "geocoded_column": {
      "latitude": "29.964005848923456",
      "longitude": "-90.06704672524569"
    }
  },
  {
    "service_request": "2025-1244426",
    "request_type": "Trash/Recycling",
    "request_reason": "Order Recycling Cart",
    "date_created": "2025-12-08T13:34:00.000",
    "date_modified": "2025-12-08T13:34:01.000",
    "request_status": "Pending",
    "responsible_agency": "Department of Sanitation",
    "final_address": "5720 Lafaye St",
    "address_councildis": "D",
    "status": "Pending",
    "rowid": "1244426",
    "final_x": "3687158.93724",
    "final_y": "554331.015704",
    "longitude": "-90.04939438077088",
    "latitude": "30.018044815117772",
    "geocoded_column": {
      "latitude": "30.018044815117772",
      "longitude": "-90.04939438077088"
    }
  },
  {
    "service_request": "2025-1244425",
    "request_type": "Property Maintenance",
    "request_reason": "Property Maintenance",
    "date_created": "2025-12-08T13:33:08.000",
    "date_modified": "2025-12-08T14:09:42.000",
    "case_close_date": "2025-12-08T07:54:04.000",
    "request_status": "Closed",
    "responsible_agency": "Department of Code Enforcement",
    "final_address": "1114 Cadiz St",
    "address_councildis": "B",
    "status": "Referred to Code Enforcement",
    "rowid": "1244425",
    "final_x": "3670184.70298",
    "final_y": "519581.656952",
    "longitude": "-90.1042044245664",
    "latitude": "29.923007813084876",
    "geocoded_column": {
      "latitude": "29.923007813084876",
      "longitude": "-90.1042044245664"
    }
  },
  {
    "service_request": "2025-1244424",
    "request_type": "Trash/Recycling",
    "request_reason": "Request a Large Item Pick Up",
    "date_created": "2025-12-08T13:28:33.000",
    "date_modified": "2025-12-08T13:28:35.000",
    "request_status": "Pending",
    "responsible_agency": "Department of Sanitation",
    "final_address": "3425 N Claiborne Ave",
    "address_councildis": "D",
    "status": "Assigned to Contractor",
    "contractor": "IV Waste",
    "rowid": "1244424",
    "final_x": "3690835.5896",
    "final_y": "537563.673416",
    "longitude": "-90.03837632460952",
    "latitude": "29.97182691616684",
    "geocoded_column": {
      "latitude": "29.97182691616684",
      "longitude": "-90.03837632460952"
    }
  },
  {
    "service_request": "2025-1244423",
    "request_type": "Abandoned Vehicles",
    "request_reason": "Abandoned/Junk Vehicles",
    "date_created": "2025-12-08T13:25:57.000",
    "date_modified": "2025-12-08T13:25:59.000",
    "request_status": "Pending",
    "responsible_agency": "Department of Public Works",
    "final_address": "922 Lyons St",
    "address_councildis": "B",
    "status": "Pending",
    "rowid": "1244423",
    "final_x": "3669154.17761",
    "final_y": "518796.640823",
    "longitude": "-90.10748391359294",
    "latitude": "29.92087962280343",
    "geocoded_column": {
      "latitude": "29.92087962280343",
      "longitude": "-90.10748391359294"
    }
  },
  {
    "service_request": "2025-1244422",
    "request_type": "Trash/Recycling",
    "request_reason": "Start Trash Service",
    "date_created": "2025-12-08T13:25:02.000",
    "date_modified": "2025-12-08T14:11:00.000",
    "case_close_date": "2025-12-08T08:10:59.000",
    "request_status": "Closed",
    "responsible_agency": "Department of Sanitation",
    "final_address": "4616 Conti St Apt 1A",
    "address_councildis": "A",
    "status": "Assigned to Contractor",
    "contractor": "IV Waste",
    "contractor_action": "Completed",
    "rowid": "1244422",
    "final_x": "3669967.13409",
    "final_y": "540607.895755",
    "longitude": "-90.10417923098728",
    "latitude": "29.980829481885753",
    "geocoded_column": {
      "latitude": "29.980829481885753",
      "longitude": "-90.10417923098728"
    }
  },
  {
    "service_request": "2025-1244421",
    "request_type": "Trash/Recycling",
    "request_reason": "Dead Animal Pick Up",
    "date_created": "2025-12-08T13:22:27.000",
    "date_modified": "2025-12-08T13:22:29.000",
    "request_status": "Pending",
    "responsible_agency": "Department of Sanitation",
    "final_address": "4942 Bonita Dr",
    "address_councildis": "E",
    "status": "Assigned to Contractor",
    "contractor": "Waste Pro",
    "rowid": "1244421",
    "final_x": "3704340.22782",
    "final_y": "556320.147418",
    "longitude": "-89.99503504636563",
    "latitude": "30.02297361047498",
    "geocoded_column": {
      "latitude": "30.02297361047498",
      "longitude": "-89.99503504636563"
    }
  },
  {
    "service_request": "2025-1244420",
    "request_type": "Streetlights",
    "request_reason": "Streetlight Outage/Malfunction",
    "date_created": "2025-12-08T13:22:09.000",
    "date_modified": "2025-12-08T13:22:12.000",
    "request_status": "Pending",
    "responsible_agency": "Department of Public Works",
    "final_address": "8740 Dinkins St",
    "address_councildis": "E",
    "status": "Pending",
    "rowid": "1244420",
    "final_x": "3704389.61982",
    "final_y": "563200.230304",
    "longitude": "-89.99462499337119",
    "latitude": "30.041889563373868",
    "geocoded_column": {
      "latitude": "30.041889563373868",
      "longitude": "-89.99462499337119"
    }
  },
  {
    "service_request": "2025-1244419",
    "request_type": "Trash/Recycling",
    "request_reason": "Request a Large Item Pick Up",
    "date_created": "2025-12-08T13:20:25.000",
    "date_modified": "2025-12-08T13:20:27.000",
    "request_status": "Pending",
    "responsible_agency": "Department of Sanitation",
    "final_address": "4610 Alba Rd",
    "address_councildis": "E",
    "status": "Assigned to Contractor",
    "contractor": "Waste Pro",
    "rowid": "1244419",
    "final_x": "3761732.21289",
    "final_y": "573719.404842",
    "longitude": "-89.8129646761052",
    "latitude": "30.068845736328928",
    "geocoded_column": {
      "latitude": "30.068845736328928",
      "longitude": "-89.8129646761052"
    }
  },
  {
    "service_request": "2025-1244418",
    "request_type": "Graffiti Removal",
    "request_reason": "Graffiti Removal",
    "date_created": "2025-12-08T13:17:36.000",
    "date_modified": "2025-12-08T15:27:19.000",
    "case_close_date": "2025-12-08T09:27:18.000",
    "request_status": "Closed",
    "responsible_agency": "Department of Code Enforcement",
    "final_address": "744 St Charles Ave",
    "address_councildis": "B",
    "status": "Closed",
    "rowid": "1244418",
    "final_x": "3680468.34952",
    "final_y": "528168.965824",
    "longitude": "-90.07144443122075",
    "latitude": "29.94631274941783",
    "geocoded_column": {
      "latitude": "29.94631274941783",
      "longitude": "-90.07144443122075"
    }
  },
  {
    "service_request": "2025-1244417",
    "request_type": "General Services",
    "request_reason": "General Service Request",
    "date_created": "2025-12-08T13:16:59.000",
    "date_modified": "2025-12-08T13:22:23.000",
    "case_close_date": "2025-12-08T07:22:23.000",
    "request_status": "Closed",
    "responsible_agency": "Orleans Parish Communication District",
    "final_address": "1400 Milton St Apt 4911",
    "address_councildis": "D",
    "status": "Additional information requested from citizen",
    "rowid": "1244417",
    "final_x": "3678169.24814",
    "final_y": "546082.352208",
    "longitude": "-90.07808390673159",
    "latitude": "29.995637847688638",
    "geocoded_column": {
      "latitude": "29.995637847688638",
      "longitude": "-90.07808390673159"
    }
  },
  {
    "service_request": "2025-1244416",
    "request_type": "Trash/Recycling",
    "request_reason": "Request a Large Item Pick Up",
    "date_created": "2025-12-08T13:14:23.000",
    "date_modified": "2025-12-08T13:14:24.000",
    "request_status": "Pending",
    "responsible_agency": "Department of Sanitation",
    "final_address": "9730 W Rockton Cir",
    "address_councildis": "E",
    "status": "Assigned to Contractor",
    "contractor": "Waste Pro",
    "rowid": "1244416",
    "final_x": "3707941.23499",
    "final_y": "562389.991583",
    "longitude": "-89.98343082243048",
    "latitude": "30.039547157464636",
    "geocoded_column": {
      "latitude": "30.039547157464636",
      "longitude": "-89.98343082243048"
    }
  },
  {
    "service_request": "2025-1244415",
    "request_type": "Trash/Recycling",
    "request_reason": "Replace Trash Cart",
    "date_created": "2025-12-08T13:14:15.000",
    "date_modified": "2025-12-08T13:14:17.000",
    "request_status": "Pending",
    "responsible_agency": "Department of Sanitation",
    "final_address": "3808 Napoleon Ave",
    "address_councildis": "B",
    "status": "Assigned to Contractor",
    "contractor": "IV Waste",
    "rowid": "1244415",
    "final_x": "3669979.81294",
    "final_y": "528567.39808",
    "longitude": "-90.1045470067897",
    "latitude": "29.947721748955377",
    "geocoded_column": {
      "latitude": "29.947721748955377",
      "longitude": "-90.1045470067897"
    }
  },
  {
    "service_request": "2025-1244414",
    "request_type": "Trash/Recycling",
    "request_reason": "Replace Trash Cart",
    "date_created": "2025-12-08T13:12:40.000",
    "date_modified": "2025-12-08T13:12:41.000",
    "request_status": "Pending",
    "responsible_agency": "Department of Sanitation",
    "final_address": "1937 N Claiborne Ave",
    "address_councildis": "D",
    "status": "Assigned to Contractor",
    "contractor": "IV Waste",
    "rowid": "1244414",
    "final_x": "3684036.99516",
    "final_y": "538112.906761",
    "longitude": "-90.05982804162738",
    "latitude": "29.973546630723593",
    "geocoded_column": {
      "latitude": "29.973546630723593",
      "longitude": "-90.05982804162738"
    }
  },
  {
    "service_request": "2025-1244413",
    "request_type": "Trash/Recycling",
    "request_reason": "Repair Recycling Cart",
    "date_created": "2025-12-08T13:12:39.000",
    "date_modified": "2025-12-08T13:12:40.000",
    "request_status": "Pending",
    "responsible_agency": "Department of Sanitation",
    "final_address": "14150 Kingswood Dr",
    "address_councildis": "E",
    "status": "Pending",
    "rowid": "1244413",
    "final_x": "3720028.31634",
    "final_y": "568930.606757",
    "longitude": "-89.94498204683063",
    "latitude": "30.05713407807009",
    "geocoded_column": {
      "latitude": "30.05713407807009",
      "longitude": "-89.94498204683063"
    }
  },
  {
    "service_request": "2025-1244412",
    "request_type": "Trash/Recycling",
    "request_reason": "Request a Large Item Pick Up",
    "date_created": "2025-12-08T13:06:27.000",
    "date_modified": "2025-12-08T13:06:29.000",
    "request_status": "Pending",
    "responsible_agency": "Department of Sanitation",
    "final_address": "7951 Windward Ct",
    "address_councildis": "E",
    "status": "Assigned to Contractor",
    "contractor": "Waste Pro",
    "rowid": "1244412",
    "final_x": "3715062.47288",
    "final_y": "570516.990055",
    "longitude": "-89.96061812879275",
    "latitude": "30.06166048153654",
    "geocoded_column": {
      "latitude": "30.06166048153654",
      "longitude": "-89.96061812879275"
    }
  },
  {
    "service_request": "2025-1244411",
    "request_type": "Trash/Recycling",
    "request_reason": "Request a Large Item Pick Up",
    "date_created": "2025-12-08T13:00:42.000",
    "date_modified": "2025-12-08T13:00:44.000",
    "request_status": "Pending",
    "responsible_agency": "Department of Sanitation",
    "final_address": "7524 Devine Ave",
    "address_councildis": "E",
    "status": "Assigned to Contractor",
    "contractor": "Waste Pro",
    "rowid": "1244411",
    "final_x": "3705731.49617",
    "final_y": "562779.225504",
    "longitude": "-89.99039978884545",
    "latitude": "30.04068879169362",
    "geocoded_column": {
      "latitude": "30.04068879169362",
      "longitude": "-89.99039978884545"
    }
  },
  {
    "service_request": "2025-1244410",
    "request_type": "Trash/Recycling",
    "request_reason": "Order Trash Cart",
    "date_created": "2025-12-08T12:58:32.000",
    "date_modified": "2025-12-08T12:58:33.000",
    "request_status": "Pending",
    "responsible_agency": "Department of Sanitation",
    "final_address": "6011 N Roman St Apt B",
    "address_councildis": "E",
    "status": "Assigned to Contractor",
    "contractor": "Waste Pro",
    "rowid": "1244410",
    "final_x": "3700353.6184",
    "final_y": "535901.419143",
    "longitude": "-90.00837779753589",
    "latitude": "29.96695711226294",
    "geocoded_column": {
      "latitude": "29.96695711226294",
      "longitude": "-90.00837779753589"
    }
  },
  {
    "service_request": "2025-1244409",
    "request_type": "Trash/Recycling",
    "request_reason": "Request a Large Item Pick Up",
    "date_created": "2025-12-08T12:56:47.000",
    "date_modified": "2025-12-08T12:56:49.000",
    "request_status": "Pending",
    "responsible_agency": "Department of Sanitation",
    "final_address": "23 Rail St",
    "address_councildis": "D",
    "status": "Assigned to Contractor",
    "contractor": "IV Waste",
    "rowid": "1244409",
    "final_x": "3674043.84712",
    "final_y": "557245.442715",
    "longitude": "-90.0907332893834",
    "latitude": "30.026455997672745",
    "geocoded_column": {
      "latitude": "30.026455997672745",
      "longitude": "-90.0907332893834"
    }
  },
  {
    "service_request": "2025-1244408",
    "request_type": "Trash/Recycling",
    "request_reason": "Request a Large Item Pick Up",
    "date_created": "2025-12-08T12:55:19.000",
    "date_modified": "2025-12-08T12:55:21.000",
    "request_status": "Pending",
    "responsible_agency": "Department of Sanitation",
    "final_address": "7030 Lake Barrington Dr",
    "address_councildis": "E",
    "status": "Assigned to Contractor",
    "contractor": "Waste Pro",
    "rowid": "1244408",
    "final_x": "3712551.61829",
    "final_y": "563785.133921",
    "longitude": "-89.96880826870468",
    "latitude": "30.043233087928407",
    "geocoded_column": {
      "latitude": "30.043233087928407",
      "longitude": "-89.96880826870468"
    }
  },
  {
    "service_request": "2025-1244407",
    "request_type": "Trash/Recycling",
    "request_reason": "Repair Trash Cart",
    "date_created": "2025-12-08T12:54:45.000",
    "date_modified": "2025-12-08T12:54:47.000",
    "request_status": "Pending",
    "responsible_agency": "Department of Sanitation",
    "final_address": "11991 Curran Rd",
    "address_councildis": "E",
    "status": "Assigned to Contractor",
    "contractor": "Waste Pro",
    "rowid": "1244407",
    "final_x": "3713390.84792",
    "final_y": "568131.722661",
    "longitude": "-89.96599205589706",
    "latitude": "30.055156933845897",
    "geocoded_column": {
      "latitude": "30.055156933845897",
      "longitude": "-89.96599205589706"
    }
  },
  {
    "service_request": "2025-1244406",
    "request_type": "Abandoned Vehicles",
    "request_reason": "Abandoned/Junk Vehicles",
    "date_created": "2025-12-08T12:53:51.000",
    "date_modified": "2025-12-08T13:20:49.000",
    "request_status": "Pending",
    "responsible_agency": "Department of Public Works",
    "final_address": "5238 Laurel St",
    "address_councildis": "B",
    "status": "Pending",
    "rowid": "1244406",
    "final_x": "3667705.06292",
    "final_y": "517834.917238",
    "longitude": "-90.11209047994365",
    "latitude": "29.918277734166384",
    "geocoded_column": {
      "latitude": "29.918277734166384",
      "longitude": "-90.11209047994365"
    }
  },
  {
    "service_request": "2025-1244405",
    "request_type": "Trash/Recycling",
    "request_reason": "Request a Large Item Pick Up",
    "date_created": "2025-12-08T12:53:14.000",
    "date_modified": "2025-12-08T12:54:05.000",
    "request_status": "Pending",
    "responsible_agency": "Department of Sanitation",
    "final_address": "7613 Poitevent Ave",
    "address_councildis": "E",
    "status": "Pending",
    "contractor": "Waste Pro",
    "rowid": "1244405",
    "final_x": "3707024.39403",
    "final_y": "564133.426721",
    "longitude": "-89.98626351736839",
    "latitude": "30.044370578504644",
    "geocoded_column": {
      "latitude": "30.044370578504644",
      "longitude": "-89.98626351736839"
    }
  },
  {
    "service_request": "2025-1244404",
    "request_type": "Trash/Recycling",
    "request_reason": "Request a Large Item Pick Up",
    "date_created": "2025-12-08T12:52:58.000",
    "date_modified": "2025-12-08T12:52:59.000",
    "request_status": "Pending",
    "responsible_agency": "Department of Sanitation",
    "final_address": "1022 Cherokee St",
    "address_councildis": "A",
    "status": "Assigned to Contractor",
    "contractor": "IV Waste",
    "rowid": "1244404",
    "final_x": "3663140.83661",
    "final_y": "526562.263038",
    "longitude": "-90.12620714860266",
    "latitude": "29.942408159511483",
    "geocoded_column": {
      "latitude": "29.942408159511483",
      "longitude": "-90.12620714860266"
    }
  },
  {
    "service_request": "2025-1244403",
    "request_type": "Trash/Recycling",
    "request_reason": "Request a Large Item Pick Up",
    "date_created": "2025-12-08T12:52:21.000",
    "date_modified": "2025-12-08T12:52:23.000",
    "request_status": "Pending",
    "responsible_agency": "Department of Sanitation",
    "final_address": "11150 S Idlewood Ct",
    "address_councildis": "E",
    "status": "Assigned to Contractor",
    "contractor": "Waste Pro",
    "rowid": "1244403",
    "final_x": "3716359.53138",
    "final_y": "559322.215517",
    "longitude": "-89.95694323713668",
    "latitude": "30.03083662805253",
    "geocoded_column": {
      "latitude": "30.03083662805253",
      "longitude": "-89.95694323713668"
    }
  },
  {
    "service_request": "2025-1244402",
    "request_type": "Trash/Recycling",
    "request_reason": "Repair Recycling Cart",
    "date_created": "2025-12-08T12:47:03.000",
    "date_modified": "2025-12-08T12:47:04.000",
    "request_status": "Pending",
    "responsible_agency": "Department of Sanitation",
    "final_address": "619 France St",
    "address_councildis": "C",
    "status": "Pending",
    "rowid": "1244402",
    "final_x": "3691998.15101",
    "final_y": "533471.067268",
    "longitude": "-90.03485125658023",
    "latitude": "29.960537512724287",
    "geocoded_column": {
      "latitude": "29.960537512724287",
      "longitude": "-90.03485125658023"
    }
  },
  {
    "service_request": "2025-1244401",
    "request_type": "Trash/Recycling",
    "request_reason": "Request a Large Item Pick Up",
    "date_created": "2025-12-08T12:43:23.000",
    "date_modified": "2025-12-08T12:43:25.000",
    "request_status": "Pending",
    "responsible_agency": "Department of Sanitation",
    "final_address": "33 Winners Cir",
    "address_councildis": "E",
    "status": "Assigned to Contractor",
    "contractor": "Waste Pro",
    "rowid": "1244401",
    "final_x": "3715714.61394",
    "final_y": "570293.969383",
    "longitude": "-89.95856519113663",
    "latitude": "30.06102576925881",
    "geocoded_column": {
      "latitude": "30.06102576925881",
      "longitude": "-89.95856519113663"
    }
  },
  {
    "service_request": "2025-1244400",
    "request_type": "Trash/Recycling",
    "request_reason": "Repair Recycling Cart",
    "date_created": "2025-12-08T12:42:54.000",
    "date_modified": "2025-12-08T12:42:56.000",
    "request_status": "Pending",
    "responsible_agency": "Department of Sanitation",
    "final_address": "4606 Stemway Dr",
    "address_councildis": "D",
    "status": "Pending",
    "rowid": "1244400",
    "final_x": "3696915.69975",
    "final_y": "553436.735575",
    "longitude": "-90.01859930534782",
    "latitude": "30.015281665072667",
    "geocoded_column": {
      "latitude": "30.015281665072667",
      "longitude": "-90.01859930534782"
    }
  },
  {
    "service_request": "2025-1244399",
    "request_type": "Trash/Recycling",
    "request_reason": "Repair Trash Cart",
    "date_created": "2025-12-08T12:42:22.000",
    "date_modified": "2025-12-08T12:42:23.000",
    "request_status": "Pending",
    "responsible_agency": "Department of Sanitation",
    "final_address": "13720 PierreS Ct",
    "address_councildis": "E",
    "status": "Assigned to Contractor",
    "contractor": "Waste Pro",
    "rowid": "1244399",
    "final_x": "3725148.80435",
    "final_y": "570012.60919",
    "longitude": "-89.92875522082699",
    "latitude": "30.059937542822425",
    "geocoded_column": {
      "latitude": "30.059937542822425",
      "longitude": "-89.92875522082699"
    }
  },
  {
    "service_request": "2025-1244398",
    "request_type": "Trash/Recycling",
    "request_reason": "Repair Trash Cart",
    "date_created": "2025-12-08T12:41:01.000",
    "date_modified": "2025-12-08T12:41:03.000",
    "request_status": "Pending",
    "responsible_agency": "Department of Sanitation",
    "final_address": "1137 Deslonde St",
    "address_councildis": "E",
    "status": "Assigned to Contractor",
    "contractor": "Waste Pro",
    "rowid": "1244398",
    "final_x": "3695536.56861",
    "final_y": "534687.248006",
    "longitude": "-90.0236338033958",
    "latitude": "29.963770850077932",
    "geocoded_column": {
      "latitude": "29.963770850077932",
      "longitude": "-90.0236338033958"
    }
  },
  {
    "service_request": "2025-1244397",
    "request_type": "Trash/Recycling",
    "request_reason": "Repair Trash Cart",
    "date_created": "2025-12-08T12:38:13.000",
    "date_modified": "2025-12-08T12:40:55.000",
    "request_status": "Pending",
    "responsible_agency": "Department of Sanitation",
    "final_address": "1135 Deslonde St",
    "address_councildis": "E",
    "status": "Assigned to Contractor",
    "contractor": "Waste Pro",
    "rowid": "1244397",
    "final_x": "3695535.23248",
    "final_y": "534681.372038",
    "longitude": "-90.02363823483334",
    "latitude": "29.963754735240087",
    "geocoded_column": {
      "latitude": "29.963754735240087",
      "longitude": "-90.02363823483334"
    }
  },
  {
    "service_request": "2025-1244396",
    "request_type": "Roads and Streets",
    "request_reason": "Pothole",
    "date_created": "2025-12-08T12:37:36.000",
    "date_modified": "2025-12-08T12:37:37.000",
    "request_status": "Pending",
    "responsible_agency": "Department of Public Works",
    "final_address": "3030 Boyd St",
    "address_councildis": "C",
    "status": "Pending",
    "rowid": "1244396",
    "final_x": "3708148.15921",
    "final_y": "519410.198519",
    "longitude": "-89.98437594865551",
    "latitude": "29.92136202980055",
    "geocoded_column": {
      "latitude": "29.92136202980055",
      "longitude": "-89.98437594865551"
    }
  },
  {
    "service_request": "2025-1244395",
    "request_type": "Trash/Recycling",
    "request_reason": "Request a Large Item Pick Up",
    "date_created": "2025-12-08T12:36:41.000",
    "date_modified": "2025-12-08T12:36:43.000",
    "request_status": "Pending",
    "responsible_agency": "Department of Sanitation",
    "final_address": "2528 Amelia St",
    "address_councildis": "B",
    "status": "Assigned to Contractor",
    "contractor": "IV Waste",
    "rowid": "1244395",
    "final_x": "3672271.82196",
    "final_y": "524536.446012",
    "longitude": "-90.09744749107003",
    "latitude": "29.936570162695546",
    "geocoded_column": {
      "latitude": "29.936570162695546",
      "longitude": "-90.09744749107003"
    }
  },
  {
    "service_request": "2025-1244394",
    "request_type": "Roads and Streets",
    "request_reason": "Pothole",
    "date_created": "2025-12-08T12:32:36.000",
    "date_modified": "2025-12-08T12:32:37.000",
    "request_status": "Pending",
    "responsible_agency": "Department of Public Works",
    "final_address": "4636 Orleans Ave",
    "address_councildis": "A",
    "status": "Pending",
    "rowid": "1244394",
    "final_x": "3670527.96852",
    "final_y": "541620.253452",
    "longitude": "-90.10237351352508",
    "latitude": "29.98359656659648",
    "geocoded_column": {
      "latitude": "29.98359656659648",
      "longitude": "-90.10237351352508"
    }
  },
  {
    "service_request": "2025-1244393",
    "request_type": "Trash/Recycling",
    "request_reason": "Request a Large Item Pick Up",
    "date_created": "2025-12-08T12:32:06.000",
    "date_modified": "2025-12-08T12:32:08.000",
    "request_status": "Pending",
    "responsible_agency": "Department of Sanitation",
    "final_address": "7354 Canterbury St",
    "address_councildis": "E",
    "status": "Assigned to Contractor",
    "contractor": "Waste Pro",
    "rowid": "1244393",
    "final_x": "3698761.97885",
    "final_y": "559350.786269",
    "longitude": "-90.01255057720343",
    "latitude": "30.03148466856353",
    "geocoded_column": {
      "latitude": "30.03148466856353",
      "longitude": "-90.01255057720343"
    }
  },
  {
    "service_request": "2025-1244392",
    "request_type": "Trash/Recycling",
    "request_reason": "Request a Large Item Pick Up",
    "date_created": "2025-12-08T12:30:04.000",
    "date_modified": "2025-12-08T12:30:07.000",
    "request_status": "Pending",
    "responsible_agency": "Department of Sanitation",
    "final_address": "5731 E Louis Prima Dr",
    "address_councildis": "E",
    "status": "Assigned to Contractor",
    "contractor": "Waste Pro",
    "rowid": "1244392",
    "final_x": "3716262.13944",
    "final_y": "562250.220703",
    "longitude": "-89.95713986843228",
    "latitude": "30.03889068000365",
    "geocoded_column": {
      "latitude": "30.03889068000365",
      "longitude": "-89.95713986843228"
    }
  },
  {
    "service_request": "2025-1244391",
    "request_type": "Trash/Recycling",
    "request_reason": "Return Trash Cart",
    "date_created": "2025-12-08T12:28:28.000",
    "date_modified": "2025-12-08T12:28:30.000",
    "request_status": "Pending",
    "responsible_agency": "Department of Sanitation",
    "final_address": "1000 BLK Eighth St",
    "address_councildis": "B",
    "status": "Assigned to Contractor",
    "contractor": "IV Waste",
    "rowid": "1244391",
    "final_x": "3676218.15704",
    "final_y": "520052.855351",
    "longitude": "-90.08514292966248",
    "latitude": "29.92412411843894",
    "geocoded_column": {
      "latitude": "29.92412411843894",
      "longitude": "-90.08514292966248"
    }
  },
  {
    "service_request": "2025-1244390",
    "request_type": "Property Maintenance",
    "request_reason": "Property Maintenance",
    "date_created": "2025-12-08T12:24:07.000",
    "date_modified": "2025-12-08T15:28:06.000",
    "case_close_date": "2025-12-08T09:28:04.000",
    "request_status": "Closed",
    "responsible_agency": "Department of Code Enforcement",
    "final_address": "2362 Killdeer St",
    "address_councildis": "D",
    "status": "Referred to Code Enforcement",
    "rowid": "1244390",
    "final_x": "3684593.08002",
    "final_y": "557525.503259",
    "longitude": "-90.05738910778982",
    "latitude": "30.026907281432983",
    "geocoded_column": {
      "latitude": "30.026907281432983",
      "longitude": "-90.05738910778982"
    }
  },
  {
    "service_request": "2025-1244389",
    "request_type": "Abandoned Vehicles",
    "request_reason": "Abandoned/Junk Vehicles",
    "date_created": "2025-12-08T12:14:02.000",
    "date_modified": "2025-12-08T12:19:15.000",
    "request_status": "Pending",
    "responsible_agency": "Department of Public Works",
    "final_address": "2204 Delachaise St",
    "address_councildis": "B",
    "status": "Pending",
    "rowid": "1244389",
    "final_x": "3672926.99796",
    "final_y": "523402.080571",
    "longitude": "-90.0954177596924",
    "latitude": "29.93343157844968",
    "geocoded_column": {
      "latitude": "29.93343157844968",
      "longitude": "-90.0954177596924"
    }
  },
  {
    "service_request": "2025-1244388",
    "request_type": "General Services",
    "request_reason": "General Service Request",
    "date_created": "2025-12-08T12:09:56.000",
    "date_modified": "2025-12-08T12:29:30.000",
    "case_close_date": "2025-12-08T06:29:29.000",
    "request_status": "Closed",
    "responsible_agency": "Orleans Parish Communication District",
    "final_address": "4725 Mendez St",
    "address_councildis": "D",
    "status": "Referred to External Agency",
    "rowid": "1244388",
    "final_x": "3691091.70672",
    "final_y": "554204.738072",
    "longitude": "-90.03697288197405",
    "latitude": "30.017575842746645",
    "geocoded_column": {
      "latitude": "30.017575842746645",
      "longitude": "-90.03697288197405"
    }
  },
  {
    "service_request": "2025-1244387",
    "request_type": "Trash/Recycling",
    "request_reason": "Request a Large Item Pick Up",
    "date_created": "2025-12-08T12:02:20.000",
    "date_modified": "2025-12-08T12:02:22.000",
    "request_status": "Pending",
    "responsible_agency": "Department of Sanitation",
    "final_address": "6559 Fleur-De-Lis Dr",
    "address_councildis": "A",
    "status": "Assigned to Contractor",
    "contractor": "IV Waste",
    "rowid": "1244387",
    "final_x": "3665460.43252",
    "final_y": "551747.454229",
    "longitude": "-90.11804028012395",
    "latitude": "30.01159161403642",
    "geocoded_column": {
      "latitude": "30.01159161403642",
      "longitude": "-90.11804028012395"
    }
  },