[
  {
    "service_request": "2022-897885",
    "request_type": "Property Maintenance",
    "request_reason": "Property Maintenance",
    "date_created": "2022-07-08T01:25:06.000",
    "date_modified": "2022-07-08T01:25:06.000",
    "request_status": "Pending",
    "responsible_agency": "Department of Code Enforcement",
    "final_address": "8643 Gervais St",
    "address_councildis": "E",
    "status": "Pending",
    "rowid": "897885",
    "final_x": "3704117.51236",
    "final_y": "562889.234976",
    "longitude": "-89.99549642400166",
    "latitude": "30.041043187420716",
    "geocoded_column": {
      "latitude": "30.041043187420716",
      "longitude": "-89.99549642400166"
    }
  },
  {
    "service_request": "2022-897884",
    "request_type": "Traffic Signals/Signs/Striping/Streetlights",
    "request_reason": "Street Light Outage/Malfunction",
    "date_created": "2022-07-08T01:08:06.000",
    "date_modified": "2022-07-08T01:08:07.000",
    "request_status": "Pending",
    "responsible_agency": "Department of Public Works",
    "final_address": "3741 Red Cypress Dr",
    "address_councildis": "C",
    "status": "Pending",
    "contractor": "Royal Engineering",
    "rowid": "897884",
    "final_x": "3703357.52004",
    "final_y": "512168.190769",
    "longitude": "-89.99976382660886",
    "latitude": "29.9016031920279",
    "geocoded_column": {
      "latitude": "29.9016031920279",
      "longitude": "-89.99976382660886"
    }
  },
  {
    "service_request": "2022-897883",
    "request_type": "Traffic Signals/Signs/Striping/Streetlights",
    "request_reason": "Street Light Outage/Malfunction",
    "date_created": "2022-07-08T00:46:52.000",
    "date_modified": "2022-07-08T00:46:53.000",
    "request_status": "Pending",
    "responsible_agency": "Department of Public Works",
    "final_address": "3501 White Oak Ave",
    "address_councildis": "C",
    "status": "Pending",
    "contractor": "Royal Engineering",
    "rowid": "897883",
    "final_x": "3703122.45732",
    "final_y": "514421.443699",
    "longitude": "-90.00042294326816",
    "latitude": "29.907806393443558",
    "geocoded_column": {
      "latitude": "29.907806393443558",
      "longitude": "-90.00042294326816"
    }
  },
  {
    "service_request": "2022-897882",
    "request_type": "Traffic Signals/Signs/Striping/Streetlights",
    "request_reason": "Street Light Outage/Malfunction",
    "date_created": "2022-07-08T00:39:37.000",
    "date_modified": "2022-07-08T00:39:38.000",
    "request_status": "Pending",
    "responsible_agency": "Department of Public Works",
    "final_address": "3731 Tall Pines Dr",
    "address_councildis": "C",
    "status": "Pending",
    "contractor": "Royal Engineering",
    "rowid": "897882",
    "final_x": "3703859.33329",
    "final_y": "513441.793842",
    "longitude": "-89.99813331210304",
    "latitude": "29.905089099748448",
    "geocoded_column": {
      "latitude": "29.905089099748448",
      "longitude": "-89.99813331210304"
    }
  },
  {
    "service_request": "2022-897881",
    "request_type": "Trash/Recycling",
    "request_reason": "Request a Large Item Pick Up",
    "date_created": "2022-07-08T00:21:58.000",
    "date_modified": "2022-07-08T00:21:59.000",
    "request_status": "Pending",
    "responsible_agency": "Department of Sanitation",
    "final_address": "4207 Tchoupitoulas St",
    "address_councildis": "B",
    "status": "Assigned to Contractor",
    "contractor": "Richards Disposal",
    "rowid": "897881",
    "final_x": "3671858.15508",
    "final_y": "517612.20831",
    "longitude": "-90.0989889431529",
    "latitude": "29.917542990583243",
    "geocoded_column": {
      "latitude": "29.917542990583243",
      "longitude": "-90.0989889431529"
    }
  },
  {
    "service_request": "2022-897880",
    "request_type": "Health Related Questions",
    "request_reason": "Noise Ordinance Complaint",
    "date_created": "2022-07-07T23:56:43.000",
    "date_modified": "2022-07-07T23:56:43.000",
    "request_status": "Pending",
    "responsible_agency": "Health Department",
    "final_address": "5723 Eads St. 70122",
    "status": "Pending",
    "rowid": "897880",
    "longitude": "0.0",
    "latitude": "0.0",
    "geocoded_column": {
      "latitude": "0.0",
      "longitude": "0.0"
    }
  },
  {
    "service_request": "2022-897879",
    "request_type": "Trash/Recycling",
    "request_reason": "Request a Large Item Pick Up",
    "date_created": "2022-07-07T22:42:28.000",
    "date_modified": "2022-07-07T22:42:29.000",
    "request_status": "Pending",
    "responsible_agency": "Department of Sanitation",
    "final_address": "6501 Brunswick Ct",
    "address_councildis": "C",
    "status": "Assigned to Contractor",
    "contractor": "Richards Disposal",
    "rowid": "897879",
    "final_x": "3707939.1644",
    "final_y": "516897.923317",
    "longitude": "-89.98512895385878",
    "latitude": "29.914460911233036",
    "geocoded_column": {
      "latitude": "29.914460911233036",
      "longitude": "-89.98512895385878"
    }
  },
  {
    "service_request": "2022-897878",
    "request_type": "Property Maintenance",
    "request_reason": "Property Maintenance",
    "date_created": "2022-07-07T22:36:14.000",
    "date_modified": "2022-07-07T22:36:14.000",
    "request_status": "Pending",
    "responsible_agency": "Department of Code Enforcement",
    "final_address": "5322 Pasteur Blvd",
    "address_councildis": "D",
    "status": "Pending",
    "rowid": "897878",
    "final_x": "3682853.895",
    "final_y": "552471.585174",
    "longitude": "-90.06306179543807",
    "latitude": "30.013063996318564",
    "geocoded_column": {
      "latitude": "30.013063996318564",
      "longitude": "-90.06306179543807"
    }
  },
  {
    "service_request": "2022-897877",
    "request_type": "Property Maintenance",
    "request_reason": "Property Maintenance",
    "date_created": "2022-07-07T22:32:52.000",
    "date_modified": "2022-07-07T22:32:52.000",
    "request_status": "Pending",
    "responsible_agency": "Department of Code Enforcement",
    "final_address": "5322 Pasteur Blvd",
    "address_councildis": "D",
    "status": "Pending",
    "rowid": "897877",
    "final_x": "3682853.895",
    "final_y": "552471.585174",
    "longitude": "-90.06306179543807",
    "latitude": "30.013063996318564",
    "geocoded_column": {
      "latitude": "30.013063996318564",
      "longitude": "-90.06306179543807"
    }
  },
  {
    "service_request": "2022-897875",
    "request_type": "Trash/Recycling",
    "request_reason": "Order Trash Cart",
    "date_created": "2022-07-07T22:21:02.000",
    "date_modified": "2022-07-07T22:21:03.000",
    "request_status": "Pending",
    "responsible_agency": "Department of Sanitation",
    "final_address": "2442 Lamanche St",
    "address_councildis": "E",
    "status": "Assigned to Contractor",
    "contractor": "Metro Disposal",
    "rowid": "897875",
    "final_x": "3699699.5201",
    "final_y": "538849.946633",
    "longitude": "-90.01033591782718",
    "latitude": "29.97508527992956",
    "geocoded_column": {
      "latitude": "29.97508527992956",
      "longitude": "-90.01033591782718"
    }
  },
  {
    "service_request": "2022-897874",
    "request_type": "Roads/Drainage",
    "request_reason": "Pothole",
    "date_created": "2022-07-07T22:00:39.000",
    "date_modified": "2022-07-07T22:00:39.000",
    "request_status": "Pending",
    "responsible_agency": "Department of Public Works",
    "final_address": "2725 Prancer St",
    "address_councildis": "C",
    "status": "Pending",
    "rowid": "897874",
    "final_x": "3699519.41661",
    "final_y": "520876.776121",
    "longitude": "-90.01155952183032",
    "latitude": "29.925671115606246",
    "geocoded_column": {
      "latitude": "29.925671115606246",
      "longitude": "-90.01155952183032"
    }
  },
  {
    "service_request": "2022-897873",
    "request_type": "Abandoned Vehicles",
    "request_reason": "Abandoned/Junk Vehicles",
    "date_created": "2022-07-07T21:59:17.000",
    "date_modified": "2022-07-07T21:59:17.000",
    "request_status": "Pending",
    "responsible_agency": "Department of Public Works",
    "final_address": "6151 Pratt Dr",
    "address_councildis": "D",
    "status": "Pending",
    "rowid": "897873",
    "final_x": "3680198.41813",
    "final_y": "555380.684313",
    "longitude": "-90.07135044430619",
    "latitude": "30.021143640097932",
    "geocoded_column": {
      "latitude": "30.021143640097932",
      "longitude": "-90.07135044430619"
    }
  },
  {
    "service_request": "2022-897872",
    "request_type": "Traffic Signals/Signs/Striping/Streetlights",
    "request_reason": "Street Light Outage/Malfunction",
    "date_created": "2022-07-07T21:42:52.000",
    "date_modified": "2022-07-07T21:42:52.000",
    "request_status": "Pending",
    "responsible_agency": "Department of Public Works",
    "final_address": "1009 Marengo St",
    "address_councildis": "B",
    "status": "Pending",
    "contractor": "Royal Engineering",
    "rowid": "897872",
    "final_x": "3672166.29089",
    "final_y": "519384.302071",
    "longitude": "-90.09795602314999",
    "latitude": "29.92240655362659",
    "geocoded_column": {
      "latitude": "29.92240655362659",
      "longitude": "-90.09795602314999"
    }
  },
  {
    "service_request": "2022-897871",
    "request_type": "Traffic Signals/Signs/Striping/Streetlights",
    "request_reason": "Street Light Outage/Malfunction",
    "date_created": "2022-07-07T21:40:41.000",
    "date_modified": "2022-07-07T21:40:42.000",
    "request_status": "Pending",
    "responsible_agency": "Department of Public Works",
    "final_address": "2100 St Thomas St Apt 105",
    "address_councildis": "B",
    "status": "Pending",
    "contractor": "Royal Engineering",
    "rowid": "897871",
    "final_x": "3680246.33647",
    "final_y": "520698.197305",
    "longitude": "-90.0724049735616",
    "latitude": "29.925777327999906",
    "geocoded_column": {
      "latitude": "29.925777327999906",
      "longitude": "-90.0724049735616"
    }
  },
  {
    "service_request": "2022-897870",
    "request_type": "Traffic Signals/Signs/Striping/Streetlights",
    "request_reason": "Street Light Outage/Malfunction",
    "date_created": "2022-07-07T21:30:03.000",
    "date_modified": "2022-07-07T21:30:03.000",
    "request_status": "Pending",
    "responsible_agency": "Department of Public Works",
    "final_address": "871 Topaz St",
    "address_councildis": "D",
    "status": "Pending",
    "contractor": "Royal Engineering",
    "rowid": "897870",
    "final_x": "3670730.00161",
    "final_y": "556772.790298",
    "longitude": "-90.10122075241216",
    "latitude": "30.025254770092427",
    "geocoded_column": {
      "latitude": "30.025254770092427",
      "longitude": "-90.10122075241216"
    }
  },
  {
    "service_request": "2022-897869",
    "request_type": "Trash/Recycling",
    "request_reason": "Missed Trash Pick-Up",
    "date_created": "2022-07-07T21:29:05.000",
    "date_modified": "2022-07-07T21:29:06.000",
    "request_status": "Pending",
    "responsible_agency": "Department of Sanitation",
    "final_address": "902 Stewart Ct",
    "address_councildis": "A",
    "status": "Assigned to Contractor",
    "contractor": "Richards Disposal",
    "rowid": "897869",
    "final_x": "3673066.12801",
    "final_y": "540708.791883",
    "longitude": "-90.09438777562833",
    "latitude": "29.981015140424745",
    "geocoded_column": {
      "latitude": "29.981015140424745",
      "longitude": "-90.09438777562833"
    }
  },
  {
    "service_request": "2022-897868",
    "request_type": "Traffic Signals/Signs/Striping/Streetlights",
    "request_reason": "Street Light Outage/Malfunction",
    "date_created": "2022-07-07T21:28:56.000",
    "date_modified": "2022-07-07T21:28:56.000",
    "request_status": "Pending",
    "responsible_agency": "Department of Public Works",
    "final_address": "975 Porteous St",
    "address_councildis": "A",
    "status": "Pending",
    "contractor": "Royal Engineering",
    "rowid": "897868",
    "final_x": "3671008.4763",
    "final_y": "551253.727317",
    "longitude": "-90.10052844231535",
    "latitude": "30.01007107443965",
    "geocoded_column": {
      "latitude": "30.01007107443965",
      "longitude": "-90.10052844231535"
    }
  },
  {
    "service_request": "2022-897867",
    "request_type": "Trash/Recycling",
    "request_reason": "Repair Recycling Cart",
    "date_created": "2022-07-07T21:26:46.000",
    "date_modified": "2022-07-07T21:26:46.000",
    "request_status": "Pending",
    "responsible_agency": "Department of Sanitation",
    "final_address": "5515 Wimbledon Ct",
    "address_councildis": "C",
    "status": "Pending",
    "rowid": "897867",
    "final_x": "3704417.65527",
    "final_y": "519026.183927",
    "longitude": "-89.99616556214815",
    "latitude": "29.920426355117772",
    "geocoded_column": {
      "latitude": "29.920426355117772",
      "longitude": "-89.99616556214815"
    }
  },
  {
    "service_request": "2022-897866",
    "request_type": "Traffic Signals/Signs/Striping/Streetlights",
    "request_reason": "Street Light Outage/Malfunction",
    "date_created": "2022-07-07T21:25:10.000",
    "date_modified": "2022-07-07T21:25:11.000",
    "request_status": "Pending",
    "responsible_agency": "Department of Public Works",
    "final_address": "6516 Orleans Ave",
    "address_councildis": "A",
    "status": "Pending",
    "contractor": "Royal Engineering",
    "rowid": "897866",
    "final_x": "3671164.96334",
    "final_y": "550648.082388",
    "longitude": "-90.10005463573684",
    "latitude": "30.008401133951114",
    "geocoded_column": {
      "latitude": "30.008401133951114",
      "longitude": "-90.10005463573684"
    }
  },
  {
    "service_request": "2022-897865",
    "request_type": "Traffic Signals/Signs/Striping/Streetlights",
    "request_reason": "Street Light Outage/Malfunction",
    "date_created": "2022-07-07T21:19:58.000",
    "date_modified": "2022-07-07T21:19:59.000",
    "request_status": "Pending",
    "responsible_agency": "Department of Public Works",
    "final_address": "980 Porteous St",
    "address_councildis": "A",
    "status": "Pending",
    "contractor": "Royal Engineering",
    "rowid": "897865",
    "final_x": "3671180.84699",
    "final_y": "551099.722069",
    "longitude": "-90.09998909578235",
    "latitude": "30.009642513894867",
    "geocoded_column": {
      "latitude": "30.009642513894867",
      "longitude": "-90.09998909578235"
    }
  },
  {
    "service_request": "2022-897864",
    "request_type": "Traffic Signals/Signs/Striping/Streetlights",
    "request_reason": "Street Light Outage/Malfunction",
    "date_created": "2022-07-07T21:17:42.000",
    "date_modified": "2022-07-07T21:17:43.000",
    "request_status": "Pending",
    "responsible_agency": "Department of Public Works",
    "final_address": "6558 Orleans Ave",
    "address_councildis": "A",
    "status": "Pending",
    "contractor": "Royal Engineering",
    "rowid": "897864",
    "final_x": "3671196.29147",
    "final_y": "550948.029973",
    "longitude": "-90.09994545974665",
    "latitude": "30.00922495698822",
    "geocoded_column": {
      "latitude": "30.00922495698822",
      "longitude": "-90.09994545974665"
    }
  },
  {
    "service_request": "2022-897863",
    "request_type": "Trash/Recycling",
    "request_reason": "Missed Trash Pick-Up",
    "date_created": "2022-07-07T21:12:39.000",
    "date_modified": "2022-07-07T21:12:40.000",
    "request_status": "Pending",
    "responsible_agency": "Department of Sanitation",
    "final_address": "3218 Constance St",
    "address_councildis": "B",
    "status": "Assigned to Contractor",
    "contractor": "Richards Disposal",
    "rowid": "897863",
    "final_x": "3675839.40865",
    "final_y": "519558.193207",
    "longitude": "-90.08635549904402",
    "latitude": "29.92277529624708",
    "geocoded_column": {
      "latitude": "29.92277529624708",
      "longitude": "-90.08635549904402"
    }
  },
  {
    "service_request": "2022-897862",
    "request_type": "Property Maintenance",
    "request_reason": "Property Maintenance",
    "date_created": "2022-07-07T20:55:52.000",
    "date_modified": "2022-07-07T20:55:52.000",
    "request_status": "Pending",
    "responsible_agency": "Department of Code Enforcement",
    "final_address": "6800 S Interstate 10 Service Rd",
    "address_councildis": "E",
    "status": "Pending",
    "rowid": "897862",
    "final_x": "3699572.72151",
    "final_y": "556889.258906",
    "longitude": "-90.01007843819505",
    "latitude": "30.02469069419991",
    "geocoded_column": {
      "latitude": "30.02469069419991",
      "longitude": "-90.01007843819505"
    }
  },
  {
    "service_request": "2022-897861",
    "request_type": "Trash/Recycling",
    "request_reason": "Request a Large Item Pick Up",
    "date_created": "2022-07-07T20:55:09.000",
    "date_modified": "2022-07-07T20:55:10.000",
    "request_status": "Pending",
    "responsible_agency": "Department of Sanitation",
    "final_address": "838 Dublin St",
    "address_councildis": "A",
    "status": "Assigned to Contractor",
    "contractor": "Richards Disposal",
    "rowid": "897861",
    "final_x": "3660928.04723",
    "final_y": "527822.738943",
    "longitude": "-90.13315177869468",
    "latitude": "29.945937980628706",
    "geocoded_column": {
      "latitude": "29.945937980628706",
      "longitude": "-90.13315177869468"
    }
  },
  {
    "service_request": "2022-897860",
    "request_type": "Property Maintenance",
    "request_reason": "Property Maintenance",
    "date_created": "2022-07-07T20:50:40.000",
    "date_modified": "2022-07-07T20:50:40.000",
    "request_status": "Pending",
    "responsible_agency": "Department of Code Enforcement",
    "final_address": "1204 S Telemachus St",
    "address_councildis": "B",
    "status": "Pending",
    "rowid": "897860",
    "final_x": "3669266.70292",
    "final_y": "532838.963204",
    "longitude": "-90.1066541973803",
    "latitude": "29.959488159050576",
    "geocoded_column": {
      "latitude": "29.959488159050576",
      "longitude": "-90.1066541973803"
    }
  },
  {
    "service_request": "2022-897859",
    "request_type": "Property Maintenance",
    "request_reason": "Property Maintenance",
    "date_created": "2022-07-07T20:41:05.000",
    "date_modified": "2022-07-07T20:41:05.000",
    "request_status": "Pending",
    "responsible_agency": "Department of Code Enforcement",
    "final_address": "8250 S Interstate 10 Service Rd",
    "address_councildis": "E",
    "status": "Pending",
    "rowid": "897859",
    "final_x": "3703729.63294",
    "final_y": "558140.525019",
    "longitude": "-89.99689728751572",
    "latitude": "30.02799853906678",
    "geocoded_column": {
      "latitude": "30.02799853906678",
      "longitude": "-89.99689728751572"
    }
  },
  {
    "service_request": "2022-897858",
    "request_type": "Abandoned Vehicles",
    "request_reason": "Abandoned/Junk Vehicles",
    "date_created": "2022-07-07T20:30:51.000",
    "date_modified": "2022-07-07T20:30:51.000",
    "request_status": "Pending",
    "responsible_agency": "Department of Public Works",
    "final_address": "N GALVEZ ST & SPAIN ST",
    "address_councildis": "D",
    "status": "Pending",
    "rowid": "897858",
    "final_x": "3685841.4",
    "final_y": "540077.18",
    "longitude": "-90.05406010179566",
    "latitude": "29.978892426811814",
    "geocoded_column": {
      "latitude": "29.978892426811814",
      "longitude": "-90.05406010179566"
    }
  },
  {
    "service_request": "2022-897857",
    "request_type": "Trash/Recycling",
    "request_reason": "MIssed Recycling Pick-Up",
    "date_created": "2022-07-07T20:25:10.000",
    "date_modified": "2022-07-07T20:25:11.000",
    "request_status": "Pending",
    "responsible_agency": "Department of Sanitation",
    "final_address": "500 Whitney Ave, New Orleans, Louisiana, 70114",
    "address_councildis": "C",
    "status": "Assigned to Contractor",
    "contractor": "Richards Disposal",
    "rowid": "897857",
    "final_x": "3690322.24304",
    "final_y": "529765.372609",
    "longitude": "-90.04027547260661",
    "latitude": "29.950400250643256",
    "geocoded_column": {
      "latitude": "29.950400250643256",
      "longitude": "-90.04027547260661"
    }
  },
  {
    "service_request": "2022-897856",
    "request_type": "Trash/Recycling",
    "request_reason": "Missed Trash Pick-Up",
    "date_created": "2022-07-07T20:22:58.000",
    "date_modified": "2022-07-07T20:22:59.000",
    "request_status": "Pending",
    "responsible_agency": "Department of Sanitation",
    "final_address": "2351 Magazine St",
    "address_councildis": "B",
    "status": "Assigned to Contractor",
    "contractor": "Richards Disposal",
    "rowid": "897856",
    "final_x": "3678180.2619",
    "final_y": "521624.296377",
    "longitude": "-90.07889494801034",
    "latitude": "29.92838615338833",
    "geocoded_column": {
      "latitude": "29.92838615338833",
      "longitude": "-90.07889494801034"
    }
  },
  {
    "service_request": "2022-897855",
    "request_type": "Trash/Recycling",
    "request_reason": "Missed Trash Pick-Up",
    "date_created": "2022-07-07T20:15:07.000",
    "date_modified": "2022-07-07T20:15:08.000",
    "request_status": "Pending",
    "responsible_agency": "Department of Sanitation",
    "final_address": "2300 BLK Laurel St",
    "address_councildis": "B",
    "status": "Assigned to Contractor",
    "contractor": "Richards Disposal",
    "rowid": "897855",
    "final_x": "3678742.93283",
    "final_y": "521066.548534",
    "longitude": "-90.0771380206814",
    "latitude": "29.926835578944182",
    "geocoded_column": {
      "latitude": "29.926835578944182",
      "longitude": "-90.0771380206814"
    }
  },
  {
    "service_request": "2022-897854",
    "request_type": "Trash/Recycling",
    "request_reason": "Start Trash Service",
    "date_created": "2022-07-07T20:13:51.000",
    "date_modified": "2022-07-07T20:13:52.000",
    "request_status": "Pending",
    "responsible_agency": "Department of Sanitation",
    "final_address": "1747 N Broad St",
    "address_councildis": "D",
    "status": "Assigned to Contractor",
    "contractor": "Metro Disposal",
    "rowid": "897854",
    "final_x": "3679727.81211",
    "final_y": "541161.18926",
    "longitude": "-90.07333148655083",
    "latitude": "29.982059337136256",
    "geocoded_column": {
      "latitude": "29.982059337136256",
      "longitude": "-90.07333148655083"
    }
  },
  {
    "service_request": "2022-897853",
    "request_type": "Trash/Recycling",
    "request_reason": "Replace Trash Cart",
    "date_created": "2022-07-07T20:13:45.000",
    "date_modified": "2022-07-07T20:13:47.000",
    "request_status": "Pending",
    "responsible_agency": "Department of Sanitation",
    "final_address": "6921 Dorchester St",
    "address_councildis": "E",
    "status": "Assigned to Contractor",
    "contractor": "Metro Disposal",
    "rowid": "897853",
    "final_x": "3698980.46551",
    "final_y": "559609.899933",
    "longitude": "-90.01185071029995",
    "latitude": "30.032190204597676",
    "geocoded_column": {
      "latitude": "30.032190204597676",
      "longitude": "-90.01185071029995"
    }
  },
  {
    "service_request": "2022-897852",
    "request_type": "Trash/Recycling",
    "request_reason": "Missed Trash Pick-Up",
    "date_created": "2022-07-07T19:57:50.000",
    "date_modified": "2022-07-07T19:57:51.000",
    "request_status": "Pending",
    "responsible_agency": "Department of Sanitation",
    "final_address": "2324 Jackson Ave",
    "address_councildis": "B",
    "status": "Assigned to Contractor",
    "contractor": "Richards Disposal",
    "rowid": "897852",
    "final_x": "3675647.30606",
    "final_y": "526195.183742",
    "longitude": "-90.08673396542972",
    "latitude": "29.9410306073941",
    "geocoded_column": {
      "latitude": "29.9410306073941",
      "longitude": "-90.08673396542972"
    }
  },
  {
    "service_request": "2022-897851",
    "request_type": "Trash/Recycling",
    "request_reason": "Repair Recycling Cart",
    "date_created": "2022-07-07T19:37:45.000",
    "date_modified": "2022-07-07T19:37:45.000",
    "request_status": "Pending",
    "responsible_agency": "Department of Sanitation",
    "final_address": "825 Dublin St",
    "address_councildis": "A",
    "status": "Pending",
    "rowid": "897851",
    "final_x": "3660933.03302",
    "final_y": "527711.236287",
    "longitude": "-90.13313972430589",
    "latitude": "29.945631240257928",
    "geocoded_column": {
      "latitude": "29.945631240257928",
      "longitude": "-90.13313972430589"
    }
  },
  {
    "service_request": "2022-897850",
    "request_type": "Trash/Recycling",
    "request_reason": "Missed Trash Pick-Up",
    "date_created": "2022-07-07T19:22:14.000",
    "date_modified": "2022-07-07T19:22:15.000",
    "request_status": "Pending",
    "responsible_agency": "Department of Sanitation",
    "final_address": "901 Fourth St",
    "address_councildis": "B",
    "status": "Assigned to Contractor",
    "contractor": "Richards Disposal",
    "rowid": "897850",
    "final_x": "3677737.76398",
    "final_y": "520432.148152",
    "longitude": "-90.08033297130939",
    "latitude": "29.925121446547973",
    "geocoded_column": {
      "latitude": "29.925121446547973",
      "longitude": "-90.08033297130939"
    }
  },
  {
    "service_request": "2022-897849",
    "request_type": "Trash/Recycling",
    "request_reason": "Request a Large Item Pick Up",
    "date_created": "2022-07-07T19:20:39.000",
    "date_modified": "2022-07-07T19:20:40.000",
    "request_status": "Pending",
    "responsible_agency": "Department of Sanitation",
    "final_address": "1802 Cambronne St",
    "address_councildis": "A",
    "status": "Assigned to Contractor",
    "contractor": "Richards Disposal",
    "rowid": "897849",
    "final_x": "3662584.68282",
    "final_y": "530717.40109",
    "longitude": "-90.1278250416714",
    "latitude": "29.95384955464348",
    "geocoded_column": {
      "latitude": "29.95384955464348",
      "longitude": "-90.1278250416714"
    }
  },
  {
    "service_request": "2022-897848",
    "request_type": "Roads/Drainage",
    "request_reason": "Pothole",
    "date_created": "2022-07-07T19:18:53.000",
    "date_modified": "2022-07-07T19:18:54.000",
    "request_status": "Pending",
    "responsible_agency": "Department of Public Works",
    "final_address": "2226 N Miro St",
    "address_councildis": "D",
    "status": "Pending",
    "rowid": "897848",
    "final_x": "3684984.4669",
    "final_y": "540348.811851",
    "longitude": "-90.05675705969965",
    "latitude": "29.979665597675094",
    "geocoded_column": {
      "latitude": "29.979665597675094",
      "longitude": "-90.05675705969965"
    }
  },
  {
    "service_request": "2022-897847",
    "request_type": "Trash/Recycling",
    "request_reason": "Request a Large Item Pick Up",
    "date_created": "2022-07-07T19:18:21.000",
    "date_modified": "2022-07-07T19:18:21.000",
    "request_status": "Pending",
    "responsible_agency": "Department of Sanitation",
    "final_address": "1563 Crete St",
    "address_councildis": "A",
    "status": "Assigned to Contractor",
    "contractor": "Metro Disposal",
    "rowid": "897847",
    "final_x": "3678162.23848",
    "final_y": "540442.447819",
    "longitude": "-90.07830118671887",
    "latitude": "29.98013029099429",
    "geocoded_column": {
      "latitude": "29.98013029099429",
      "longitude": "-90.07830118671887"
    }
  },
  {
    "service_request": "2022-897846",
    "request_type": "Trash/Recycling",
    "request_reason": "Missed Trash Pick-Up",
    "date_created": "2022-07-07T19:16:09.000",
    "date_modified": "2022-07-07T19:16:10.000",
    "request_status": "Pending",
    "responsible_agency": "Department of Sanitation",
    "final_address": "939 St Mary St",
    "address_councildis": "B",
    "status": "Assigned to Contractor",
    "contractor": "Richards Disposal",
    "rowid": "897846",
    "final_x": "3680060.53045",
    "final_y": "522525.12217",
    "longitude": "-90.0729280706318",
    "latitude": "29.930806393476256",
    "geocoded_column": {
      "latitude": "29.930806393476256",
      "longitude": "-90.0729280706318"
    }
  },
  {
    "service_request": "2022-897845",
    "request_type": "Roads/Drainage",
    "request_reason": "Catch Basin - Clogged",
    "date_created": "2022-07-07T19:15:06.000",
    "date_modified": "2022-07-07T19:15:06.000",
    "request_status": "Pending",
    "responsible_agency": "Department of Public Works",
    "final_address": "IBERVILLE ST & N NORMAN C FRANCIS PKWY",
    "address_councildis": "B",
    "status": "Pending",
    "rowid": "897845",
    "final_x": "3673548.5",
    "final_y": "537018.08",
    "longitude": "-90.09299040962233",
    "latitude": "29.970852589325464",
    "geocoded_column": {
      "latitude": "29.970852589325464",
      "longitude": "-90.09299040962233"
    }
  },
  {
    "service_request": "2022-897844",
    "request_type": "Trash/Recycling",
    "request_reason": "Missed Trash Pick-Up",
    "date_created": "2022-07-07T19:14:09.000",
    "date_modified": "2022-07-07T19:14:10.000",
    "request_status": "Pending",
    "responsible_agency": "Department of Sanitation",
    "final_address": "3120 Toledano St",
    "address_councildis": "B",
    "status": "Assigned to Contractor",
    "contractor": "Richards Disposal",
    "rowid": "897844",
    "final_x": "3672176.2754",
    "final_y": "527200.816127",
    "longitude": "-90.09765842612813",
    "latitude": "29.943899146257813",
    "geocoded_column": {
      "latitude": "29.943899146257813",
      "longitude": "-90.09765842612813"
    }
  },
  {
    "service_request": "2022-897843",
    "request_type": "Abandoned Vehicles",
    "request_reason": "Abandoned/Junk Vehicles",
    "date_created": "2022-07-07T19:12:37.000",
    "date_modified": "2022-07-07T19:12:38.000",
    "request_status": "Pending",
    "responsible_agency": "Department of Public Works",
    "final_address": "1575 N Prieur St",
    "address_councildis": "D",
    "status": "Pending",
    "rowid": "897843",
    "final_x": "3681212.18044",
    "final_y": "538367.206153",
    "longitude": "-90.06874053390399",
    "latitude": "29.974331890294092",
    "geocoded_column": {
      "latitude": "29.974331890294092",
      "longitude": "-90.06874053390399"
    }
  },
  {
    "service_request": "2022-897842",
    "request_type": "Trash/Recycling",
    "request_reason": "Missed Trash Pick-Up",
    "date_created": "2022-07-07T19:07:29.000",
    "date_modified": "2022-07-07T19:07:30.000",
    "request_status": "Pending",
    "responsible_agency": "Department of Sanitation",
    "final_address": "1716 Sixth St",
    "address_councildis": "B",
    "status": "Assigned to Contractor",
    "contractor": "Richards Disposal",
    "rowid": "897842",
    "final_x": "3675170.3803",
    "final_y": "522679.201146",
    "longitude": "-90.08836031855692",
    "latitude": "29.931377061994297",
    "geocoded_column": {
      "latitude": "29.931377061994297",
      "longitude": "-90.08836031855692"
    }
  },
  {
    "service_request": "2022-897841",
    "request_type": "Trash/Recycling",
    "request_reason": "Missed Trash Pick-Up",
    "date_created": "2022-07-07T19:06:42.000",
    "date_modified": "2022-07-07T19:06:43.000",
    "request_status": "Pending",
    "responsible_agency": "Department of Sanitation",
    "final_address": "3219 Prytania St",
    "address_councildis": "B",
    "status": "Assigned to Contractor",
    "contractor": "Richards Disposal",
    "rowid": "897841",
    "final_x": "3674926.22926",
    "final_y": "521349.783289",
    "longitude": "-90.08917664342218",
    "latitude": "29.927728885484495",
    "geocoded_column": {
      "latitude": "29.927728885484495",
      "longitude": "-90.08917664342218"
    }
  },
  {
    "service_request": "2022-897840",
    "request_type": "Trash/Recycling",
    "request_reason": "Missed Trash Pick-Up",
    "date_created": "2022-07-07T19:05:36.000",
    "date_modified": "2022-07-07T19:05:36.000",
    "request_status": "Pending",
    "responsible_agency": "Department of Sanitation",
    "final_address": "1800 BLK First St",
    "address_councildis": "B",
    "status": "Assigned to Contractor",
    "contractor": "Richards Disposal",
    "rowid": "897840",
    "final_x": "3676447.10081",
    "final_y": "523972.782223",
    "longitude": "-90.08428535067644",
    "latitude": "29.934895783034587",
    "geocoded_column": {
      "latitude": "29.934895783034587",
      "longitude": "-90.08428535067644"
    }
  },
  {
    "service_request": "2022-897839",
    "request_type": "Property Maintenance",
    "request_reason": "Property Maintenance",
    "date_created": "2022-07-07T19:02:59.000",
    "date_modified": "2022-07-07T19:02:59.000",
    "request_status": "Pending",
    "responsible_agency": "Department of Code Enforcement",
    "final_address": "1110 Kabel Dr",
    "address_councildis": "C",
    "status": "Pending",
    "rowid": "897839",
    "final_x": "3700871.61085",
    "final_y": "523480.715323",
    "longitude": "-90.0071959516777",
    "latitude": "29.93278808884642",
    "geocoded_column": {
      "latitude": "29.93278808884642",
      "longitude": "-90.0071959516777"
    }
  },
  {
    "service_request": "2022-897838",
    "request_type": "Trash/Recycling",
    "request_reason": "Illegal Dumping",
    "date_created": "2022-07-07T19:02:37.000",
    "date_modified": "2022-07-07T19:02:37.000",
    "request_status": "Pending",
    "responsible_agency": "Department of Sanitation",
    "final_address": "1240 General Ogden St",
    "address_councildis": "A",
    "status": "Pending",
    "rowid": "897838",
    "final_x": "3660057.2039",
    "final_y": "530530.355906",
    "longitude": "-90.13581199596352",
    "latitude": "29.95340811463674",
    "geocoded_column": {
      "latitude": "29.95340811463674",
      "longitude": "-90.13581199596352"
    }
  },
  {
    "service_request": "2022-897837",
    "request_type": "Trash/Recycling",
    "request_reason": "Missed Trash Pick-Up",
    "date_created": "2022-07-07T18:58:29.000",
    "date_modified": "2022-07-07T18:58:30.000",
    "request_status": "Pending",
    "responsible_agency": "Department of Sanitation",
    "final_address": "917 Seventh St",
    "address_councildis": "B",
    "status": "Assigned to Contractor",
    "contractor": "Richards Disposal",
    "rowid": "897837",
    "final_x": "3676723.41729",
    "final_y": "519913.963512",
    "longitude": "-90.08355278195359",
    "latitude": "29.92372706715264",
    "geocoded_column": {
      "latitude": "29.92372706715264",
      "longitude": "-90.08355278195359"
    }
  },
  {
    "service_request": "2022-897836",
    "request_type": "Trash/Recycling",
    "request_reason": "Replace Trash Cart",
    "date_created": "2022-07-07T18:51:08.000",
    "date_modified": "2022-07-07T18:51:09.000",
    "request_status": "Pending",
    "responsible_agency": "Department of Sanitation",
    "final_address": "2518 Somerset Dr",
    "address_councildis": "C",
    "status": "Assigned to Contractor",
    "contractor": "Richards Disposal",
    "rowid": "897836",
    "final_x": "3702936.87127",
    "final_y": "521720.469882",
    "longitude": "-90.00074076093088",
    "latitude": "29.92788214183305",
    "geocoded_column": {
      "latitude": "29.92788214183305",
      "longitude": "-90.00074076093088"
    }
  },
  {
    "service_request": "2022-897835",
    "request_type": "Trash/Recycling",
    "request_reason": "Missed Trash Pick-Up",
    "date_created": "2022-07-07T18:43:55.000",
    "date_modified": "2022-07-07T18:43:56.000",
    "request_status": "Pending",
    "responsible_agency": "Department of Sanitation",
    "final_address": "3313 Chippewa St, New Orleans, Louisiana, 70115",
    "address_councildis": "B",
    "status": "Assigned to Contractor",
    "contractor": "Richards Disposal",
    "rowid": "897835",
    "final_x": "3675899.13979",
    "final_y": "518322.781494",
    "longitude": "-90.08620939536465",
    "latitude": "29.91937652400025",
    "geocoded_column": {
      "latitude": "29.91937652400025",
      "longitude": "-90.08620939536465"
    }
  },
  {
    "service_request": "2022-897834",
    "request_type": "Mosquito, Termite & Rodent Control",
    "request_reason": "Mosquito Complaint",
    "date_created": "2022-07-07T18:42:10.000",
    "date_modified": "2022-07-07T18:42:10.000",
    "request_status": "Pending",
    "responsible_agency": "Mosquito, Termite & Rodent Control Board",
    "final_address": "2620 Banks St",
    "address_councildis": "B",
    "status": "Pending",
    "rowid": "897834",
    "final_x": "3674888.17486",
    "final_y": "533867.382469",
    "longitude": "-90.08886760973063",
    "latitude": "29.962149293046632",
    "geocoded_column": {
      "latitude": "29.962149293046632",
      "longitude": "-90.08886760973063"
    }
  },
  {
    "service_request": "2022-897833",
    "request_type": "Trash/Recycling",
    "request_reason": "MIssed Recycling Pick-Up",
    "date_created": "2022-07-07T18:39:27.000",
    "date_modified": "2022-07-07T18:39:28.000",
    "request_status": "Pending",
    "responsible_agency": "Department of Sanitation",
    "final_address": "4822 Cleveland Ave",
    "address_councildis": "A",
    "status": "Assigned to Contractor",
    "contractor": "Richards Disposal",
    "rowid": "897833",
    "final_x": "3668365.69857",
    "final_y": "539808.562826",
    "longitude": "-90.10926425820907",
    "latitude": "29.97867872482772",
    "geocoded_column": {
      "latitude": "29.97867872482772",
      "longitude": "-90.10926425820907"
    }
  },
  {
    "service_request": "2022-897832",
    "request_type": "Trash/Recycling",
    "request_reason": "Request a Large Item Pick Up",
    "date_created": "2022-07-07T18:39:17.000",
    "date_modified": "2022-07-07T18:39:18.000",
    "request_status": "Pending",
    "responsible_agency": "Department of Sanitation",
    "final_address": "920 Royal St",
    "address_councildis": "C",
    "status": "Assigned to Contractor",
    "contractor": "Empire Services",
    "rowid": "897832",
    "final_x": "3683134.99772",
    "final_y": "533167.384708",
    "longitude": "-90.06284991674887",
    "latitude": "29.959975684767798",
    "geocoded_column": {
      "latitude": "29.959975684767798",
      "longitude": "-90.06284991674887"
    }
  },
  {
    "service_request": "2022-897831",
    "request_type": "Property Maintenance",
    "request_reason": "Property Maintenance",
    "date_created": "2022-07-07T18:39:05.000",
    "date_modified": "2022-07-07T18:39:05.000",
    "request_status": "Pending",
    "responsible_agency": "Department of Code Enforcement",
    "final_address": "3807 Perrier St",
    "address_councildis": "B",
    "status": "Pending",
    "rowid": "897831",
    "final_x": "3672956.19137",
    "final_y": "520361.64876",
    "longitude": "-90.09542929432166",
    "latitude": "29.925070503477436",
    "geocoded_column": {
      "latitude": "29.925070503477436",
      "longitude": "-90.09542929432166"
    }
  },
  {
    "service_request": "2022-897830",
    "request_type": "Trash/Recycling",
    "request_reason": "MIssed Recycling Pick-Up",
    "date_created": "2022-07-07T18:38:22.000",
    "date_modified": "2022-07-07T18:38:23.000",
    "request_status": "Pending",
    "responsible_agency": "Department of Sanitation",
    "final_address": "1241 Constance St",
    "address_councildis": "B",
    "status": "Assigned to Contractor",
    "contractor": "Richards Disposal",
    "rowid": "897830",
    "final_x": "3680888.57999",
    "final_y": "525219.218237",
    "longitude": "-90.0702202832014",
    "latitude": "29.938189195610676",
    "geocoded_column": {
      "latitude": "29.938189195610676",
      "longitude": "-90.0702202832014"
    }
  },
  {
    "service_request": "2022-897829",
    "request_type": "Trash/Recycling",
    "request_reason": "MIssed Recycling Pick-Up",
    "date_created": "2022-07-07T18:37:06.000",
    "date_modified": "2022-07-07T18:37:07.000",
    "request_status": "Pending",
    "responsible_agency": "Department of Sanitation",
    "final_address": "1239 Constance St",
    "address_councildis": "B",
    "status": "Assigned to Contractor",
    "contractor": "Richards Disposal",
    "rowid": "897829",
    "final_x": "3680891.55976",
    "final_y": "525230.147517",
    "longitude": "-90.07021049543229",
    "latitude": "29.938219157181614",
    "geocoded_column": {
      "latitude": "29.938219157181614",
      "longitude": "-90.07021049543229"
    }
  },
  {
    "service_request": "2022-897828",
    "request_type": "Trash/Recycling",
    "request_reason": "Missed Trash Pick-Up",
    "date_created": "2022-07-07T18:35:12.000",
    "date_modified": "2022-07-07T18:35:13.000",
    "request_status": "Pending",
    "responsible_agency": "Department of Sanitation",
    "final_address": "1241 Constance St",
    "address_councildis": "B",
    "status": "Assigned to Contractor",
    "contractor": "Richards Disposal",
    "rowid": "897828",
    "final_x": "3680888.57999",
    "final_y": "525219.218237",
    "longitude": "-90.0702202832014",
    "latitude": "29.938189195610676",
    "geocoded_column": {
      "latitude": "29.938189195610676",
      "longitude": "-90.0702202832014"
    }
  },
  {
    "service_request": "2022-897827",
    "request_type": "Trash/Recycling",
    "request_reason": "Missed Trash Pick-Up",
    "date_created": "2022-07-07T18:33:18.000",
    "date_modified": "2022-07-07T18:33:19.000",
    "request_status": "Pending",
    "responsible_agency": "Department of Sanitation",
    "final_address": "1239 Constance St",
    "address_councildis": "B",
    "status": "Assigned to Contractor",
    "contractor": "Richards Disposal",
    "rowid": "897827",
    "final_x": "3680891.55976",
    "final_y": "525230.147517",
    "longitude": "-90.07021049543229",
    "latitude": "29.938219157181614",
    "geocoded_column": {
      "latitude": "29.938219157181614",
      "longitude": "-90.07021049543229"
    }
  },
  {
    "service_request": "2022-897826",
    "request_type": "Trash/Recycling",
    "request_reason": "Illegal Dumping",
    "date_created": "2022-07-07T18:27:00.000",
    "date_modified": "2022-07-07T18:27:00.000",
    "request_status": "Pending",
    "responsible_agency": "Department of Sanitation",
    "final_address": "3018 Carondelet St",
    "address_councildis": "B",
    "status": "Pending",
    "rowid": "897826",
    "final_x": "3674894.44987",
    "final_y": "522281.27833",
    "longitude": "-90.08924503713837",
    "latitude": "29.930291144046446",
    "geocoded_column": {
      "latitude": "29.930291144046446",
      "longitude": "-90.08924503713837"
    }
  },
  {
    "service_request": "2022-897825",
    "request_type": "Trash/Recycling",
    "request_reason": "Missed Trash Pick-Up",
    "date_created": "2022-07-07T18:23:04.000",
    "date_modified": "2022-07-07T18:23:04.000",
    "request_status": "Pending",
    "responsible_agency": "Department of Sanitation",
    "final_address": "3212 Prytania St",
    "address_councildis": "B",
    "status": "Assigned to Contractor",
    "contractor": "Richards Disposal",
    "rowid": "897825",
    "final_x": "3675025.34568",
    "final_y": "521262.878137",
    "longitude": "-90.08886673564436",
    "latitude": "29.927486964821558",
    "geocoded_column": {
      "latitude": "29.927486964821558",
      "longitude": "-90.08886673564436"
    }
  },
  {
    "service_request": "2022-897824",
    "request_type": "Trash/Recycling",
    "request_reason": "Missed Trash Pick-Up",
    "date_created": "2022-07-07T18:18:01.000",
    "date_modified": "2022-07-07T18:18:02.000",
    "request_status": "Pending",
    "responsible_agency": "Department of Sanitation",
    "final_address": "717 Soraparu St",
    "address_councildis": "B",
    "status": "Assigned to Contractor",
    "contractor": "Richards Disposal",
    "rowid": "897824",
    "final_x": "3679070.61775",
    "final_y": "520598.305528",
    "longitude": "-90.07611982460998",
    "latitude": "29.925538181307875",
    "geocoded_column": {
      "latitude": "29.925538181307875",
      "longitude": "-90.07611982460998"
    }
  },
  {
    "service_request": "2022-897823",
    "request_type": "Traffic Signals/Signs/Striping/Streetlights",
    "request_reason": "Traffic Sign Missing/Damaged",
    "date_created": "2022-07-07T18:14:14.000",
    "date_modified": "2022-07-07T18:14:15.000",
    "request_status": "Pending",
    "responsible_agency": "Department of Public Works",
    "final_address": "WILTON DR & RAPIDES DR",
    "address_councildis": "D",
    "status": "Pending",
    "rowid": "897823",
    "final_x": "3681881.6",
    "final_y": "552890.98",
    "longitude": "-90.0661190683143",
    "latitude": "30.014246781770442",
    "geocoded_column": {
      "latitude": "30.014246781770442",
      "longitude": "-90.0661190683143"
    }
  },
  {
    "service_request": "2022-897822",
    "request_type": "Parks & Parkways",
    "request_reason": "Request Tree Service (Right of Way/Public Property)",
    "date_created": "2022-07-07T18:14:08.000",
    "date_modified": "2022-07-07T18:14:08.000",
    "request_status": "Pending",
    "responsible_agency": "Department of Parks & Parkway",
    "final_address": "2612 Baronne St",
    "address_councildis": "B",
    "status": "Pending",
    "rowid": "897822",
    "final_x": "3675953.3204",
    "final_y": "523398.585403",
    "longitude": "-90.08586394626346",
    "latitude": "29.933331720273628",
    "geocoded_column": {
      "latitude": "29.933331720273628",
      "longitude": "-90.08586394626346"
    }
  },
  {
    "service_request": "2022-897821",
    "request_type": "Trash/Recycling",
    "request_reason": "Missed Trash Pick-Up",
    "date_created": "2022-07-07T18:11:03.000",
    "date_modified": "2022-07-07T18:11:04.000",
    "request_status": "Pending",
    "responsible_agency": "Department of Sanitation",
    "final_address": "2820 1st St, New Orleans, Louisiana, 70113",
    "status": "Assigned to Contractor",
    "rowid": "897821",
    "longitude": "0.0",
    "latitude": "0.0",
    "geocoded_column": {
      "latitude": "0.0",
      "longitude": "0.0"
    }
  },
  {
    "service_request": "2022-897820",
    "request_type": "Trash/Recycling",
    "request_reason": "Missed Trash Pick-Up",
    "date_created": "2022-07-07T18:09:01.000",
    "date_modified": "2022-07-07T18:09:01.000",
    "request_status": "Pending",
    "responsible_agency": "Department of Sanitation",
    "final_address": "2526 Laurel St",
    "address_councildis": "B",
    "status": "Assigned to Contractor",
    "contractor": "Richards Disposal",
    "rowid": "897820",
    "final_x": "3678054.39899",
    "final_y": "520564.916536",
    "longitude": "-90.07932886914023",
    "latitude": "29.925476991990053",
    "geocoded_column": {
      "latitude": "29.925476991990053",
      "longitude": "-90.07932886914023"
    }
  },
  {
    "service_request": "2022-897819",
    "request_type": "Trash/Recycling",
    "request_reason": "Request a Large Item Pick Up",
    "date_created": "2022-07-07T18:04:23.000",
    "date_modified": "2022-07-07T18:04:23.000",
    "request_status": "Pending",
    "responsible_agency": "Department of Sanitation",
    "final_address": "1435 General Collins Ave",
    "address_councildis": "C",
    "status": "Assigned to Contractor",
    "contractor": "Richards Disposal",
    "rowid": "897819",
    "final_x": "3698440.79882",
    "final_y": "525787.571709",
    "longitude": "-90.01478598670313",
    "latitude": "29.939208277616363",
    "geocoded_column": {
      "latitude": "29.939208277616363",
      "longitude": "-90.01478598670313"
    }
  },
  {
    "service_request": "2022-897818",
    "request_type": "Trash/Recycling",
    "request_reason": "Illegal Dumping",
    "date_created": "2022-07-07T17:49:37.000",
    "date_modified": "2022-07-07T17:49:37.000",
    "request_status": "Pending",
    "responsible_agency": "Department of Sanitation",
    "final_address": "7100 Bundy Rd",
    "address_councildis": "E",
    "status": "Pending",
    "rowid": "897818",
    "final_x": "3706702.00766",
    "final_y": "561201.76355",
    "longitude": "-89.98739123006507",
    "latitude": "30.03632008415327",
    "geocoded_column": {
      "latitude": "30.03632008415327",
      "longitude": "-89.98739123006507"
    }
  },
  {
    "service_request": "2022-897817",
    "request_type": "Roads/Drainage",
    "request_reason": "Debris in Roadway",
    "date_created": "2022-07-07T17:45:21.000",
    "date_modified": "2022-07-07T17:45:22.000",
    "request_status": "Pending",
    "responsible_agency": "Department of Public Works",
    "final_address": "CANAL BLVD & ROBERT E LEE BLVD",
    "address_councildis": "A",
    "status": "Pending",
    "rowid": "897817",
    "final_x": "3669092.6",
    "final_y": "554652.58",
    "longitude": "-90.10646644246677",
    "latitude": "30.0194732581145",
    "geocoded_column": {
      "latitude": "30.0194732581145",
      "longitude": "-90.10646644246677"
    }
  },
  {
    "service_request": "2022-897816",
    "request_type": "Trash/Recycling",
    "request_reason": "Request a Large Item Pick Up",
    "date_created": "2022-07-07T17:43:15.000",
    "date_modified": "2022-07-07T17:43:49.000",
    "case_close_date": "2021-06-15T19:00:00.000",
    "request_status": "Pending",
    "responsible_agency": "Department of Sanitation",
    "final_address": "1312 Joseph St",
    "address_councildis": "A",
    "contractor": "Richards Disposal",
    "rowid": "897816",
    "final_x": "3666466.32212",
    "final_y": "520661.215929",
    "longitude": "-90.11590574919167",
    "latitude": "29.9260854115366",
    "geocoded_column": {
      "latitude": "29.9260854115366",
      "longitude": "-90.11590574919167"
    }
  },
  {
    "service_request": "2022-897815",
    "request_type": "Property Maintenance",
    "request_reason": "Property Maintenance",
    "date_created": "2022-07-07T17:41:43.000",
    "date_modified": "2022-07-07T17:41:44.000",
    "request_status": "Pending",
    "responsible_agency": "Department of Code Enforcement",
    "final_address": "BERYL ST & TURQUOISE ST & ZIRCON ST",
    "address_councildis": "D",
    "status": "Pending",
    "rowid": "897815",
    "final_x": "3668521.1",
    "final_y": "555397.98",
    "longitude": "-90.10824701604872",
    "latitude": "30.021539656451505",
    "geocoded_column": {
      "latitude": "30.021539656451505",
      "longitude": "-90.10824701604872"
    }
  },
  {
    "service_request": "2022-897813",
    "request_type": "Trash/Recycling",
    "request_reason": "Replace Trash Cart",
    "date_created": "2022-07-07T17:37:32.000",
    "date_modified": "2022-07-07T17:37:33.000",
    "request_status": "Pending",
    "responsible_agency": "Department of Sanitation",
    "final_address": "201 S Villere St",
    "address_councildis": "B",
    "status": "Assigned to Contractor",
    "contractor": "Empire Services",
    "rowid": "897813",
    "final_x": "3678630.72072",
    "final_y": "532030.345475",
    "longitude": "-90.07711280661715",
    "latitude": "29.9569857671572",
    "geocoded_column": {
      "latitude": "29.9569857671572",
      "longitude": "-90.07711280661715"
    }
  },
  {
    "service_request": "2022-897812",
    "request_type": "Trash/Recycling",
    "request_reason": "Request a Large Item Pick Up",
    "date_created": "2022-07-07T17:37:13.000",
    "date_modified": "2022-07-07T17:37:14.000",
    "request_status": "Pending",
    "responsible_agency": "Department of Sanitation",
    "final_address": "2919 St Philip St",
    "address_councildis": "A",
    "status": "Assigned to Contractor",
    "contractor": "Richards Disposal",
    "rowid": "897812",
    "final_x": "3676564.64379",
    "final_y": "538605.785097",
    "longitude": "-90.0834103439234",
    "latitude": "29.97512811742523",
    "geocoded_column": {
      "latitude": "29.97512811742523",
      "longitude": "-90.0834103439234"
    }
  },
  {
    "service_request": "2022-897811",
    "request_type": "Trash/Recycling",
    "request_reason": "Missed Trash Pick-Up",
    "date_created": "2022-07-07T17:36:46.000",
    "date_modified": "2022-07-07T17:36:46.000",
    "request_status": "Pending",
    "responsible_agency": "Department of Sanitation",
    "final_address": "2923 Annunciation St",
    "address_councildis": "B",
    "status": "Assigned to Contractor",
    "contractor": "Richards Disposal",
    "rowid": "897811",
    "final_x": "3677041.22504",
    "final_y": "519538.703031",
    "longitude": "-90.08256250858915",
    "latitude": "29.922685687003884",
    "geocoded_column": {
      "latitude": "29.922685687003884",
      "longitude": "-90.08256250858915"
    }
  },
  {
    "service_request": "2022-897810",
    "request_type": "Trash/Recycling",
    "request_reason": "Missed Trash Pick-Up",
    "date_created": "2022-07-07T17:35:58.000",
    "date_modified": "2022-07-07T17:35:59.000",
    "request_status": "Pending",
    "responsible_agency": "Department of Sanitation",
    "final_address": "2921 Annunciation St",
    "address_councildis": "B",
    "status": "Assigned to Contractor",
    "contractor": "Richards Disposal",
    "rowid": "897810",
    "final_x": "3677052.73294",
    "final_y": "519547.227447",
    "longitude": "-90.08252588897253",
    "latitude": "29.92270878098026",
    "geocoded_column": {
      "latitude": "29.92270878098026",
      "longitude": "-90.08252588897253"
    }
  },
  {
    "service_request": "2022-897809",
    "request_type": "Trash/Recycling",
    "request_reason": "Missed Trash Pick-Up",
    "date_created": "2022-07-07T17:35:10.000",
    "date_modified": "2022-07-07T17:35:10.000",
    "request_status": "Pending",
    "responsible_agency": "Department of Sanitation",
    "final_address": "2919 Annunciation St",
    "address_councildis": "B",
    "status": "Assigned to Contractor",
    "contractor": "Richards Disposal",
    "rowid": "897809",
    "final_x": "3677064.66658",
    "final_y": "519552.767927",
    "longitude": "-90.08248802826843",
    "latitude": "29.922723657307756",
    "geocoded_column": {
      "latitude": "29.922723657307756",
      "longitude": "-90.08248802826843"
    }
  },
  {
    "service_request": "2022-897808",
    "request_type": "Trash/Recycling",
    "request_reason": "Missed Trash Pick-Up",
    "date_created": "2022-07-07T17:34:27.000",
    "date_modified": "2022-07-07T17:34:27.000",
    "request_status": "Pending",
    "responsible_agency": "Department of Sanitation",
    "final_address": "2917 Annunciation St",
    "address_councildis": "B",
    "status": "Assigned to Contractor",
    "contractor": "Richards Disposal",
    "rowid": "897808",
    "final_x": "3677076.60142",
    "final_y": "519560.866231",
    "longitude": "-90.08245007562299",
    "latitude": "29.922745566777387",
    "geocoded_column": {
      "latitude": "29.922745566777387",
      "longitude": "-90.08245007562299"
    }
  },
  {
    "service_request": "2022-897807",
    "request_type": "Trash/Recycling",
    "request_reason": "Missed Trash Pick-Up",
    "date_created": "2022-07-07T17:33:42.000",
    "date_modified": "2022-07-07T17:33:42.000",
    "request_status": "Pending",
    "responsible_agency": "Department of Sanitation",
    "final_address": "2911 Annunciation St",
    "address_councildis": "B",
    "status": "Assigned to Contractor",
    "contractor": "Richards Disposal",
    "rowid": "897807",
    "final_x": "3677119.22114",
    "final_y": "519591.127032",
    "longitude": "-90.08231449906575",
    "latitude": "29.922827494790358",
    "geocoded_column": {
      "latitude": "29.922827494790358",
      "longitude": "-90.08231449906575"
    }
  },
  {
    "service_request": "2022-897806",
    "request_type": "Trash/Recycling",
    "request_reason": "Missed Trash Pick-Up",
    "date_created": "2022-07-07T17:32:52.000",
    "date_modified": "2022-07-07T17:32:53.000",
    "request_status": "Pending",
    "responsible_agency": "Department of Sanitation",
    "final_address": "2915 Annunciation St",
    "address_councildis": "B",
    "status": "Assigned to Contractor",
    "contractor": "Richards Disposal",
    "rowid": "897806",
    "final_x": "3677093.22254",
    "final_y": "519576.636024",
    "longitude": "-90.08239706584881",
    "latitude": "29.922788429674977",
    "geocoded_column": {
      "latitude": "29.922788429674977",
      "longitude": "-90.08239706584881"
    }
  },
  {
    "service_request": "2022-897805",
    "request_type": "Property Maintenance",
    "request_reason": "Property Maintenance",
    "date_created": "2022-07-07T17:32:36.000",
    "date_modified": "2022-07-07T17:32:36.000",
    "request_status": "Pending",
    "responsible_agency": "Department of Code Enforcement",
    "final_address": "3310 Upperline St",
    "address_councildis": "B",
    "status": "Pending",
    "rowid": "897805",
    "final_x": "3669174.82471",
    "final_y": "527153.536831",
    "longitude": "-90.107136451228",
    "latitude": "29.943857802629058",
    "geocoded_column": {
      "latitude": "29.943857802629058",
      "longitude": "-90.107136451228"
    }
  },
  {
    "service_request": "2022-897804",
    "request_type": "Traffic Signals/Signs/Striping/Streetlights",
    "request_reason": "Street Light Outage/Malfunction",
    "date_created": "2022-07-07T17:32:03.000",
    "date_modified": "2022-07-07T17:32:04.000",
    "request_status": "Pending",
    "responsible_agency": "Department of Public Works",
    "final_address": "4615 Earhart Blvd",
    "address_councildis": "B",
    "status": "Pending",
    "contractor": "Royal Engineering",
    "rowid": "897804",
    "final_x": "3669413.62055",
    "final_y": "531978.024835",
    "longitude": "-90.10621937924948",
    "latitude": "29.957116537254553",
    "geocoded_column": {
      "latitude": "29.957116537254553",
      "longitude": "-90.10621937924948"
    }
  },
  {
    "service_request": "2022-897803",
    "request_type": "Trash/Recycling",
    "request_reason": "Missed Trash Pick-Up",
    "date_created": "2022-07-07T17:31:47.000",
    "date_modified": "2022-07-07T17:31:47.000",
    "request_status": "Pending",
    "responsible_agency": "Department of Sanitation",
    "final_address": "2908 Annunciation St",
    "address_councildis": "B",
    "status": "Assigned to Contractor",
    "contractor": "Richards Disposal",
    "rowid": "897803",
    "final_x": "3677169.18696",
    "final_y": "519540.395895",
    "longitude": "-90.0821585251264",
    "latitude": "29.92268650046469",
    "geocoded_column": {
      "latitude": "29.92268650046469",
      "longitude": "-90.0821585251264"
    }
  },
  {
    "service_request": "2022-897802",
    "request_type": "Trash/Recycling",
    "request_reason": "Missed Trash Pick-Up",
    "date_created": "2022-07-07T17:30:54.000",
    "date_modified": "2022-07-07T17:30:55.000",
    "request_status": "Pending",
    "responsible_agency": "Department of Sanitation",
    "final_address": "2914 Annunciation St",
    "address_councildis": "B",
    "status": "Assigned to Contractor",
    "contractor": "Richards Disposal",
    "rowid": "897802",
    "final_x": "3677134.08942",
    "final_y": "519513.446711",
    "longitude": "-90.08227024296154",
    "latitude": "29.922613452660002",
    "geocoded_column": {
      "latitude": "29.922613452660002",
      "longitude": "-90.08227024296154"
    }
  },
  {
    "service_request": "2022-897801",
    "request_type": "Trash/Recycling",
    "request_reason": "Missed Trash Pick-Up",
    "date_created": "2022-07-07T17:29:52.000",
    "date_modified": "2022-07-07T17:29:52.000",
    "request_status": "Pending",
    "responsible_agency": "Department of Sanitation",
    "final_address": "2912 Annunciation St",
    "address_councildis": "B",
    "status": "Assigned to Contractor",
    "contractor": "Richards Disposal",
    "rowid": "897801",
    "final_x": "3677146.62389",
    "final_y": "519523.474615",
    "longitude": "-90.08223033101143",
    "latitude": "29.922640649840694",
    "geocoded_column": {
      "latitude": "29.922640649840694",
      "longitude": "-90.08223033101143"
    }
  },
  {
    "service_request": "2022-897800",
    "request_type": "Property Maintenance",
    "request_reason": "Property Maintenance",
    "date_created": "2022-07-07T17:25:36.000",
    "date_modified": "2022-07-07T17:25:37.000",
    "request_status": "Pending",
    "responsible_agency": "Department of Code Enforcement",
    "final_address": "5226 Michoud Blvd",
    "address_councildis": "E",
    "status": "Pending",
    "rowid": "897800",
    "final_x": "3724672.27686",
    "final_y": "562581.64432",
    "longitude": "-89.93054903674013",
    "latitude": "30.03952154151118",
    "geocoded_column": {
      "latitude": "30.03952154151118",
      "longitude": "-89.93054903674013"
    }
  },
  {
    "service_request": "2022-897799",
    "request_type": "Mosquito, Termite & Rodent Control",
    "request_reason": "Non-Rodent Complaint (Mice, Possums, Snakes)",
    "date_created": "2022-07-07T17:24:35.000",
    "date_modified": "2022-07-07T17:24:35.000",
    "request_status": "Pending",
    "responsible_agency": "Mosquito, Termite & Rodent Control Board",
    "final_address": "5635 Painters St",
    "address_councildis": "D",
    "status": "Pending",
    "rowid": "897799",
    "final_x": "3686248.89782",
    "final_y": "553950.619544",
    "longitude": "-90.05228319090917",
    "latitude": "30.017026872999626",
    "geocoded_column": {
      "latitude": "30.017026872999626",
      "longitude": "-90.05228319090917"
    }
  },
  {
    "service_request": "2022-897798",
    "request_type": "Traffic Signals/Signs/Striping/Streetlights",
    "request_reason": "Street Light Outage/Malfunction",
    "date_created": "2022-07-07T17:23:28.000",
    "date_modified": "2022-07-07T17:23:28.000",
    "request_status": "Pending",
    "responsible_agency": "Department of Public Works",
    "final_address": "2701 Napoleon Ave",
    "address_councildis": "B",
    "status": "Pending",
    "contractor": "Royal Engineering",
    "rowid": "897798",
    "final_x": "3670546.51975",
    "final_y": "524833.215036",
    "longitude": "-90.10288429437807",
    "latitude": "29.93743723708239",
    "geocoded_column": {
      "latitude": "29.93743723708239",
      "longitude": "-90.10288429437807"
    }
  },
  {
    "service_request": "2022-897797",
    "request_type": "Trash/Recycling",
    "request_reason": "Missed Trash Pick-Up",
    "date_created": "2022-07-07T17:20:24.000",
    "date_modified": "2022-07-07T17:20:25.000",
    "request_status": "Pending",
    "responsible_agency": "Department of Sanitation",
    "final_address": "2316 Camp St",
    "address_councildis": "B",
    "status": "Assigned to Contractor",
    "contractor": "Richards Disposal",
    "rowid": "897797",
    "final_x": "3678203.65384",
    "final_y": "522012.930362",
    "longitude": "-90.0788076727196",
    "latitude": "29.929454065795714",
    "geocoded_column": {
      "latitude": "29.929454065795714",
      "longitude": "-90.0788076727196"
    }
  },
  {
    "service_request": "2022-897796",
    "request_type": "Trash/Recycling",
    "request_reason": "Repair Trash Cart",
    "date_created": "2022-07-07T17:15:35.000",
    "date_modified": "2022-07-07T17:15:36.000",
    "request_status": "Pending",
    "responsible_agency": "Department of Sanitation",
    "final_address": "5653 Woodlawn Pl",
    "address_councildis": "A",
    "status": "Assigned to Contractor",
    "contractor": "Metro Disposal",
    "rowid": "897796",
    "final_x": "3667598.87917",
    "final_y": "545064.696463",
    "longitude": "-90.11150915171524",
    "latitude": "29.993153808924202",
    "geocoded_column": {
      "latitude": "29.993153808924202",
      "longitude": "-90.11150915171524"
    }
  },
  {
    "service_request": "2022-897795",
    "request_type": "Trash/Recycling",
    "request_reason": "Request a Large Item Pick Up",
    "date_created": "2022-07-07T16:59:00.000",
    "date_modified": "2022-07-07T16:59:00.000",
    "request_status": "Pending",
    "responsible_agency": "Department of Sanitation",
    "final_address": "318 N Anthony St",
    "address_councildis": "A",
    "status": "Assigned to Contractor",
    "contractor": "Richards Disposal",
    "rowid": "897795",
    "final_x": "3669218.95233",
    "final_y": "541034.670091",
    "longitude": "-90.10652789461801",
    "latitude": "29.982025013576067",
    "geocoded_column": {
      "latitude": "29.982025013576067",
      "longitude": "-90.10652789461801"
    }
  },
  {
    "service_request": "2022-897794",
    "request_type": "Roads/Drainage",
    "request_reason": "Debris in Roadway",
    "date_created": "2022-07-07T16:51:39.000",
    "date_modified": "2022-07-07T16:51:39.000",
    "request_status": "Pending",
    "responsible_agency": "Department of Public Works",
    "final_address": "5801 Franklin Ave",
    "address_councildis": "D",
    "status": "Pending",
    "rowid": "897794",
    "final_x": "3686545.6639",
    "final_y": "554501.742872",
    "longitude": "-90.05132605193532",
    "latitude": "30.018533132670623",
    "geocoded_column": {
      "latitude": "30.018533132670623",
      "longitude": "-90.05132605193532"
    }
  },
  {
    "service_request": "2022-897793",
    "request_type": "Safety & Permits",
    "request_reason": "Licenses & Permits",
    "date_created": "2022-07-07T16:51:16.000",
    "date_modified": "2022-07-07T16:51:16.000",
    "request_status": "Pending",
    "responsible_agency": "Safety and Permits",
    "final_address": "629 Reynes St",
    "address_councildis": "E",
    "status": "Pending",
    "rowid": "897793",
    "final_x": "3695541.36931",
    "final_y": "532663.836676",
    "longitude": "-90.02369167486165",
    "latitude": "29.958207032621935",
    "geocoded_column": {
      "latitude": "29.958207032621935",
      "longitude": "-90.02369167486165"
    }
  },
  {
    "service_request": "2022-897792",
    "request_type": "Trash/Recycling",
    "request_reason": "Missed Trash Pick-Up",
    "date_created": "2022-07-07T16:48:53.000",
    "date_modified": "2022-07-07T16:48:53.000",
    "request_status": "Pending",
    "responsible_agency": "Department of Sanitation",
    "final_address": "66 Curtis Dr",
    "address_councildis": "E",
    "status": "Assigned to Contractor",
    "contractor": "Metro Disposal",
    "rowid": "897792",
    "final_x": "3698011.48368",
    "final_y": "561143.97699",
    "longitude": "-90.01485695975023",
    "latitude": "30.0364390161486",
    "geocoded_column": {
      "latitude": "30.0364390161486",
      "longitude": "-90.01485695975023"
    }
  },
  {
    "service_request": "2022-897791",
    "request_type": "Trash/Recycling",
    "request_reason": "Missed Trash Pick-Up",
    "date_created": "2022-07-07T16:47:28.000",
    "date_modified": "2022-07-07T16:47:29.000",
    "request_status": "Pending",
    "responsible_agency": "Department of Sanitation",
    "final_address": "1719 Toledano St",
    "address_councildis": "B",
    "status": "Assigned to Contractor",
    "contractor": "Richards Disposal",
    "rowid": "897791",
    "final_x": "3674403.64788",
    "final_y": "522246.697082",
    "longitude": "-90.09079560780958",
    "latitude": "29.930210700280217",
    "geocoded_column": {
      "latitude": "29.930210700280217",
      "longitude": "-90.09079560780958"
    }
  },
  {
    "service_request": "2022-897790",
    "request_type": "Trash/Recycling",
    "request_reason": "Request a Large Item Pick Up",
    "date_created": "2022-07-07T16:38:43.000",
    "date_modified": "2022-07-07T16:38:44.000",
    "request_status": "Pending",
    "responsible_agency": "Department of Sanitation",
    "final_address": "530 Ptolemy St",
    "address_councildis": "C",
    "status": "Assigned to Contractor",
    "contractor": "Richards Disposal",
    "rowid": "897790",
    "final_x": "3687422.38991",
    "final_y": "526103.727166",
    "longitude": "-90.04956120709441",
    "latitude": "29.94042163369699",
    "geocoded_column": {
      "latitude": "29.94042163369699",
      "longitude": "-90.04956120709441"
    }
  },
  {
    "service_request": "2022-897789",
    "request_type": "Property Maintenance",
    "request_reason": "Property Maintenance",
    "date_created": "2022-07-07T16:31:24.000",
    "date_modified": "2022-07-07T16:31:24.000",
    "request_status": "Pending",
    "responsible_agency": "Department of Code Enforcement",
    "final_address": "3100 Royal St",
    "address_councildis": "C",
    "status": "Pending",
    "rowid": "897789",
    "final_x": "3688655.91951",
    "final_y": "534466.104901",
    "longitude": "-90.0453700042113",
    "latitude": "29.963377239321677",
    "geocoded_column": {
      "latitude": "29.963377239321677",
      "longitude": "-90.0453700042113"
    }
  },
  {
    "service_request": "2022-897788",
    "request_type": "Trash/Recycling",
    "request_reason": "Request a Large Item Pick Up",
    "date_created": "2022-07-07T16:31:02.000",
    "date_modified": "2022-07-07T16:31:03.000",
    "request_status": "Pending",
    "responsible_agency": "Department of Sanitation",
    "final_address": "5201 Beaucaire St",
    "address_councildis": "E",
    "status": "Assigned to Contractor",
    "contractor": "Metro Disposal",
    "rowid": "897788",
    "final_x": "3724581.6926",
    "final_y": "562387.497311",
    "longitude": "-89.93084281596816",
    "latitude": "30.03899076618789",
    "geocoded_column": {
      "latitude": "30.03899076618789",
      "longitude": "-89.93084281596816"
    }
  },
  {
    "service_request": "2022-897787",
    "request_type": "Property Maintenance",
    "request_reason": "Property Maintenance",
    "date_created": "2022-07-07T16:30:48.000",
    "date_modified": "2022-07-07T16:30:48.000",
    "request_status": "Pending",
    "responsible_agency": "Department of Code Enforcement",
    "final_address": "2120 Annette St",
    "address_councildis": "D",
    "status": "Pending",
    "rowid": "897787",
    "final_x": "3682797.31176",
    "final_y": "540011.370379",
    "longitude": "-90.06367678297964",
    "latitude": "29.978804571081692",
    "geocoded_column": {
      "latitude": "29.978804571081692",
      "longitude": "-90.06367678297964"
    }
  },
  {
    "service_request": "2022-897786",
    "request_type": "Roads/Drainage",
    "request_reason": "Catch Basin - Clogged",
    "date_created": "2022-07-07T16:27:00.000",
    "date_modified": "2022-07-07T16:27:00.000",
    "request_status": "Pending",
    "responsible_agency": "Department of Public Works",
    "final_address": "3604 Tulane Ave",
    "address_councildis": "B",
    "status": "Pending",
    "rowid": "897786",
    "final_x": "3671085.36398",
    "final_y": "535320.448774",
    "longitude": "-90.1008269906526",
    "latitude": "29.966257756875873",
    "geocoded_column": {
      "latitude": "29.966257756875873",
      "longitude": "-90.1008269906526"
    }
  },
  {
    "service_request": "2022-897785",
    "request_type": "Trash/Recycling",
    "request_reason": "Repair Trash Cart",
    "date_created": "2022-07-07T16:22:12.000",
    "date_modified": "2022-07-07T16:22:12.000",
    "case_close_date": "2021-03-11T18:00:00.000",
    "request_status": "Pending",
    "responsible_agency": "Department of Sanitation",
    "final_address": "1573 De Battista Pl",
    "address_councildis": "C",
    "status": "Assigned to Contractor",
    "contractor": "Richards Disposal",
    "rowid": "897785",
    "final_x": "3699699.53604",
    "final_y": "525181.368893",
    "longitude": "-90.01083411087838",
    "latitude": "29.937501543146986",
    "geocoded_column": {
      "latitude": "29.937501543146986",
      "longitude": "-90.01083411087838"
    }
  },
  {
    "service_request": "2022-897784",
    "request_type": "Trash/Recycling",
    "request_reason": "Request a Large Item Pick Up",
    "date_created": "2022-07-07T16:21:58.000",
    "date_modified": "2022-07-07T16:21:59.000",
    "request_status": "Pending",
    "responsible_agency": "Department of Sanitation",
    "final_address": "327 Arabella St",
    "address_councildis": "A",
    "status": "Assigned to Contractor",
    "contractor": "Richards Disposal",
    "rowid": "897784",
    "final_x": "3665529.51904",
    "final_y": "517404.490997",
    "longitude": "-90.11897192974514",
    "latitude": "29.917157774096122",
    "geocoded_column": {
      "latitude": "29.917157774096122",
      "longitude": "-90.11897192974514"
    }
  },
  {
    "service_request": "2022-897783",
    "request_type": "Roads/Drainage",
    "request_reason": "Catch Basin - Broken/Damage",
    "date_created": "2022-07-07T16:18:02.000",
    "date_modified": "2022-07-07T16:18:02.000",
    "request_status": "Pending",
    "responsible_agency": "Department of Public Works",
    "final_address": "4432 Magazine St, New Orleans, Louisiana, 70115",
    "address_councildis": "B",
    "status": "Pending",
    "rowid": "897783",
    "final_x": "3670740.33505",
    "final_y": "518721.877303",
    "longitude": "-90.10247965862342",
    "latitude": "29.920627291955082",
    "geocoded_column": {
      "latitude": "29.920627291955082",
      "longitude": "-90.10247965862342"
    }
  },
  {
    "service_request": "2022-897782",
    "request_type": "Property Maintenance",
    "request_reason": "Property Maintenance",
    "date_created": "2022-07-07T16:14:10.000",
    "date_modified": "2022-07-07T16:14:10.000",
    "request_status": "Pending",
    "responsible_agency": "Department of Code Enforcement",
    "final_address": "8258 Lake Forest Blvd",
    "address_councildis": "E",
    "status": "Pending",
    "rowid": "897782",
    "final_x": "3705238.57553",
    "final_y": "557036.30601",
    "longitude": "-89.99217000523349",
    "latitude": "30.02491388822137",
    "geocoded_column": {
      "latitude": "30.02491388822137",
      "longitude": "-89.99217000523349"
    }
  },
  {
    "service_request": "2022-897781",
    "request_type": "Property Maintenance",
    "request_reason": "Property Maintenance",
    "date_created": "2022-07-07T16:11:51.000",
    "date_modified": "2022-07-07T16:11:51.000",
    "request_status": "Pending",
    "responsible_agency": "Department of Code Enforcement",
    "final_address": "5125 Sandhurst Dr",
    "address_councildis": "E",
    "status": "Pending",
    "rowid": "897781",
    "final_x": "3705175.14308",
    "final_y": "556874.180762",
    "longitude": "-89.99237643508313",
    "latitude": "30.024470148016814",
    "geocoded_column": {
      "latitude": "30.024470148016814",
      "longitude": "-89.99237643508313"
    }
  },
  {
    "service_request": "2022-897780",
    "request_type": "Roads/Drainage",
    "request_reason": "Catch Basin - Clogged",
    "date_created": "2022-07-07T16:11:01.000",
    "date_modified": "2022-07-07T16:11:01.000",
    "request_status": "Pending",
    "responsible_agency": "Department of Public Works",
    "final_address": "1240 Mandeville St",
    "address_councildis": "C",
    "status": "Pending",
    "rowid": "897780",
    "final_x": "3685689.2205",
    "final_y": "537069.247048",
    "longitude": "-90.0546467578012",
    "latitude": "29.970626335218824",
    "geocoded_column": {
      "latitude": "29.970626335218824",
      "longitude": "-90.0546467578012"
    }
  },
  {
    "service_request": "2022-897779",
    "request_type": "Trash/Recycling",
    "request_reason": "MIssed Recycling Pick-Up",
    "date_created": "2022-07-07T16:05:08.000",
    "date_modified": "2022-07-07T16:05:09.000",
    "request_status": "Pending",
    "responsible_agency": "Department of Sanitation",
    "final_address": "5826 Clara St",
    "address_councildis": "A",
    "status": "Assigned to Contractor",
    "contractor": "Richards Disposal",
    "rowid": "897779",
    "final_x": "3666914.57978",
    "final_y": "525225.735933",
    "longitude": "-90.11433743670578",
    "latitude": "29.938623284611396",
    "geocoded_column": {
      "latitude": "29.938623284611396",
      "longitude": "-90.11433743670578"
    }
  },
  {
    "service_request": "2022-897778",
    "request_type": "Abandoned Vehicles",
    "request_reason": "Abandoned/Junk Vehicles",
    "date_created": "2022-07-07T16:03:26.000",
    "date_modified": "2022-07-07T16:03:26.000",
    "request_status": "Pending",
    "responsible_agency": "Department of Public Works",
    "final_address": "2217 Laurel St",
    "address_councildis": "B",
    "status": "Pending",
    "rowid": "897778",
    "final_x": "3679142.22107",
    "final_y": "521407.923321",
    "longitude": "-90.07586574805345",
    "latitude": "29.92776220555056",
    "geocoded_column": {
      "latitude": "29.92776220555056",
      "longitude": "-90.07586574805345"
    }
  },
  {
    "service_request": "2022-897777",
    "request_type": "Property Maintenance",
    "request_reason": "Property Maintenance",
    "date_created": "2022-07-07T16:01:36.000",
    "date_modified": "2022-07-07T16:01:36.000",
    "request_status": "Pending",
    "responsible_agency": "Department of Code Enforcement",
    "final_address": "3200 Tulane Ave",
    "address_councildis": "B",
    "status": "Pending",
    "rowid": "897777",
    "final_x": "3672536.10241",
    "final_y": "534535.061189",
    "longitude": "-90.09627235477807",
    "latitude": "29.96405521718449",
    "geocoded_column": {
      "latitude": "29.96405521718449",
      "longitude": "-90.09627235477807"
    }
  },
  {
    "service_request": "2022-897776",
    "request_type": "Trash/Recycling",
    "request_reason": "Request a Large Item Pick Up",
    "date_created": "2022-07-07T15:59:04.000",
    "date_modified": "2022-07-07T15:59:05.000",
    "request_status": "Pending",
    "responsible_agency": "Department of Sanitation",
    "final_address": "2042 Brutus St",
    "address_councildis": "D",
    "status": "Assigned to Contractor",
    "contractor": "Metro Disposal",
    "rowid": "897776",
    "final_x": "3682792.8406",
    "final_y": "550163.39874",
    "longitude": "-90.063335522489",
    "latitude": "30.00671918072668",
    "geocoded_column": {
      "latitude": "30.00671918072668",
      "longitude": "-90.063335522489"
    }
  },
  {
    "service_request": "2022-897775",
    "request_type": "Abandoned Vehicles",
    "request_reason": "Abandoned/Junk Vehicles",
    "date_created": "2022-07-07T15:57:49.000",
    "date_modified": "2022-07-07T15:57:49.000",
    "request_status": "Pending",
    "responsible_agency": "Department of Public Works",
    "final_address": "2217 Laurel St Unit 1",
    "address_councildis": "B",
    "status": "Pending",
    "rowid": "897775",
    "final_x": "3679131.22914",
    "final_y": "521416.274809",
    "longitude": "-90.07590015765602",
    "latitude": "29.92778550109506",
    "geocoded_column": {
      "latitude": "29.92778550109506",
      "longitude": "-90.07590015765602"
    }
  },
  {
    "service_request": "2022-897774",
    "request_type": "Trash/Recycling",
    "request_reason": "Illegal Dumping",
    "date_created": "2022-07-07T15:57:44.000",
    "date_modified": "2022-07-07T15:57:44.000",
    "request_status": "Pending",
    "responsible_agency": "Department of Sanitation",
    "final_address": "3326 Cleveland Ave",
    "address_councildis": "B",
    "status": "Pending",
    "rowid": "897774",
    "final_x": "3673092.90363",
    "final_y": "536245.118599",
    "longitude": "-90.09445563614163",
    "latitude": "29.968740759156063",
    "geocoded_column": {
      "latitude": "29.968740759156063",
      "longitude": "-90.09445563614163"
    }
  },
  {
    "service_request": "2022-897773",
    "request_type": "Abandoned Vehicles",
    "request_reason": "Abandoned/Junk Vehicles",
    "date_created": "2022-07-07T15:56:58.000",
    "date_modified": "2022-07-07T15:56:58.000",
    "request_status": "Pending",
    "responsible_agency": "Department of Public Works",
    "final_address": "3002 De Soto St",
    "address_councildis": "A",
    "status": "Pending",
    "rowid": "897773",
    "final_x": "3676695.7307",
    "final_y": "539667.516106",
    "longitude": "-90.0829597455688",
    "latitude": "29.97804358065186",
    "geocoded_column": {
      "latitude": "29.97804358065186",
      "longitude": "-90.0829597455688"
    }
  },
  {
    "service_request": "2022-897772",
    "request_type": "Trash/Recycling",
    "request_reason": "Repair Recycling Cart",
    "date_created": "2022-07-07T15:56:52.000",
    "date_modified": "2022-07-07T15:56:53.000",
    "request_status": "Pending",
    "responsible_agency": "Department of Sanitation",
    "final_address": "7708 Green St",
    "address_councildis": "A",
    "status": "Pending",
    "rowid": "897772",
    "final_x": "3664140.36704",
    "final_y": "528711.812928",
    "longitude": "-90.12297970394711",
    "latitude": "29.948289740016804",
    "geocoded_column": {
      "latitude": "29.948289740016804",
      "longitude": "-90.12297970394711"
    }
  },
  {
    "service_request": "2022-897771",
    "request_type": "Safety & Permits",
    "request_reason": "Short term Rental (Enforcement)",
    "date_created": "2022-07-07T15:48:30.000",
    "date_modified": "2022-07-07T15:48:30.000",
    "request_status": "Pending",
    "responsible_agency": "Safety and Permits",
    "final_address": "218 Seguin St",
    "address_councildis": "C",
    "status": "Pending",
    "rowid": "897771",
    "final_x": "3685874.11458",
    "final_y": "530746.82157",
    "longitude": "-90.05428572323468",
    "latitude": "29.95323617333839",
    "geocoded_column": {
      "latitude": "29.95323617333839",
      "longitude": "-90.05428572323468"
    }
  },
  {
    "service_request": "2022-897770",
    "request_type": "Roads/Drainage",
    "request_reason": "Catch Basin - Clogged",
    "date_created": "2022-07-07T15:47:31.000",
    "date_modified": "2022-07-07T15:47:32.000",
    "request_status": "Pending",
    "responsible_agency": "Department of Public Works",
    "final_address": "1104 Second St",
    "address_councildis": "B",
    "status": "Pending",
    "rowid": "897770",
    "final_x": "3677748.64405",
    "final_y": "521385.949945",
    "longitude": "-90.08026570040415",
    "latitude": "29.927743764175833",
    "geocoded_column": {
      "latitude": "29.927743764175833",
      "longitude": "-90.08026570040415"
    }
  },
  {
    "service_request": "2022-897769",
    "request_type": "Trash/Recycling",
    "request_reason": "MIssed Recycling Pick-Up",
    "date_created": "2022-07-07T15:44:59.000",
    "date_modified": "2022-07-07T15:45:00.000",
    "request_status": "Pending",
    "responsible_agency": "Department of Sanitation",
    "final_address": "2134 Magazine St",
    "address_councildis": "B",
    "status": "Assigned to Contractor",
    "contractor": "Richards Disposal",
    "rowid": "897769",
    "final_x": "3678967.57442",
    "final_y": "522102.98137",
    "longitude": "-90.07639299736117",
    "latitude": "29.929678656778812",
    "geocoded_column": {
      "latitude": "29.929678656778812",
      "longitude": "-90.07639299736117"
    }
  },
  {
    "service_request": "2022-897768",
    "request_type": "Trash/Recycling",
    "request_reason": "Illegal Dumping",
    "date_created": "2022-07-07T15:42:31.000",
    "date_modified": "2022-07-07T15:43:22.000",
    "request_status": "Pending",
    "responsible_agency": "Department of Sanitation",
    "final_address": "LIZARDI ST & N PRIEUR ST",
    "address_councildis": "E",
    "status": "Pending",
    "rowid": "897768",
    "final_x": "3697369.4",
    "final_y": "537119.28",
    "longitude": "-90.0177577568225",
    "latitude": "29.970400338853928",
    "geocoded_column": {
      "latitude": "29.970400338853928",
      "longitude": "-90.0177577568225"
    }
  },
  {
    "service_request": "2022-897767",
    "request_type": "Roads/Drainage",
    "request_reason": "Pothole",
    "date_created": "2022-07-07T15:41:08.000",
    "date_modified": "2022-07-07T15:41:08.000",
    "request_status": "Pending",
    "responsible_agency": "Department of Public Works",
    "final_address": "2676 Wisteria St",
    "address_councildis": "D",
    "status": "Pending",
    "rowid": "897767",
    "final_x": "3687621.90108",
    "final_y": "548347.23829",
    "longitude": "-90.04814365178576",
    "latitude": "30.00157734700328",
    "geocoded_column": {
      "latitude": "30.00157734700328",
      "longitude": "-90.04814365178576"
    }
  },
  {
    "service_request": "2022-897766",
    "request_type": "Traffic Signals/Signs/Striping/Streetlights",
    "request_reason": "Street Light Outage/Malfunction",
    "date_created": "2022-07-07T15:38:56.000",
    "date_modified": "2022-07-07T15:38:57.000",
    "request_status": "Pending",
    "responsible_agency": "Department of Public Works",
    "final_address": "2514 Adams St",
    "address_councildis": "A",
    "status": "Pending",
    "contractor": "Royal Engineering",
    "rowid": "897766",
    "final_x": "3666291.92775",
    "final_y": "531000.21101",
    "longitude": "-90.11610955893856",
    "latitude": "29.95451942389691",
    "geocoded_column": {
      "latitude": "29.95451942389691",
      "longitude": "-90.11610955893856"
    }
  },
  {
    "service_request": "2022-897765",
    "request_type": "Trash/Recycling",
    "request_reason": "Order Trash Cart",
    "date_created": "2022-07-07T15:38:12.000",
    "date_modified": "2022-07-07T15:38:12.000",
    "request_status": "Pending",
    "responsible_agency": "Department of Sanitation",
    "final_address": "2324 St Ann St",
    "address_councildis": "D",
    "status": "Assigned to Contractor",
    "contractor": "Richards Disposal",
    "rowid": "897765",
    "final_x": "3678098.00379",
    "final_y": "536285.084743",
    "longitude": "-90.07864784691483",
    "latitude": "29.96870090560809",
    "geocoded_column": {
      "latitude": "29.96870090560809",
      "longitude": "-90.07864784691483"
    }
  },
  {
    "service_request": "2022-897764",
    "request_type": "Roads/Drainage",
    "request_reason": "Catch Basin - Clogged",
    "date_created": "2022-07-07T15:37:14.000",
    "date_modified": "2022-07-07T15:37:14.000",
    "request_status": "Pending",
    "responsible_agency": "Department of Public Works",
    "final_address": "2233 Washington Ave",
    "address_councildis": "B",
    "status": "Pending",
    "rowid": "897764",
    "final_x": "3674625.65736",
    "final_y": "524567.716476",
    "longitude": "-90.09001525431059",
    "latitude": "29.936586127445302",
    "geocoded_column": {
      "latitude": "29.936586127445302",
      "longitude": "-90.09001525431059"
    }
  },
  {
    "service_request": "2022-897763",
    "request_type": "Trash/Recycling",
    "request_reason": "Order Trash Cart",
    "date_created": "2022-07-07T15:32:18.000",
    "date_modified": "2022-07-07T15:32:18.000",
    "request_status": "Pending",
    "responsible_agency": "Department of Sanitation",
    "final_address": "1807 W Homestead Dr",
    "address_councildis": "C",
    "status": "Assigned to Contractor",
    "contractor": "Richards Disposal",
    "rowid": "897763",
    "final_x": "3696878.0161",
    "final_y": "525310.849405",
    "longitude": "-90.01973711374875",
    "latitude": "29.937946811750024",
    "geocoded_column": {
      "latitude": "29.937946811750024",
      "longitude": "-90.01973711374875"
    }
  },
  {
    "service_request": "2022-897762",
    "request_type": "Trash/Recycling",
    "request_reason": "Replace Trash Cart",
    "date_created": "2022-07-07T15:27:20.000",
    "date_modified": "2022-07-07T15:30:59.000",
    "request_status": "Pending",
    "responsible_agency": "Department of Sanitation",
    "final_address": "New Orleans,LA",
    "address_councildis": "A",
    "status": "Assigned to Contractor",
    "contractor": "Richards Disposal",
    "rowid": "897762",
    "final_x": "3666239.92679",
    "final_y": "518130.552758",
    "longitude": "-90.11670523723116",
    "latitude": "29.91913349562136",
    "geocoded_column": {
      "latitude": "29.91913349562136",
      "longitude": "-90.11670523723116"
    }
  },
  {
    "service_request": "2022-897761",
    "request_type": "Parks & Parkways",
    "request_reason": "Request Tree Service (Right of Way/Public Property)",
    "date_created": "2022-07-07T15:27:13.000",
    "date_modified": "2022-07-07T15:27:13.000",
    "request_status": "Pending",
    "responsible_agency": "Department of Parks & Parkway",
    "final_address": "6228 Canal Blvd",
    "address_councildis": "A",
    "status": "Pending",
    "rowid": "897761",
    "final_x": "3668481.74414",
    "final_y": "548855.122387",
    "longitude": "-90.10859234284878",
    "latitude": "30.003550255395062",
    "geocoded_column": {
      "latitude": "30.003550255395062",
      "longitude": "-90.10859234284878"
    }
  },
  {
    "service_request": "2022-897760",
    "request_type": "Traffic Signals/Signs/Striping/Streetlights",
    "request_reason": "Road Surface Marking Maintenance-Traffic Control",
    "date_created": "2022-07-07T15:26:17.000",
    "date_modified": "2022-07-07T15:26:17.000",
    "request_status": "Pending",
    "responsible_agency": "Department of Public Works",
    "final_address": "ORETHA CASTLE HALEY BLVD & FELICITY ST & POLYMNIA ST",
    "address_councildis": "B",
    "status": "Pending",
    "rowid": "897760",
    "final_x": "3677568.0",
    "final_y": "525496.18",
    "longitude": "-90.08069410731271",
    "latitude": "29.939050981224902",
    "geocoded_column": {
      "latitude": "29.939050981224902",
      "longitude": "-90.08069410731271"
    }
  },
  {
    "service_request": "2022-897759",
    "request_type": "Safety & Permits",
    "request_reason": "Licenses & Permits",
    "date_created": "2022-07-07T15:24:36.000",
    "date_modified": "2022-07-07T15:24:36.000",
    "request_status": "Pending",
    "responsible_agency": "Safety and Permits",
    "status": "Pending",
    "rowid": "897759",
    "longitude": "0.0",
    "latitude": "0.0",
    "geocoded_column": {
      "latitude": "0.0",
      "longitude": "0.0"
    }
  },
  {
    "service_request": "2022-897758",
    "request_type": "Trash/Recycling",
    "request_reason": "Replace Trash Cart",
    "date_created": "2022-07-07T15:21:21.000",
    "date_modified": "2022-07-07T15:21:21.000",
    "request_status": "Pending",
    "responsible_agency": "Department of Sanitation",
    "final_address": "6228 Canal Blvd",
    "address_councildis": "A",
    "status": "Assigned to Contractor",
    "contractor": "Metro Disposal",
    "rowid": "897758",
    "final_x": "3668481.74414",
    "final_y": "548855.122387",
    "longitude": "-90.10859234284878",
    "latitude": "30.003550255395062",
    "geocoded_column": {
      "latitude": "30.003550255395062",
      "longitude": "-90.10859234284878"
    }
  },
  {
    "service_request": "2022-897757",
    "request_type": "Trash/Recycling",
    "request_reason": "Missed Trash Pick-Up",
    "date_created": "2022-07-07T15:21:10.000",
    "date_modified": "2022-07-07T15:21:11.000",
    "request_status": "Pending",
    "responsible_agency": "Department of Sanitation",
    "final_address": "1409 St Mary St",
    "address_councildis": "B",
    "status": "Assigned to Contractor",
    "contractor": "Richards Disposal",
    "rowid": "897757",
    "final_x": "3679051.99368",
    "final_y": "523708.383803",
    "longitude": "-90.07607089283698",
    "latitude": "29.934090439944463",
    "geocoded_column": {
      "latitude": "29.934090439944463",
      "longitude": "-90.07607089283698"
    }
  },
  {
    "service_request": "2022-897756",
    "request_type": "Abandoned Vehicles",
    "request_reason": "Abandoned/Junk Vehicles",
    "date_created": "2022-07-07T15:20:25.000",
    "date_modified": "2022-07-07T15:20:25.000",
    "request_status": "Pending",
    "responsible_agency": "Department of Public Works",
    "final_address": "1831 Congress St",
    "address_councildis": "D",
    "status": "Pending",
    "rowid": "897756",
    "final_x": "3691470.32502",
    "final_y": "538435.481609",
    "longitude": "-90.03634057321172",
    "latitude": "29.97420434017676",
    "geocoded_column": {
      "latitude": "29.97420434017676",
      "longitude": "-90.03634057321172"
    }
  },
  {
    "service_request": "2022-897755",
    "request_type": "Traffic Signals/Signs/Striping/Streetlights",
    "request_reason": "Street Light Outage/Malfunction",
    "date_created": "2022-07-07T15:19:32.000",
    "date_modified": "2022-07-07T15:19:33.000",
    "request_status": "Pending",
    "responsible_agency": "Department of Public Works",
    "final_address": "FELICITY ST & FRERET ST",
    "address_councildis": "B",
    "status": "Pending",
    "contractor": "Royal Engineering",
    "rowid": "897755",
    "final_x": "3676152.6",
    "final_y": "526910.58",
    "longitude": "-90.08511405447138",
    "latitude": "29.942982586012715",
    "geocoded_column": {
      "latitude": "29.942982586012715",
      "longitude": "-90.08511405447138"
    }
  },
  {
    "service_request": "2022-897754",
    "request_type": "Trash/Recycling",
    "request_reason": "Request a Large Item Pick Up",
    "date_created": "2022-07-07T15:16:26.000",
    "date_modified": "2022-07-07T15:16:29.000",
    "request_status": "Pending",
    "responsible_agency": "Department of Sanitation",
    "final_address": "5899 Bellaire Dr",
    "address_councildis": "A",
    "status": "Assigned to Contractor",
    "contractor": "Metro Disposal",
    "rowid": "897754",
    "final_x": "3664296.73076",
    "final_y": "547249.109777",
    "longitude": "-90.1218671755993",
    "latitude": "29.999256605308016",
    "geocoded_column": {
      "latitude": "29.999256605308016",
      "longitude": "-90.1218671755993"
    }
  },
  {
    "service_request": "2022-897753",
    "request_type": "Abandoned Vehicles",
    "request_reason": "Abandoned/Junk Vehicles",
    "date_created": "2022-07-07T15:15:10.000",
    "date_modified": "2022-07-07T15:31:45.000",
    "request_status": "Pending",
    "responsible_agency": "Department of Public Works",
    "final_address": "New Orleans,LA",
    "address_councildis": "A",
    "rowid": "897753",
    "final_x": "3666945.21434",
    "final_y": "538635.210825",
    "longitude": "-90.11379013711323",
    "latitude": "29.97549404916784",
    "geocoded_column": {
      "latitude": "29.97549404916784",
      "longitude": "-90.11379013711323"
    }
  },
  {
    "service_request": "2022-897752",
    "request_type": "Trash/Recycling",
    "request_reason": "Request a Large Item Pick Up",
    "date_created": "2022-07-07T15:12:31.000",
    "date_modified": "2022-07-07T15:12:32.000",
    "request_status": "Pending",
    "responsible_agency": "Department of Sanitation",
    "final_address": "4810 Gallier Dr",
    "address_councildis": "D",
    "status": "Assigned to Contractor",
    "contractor": "Metro Disposal",
    "rowid": "897752",
    "final_x": "3692043.64829",
    "final_y": "551523.572181",
    "longitude": "-90.03406119173921",
    "latitude": "30.010173985840023",
    "geocoded_column": {
      "latitude": "30.010173985840023",
      "longitude": "-90.03406119173921"
    }
  },
  {
    "service_request": "2022-897751",
    "request_type": "Trash/Recycling",
    "request_reason": "Request a Large Item Pick Up",
    "date_created": "2022-07-07T15:08:29.000",
    "date_modified": "2022-07-07T15:08:30.000",
    "request_status": "Pending",
    "responsible_agency": "Department of Sanitation",
    "final_address": "6026 Patton St",
    "address_councildis": "A",
    "status": "Assigned to Contractor",
    "contractor": "Richards Disposal",
    "rowid": "897751",
    "final_x": "3664248.37172",
    "final_y": "518550.087863",
    "longitude": "-90.12297760013952",
    "latitude": "29.920345080561273",
    "geocoded_column": {
      "latitude": "29.920345080561273",
      "longitude": "-90.12297760013952"
    }
  },
  {
    "service_request": "2022-897750",
    "request_type": "Trash/Recycling",
    "request_reason": "Missed Trash Pick-Up",
    "date_created": "2022-07-07T15:06:44.000",
    "date_modified": "2022-07-07T15:06:47.000",
    "request_status": "Pending",
    "responsible_agency": "Department of Sanitation",
    "final_address": "3221 Laurel St",
    "address_councildis": "B",
    "status": "Assigned to Contractor",
    "contractor": "Richards Disposal",
    "rowid": "897750",
    "final_x": "3675953.58081",
    "final_y": "519287.504759",
    "longitude": "-90.0860044036573",
    "latitude": "29.92202757329186",
    "geocoded_column": {
      "latitude": "29.92202757329186",
      "longitude": "-90.0860044036573"
    }
  },
  {
    "service_request": "2022-897749",
    "request_type": "Abandoned Vehicles",
    "request_reason": "Abandoned/Junk Vehicles",
    "date_created": "2022-07-07T15:06:19.000",
    "date_modified": "2022-07-07T15:07:56.000",
    "request_status": "Pending",
    "responsible_agency": "Department of Public Works",
    "final_address": "1519 Camp St",
    "address_councildis": "B",
    "status": "Pending",
    "rowid": "897749",
    "final_x": "3679660.43202",
    "final_y": "523827.485051",
    "longitude": "-90.07414594399957",
    "latitude": "29.934399558211695",
    "geocoded_column": {
      "latitude": "29.934399558211695",
      "longitude": "-90.07414594399957"
    }
  },
  {
    "service_request": "2022-897748",
    "request_type": "Trash/Recycling",
    "request_reason": "Order Recycling Cart",
    "date_created": "2022-07-07T15:04:04.000",
    "date_modified": "2022-07-07T15:04:04.000",
    "request_status": "Pending",
    "responsible_agency": "Department of Sanitation",
    "final_address": "615 English Turn Dr, New Orleans, Louisiana, 70131",
    "address_councildis": "C",
    "status": "Pending",
    "rowid": "897748",
    "final_x": "3717828.54629",
    "final_y": "515068.744755",
    "longitude": "-89.95398456401912",
    "latitude": "29.909107666287305",
    "geocoded_column": {
      "latitude": "29.909107666287305",
      "longitude": "-89.95398456401912"
    }
  },
  {
    "service_request": "2022-897747",
    "request_type": "Abandoned Vehicles",
    "request_reason": "Abandoned/Junk Vehicles",
    "date_created": "2022-07-07T15:03:09.000",
    "date_modified": "2022-07-07T15:04:05.000",
    "request_status": "Pending",
    "responsible_agency": "Department of Public Works",
    "final_address": "2924 Laurel St",
    "address_councildis": "B",
    "status": "Pending",
    "rowid": "897747",
    "final_x": "3676863.04449",
    "final_y": "519786.807928",
    "longitude": "-90.08311640899723",
    "latitude": "29.923373242122015",
    "geocoded_column": {
      "latitude": "29.923373242122015",
      "longitude": "-90.08311640899723"
    }
  },
  {
    "service_request": "2022-897746",
    "request_type": "Roads/Drainage",
    "request_reason": "Street Flooding / Drainage",
    "date_created": "2022-07-07T15:00:45.000",
    "date_modified": "2022-07-07T15:00:45.000",
    "request_status": "Pending",
    "responsible_agency": "Department of Public Works",
    "final_address": "CHIPPEWA ST & RACE ST",
    "address_councildis": "B",
    "status": "Pending",
    "rowid": "897746",
    "final_x": "3681405.3",
    "final_y": "523552.38",
    "longitude": "-90.06864703316182",
    "latitude": "29.93359027091371",
    "geocoded_column": {
      "latitude": "29.93359027091371",
      "longitude": "-90.06864703316182"
    }
  },