[
  {
    "service_request": "2022-916926",
    "request_type": "Trash/Recycling",
    "request_reason": "Missed Trash Pick-Up",
    "date_created": "2022-09-06T23:08:02.000",
    "date_modified": "2022-09-06T23:08:03.000",
    "request_status": "Pending",
    "responsible_agency": "Department of Sanitation",
    "final_address": "3025 Serantine St",
    "address_councildis": "D",
    "status": "Assigned to Contractor",
    "contractor": "Metro Disposal",
    "rowid": "916926",
    "final_x": "3679165.83573",
    "final_y": "543021.065421",
    "longitude": "-90.07504196921981",
    "latitude": "29.987190328086964",
    "geocoded_column": {
      "latitude": "29.987190328086964",
      "longitude": "-90.07504196921981"
    }
  },
  {
    "service_request": "2022-916925",
    "request_type": "Trash/Recycling",
    "request_reason": "Replace Trash Cart",
    "date_created": "2022-09-06T23:00:46.000",
    "date_modified": "2022-09-06T23:00:47.000",
    "request_status": "Pending",
    "responsible_agency": "Department of Sanitation",
    "final_address": "2015 Broadway St",
    "address_councildis": "A",
    "status": "Assigned to Contractor",
    "contractor": "Richards Disposal",
    "rowid": "916925",
    "final_x": "3665865.84788",
    "final_y": "528921.091968",
    "longitude": "-90.11752461726748",
    "latitude": "29.948814960589814",
    "geocoded_column": {
      "latitude": "29.948814960589814",
      "longitude": "-90.11752461726748"
    }
  },
  {
    "service_request": "2022-916924",
    "request_type": "Property Maintenance",
    "request_reason": "Property Maintenance",
    "date_created": "2022-09-06T22:45:41.000",
    "date_modified": "2022-09-06T22:45:41.000",
    "request_status": "Pending",
    "responsible_agency": "Department of Code Enforcement",
    "final_address": "2215 Terpsichore St",
    "address_councildis": "B",
    "status": "Pending",
    "rowid": "916924",
    "final_x": "3676697.10625",
    "final_y": "526793.547006",
    "longitude": "-90.0833989447593",
    "latitude": "29.942644462854982",
    "geocoded_column": {
      "latitude": "29.942644462854982",
      "longitude": "-90.0833989447593"
    }
  },
  {
    "service_request": "2022-916923",
    "request_type": "Property Maintenance",
    "request_reason": "Property Maintenance",
    "date_created": "2022-09-06T22:30:56.000",
    "date_modified": "2022-09-06T22:30:56.000",
    "request_status": "Pending",
    "responsible_agency": "Department of Code Enforcement",
    "final_address": "2509 Memorial Park Dr",
    "address_councildis": "C",
    "status": "Pending",
    "rowid": "916923",
    "final_x": "3692667.34697",
    "final_y": "521156.961721",
    "longitude": "-90.03317930093436",
    "latitude": "29.92665709085535",
    "geocoded_column": {
      "latitude": "29.92665709085535",
      "longitude": "-90.03317930093436"
    }
  },
  {
    "service_request": "2022-916922",
    "request_type": "Traffic Signals/Signs/Striping/Streetlights",
    "request_reason": "Street Light Outage/Malfunction",
    "date_created": "2022-09-06T22:09:41.000",
    "date_modified": "2022-09-06T22:09:42.000",
    "request_status": "Pending",
    "responsible_agency": "Department of Public Works",
    "final_address": "5650 Orleans Ave",
    "address_councildis": "A",
    "status": "Pending",
    "contractor": "Legacy Professional Services",
    "rowid": "916922",
    "final_x": "3670611.94043",
    "final_y": "544987.195407",
    "longitude": "-90.10199400398078",
    "latitude": "29.992852021101907",
    "geocoded_column": {
      "latitude": "29.992852021101907",
      "longitude": "-90.10199400398078"
    }
  },
  {
    "service_request": "2022-916921",
    "request_type": "Trash/Recycling",
    "request_reason": "Missed Trash Pick-Up",
    "date_created": "2022-09-06T22:08:52.000",
    "date_modified": "2022-09-06T22:08:53.000",
    "request_status": "Pending",
    "responsible_agency": "Department of Sanitation",
    "final_address": "5650 Orleans Ave",
    "address_councildis": "A",
    "status": "Assigned to Contractor",
    "contractor": "Metro Disposal",
    "rowid": "916921",
    "final_x": "3670611.94043",
    "final_y": "544987.195407",
    "longitude": "-90.10199400398078",
    "latitude": "29.992852021101907",
    "geocoded_column": {
      "latitude": "29.992852021101907",
      "longitude": "-90.10199400398078"
    }
  },
  {
    "service_request": "2022-916920",
    "request_type": "Trash/Recycling",
    "request_reason": "Request a Large Item Pick Up",
    "date_created": "2022-09-06T22:08:14.000",
    "date_modified": "2022-09-06T22:08:15.000",
    "request_status": "Pending",
    "responsible_agency": "Department of Sanitation",
    "final_address": "7104 Colapissa St",
    "address_councildis": "B",
    "status": "Assigned to Contractor",
    "contractor": "Richards Disposal",
    "rowid": "916920",
    "final_x": "3668062.02196",
    "final_y": "531966.211011",
    "longitude": "-90.11048772251134",
    "latitude": "29.957123784383363",
    "geocoded_column": {
      "latitude": "29.957123784383363",
      "longitude": "-90.11048772251134"
    }
  },
  {
    "service_request": "2022-916919",
    "request_type": "Roads/Drainage",
    "request_reason": "Pothole",
    "date_created": "2022-09-06T21:49:01.000",
    "date_modified": "2022-09-06T21:49:01.000",
    "request_status": "Pending",
    "responsible_agency": "Department of Public Works",
    "final_address": "6201 Pines Blvd",
    "address_councildis": "D",
    "status": "Pending",
    "rowid": "916919",
    "final_x": "3696752.08458",
    "final_y": "556368.26761",
    "longitude": "-90.01901000837296",
    "latitude": "30.023347430147776",
    "geocoded_column": {
      "latitude": "30.023347430147776",
      "longitude": "-90.01901000837296"
    }
  },
  {
    "service_request": "2022-916918",
    "request_type": "Property Maintenance",
    "request_reason": "Property Maintenance",
    "date_created": "2022-09-06T21:37:56.000",
    "date_modified": "2022-09-06T21:37:56.000",
    "request_status": "Pending",
    "responsible_agency": "Department of Code Enforcement",
    "final_address": "7350 Newcastle St",
    "address_councildis": "E",
    "status": "Pending",
    "rowid": "916918",
    "final_x": "3697368.40349",
    "final_y": "558599.560732",
    "longitude": "-90.0169815864481",
    "latitude": "30.02946318135517",
    "geocoded_column": {
      "latitude": "30.02946318135517",
      "longitude": "-90.0169815864481"
    }
  },
  {
    "service_request": "2022-916917",
    "request_type": "Trash/Recycling",
    "request_reason": "Request a Large Item Pick Up",
    "date_created": "2022-09-06T21:25:51.000",
    "date_modified": "2022-09-06T21:25:52.000",
    "request_status": "Pending",
    "responsible_agency": "Department of Sanitation",
    "final_address": "7449 Cameo St",
    "address_councildis": "D",
    "status": "Assigned to Contractor",
    "contractor": "Metro Disposal",
    "rowid": "916917",
    "final_x": "3667804.63508",
    "final_y": "556253.857562",
    "longitude": "-90.11048199914225",
    "latitude": "30.023914058698303",
    "geocoded_column": {
      "latitude": "30.023914058698303",
      "longitude": "-90.11048199914225"
    }
  },
  {
    "service_request": "2022-916916",
    "request_type": "Property Maintenance",
    "request_reason": "Property Maintenance",
    "date_created": "2022-09-06T21:24:37.000",
    "date_modified": "2022-09-06T21:24:37.000",
    "request_status": "Pending",
    "responsible_agency": "Department of Code Enforcement",
    "final_address": "3831 Red Cypress Dr",
    "address_councildis": "C",
    "status": "Pending",
    "rowid": "916916",
    "final_x": "3703761.13431",
    "final_y": "512163.801009",
    "longitude": "-89.99849021709616",
    "latitude": "29.901578199168235",
    "geocoded_column": {
      "latitude": "29.901578199168235",
      "longitude": "-89.99849021709616"
    }
  },
  {
    "service_request": "2022-916915",
    "request_type": "Property Maintenance",
    "request_reason": "Property Maintenance",
    "date_created": "2022-09-06T21:18:58.000",
    "date_modified": "2022-09-06T21:18:58.000",
    "request_status": "Pending",
    "responsible_agency": "Department of Code Enforcement",
    "final_address": "3521 White Oak Ave",
    "address_councildis": "C",
    "status": "Pending",
    "rowid": "916915",
    "final_x": "3703204.14474",
    "final_y": "514404.231219",
    "longitude": "-90.00016576099999",
    "latitude": "29.90775645188833",
    "geocoded_column": {
      "latitude": "29.90775645188833",
      "longitude": "-90.00016576099999"
    }
  },
  {
    "service_request": "2022-916914",
    "request_type": "Property Maintenance",
    "request_reason": "Property Maintenance",
    "date_created": "2022-09-06T21:16:57.000",
    "date_modified": "2022-09-06T21:16:57.000",
    "request_status": "Pending",
    "responsible_agency": "Department of Code Enforcement",
    "final_address": "3815 Peach Tree Ct",
    "address_councildis": "C",
    "status": "Pending",
    "rowid": "916914",
    "final_x": "3703882.4017",
    "final_y": "512580.690353",
    "longitude": "-89.99809217661084",
    "latitude": "29.902720618487255",
    "geocoded_column": {
      "latitude": "29.902720618487255",
      "longitude": "-89.99809217661084"
    }
  },
  {
    "service_request": "2022-916913",
    "request_type": "Trash/Recycling",
    "request_reason": "Request a Large Item Pick Up",
    "date_created": "2022-09-06T21:15:18.000",
    "date_modified": "2022-09-06T21:15:18.000",
    "request_status": "Pending",
    "responsible_agency": "Department of Sanitation",
    "final_address": "7311 Fieldston Rd",
    "address_councildis": "E",
    "status": "Assigned to Contractor",
    "contractor": "Metro Disposal",
    "rowid": "916913",
    "final_x": "3700877.55242",
    "final_y": "559755.981469",
    "longitude": "-90.00585047814045",
    "latitude": "30.03253157709629",
    "geocoded_column": {
      "latitude": "30.03253157709629",
      "longitude": "-90.00585047814045"
    }
  },
  {
    "service_request": "2022-916911",
    "request_type": "Trash/Recycling",
    "request_reason": "Missed Trash Pick-Up",
    "date_created": "2022-09-06T20:54:11.000",
    "date_modified": "2022-09-06T20:54:12.000",
    "request_status": "Pending",
    "responsible_agency": "Department of Sanitation",
    "final_address": "6438 General Haig St",
    "address_councildis": "A",
    "status": "Assigned to Contractor",
    "contractor": "Metro Disposal",
    "rowid": "916911",
    "final_x": "3670740.66471",
    "final_y": "550189.61282",
    "longitude": "-90.10141070474316",
    "latitude": "30.007153053889468",
    "geocoded_column": {
      "latitude": "30.007153053889468",
      "longitude": "-90.10141070474316"
    }
  },
  {
    "service_request": "2022-916910",
    "request_type": "Property Maintenance",
    "request_reason": "Property Maintenance",
    "date_created": "2022-09-06T20:54:01.000",
    "date_modified": "2022-09-06T20:54:01.000",
    "request_status": "Pending",
    "responsible_agency": "Department of Code Enforcement",
    "final_address": "5617 Arts St",
    "address_councildis": "D",
    "status": "Pending",
    "rowid": "916910",
    "final_x": "3685861.23234",
    "final_y": "553721.155607",
    "longitude": "-90.05351614945394",
    "latitude": "30.016407843073594",
    "geocoded_column": {
      "latitude": "30.016407843073594",
      "longitude": "-90.05351614945394"
    }
  },
  {
    "service_request": "2022-916909",
    "request_type": "Trash/Recycling",
    "request_reason": "Replace Trash Cart",
    "date_created": "2022-09-06T20:26:03.000",
    "date_modified": "2022-09-06T20:26:03.000",
    "request_status": "Pending",
    "responsible_agency": "Department of Sanitation",
    "final_address": "1434 Toledano St",
    "address_councildis": "B",
    "status": "Assigned to Contractor",
    "contractor": "Richards Disposal",
    "rowid": "916909",
    "final_x": "3674818.12046",
    "final_y": "520987.251641",
    "longitude": "-90.08953034025946",
    "latitude": "29.926735267824203",
    "geocoded_column": {
      "latitude": "29.926735267824203",
      "longitude": "-90.08953034025946"
    }
  },
  {
    "service_request": "2022-916908",
    "request_type": "Trash/Recycling",
    "request_reason": "Missed Trash Pick-Up",
    "date_created": "2022-09-06T20:19:37.000",
    "date_modified": "2022-09-06T20:19:38.000",
    "request_status": "Pending",
    "responsible_agency": "Department of Sanitation",
    "final_address": "5978 General Diaz St",
    "address_councildis": "A",
    "status": "Assigned to Contractor",
    "contractor": "Metro Disposal",
    "rowid": "916908",
    "final_x": "3669423.63694",
    "final_y": "547133.175761",
    "longitude": "-90.10567502644442",
    "latitude": "29.998787784854745",
    "geocoded_column": {
      "latitude": "29.998787784854745",
      "longitude": "-90.10567502644442"
    }
  },
  {
    "service_request": "2022-916907",
    "request_type": "Trash/Recycling",
    "request_reason": "Missed Trash Pick-Up",
    "date_created": "2022-09-06T20:08:53.000",
    "date_modified": "2022-09-06T20:08:53.000",
    "request_status": "Pending",
    "responsible_agency": "Department of Sanitation",
    "final_address": "1428 Bourbon St",
    "address_councildis": "C",
    "status": "Assigned to Contractor",
    "contractor": "Metro Disposal",
    "rowid": "916907",
    "final_x": "3683896.70805",
    "final_y": "534877.944774",
    "longitude": "-90.06038459758767",
    "latitude": "29.964655892256747",
    "geocoded_column": {
      "latitude": "29.964655892256747",
      "longitude": "-90.06038459758767"
    }
  },
  {
    "service_request": "2022-916906",
    "request_type": "Traffic Signals/Signs/Striping/Streetlights",
    "request_reason": "Street Light Outage/Malfunction",
    "date_created": "2022-09-06T20:07:46.000",
    "date_modified": "2022-09-06T20:07:47.000",
    "request_status": "Pending",
    "responsible_agency": "Department of Public Works",
    "final_address": "4601 Marigny St",
    "address_councildis": "D",
    "status": "Pending",
    "contractor": "Legacy Professional Services",
    "rowid": "916906",
    "final_x": "3684562.32015",
    "final_y": "549520.104211",
    "longitude": "-90.05776790720347",
    "latitude": "30.004896308687105",
    "geocoded_column": {
      "latitude": "30.004896308687105",
      "longitude": "-90.05776790720347"
    }
  },
  {
    "service_request": "2022-916905",
    "request_type": "Traffic Signals/Signs/Striping/Streetlights",
    "request_reason": "Street Light Outage/Malfunction",
    "date_created": "2022-09-06T19:58:55.000",
    "date_modified": "2022-09-06T19:58:56.000",
    "request_status": "Pending",
    "responsible_agency": "Department of Public Works",
    "final_address": "5828 Orleans Ave",
    "address_councildis": "A",
    "status": "Pending",
    "contractor": "Legacy Professional Services",
    "rowid": "916905",
    "final_x": "3670734.14337",
    "final_y": "546000.332176",
    "longitude": "-90.10157358268891",
    "latitude": "29.995634185564683",
    "geocoded_column": {
      "latitude": "29.995634185564683",
      "longitude": "-90.10157358268891"
    }
  },
  {
    "service_request": "2022-916904",
    "request_type": "Trash/Recycling",
    "request_reason": "Request a Large Item Pick Up",
    "date_created": "2022-09-06T19:57:15.000",
    "date_modified": "2022-09-06T19:57:16.000",
    "request_status": "Pending",
    "responsible_agency": "Department of Sanitation",
    "final_address": "4512 N Robertson St",
    "address_councildis": "D",
    "status": "Assigned to Contractor",
    "contractor": "Metro Disposal",
    "rowid": "916904",
    "final_x": "3693806.54269",
    "final_y": "536353.237575",
    "longitude": "-90.02903714508997",
    "latitude": "29.96840599118297",
    "geocoded_column": {
      "latitude": "29.96840599118297",
      "longitude": "-90.02903714508997"
    }
  },
  {
    "service_request": "2022-916903",
    "request_type": "Trash/Recycling",
    "request_reason": "Request a Large Item Pick Up",
    "date_created": "2022-09-06T19:55:57.000",
    "date_modified": "2022-09-06T19:55:58.000",
    "request_status": "Pending",
    "responsible_agency": "Department of Sanitation",
    "final_address": "4512 N Robertson St",
    "address_councildis": "D",
    "status": "Assigned to Contractor",
    "contractor": "Metro Disposal",
    "rowid": "916903",
    "final_x": "3693806.54269",
    "final_y": "536353.237575",
    "longitude": "-90.02903714508997",
    "latitude": "29.96840599118297",
    "geocoded_column": {
      "latitude": "29.96840599118297",
      "longitude": "-90.02903714508997"
    }
  },
  {
    "service_request": "2022-916900",
    "request_type": "Trash/Recycling",
    "request_reason": "Request a Large Item Pick Up",
    "date_created": "2022-09-06T19:39:17.000",
    "date_modified": "2022-09-06T19:39:18.000",
    "request_status": "Pending",
    "responsible_agency": "Department of Sanitation",
    "final_address": "7711 Oak St",
    "address_councildis": "A",
    "status": "Assigned to Contractor",
    "contractor": "Richards Disposal",
    "rowid": "916900",
    "final_x": "3662989.33056",
    "final_y": "527492.776639",
    "longitude": "-90.12665455140784",
    "latitude": "29.944971162491683",
    "geocoded_column": {
      "latitude": "29.944971162491683",
      "longitude": "-90.12665455140784"
    }
  },
  {
    "service_request": "2022-916899",
    "request_type": "Roads/Drainage",
    "request_reason": "Street Flooding / Drainage",
    "date_created": "2022-09-06T19:24:41.000",
    "date_modified": "2022-09-06T19:24:41.000",
    "request_status": "Pending",
    "responsible_agency": "Department of Public Works",
    "final_address": "733 Valence St",
    "address_councildis": "B",
    "status": "Pending",
    "rowid": "916899",
    "final_x": "3670039.75137",
    "final_y": "518214.648374",
    "longitude": "-90.10470825063906",
    "latitude": "29.919253247403752",
    "geocoded_column": {
      "latitude": "29.919253247403752",
      "longitude": "-90.10470825063906"
    }
  },
  {
    "service_request": "2022-916898",
    "request_type": "Trash/Recycling",
    "request_reason": "Order Trash Cart",
    "date_created": "2022-09-06T19:20:45.000",
    "date_modified": "2022-09-06T19:20:46.000",
    "request_status": "Pending",
    "responsible_agency": "Department of Sanitation",
    "final_address": "1616 N Lopez St",
    "address_councildis": "A",
    "status": "Assigned to Contractor",
    "contractor": "Metro Disposal",
    "rowid": "916898",
    "final_x": "3676638.01966",
    "final_y": "540688.326987",
    "longitude": "-90.08310683961177",
    "latitude": "29.98085219044317",
    "geocoded_column": {
      "latitude": "29.98085219044317",
      "longitude": "-90.08310683961177"
    }
  },
  {
    "service_request": "2022-916897",
    "request_type": "Trash/Recycling",
    "request_reason": "Request a Large Item Pick Up",
    "date_created": "2022-09-06T19:19:32.000",
    "date_modified": "2022-09-06T19:19:33.000",
    "request_status": "Pending",
    "responsible_agency": "Department of Sanitation",
    "final_address": "1817 Short St",
    "address_councildis": "A",
    "status": "Assigned to Contractor",
    "contractor": "Richards Disposal",
    "rowid": "916897",
    "final_x": "3663843.43117",
    "final_y": "529707.157505",
    "longitude": "-90.12388408528567",
    "latitude": "29.951035237797623",
    "geocoded_column": {
      "latitude": "29.951035237797623",
      "longitude": "-90.12388408528567"
    }
  },
  {
    "service_request": "2022-916896",
    "request_type": "Trash/Recycling",
    "request_reason": "Missed Trash Pick-Up",
    "date_created": "2022-09-06T19:06:38.000",
    "date_modified": "2022-09-06T19:06:39.000",
    "request_status": "Pending",
    "responsible_agency": "Department of Sanitation",
    "final_address": "1616 N Lopez St",
    "address_councildis": "A",
    "status": "Assigned to Contractor",
    "contractor": "Metro Disposal",
    "rowid": "916896",
    "final_x": "3676638.01966",
    "final_y": "540688.326987",
    "longitude": "-90.08310683961177",
    "latitude": "29.98085219044317",
    "geocoded_column": {
      "latitude": "29.98085219044317",
      "longitude": "-90.08310683961177"
    }
  },
  {
    "service_request": "2022-916895",
    "request_type": "Traffic Signals/Signs/Striping/Streetlights",
    "request_reason": "Street Light Outage/Malfunction",
    "date_created": "2022-09-06T18:53:54.000",
    "date_modified": "2022-09-06T18:53:54.000",
    "request_status": "Pending",
    "responsible_agency": "Department of Public Works",
    "final_address": "2656 Hyman Pl",
    "address_councildis": "C",
    "status": "Pending",
    "contractor": "Legacy Professional Services",
    "rowid": "916895",
    "final_x": "3701105.29233",
    "final_y": "521186.602041",
    "longitude": "-90.00654210282562",
    "latitude": "29.926472633087375",
    "geocoded_column": {
      "latitude": "29.926472633087375",
      "longitude": "-90.00654210282562"
    }
  },
  {
    "service_request": "2022-916894",
    "request_type": "Roads/Drainage",
    "request_reason": "Catch Basin - Clogged",
    "date_created": "2022-09-06T18:45:38.000",
    "date_modified": "2022-09-06T18:45:38.000",
    "request_status": "Pending",
    "responsible_agency": "Department of Public Works",
    "final_address": "1916 Pine St, New Orleans, Louisiana, 70118",
    "address_councildis": "A",
    "status": "Pending",
    "rowid": "916894",
    "final_x": "3665315.81088",
    "final_y": "528915.066304",
    "longitude": "-90.11926152853988",
    "latitude": "29.948814428223482",
    "geocoded_column": {
      "latitude": "29.948814428223482",
      "longitude": "-90.11926152853988"
    }
  },
  {
    "service_request": "2022-916893",
    "request_type": "Parks & Parkways",
    "request_reason": "Request Grass Cutting Service (City Owned Property)",
    "date_created": "2022-09-06T18:44:40.000",
    "date_modified": "2022-09-06T18:44:40.000",
    "request_status": "Pending",
    "responsible_agency": "Department of Parks & Parkway",
    "final_address": "6072 Wickfield Dr",
    "address_councildis": "D",
    "status": "Pending",
    "rowid": "916893",
    "final_x": "3680855.08386",
    "final_y": "555443.146841",
    "longitude": "-90.0692733892556",
    "latitude": "30.021295486806483",
    "geocoded_column": {
      "latitude": "30.021295486806483",
      "longitude": "-90.0692733892556"
    }
  },
  {
    "service_request": "2022-916892",
    "request_type": "Traffic Signals/Signs/Striping/Streetlights",
    "request_reason": "Street Light Outage/Malfunction",
    "date_created": "2022-09-06T18:38:44.000",
    "date_modified": "2022-09-06T18:38:45.000",
    "request_status": "Pending",
    "responsible_agency": "Department of Public Works",
    "final_address": "5028 Warrington Dr",
    "address_councildis": "D",
    "status": "Pending",
    "contractor": "Legacy Professional Services",
    "rowid": "916892",
    "final_x": "3680941.2349",
    "final_y": "551269.698005",
    "longitude": "-90.06914666527827",
    "latitude": "30.009817404589192",
    "geocoded_column": {
      "latitude": "30.009817404589192",
      "longitude": "-90.06914666527827"
    }
  },
  {
    "service_request": "2022-916891",
    "request_type": "Trash/Recycling",
    "request_reason": "Return Recycling Cart",
    "date_created": "2022-09-06T18:29:40.000",
    "date_modified": "2022-09-06T18:29:40.000",
    "request_status": "Pending",
    "responsible_agency": "Department of Sanitation",
    "final_address": "4317 Chestnut St",
    "address_councildis": "B",
    "status": "Pending",
    "rowid": "916891",
    "final_x": "3671210.7138",
    "final_y": "519584.750712",
    "longitude": "-90.10096559342306",
    "latitude": "29.922986017421486",
    "geocoded_column": {
      "latitude": "29.922986017421486",
      "longitude": "-90.10096559342306"
    }
  },
  {
    "service_request": "2022-916890",
    "request_type": "Trash/Recycling",
    "request_reason": "Missed Trash Pick-Up",
    "date_created": "2022-09-06T18:28:53.000",
    "date_modified": "2022-09-06T18:28:54.000",
    "request_status": "Pending",
    "responsible_agency": "Department of Sanitation",
    "final_address": "5838 Marshal Foch St",
    "address_councildis": "A",
    "status": "Assigned to Contractor",
    "contractor": "Metro Disposal",
    "rowid": "916890",
    "final_x": "3669636.48506",
    "final_y": "546158.14408",
    "longitude": "-90.1050356530289",
    "latitude": "29.996100513008894",
    "geocoded_column": {
      "latitude": "29.996100513008894",
      "longitude": "-90.1050356530289"
    }
  },
  {
    "service_request": "2022-916889",
    "request_type": "Trash/Recycling",
    "request_reason": "Missed Trash Pick-Up",
    "date_created": "2022-09-06T18:21:09.000",
    "date_modified": "2022-09-06T18:21:10.000",
    "case_close_date": "2022-08-22T19:00:00.000",
    "request_status": "Pending",
    "responsible_agency": "Department of Sanitation",
    "final_address": "2201 Robert St",
    "address_councildis": "B",
    "status": "Assigned to Contractor",
    "contractor": "Richards Disposal",
    "rowid": "916889",
    "final_x": "3668848.1394",
    "final_y": "523611.885499",
    "longitude": "-90.10828743784307",
    "latitude": "29.934129012184208",
    "geocoded_column": {
      "latitude": "29.934129012184208",
      "longitude": "-90.10828743784307"
    }
  },
  {
    "service_request": "2022-916888",
    "request_type": "Trash/Recycling",
    "request_reason": "MIssed Recycling Pick-Up",
    "date_created": "2022-09-06T18:15:33.000",
    "date_modified": "2022-09-06T18:15:34.000",
    "request_status": "Pending",
    "responsible_agency": "Department of Sanitation",
    "final_address": "747 S Genois St",
    "address_councildis": "B",
    "status": "Assigned to Contractor",
    "contractor": "Richards Disposal",
    "rowid": "916888",
    "final_x": "3670901.85537",
    "final_y": "535018.57031",
    "longitude": "-90.10141675811427",
    "latitude": "29.965433118263814",
    "geocoded_column": {
      "latitude": "29.965433118263814",
      "longitude": "-90.10141675811427"
    }
  },
  {
    "service_request": "2022-916887",
    "request_type": "Trash/Recycling",
    "request_reason": "Replace Trash Cart",
    "date_created": "2022-09-06T18:02:33.000",
    "date_modified": "2022-09-06T18:02:34.000",
    "request_status": "Pending",
    "responsible_agency": "Department of Sanitation",
    "final_address": "6901 Manchester St",
    "address_councildis": "E",
    "status": "Assigned to Contractor",
    "contractor": "Metro Disposal",
    "rowid": "916887",
    "final_x": "3698646.29501",
    "final_y": "560087.517917",
    "longitude": "-90.01288931268316",
    "latitude": "30.033514062397767",
    "geocoded_column": {
      "latitude": "30.033514062397767",
      "longitude": "-90.01288931268316"
    }
  },
  {
    "service_request": "2022-916886",
    "request_type": "Trash/Recycling",
    "request_reason": "Missed Trash Pick-Up",
    "date_created": "2022-09-06T17:57:06.000",
    "date_modified": "2022-09-06T17:57:06.000",
    "request_status": "Pending",
    "responsible_agency": "Department of Sanitation",
    "final_address": "3943 General Taylor St",
    "address_councildis": "B",
    "status": "Assigned to Contractor",
    "contractor": "Richards Disposal",
    "rowid": "916886",
    "final_x": "3670746.40615",
    "final_y": "529231.870977",
    "longitude": "-90.10210402041477",
    "latitude": "29.94952620485266",
    "geocoded_column": {
      "latitude": "29.94952620485266",
      "longitude": "-90.10210402041477"
    }
  },
  {
    "service_request": "2022-916885",
    "request_type": "Roads/Drainage",
    "request_reason": "Pothole",
    "date_created": "2022-09-06T17:56:33.000",
    "date_modified": "2022-09-06T17:56:33.000",
    "request_status": "Pending",
    "responsible_agency": "Department of Public Works",
    "final_address": "6530 Pontchartrain Blvd, New Orleans, Louisiana, 70124",
    "address_councildis": "A",
    "status": "Pending",
    "rowid": "916885",
    "final_x": "3666202.03085",
    "final_y": "551575.747285",
    "longitude": "-90.11570301836039",
    "latitude": "30.01109783176945",
    "geocoded_column": {
      "latitude": "30.01109783176945",
      "longitude": "-90.11570301836039"
    }
  },
  {
    "service_request": "2022-916884",
    "request_type": "Trash/Recycling",
    "request_reason": "Missed Trash Pick-Up",
    "date_created": "2022-09-06T17:48:00.000",
    "date_modified": "2022-09-06T17:48:01.000",
    "request_status": "Pending",
    "responsible_agency": "Department of Sanitation",
    "final_address": "5205 Conti St",
    "address_councildis": "A",
    "status": "Assigned to Contractor",
    "contractor": "Metro Disposal",
    "rowid": "916884",
    "final_x": "3668596.01844",
    "final_y": "541764.103436",
    "longitude": "-90.10847079689952",
    "latitude": "29.984049031885515",
    "geocoded_column": {
      "latitude": "29.984049031885515",
      "longitude": "-90.10847079689952"
    }
  },
  {
    "service_request": "2022-916883",
    "request_type": "Trash/Recycling",
    "request_reason": "Missed Trash Pick-Up",
    "date_created": "2022-09-06T17:46:36.000",
    "date_modified": "2022-09-06T17:46:36.000",
    "request_status": "Pending",
    "responsible_agency": "Department of Sanitation",
    "final_address": "5207 Conti St",
    "address_councildis": "A",
    "status": "Assigned to Contractor",
    "contractor": "Metro Disposal",
    "rowid": "916883",
    "final_x": "3668586.01844",
    "final_y": "541767.853452",
    "longitude": "-90.10850225582462",
    "latitude": "29.984059637079987",
    "geocoded_column": {
      "latitude": "29.984059637079987",
      "longitude": "-90.10850225582462"
    }
  },
  {
    "service_request": "2022-916882",
    "request_type": "Trash/Recycling",
    "request_reason": "Request a Large Item Pick Up",
    "date_created": "2022-09-06T17:45:56.000",
    "date_modified": "2022-09-06T17:45:56.000",
    "request_status": "Pending",
    "responsible_agency": "Department of Sanitation",
    "final_address": "2752 Conti St",
    "address_councildis": "B",
    "status": "Assigned to Contractor",
    "contractor": "Richards Disposal",
    "rowid": "916882",
    "final_x": "3675651.4507",
    "final_y": "536293.616967",
    "longitude": "-90.08637391799368",
    "latitude": "29.96879780162281",
    "geocoded_column": {
      "latitude": "29.96879780162281",
      "longitude": "-90.08637391799368"
    }
  },
  {
    "service_request": "2022-916881",
    "request_type": "Trash/Recycling",
    "request_reason": "Request a Large Item Pick Up",
    "date_created": "2022-09-06T17:44:55.000",
    "date_modified": "2022-09-06T17:44:56.000",
    "request_status": "Pending",
    "responsible_agency": "Department of Sanitation",
    "final_address": "2754 Conti St",
    "address_councildis": "B",
    "status": "Assigned to Contractor",
    "contractor": "Richards Disposal",
    "rowid": "916881",
    "final_x": "3675639.29793",
    "final_y": "536300.908615",
    "longitude": "-90.08641204663354",
    "latitude": "29.968818214823365",
    "geocoded_column": {
      "latitude": "29.968818214823365",
      "longitude": "-90.08641204663354"
    }
  },
  {
    "service_request": "2022-916880",
    "request_type": "Trash/Recycling",
    "request_reason": "Repair Trash Cart",
    "date_created": "2022-09-06T17:43:24.000",
    "date_modified": "2022-09-06T17:43:25.000",
    "case_close_date": "2022-08-17T19:00:00.000",
    "request_status": "Pending",
    "responsible_agency": "Department of Sanitation",
    "final_address": "2822 Louisiana Ave",
    "address_councildis": "B",
    "status": "Assigned to Contractor",
    "contractor": "Richards Disposal",
    "rowid": "916880",
    "final_x": "3672343.00961",
    "final_y": "525649.298173",
    "longitude": "-90.09718484605824",
    "latitude": "29.939628033053264",
    "geocoded_column": {
      "latitude": "29.939628033053264",
      "longitude": "-90.09718484605824"
    }
  },
  {
    "service_request": "2022-916879",
    "request_type": "Traffic Signals/Signs/Striping/Streetlights",
    "request_reason": "Street Light Outage/Malfunction",
    "date_created": "2022-09-06T17:43:10.000",
    "date_modified": "2022-09-06T17:43:11.000",
    "request_status": "Pending",
    "responsible_agency": "Department of Public Works",
    "final_address": "6735 Memphis St",
    "address_councildis": "A",
    "status": "Pending",
    "contractor": "Legacy Professional Services",
    "rowid": "916879",
    "final_x": "3669733.97831",
    "final_y": "552254.098518",
    "longitude": "-90.10452116745125",
    "latitude": "30.012859385240166",
    "geocoded_column": {
      "latitude": "30.012859385240166",
      "longitude": "-90.10452116745125"
    }
  },
  {
    "service_request": "2022-916876",
    "request_type": "Property Maintenance",
    "request_reason": "Property Maintenance",
    "date_created": "2022-09-06T17:40:54.000",
    "date_modified": "2022-09-06T17:40:54.000",
    "request_status": "Pending",
    "responsible_agency": "Department of Code Enforcement",
    "final_address": "2229 Joliet St",
    "address_councildis": "A",
    "status": "Pending",
    "rowid": "916876",
    "final_x": "3663450.74861",
    "final_y": "532071.784067",
    "longitude": "-90.12504525350369",
    "latitude": "29.957548586056493",
    "geocoded_column": {
      "latitude": "29.957548586056493",
      "longitude": "-90.12504525350369"
    }
  },
  {
    "service_request": "2022-916875",
    "request_type": "Trash/Recycling",
    "request_reason": "Replace Trash Cart",
    "date_created": "2022-09-06T17:39:36.000",
    "date_modified": "2022-09-06T17:39:36.000",
    "request_status": "Pending",
    "responsible_agency": "Department of Sanitation",
    "final_address": "2820 Louisiana Ave, New Orleans, Louisiana, 70115",
    "address_councildis": "B",
    "status": "Assigned to Contractor",
    "contractor": "Richards Disposal",
    "rowid": "916875",
    "final_x": "3672349.60686",
    "final_y": "525636.450941",
    "longitude": "-90.09716445516692",
    "latitude": "29.939592511646122",
    "geocoded_column": {
      "latitude": "29.939592511646122",
      "longitude": "-90.09716445516692"
    }
  },
  {
    "service_request": "2022-916874",
    "request_type": "Abandoned Vehicles",
    "request_reason": "Abandoned/Junk Vehicles",
    "date_created": "2022-09-06T17:39:01.000",
    "date_modified": "2022-09-06T17:39:01.000",
    "request_status": "Pending",
    "responsible_agency": "Department of Public Works",
    "final_address": "7410 W Renaissance Ct",
    "address_councildis": "E",
    "status": "Pending",
    "rowid": "916874",
    "final_x": "3715987.53452",
    "final_y": "568224.614885",
    "longitude": "-89.9577810290672",
    "latitude": "30.055326892754618",
    "geocoded_column": {
      "latitude": "30.055326892754618",
      "longitude": "-89.9577810290672"
    }
  },
  {
    "service_request": "2022-916873",
    "request_type": "Property Maintenance",
    "request_reason": "Property Maintenance",
    "date_created": "2022-09-06T17:36:19.000",
    "date_modified": "2022-09-06T17:36:19.000",
    "request_status": "Pending",
    "responsible_agency": "Department of Code Enforcement",
    "final_address": "2218 Joliet St",
    "address_councildis": "A",
    "status": "Pending",
    "rowid": "916873",
    "final_x": "3663388.00717",
    "final_y": "532120.121411",
    "longitude": "-90.12524176410639",
    "latitude": "29.957683317091256",
    "geocoded_column": {
      "latitude": "29.957683317091256",
      "longitude": "-90.12524176410639"
    }
  },
  {
    "service_request": "2022-916872",
    "request_type": "Trash/Recycling",
    "request_reason": "Illegal Dumping",
    "date_created": "2022-09-06T17:34:49.000",
    "date_modified": "2022-09-06T17:34:49.000",
    "request_status": "Pending",
    "responsible_agency": "Department of Sanitation",
    "final_address": "2336 Joliet St",
    "address_councildis": "A",
    "status": "Pending",
    "rowid": "916872",
    "final_x": "3663629.03277",
    "final_y": "532383.702723",
    "longitude": "-90.12447189093918",
    "latitude": "29.958401090266758",
    "geocoded_column": {
      "latitude": "29.958401090266758",
      "longitude": "-90.12447189093918"
    }
  },
  {
    "service_request": "2022-916871",
    "request_type": "Abandoned Vehicles",
    "request_reason": "Abandoned/Junk Vehicles",
    "date_created": "2022-09-06T17:31:40.000",
    "date_modified": "2022-09-06T17:31:40.000",
    "request_status": "Pending",
    "responsible_agency": "Department of Public Works",
    "final_address": "1719 Pace Blvd",
    "address_councildis": "C",
    "status": "Pending",
    "rowid": "916871",
    "final_x": "3694229.13072",
    "final_y": "524318.718844",
    "longitude": "-90.02813550915899",
    "latitude": "29.935302025931005",
    "geocoded_column": {
      "latitude": "29.935302025931005",
      "longitude": "-90.02813550915899"
    }
  },
  {
    "service_request": "2022-916870",
    "request_type": "Abandoned Vehicles",
    "request_reason": "Abandoned/Junk Vehicles",
    "date_created": "2022-09-06T17:30:41.000",
    "date_modified": "2022-09-06T17:30:41.000",
    "request_status": "Pending",
    "responsible_agency": "Department of Public Works",
    "final_address": "1548 Cleveland Ave",
    "address_councildis": "B",
    "status": "Pending",
    "rowid": "916870",
    "final_x": "3678547.40354",
    "final_y": "532075.957315",
    "longitude": "-90.07737431755554",
    "latitude": "29.957113695703185",
    "geocoded_column": {
      "latitude": "29.957113695703185",
      "longitude": "-90.07737431755554"
    }
  },
  {
    "service_request": "2022-916869",
    "request_type": "Abandoned Vehicles",
    "request_reason": "Abandoned/Junk Vehicles",
    "date_created": "2022-09-06T17:27:33.000",
    "date_modified": "2022-09-06T17:27:33.000",
    "request_status": "Pending",
    "responsible_agency": "Department of Public Works",
    "final_address": "1548 Cleveland Ave",
    "address_councildis": "B",
    "status": "Pending",
    "rowid": "916869",
    "final_x": "3678547.40354",
    "final_y": "532075.957315",
    "longitude": "-90.07737431755554",
    "latitude": "29.957113695703185",
    "geocoded_column": {
      "latitude": "29.957113695703185",
      "longitude": "-90.07737431755554"
    }
  },
  {
    "service_request": "2022-916868",
    "request_type": "Abandoned Vehicles",
    "request_reason": "Vehicle Blocking Your Driveway",
    "date_created": "2022-09-06T17:27:21.000",
    "date_modified": "2022-09-06T17:27:21.000",
    "request_status": "Pending",
    "responsible_agency": "Department of Public Works",
    "final_address": "8721 Aberdeen Rd",
    "address_councildis": "E",
    "status": "Pending",
    "rowid": "916868",
    "final_x": "3704685.75185",
    "final_y": "562367.240223",
    "longitude": "-89.99371988976154",
    "latitude": "30.03958965314262",
    "geocoded_column": {
      "latitude": "30.03958965314262",
      "longitude": "-89.99371988976154"
    }
  },
  {
    "service_request": "2022-916867",
    "request_type": "Trash/Recycling",
    "request_reason": "Missed Trash Pick-Up",
    "date_created": "2022-09-06T17:23:52.000",
    "date_modified": "2022-09-06T17:23:52.000",
    "request_status": "Pending",
    "responsible_agency": "Department of Sanitation",
    "final_address": "5330 Camp St",
    "address_councildis": "B",
    "status": "Assigned to Contractor",
    "contractor": "Richards Disposal",
    "rowid": "916867",
    "final_x": "3667254.12948",
    "final_y": "519003.313463",
    "longitude": "-90.11347457721239",
    "latitude": "29.921503664049855",
    "geocoded_column": {
      "latitude": "29.921503664049855",
      "longitude": "-90.11347457721239"
    }
  },
  {
    "service_request": "2022-916866",
    "request_type": "Abandoned Vehicles",
    "request_reason": "Abandoned/Junk Vehicles",
    "date_created": "2022-09-06T17:21:45.000",
    "date_modified": "2022-09-06T17:22:17.000",
    "request_status": "Pending",
    "responsible_agency": "Department of Public Works",
    "final_address": "1635 Mandeville St",
    "address_councildis": "D",
    "status": "Pending",
    "rowid": "916866",
    "final_x": "3685641.2157",
    "final_y": "538496.769033",
    "longitude": "-90.05474805673887",
    "latitude": "29.97455299504198",
    "geocoded_column": {
      "latitude": "29.97455299504198",
      "longitude": "-90.05474805673887"
    }
  },
  {
    "service_request": "2022-916865",
    "request_type": "Abandoned Vehicles",
    "request_reason": "Abandoned/Junk Vehicles",
    "date_created": "2022-09-06T17:16:25.000",
    "date_modified": "2022-09-06T17:16:25.000",
    "request_status": "Pending",
    "responsible_agency": "Department of Public Works",
    "final_address": "16200 Chef Menteur Hwy",
    "address_councildis": "E",
    "status": "Pending",
    "rowid": "916865",
    "final_x": "3737814.49217",
    "final_y": "565205.210274",
    "longitude": "-89.8889119572668",
    "latitude": "30.046286289129515",
    "geocoded_column": {
      "latitude": "30.046286289129515",
      "longitude": "-89.8889119572668"
    }
  },
  {
    "service_request": "2022-916864",
    "request_type": "Trash/Recycling",
    "request_reason": "Missed Trash Pick-Up",
    "date_created": "2022-09-06T17:16:10.000",
    "date_modified": "2022-09-06T17:16:11.000",
    "request_status": "Pending",
    "responsible_agency": "Department of Sanitation",
    "final_address": "243 Stafford Pl",
    "address_councildis": "A",
    "status": "Assigned to Contractor",
    "contractor": "Metro Disposal",
    "rowid": "916864",
    "final_x": "3665664.07508",
    "final_y": "554018.661912",
    "longitude": "-90.11732073455657",
    "latitude": "30.017830699267385",
    "geocoded_column": {
      "latitude": "30.017830699267385",
      "longitude": "-90.11732073455657"
    }
  },
  {
    "service_request": "2022-916863",
    "request_type": "Trash/Recycling",
    "request_reason": "Missed Trash Pick-Up",
    "date_created": "2022-09-06T17:13:18.000",
    "date_modified": "2022-09-06T17:13:18.000",
    "request_status": "Pending",
    "responsible_agency": "Department of Sanitation",
    "final_address": "243 Stafford Pl",
    "address_councildis": "A",
    "status": "Assigned to Contractor",
    "contractor": "Metro Disposal",
    "rowid": "916863",
    "final_x": "3665664.07508",
    "final_y": "554018.661912",
    "longitude": "-90.11732073455657",
    "latitude": "30.017830699267385",
    "geocoded_column": {
      "latitude": "30.017830699267385",
      "longitude": "-90.11732073455657"
    }
  },
  {
    "service_request": "2022-916862",
    "request_type": "Trash/Recycling",
    "request_reason": "Request a Large Item Pick Up",
    "date_created": "2022-09-06T17:12:21.000",
    "date_modified": "2022-09-06T17:12:22.000",
    "request_status": "Pending",
    "responsible_agency": "Department of Sanitation",
    "final_address": "230 30Th St",
    "address_councildis": "A",
    "status": "Assigned to Contractor",
    "contractor": "Metro Disposal",
    "rowid": "916862",
    "final_x": "3665556.26055",
    "final_y": "550460.978452",
    "longitude": "-90.11778063629998",
    "latitude": "30.00805145842339",
    "geocoded_column": {
      "latitude": "30.00805145842339",
      "longitude": "-90.11778063629998"
    }
  },
  {
    "service_request": "2022-916861",
    "request_type": "Trash/Recycling",
    "request_reason": "Request a Large Item Pick Up",
    "date_created": "2022-09-06T17:12:21.000",
    "date_modified": "2022-09-06T17:12:21.000",
    "request_status": "Pending",
    "responsible_agency": "Department of Sanitation",
    "final_address": "230 30Th St",
    "address_councildis": "A",
    "status": "Assigned to Contractor",
    "contractor": "Metro Disposal",
    "rowid": "916861",
    "final_x": "3665556.26055",
    "final_y": "550460.978452",
    "longitude": "-90.11778063629998",
    "latitude": "30.00805145842339",
    "geocoded_column": {
      "latitude": "30.00805145842339",
      "longitude": "-90.11778063629998"
    }
  },
  {
    "service_request": "2022-916860",
    "request_type": "Trash/Recycling",
    "request_reason": "Request a Large Item Pick Up",
    "date_created": "2022-09-06T17:12:17.000",
    "date_modified": "2022-09-06T17:12:17.000",
    "request_status": "Pending",
    "responsible_agency": "Department of Sanitation",
    "final_address": "230 30Th St",
    "address_councildis": "A",
    "status": "Assigned to Contractor",
    "contractor": "Metro Disposal",
    "rowid": "916860",
    "final_x": "3665556.26055",
    "final_y": "550460.978452",
    "longitude": "-90.11778063629998",
    "latitude": "30.00805145842339",
    "geocoded_column": {
      "latitude": "30.00805145842339",
      "longitude": "-90.11778063629998"
    }
  },
  {
    "service_request": "2022-916859",
    "request_type": "Traffic Signals/Signs/Striping/Streetlights",
    "request_reason": "Street Light Outage/Malfunction",
    "date_created": "2022-09-06T17:09:14.000",
    "date_modified": "2022-09-06T17:09:15.000",
    "request_status": "Pending",
    "responsible_agency": "Department of Public Works",
    "final_address": "ST BERNARD AVE & MILTON ST",
    "address_councildis": "D",
    "status": "Pending",
    "contractor": "Legacy Professional Services",
    "rowid": "916859",
    "final_x": "3677896.0",
    "final_y": "546107.68",
    "longitude": "-90.07894619763275",
    "latitude": "29.995715718129677",
    "geocoded_column": {
      "latitude": "29.995715718129677",
      "longitude": "-90.07894619763275"
    }
  },
  {
    "service_request": "2022-916858",
    "request_type": "Trash/Recycling",
    "request_reason": "Request a Large Item Pick Up",
    "date_created": "2022-09-06T17:08:48.000",
    "date_modified": "2022-09-06T17:08:49.000",
    "case_close_date": "2021-06-01T19:00:00.000",
    "request_status": "Pending",
    "responsible_agency": "Department of Sanitation",
    "final_address": "3333 Fern St",
    "address_councildis": "B",
    "status": "Assigned to Contractor",
    "contractor": "Richards Disposal",
    "rowid": "916858",
    "final_x": "3667791.17959",
    "final_y": "533568.679045",
    "longitude": "-90.11128899578082",
    "latitude": "29.961537988775703",
    "geocoded_column": {
      "latitude": "29.961537988775703",
      "longitude": "-90.11128899578082"
    }
  },
  {
    "service_request": "2022-916857",
    "request_type": "Property Maintenance",
    "request_reason": "Property Maintenance",
    "date_created": "2022-09-06T17:00:00.000",
    "date_modified": "2022-09-06T17:00:00.000",
    "request_status": "Pending",
    "responsible_agency": "Department of Code Enforcement",
    "final_address": "8913 Forshey St A",
    "address_councildis": "A",
    "status": "Pending",
    "rowid": "916857",
    "final_x": "3664847.27552",
    "final_y": "535934.761095",
    "longitude": "-90.12050630222498",
    "latitude": "29.96812993830685",
    "geocoded_column": {
      "latitude": "29.96812993830685",
      "longitude": "-90.12050630222498"
    }
  },
  {
    "service_request": "2022-916856",
    "request_type": "Roads/Drainage",
    "request_reason": "Pothole",
    "date_created": "2022-09-06T16:56:23.000",
    "date_modified": "2022-09-06T16:56:23.000",
    "request_status": "Pending",
    "responsible_agency": "Department of Public Works",
    "final_address": "1121 S Genois St",
    "address_councildis": "B",
    "status": "Pending",
    "rowid": "916856",
    "final_x": "3669515.6377",
    "final_y": "532936.441604",
    "longitude": "-90.10586481983576",
    "latitude": "29.95974886228466",
    "geocoded_column": {
      "latitude": "29.95974886228466",
      "longitude": "-90.10586481983576"
    }
  },
  {
    "service_request": "2022-916855",
    "request_type": "Trash/Recycling",
    "request_reason": "Request a Large Item Pick Up",
    "date_created": "2022-09-06T16:52:03.000",
    "date_modified": "2022-09-06T16:52:22.000",
    "request_status": "Pending",
    "responsible_agency": "Department of Sanitation",
    "final_address": "2135 Fern St",
    "address_councildis": "A",
    "status": "Assigned to Contractor",
    "contractor": "Richards Disposal",
    "rowid": "916855",
    "final_x": "3664880.87412",
    "final_y": "530369.908802",
    "longitude": "-90.12058619820296",
    "latitude": "29.95282743847906",
    "geocoded_column": {
      "latitude": "29.95282743847906",
      "longitude": "-90.12058619820296"
    }
  },
  {
    "service_request": "2022-916854",
    "request_type": "Abandoned Vehicles",
    "request_reason": "Abandoned/Junk Vehicles",
    "date_created": "2022-09-06T16:48:47.000",
    "date_modified": "2022-09-06T16:48:48.000",
    "request_status": "Pending",
    "responsible_agency": "Department of Public Works",
    "final_address": "8901 Forshey St",
    "address_councildis": "A",
    "status": "Pending",
    "rowid": "916854",
    "final_x": "3664914.11469",
    "final_y": "535873.982855",
    "longitude": "-90.12029725253844",
    "latitude": "29.967960872763268",
    "geocoded_column": {
      "latitude": "29.967960872763268",
      "longitude": "-90.12029725253844"
    }
  },
  {
    "service_request": "2022-916853",
    "request_type": "Traffic Signals/Signs/Striping/Streetlights",
    "request_reason": "Street Light Outage/Malfunction",
    "date_created": "2022-09-06T16:34:01.000",
    "date_modified": "2022-09-06T16:34:02.000",
    "request_status": "Pending",
    "responsible_agency": "Department of Public Works",
    "final_address": "7844 Bass St",
    "address_councildis": "E",
    "status": "Pending",
    "contractor": "Legacy Professional Services",
    "rowid": "916853",
    "final_x": "3719737.81042",
    "final_y": "573923.594218",
    "longitude": "-89.94570916089803",
    "latitude": "30.07087237553677",
    "geocoded_column": {
      "latitude": "30.07087237553677",
      "longitude": "-89.94570916089803"
    }
  },
  {
    "service_request": "2022-916852",
    "request_type": "Abandoned Vehicles",
    "request_reason": "Abandoned/Junk Vehicles",
    "date_created": "2022-09-06T16:33:45.000",
    "date_modified": "2022-09-06T16:33:45.000",
    "request_status": "Pending",
    "responsible_agency": "Department of Public Works",
    "final_address": "5181 St Anthony Ave",
    "address_councildis": "D",
    "status": "Pending",
    "rowid": "916852",
    "final_x": "3682317.57109",
    "final_y": "552004.065878",
    "longitude": "-90.06477264219683",
    "latitude": "30.011794825435565",
    "geocoded_column": {
      "latitude": "30.011794825435565",
      "longitude": "-90.06477264219683"
    }
  },
  {
    "service_request": "2022-916851",
    "request_type": "Property Maintenance",
    "request_reason": "Property Maintenance",
    "date_created": "2022-09-06T16:32:53.000",
    "date_modified": "2022-09-06T16:32:54.000",
    "request_status": "Pending",
    "responsible_agency": "Department of Code Enforcement",
    "final_address": "3420 W St Roch Ave",
    "address_councildis": "D",
    "status": "Pending",
    "rowid": "916851",
    "final_x": "3685501.59938",
    "final_y": "545413.80584",
    "longitude": "-90.05494527100136",
    "latitude": "29.993576682297764",
    "geocoded_column": {
      "latitude": "29.993576682297764",
      "longitude": "-90.05494527100136"
    }
  },
  {
    "service_request": "2022-916850",
    "request_type": "Roads/Drainage",
    "request_reason": "Pothole",
    "date_created": "2022-09-06T16:31:03.000",
    "date_modified": "2022-09-06T16:31:03.000",
    "request_status": "Pending",
    "responsible_agency": "Department of Public Works",
    "final_address": "980 S Telemachus St",
    "address_councildis": "B",
    "status": "Pending",
    "rowid": "916850",
    "final_x": "3669859.37057",
    "final_y": "533960.585221",
    "longitude": "-90.10474471026191",
    "latitude": "29.9625547882771",
    "geocoded_column": {
      "latitude": "29.9625547882771",
      "longitude": "-90.10474471026191"
    }
  },
  {
    "service_request": "2022-916849",
    "request_type": "Traffic Signals/Signs/Striping/Streetlights",
    "request_reason": "Additional signage",
    "date_created": "2022-09-06T16:30:03.000",
    "date_modified": "2022-09-06T16:30:04.000",
    "request_status": "Pending",
    "responsible_agency": "Department of Public Works",
    "final_address": "JEFFERSON AVE & TCHOUPITOULAS ST",
    "address_councildis": "A",
    "status": "Pending",
    "rowid": "916849",
    "final_x": "3666409.8",
    "final_y": "517158.28",
    "longitude": "-90.11620163130054",
    "latitude": "29.91645508908768",
    "geocoded_column": {
      "latitude": "29.91645508908768",
      "longitude": "-90.11620163130054"
    }
  },
  {
    "service_request": "2022-916848",
    "request_type": "Property Maintenance",
    "request_reason": "Property Maintenance",
    "date_created": "2022-09-06T16:29:38.000",
    "date_modified": "2022-09-06T16:29:38.000",
    "request_status": "Pending",
    "responsible_agency": "Department of Code Enforcement",
    "final_address": "4519 St Bernard Ave",
    "address_councildis": "D",
    "status": "Pending",
    "rowid": "916848",
    "final_x": "3676895.03029",
    "final_y": "549055.149459",
    "longitude": "-90.0820064964932",
    "latitude": "30.003850310984443",
    "geocoded_column": {
      "latitude": "30.003850310984443",
      "longitude": "-90.0820064964932"
    }
  },
  {
    "service_request": "2022-916847",
    "request_type": "Property Maintenance",
    "request_reason": "Property Maintenance",
    "date_created": "2022-09-06T16:26:54.000",
    "date_modified": "2022-09-06T16:26:54.000",
    "request_status": "Pending",
    "responsible_agency": "Department of Code Enforcement",
    "final_address": "3938 St Bernard Ave",
    "address_councildis": "D",
    "status": "Pending",
    "rowid": "916847",
    "final_x": "3677513.87464",
    "final_y": "546734.040273",
    "longitude": "-90.08013165894859",
    "latitude": "29.997449485178052",
    "geocoded_column": {
      "latitude": "29.997449485178052",
      "longitude": "-90.08013165894859"
    }
  },
  {
    "service_request": "2022-916846",
    "request_type": "Trash/Recycling",
    "request_reason": "Request a Large Item Pick Up",
    "date_created": "2022-09-06T16:26:28.000",
    "date_modified": "2022-09-06T16:26:29.000",
    "request_status": "Pending",
    "responsible_agency": "Department of Sanitation",
    "final_address": "3828 Blair St",
    "address_councildis": "C",
    "status": "Assigned to Contractor",
    "contractor": "Richards Disposal",
    "rowid": "916846",
    "final_x": "3709303.69784",
    "final_y": "516800.170101",
    "longitude": "-89.98082570216009",
    "latitude": "29.91414790690379",
    "geocoded_column": {
      "latitude": "29.91414790690379",
      "longitude": "-89.98082570216009"
    }
  },
  {
    "service_request": "2022-916845",
    "request_type": "Trash/Recycling",
    "request_reason": "Request a Large Item Pick Up",
    "date_created": "2022-09-06T16:24:39.000",
    "date_modified": "2022-09-06T16:24:39.000",
    "request_status": "Pending",
    "responsible_agency": "Department of Sanitation",
    "final_address": "357 Millaudon St",
    "address_councildis": "A",
    "status": "Assigned to Contractor",
    "contractor": "Richards Disposal",
    "rowid": "916845",
    "final_x": "3661794.54432",
    "final_y": "524456.601404",
    "longitude": "-90.13052750503476",
    "latitude": "29.936657187434115",
    "geocoded_column": {
      "latitude": "29.936657187434115",
      "longitude": "-90.13052750503476"
    }
  },
  {
    "service_request": "2022-916844",
    "request_type": "Trash/Recycling",
    "request_reason": "Order Trash Cart",
    "date_created": "2022-09-06T16:21:04.000",
    "date_modified": "2022-09-06T16:21:05.000",
    "request_status": "Pending",
    "responsible_agency": "Department of Sanitation",
    "final_address": "5519 Spain St",
    "address_councildis": "D",
    "status": "Assigned to Contractor",
    "contractor": "Metro Disposal",
    "rowid": "916844",
    "final_x": "3684826.04847",
    "final_y": "553297.613463",
    "longitude": "-90.05680178652828",
    "latitude": "30.015275008704933",
    "geocoded_column": {
      "latitude": "30.015275008704933",
      "longitude": "-90.05680178652828"
    }
  },
  {
    "service_request": "2022-916843",
    "request_type": "Trash/Recycling",
    "request_reason": "Request a Large Item Pick Up",
    "date_created": "2022-09-06T16:18:06.000",
    "date_modified": "2022-09-06T16:18:07.000",
    "request_status": "Pending",
    "responsible_agency": "Department of Sanitation",
    "final_address": "7 Cypress Grove Ct Unit 64",
    "address_councildis": "C",
    "status": "Assigned to Contractor",
    "contractor": "Richards Disposal",
    "rowid": "916843",
    "final_x": "3704761.33918",
    "final_y": "512238.754929",
    "longitude": "-89.99533089869308",
    "latitude": "29.901752220295105",
    "geocoded_column": {
      "latitude": "29.901752220295105",
      "longitude": "-89.99533089869308"
    }
  },
  {
    "service_request": "2022-916841",
    "request_type": "Trash/Recycling",
    "request_reason": "Missed Trash Pick-Up",
    "date_created": "2022-09-06T16:17:21.000",
    "date_modified": "2022-09-06T16:17:22.000",
    "request_status": "Pending",
    "responsible_agency": "Department of Sanitation",
    "final_address": "2206 Killdeer St",
    "address_councildis": "D",
    "status": "Assigned to Contractor",
    "contractor": "Metro Disposal",
    "rowid": "916841",
    "final_x": "3683800.35317",
    "final_y": "557431.690715",
    "longitude": "-90.05989733718964",
    "latitude": "30.02667357987437",
    "geocoded_column": {
      "latitude": "30.02667357987437",
      "longitude": "-90.05989733718964"
    }
  },
  {
    "service_request": "2022-916840",
    "request_type": "Trash/Recycling",
    "request_reason": "Request a Large Item Pick Up",
    "date_created": "2022-09-06T16:14:53.000",
    "date_modified": "2022-09-06T16:14:54.000",
    "request_status": "Pending",
    "responsible_agency": "Department of Sanitation",
    "final_address": "2340 Audubon St",
    "address_councildis": "A",
    "status": "Assigned to Contractor",
    "contractor": "Richards Disposal",
    "rowid": "916840",
    "final_x": "3666785.08205",
    "final_y": "529910.882049",
    "longitude": "-90.11458894999286",
    "latitude": "29.951509710346222",
    "geocoded_column": {
      "latitude": "29.951509710346222",
      "longitude": "-90.11458894999286"
    }
  },
  {
    "service_request": "2022-916839",
    "request_type": "Roads/Drainage",
    "request_reason": "Catch Basin - Clogged",
    "date_created": "2022-09-06T16:10:26.000",
    "date_modified": "2022-09-06T16:10:26.000",
    "request_status": "Pending",
    "responsible_agency": "Department of Public Works",
    "final_address": "1604 State St",
    "address_councildis": "A",
    "status": "Pending",
    "rowid": "916839",
    "final_x": "3665748.37754",
    "final_y": "522668.544122",
    "longitude": "-90.11810489799771",
    "latitude": "29.931625884205815",
    "geocoded_column": {
      "latitude": "29.931625884205815",
      "longitude": "-90.11810489799771"
    }
  },
  {
    "service_request": "2022-916838",
    "request_type": "Trash/Recycling",
    "request_reason": "Order Trash Cart",
    "date_created": "2022-09-06T16:10:18.000",
    "date_modified": "2022-09-06T16:10:19.000",
    "request_status": "Pending",
    "responsible_agency": "Department of Sanitation",
    "final_address": "3917 N Claiborne Ave",
    "address_councildis": "D",
    "status": "Assigned to Contractor",
    "contractor": "Metro Disposal",
    "rowid": "916838",
    "final_x": "3692119.82307",
    "final_y": "537248.518152",
    "longitude": "-90.03433181362814",
    "latitude": "29.970920380979553",
    "geocoded_column": {
      "latitude": "29.970920380979553",
      "longitude": "-90.03433181362814"
    }
  },
  {
    "service_request": "2022-916837",
    "request_type": "Roads/Drainage",
    "request_reason": "Catch Basin - Clogged",
    "date_created": "2022-09-06T16:10:05.000",
    "date_modified": "2022-09-06T16:10:05.000",
    "request_status": "Pending",
    "responsible_agency": "Department of Public Works",
    "final_address": "1604 State St",
    "address_councildis": "A",
    "status": "Pending",
    "rowid": "916837",
    "final_x": "3665748.37754",
    "final_y": "522668.544122",
    "longitude": "-90.11810489799771",
    "latitude": "29.931625884205815",
    "geocoded_column": {
      "latitude": "29.931625884205815",
      "longitude": "-90.11810489799771"
    }
  },
  {
    "service_request": "2022-916836",
    "request_type": "Roads/Drainage",
    "request_reason": "Catch Basin - Clogged",
    "date_created": "2022-09-06T16:09:40.000",
    "date_modified": "2022-09-06T16:09:41.000",
    "request_status": "Pending",
    "responsible_agency": "Department of Public Works",
    "final_address": "1604 State St",
    "address_councildis": "A",
    "status": "Pending",
    "rowid": "916836",
    "final_x": "3665748.37754",
    "final_y": "522668.544122",
    "longitude": "-90.11810489799771",
    "latitude": "29.931625884205815",
    "geocoded_column": {
      "latitude": "29.931625884205815",
      "longitude": "-90.11810489799771"
    }
  },
  {
    "service_request": "2022-916835",
    "request_type": "Trash/Recycling",
    "request_reason": "Return Recycling Cart",
    "date_created": "2022-09-06T16:04:42.000",
    "date_modified": "2022-09-06T16:04:42.000",
    "request_status": "Pending",
    "responsible_agency": "Department of Sanitation",
    "final_address": "3025 Chestnut St",
    "address_councildis": "B",
    "status": "Pending",
    "rowid": "916835",
    "final_x": "3675772.87048",
    "final_y": "520895.597817",
    "longitude": "-90.08651959718992",
    "latitude": "29.926454717989476",
    "geocoded_column": {
      "latitude": "29.926454717989476",
      "longitude": "-90.08651959718992"
    }
  },
  {
    "service_request": "2022-916834",
    "request_type": "Traffic Signals/Signs/Striping/Streetlights",
    "request_reason": "Street Light Outage/Malfunction",
    "date_created": "2022-09-06T15:57:55.000",
    "date_modified": "2022-09-06T15:57:56.000",
    "request_status": "Pending",
    "responsible_agency": "Department of Public Works",
    "final_address": "3025 Chestnut St",
    "address_councildis": "B",
    "status": "Pending",
    "contractor": "Legacy Professional Services",
    "rowid": "916834",
    "final_x": "3675772.87048",
    "final_y": "520895.597817",
    "longitude": "-90.08651959718992",
    "latitude": "29.926454717989476",
    "geocoded_column": {
      "latitude": "29.926454717989476",
      "longitude": "-90.08651959718992"
    }
  },
  {
    "service_request": "2022-916833",
    "request_type": "Trash/Recycling",
    "request_reason": "Replace Trash Cart",
    "date_created": "2022-09-06T15:56:51.000",
    "date_modified": "2022-09-06T15:56:52.000",
    "request_status": "Pending",
    "responsible_agency": "Department of Sanitation",
    "final_address": "1635 Robert St",
    "address_councildis": "B",
    "status": "Assigned to Contractor",
    "contractor": "Richards Disposal",
    "rowid": "916833",
    "final_x": "3668773.94503",
    "final_y": "521174.834233",
    "longitude": "-90.1086039013988",
    "latitude": "29.927430080496226",
    "geocoded_column": {
      "latitude": "29.927430080496226",
      "longitude": "-90.1086039013988"
    }
  },
  {
    "service_request": "2022-916831",
    "request_type": "Trash/Recycling",
    "request_reason": "Request a Large Item Pick Up",
    "date_created": "2022-09-06T15:55:20.000",
    "date_modified": "2022-09-06T15:55:21.000",
    "request_status": "Pending",
    "responsible_agency": "Department of Sanitation",
    "final_address": "4409 Fontainebleau Dr",
    "address_councildis": "B",
    "status": "Assigned to Contractor",
    "contractor": "Richards Disposal",
    "rowid": "916831",
    "final_x": "3669237.49556",
    "final_y": "529635.506945",
    "longitude": "-90.10685470437741",
    "latitude": "29.950680567438372",
    "geocoded_column": {
      "latitude": "29.950680567438372",
      "longitude": "-90.10685470437741"
    }
  },
  {
    "service_request": "2022-916830",
    "request_type": "Roads/Drainage",
    "request_reason": "Street Subsidence (Sinking)",
    "date_created": "2022-09-06T15:54:08.000",
    "date_modified": "2022-09-06T15:54:08.000",
    "request_status": "Pending",
    "responsible_agency": "Department of Public Works",
    "final_address": "1100 BLK Governor Nicholls St",
    "address_councildis": "C",
    "status": "Pending",
    "rowid": "916830",
    "final_x": "3682324.82068",
    "final_y": "534956.130007",
    "longitude": "-90.06534577056543",
    "latitude": "29.964918797281474",
    "geocoded_column": {
      "latitude": "29.964918797281474",
      "longitude": "-90.06534577056543"
    }
  },
  {
    "service_request": "2022-916829",
    "request_type": "Roads/Drainage",
    "request_reason": "Pothole",
    "date_created": "2022-09-06T15:51:22.000",
    "date_modified": "2022-09-06T15:51:22.000",
    "request_status": "Pending",
    "responsible_agency": "Department of Public Works",
    "final_address": "1100 BLK Saint Peter St",
    "address_councildis": "C",
    "status": "Pending",
    "rowid": "916829",
    "final_x": "3681271.37167",
    "final_y": "533403.644266",
    "longitude": "-90.0687266033734",
    "latitude": "29.96068200402324",
    "geocoded_column": {
      "latitude": "29.96068200402324",
      "longitude": "-90.0687266033734"
    }
  },
  {
    "service_request": "2022-916827",
    "request_type": "Trash/Recycling",
    "request_reason": "Illegal Dumping",
    "date_created": "2022-09-06T15:44:09.000",
    "date_modified": "2022-09-06T15:44:09.000",
    "request_status": "Pending",
    "responsible_agency": "Department of Sanitation",
    "final_address": "3825 S Robertson St",
    "address_councildis": "B",
    "status": "Pending",
    "rowid": "916827",
    "final_x": "3671887.2082",
    "final_y": "524581.361468",
    "longitude": "-90.0986602072831",
    "latitude": "29.936705066737154",
    "geocoded_column": {
      "latitude": "29.936705066737154",
      "longitude": "-90.0986602072831"
    }
  },
  {
    "service_request": "2022-916826",
    "request_type": "Trash/Recycling",
    "request_reason": "Request a Large Item Pick Up",
    "date_created": "2022-09-06T15:43:19.000",
    "date_modified": "2022-09-06T15:43:20.000",
    "request_status": "Pending",
    "responsible_agency": "Department of Sanitation",
    "final_address": "341 Bermuda St",
    "address_councildis": "C",
    "status": "Assigned to Contractor",
    "contractor": "Richards Disposal",
    "rowid": "916826",
    "final_x": "3686460.07721",
    "final_y": "530491.701506",
    "longitude": "-90.05244451525449",
    "latitude": "29.95251668241585",
    "geocoded_column": {
      "latitude": "29.95251668241585",
      "longitude": "-90.05244451525449"
    }
  },
  {
    "service_request": "2022-916825",
    "request_type": "Property Maintenance",
    "request_reason": "Property Maintenance",
    "date_created": "2022-09-06T15:43:11.000",
    "date_modified": "2022-09-06T15:43:11.000",
    "request_status": "Pending",
    "responsible_agency": "Department of Code Enforcement",
    "final_address": "915 Newton St",
    "address_councildis": "C",
    "status": "Pending",
    "rowid": "916825",
    "final_x": "3688212.41251",
    "final_y": "527899.262463",
    "longitude": "-90.04700334551754",
    "latitude": "29.94533438378161",
    "geocoded_column": {
      "latitude": "29.94533438378161",
      "longitude": "-90.04700334551754"
    }
  },
  {
    "service_request": "2022-916824",
    "request_type": "Trash/Recycling",
    "request_reason": "Request a Large Item Pick Up",
    "date_created": "2022-09-06T15:37:29.000",
    "date_modified": "2022-09-06T15:37:30.000",
    "request_status": "Pending",
    "responsible_agency": "Department of Sanitation",
    "final_address": "1807 W Homestead Dr",
    "address_councildis": "C",
    "status": "Assigned to Contractor",
    "contractor": "Richards Disposal",
    "rowid": "916824",
    "final_x": "3696878.0161",
    "final_y": "525310.849405",
    "longitude": "-90.01973711374875",
    "latitude": "29.937946811750024",
    "geocoded_column": {
      "latitude": "29.937946811750024",
      "longitude": "-90.01973711374875"
    }
  },
  {
    "service_request": "2022-916823",
    "request_type": "Safety & Permits",
    "request_reason": "Short term Rental (Enforcement)",
    "date_created": "2022-09-06T15:31:38.000",
    "date_modified": "2022-09-06T15:31:38.000",
    "request_status": "Pending",
    "responsible_agency": "Safety and Permits",
    "final_address": "1727 Henriette Delille St",
    "address_councildis": "C",
    "status": "Pending",
    "rowid": "916823",
    "final_x": "3683380.26133",
    "final_y": "536223.915271",
    "longitude": "-90.0619683368799",
    "latitude": "29.968372612528402",
    "geocoded_column": {
      "latitude": "29.968372612528402",
      "longitude": "-90.0619683368799"
    }
  },
  {
    "service_request": "2022-916822",
    "request_type": "Trash/Recycling",
    "request_reason": "Request a Large Item Pick Up",
    "date_created": "2022-09-06T15:31:32.000",
    "date_modified": "2022-09-06T15:31:33.000",
    "request_status": "Pending",
    "responsible_agency": "Department of Sanitation",
    "final_address": "5810 Pratt Dr",
    "address_councildis": "D",
    "status": "Assigned to Contractor",
    "contractor": "Metro Disposal",
    "rowid": "916822",
    "final_x": "3680159.51439",
    "final_y": "554006.18204",
    "longitude": "-90.07152119517099",
    "latitude": "30.01736543739235",
    "geocoded_column": {
      "latitude": "30.01736543739235",
      "longitude": "-90.07152119517099"
    }
  },
  {
    "service_request": "2022-916821",
    "request_type": "Trash/Recycling",
    "request_reason": "Repair Trash Cart",
    "date_created": "2022-09-06T15:28:09.000",
    "date_modified": "2022-09-06T15:28:10.000",
    "request_status": "Pending",
    "responsible_agency": "Department of Sanitation",
    "final_address": "813 St Mary St",
    "address_councildis": "B",
    "status": "Assigned to Contractor",
    "contractor": "Richards Disposal",
    "rowid": "916821",
    "final_x": "3680439.86575",
    "final_y": "522114.623034",
    "longitude": "-90.07174483098878",
    "latitude": "29.92966617701887",
    "geocoded_column": {
      "latitude": "29.92966617701887",
      "longitude": "-90.07174483098878"
    }
  },
  {
    "service_request": "2022-916820",
    "request_type": "Roads/Drainage",
    "request_reason": "Catch Basin - Broken/Damage",
    "date_created": "2022-09-06T15:19:35.000",
    "date_modified": "2022-09-06T15:19:35.000",
    "request_status": "Pending",
    "responsible_agency": "Department of Public Works",
    "final_address": "2325 Esplanade Ave",
    "address_councildis": "D",
    "status": "Pending",
    "rowid": "916820",
    "final_x": "3679189.65371",
    "final_y": "538284.558281",
    "longitude": "-90.0751310168693",
    "latitude": "29.9741658581766",
    "geocoded_column": {
      "latitude": "29.9741658581766",
      "longitude": "-90.0751310168693"
    }
  },
  {
    "service_request": "2022-916819",
    "request_type": "Trash/Recycling",
    "request_reason": "Replace Trash Cart",
    "date_created": "2022-09-06T15:18:25.000",
    "date_modified": "2022-09-06T15:18:25.000",
    "request_status": "Pending",
    "responsible_agency": "Department of Sanitation",
    "final_address": "2123 Clara St",
    "address_councildis": "B",
    "status": "Assigned to Contractor",
    "contractor": "Richards Disposal",
    "rowid": "916819",
    "final_x": "3675136.44373",
    "final_y": "527212.835071",
    "longitude": "-90.08831194276182",
    "latitude": "29.943844086229664",
    "geocoded_column": {
      "latitude": "29.943844086229664",
      "longitude": "-90.08831194276182"
    }
  },
  {
    "service_request": "2022-916818",
    "request_type": "Trash/Recycling",
    "request_reason": "Illegal Dumping",
    "date_created": "2022-09-06T15:18:17.000",
    "date_modified": "2022-09-06T15:31:15.000",
    "request_status": "Pending",
    "responsible_agency": "Department of Sanitation",
    "final_address": "New Orleans,LA",
    "address_councildis": "B",
    "rowid": "916818",
    "final_x": "3674159.71752",
    "final_y": "527782.771135",
    "longitude": "-90.0913762331745",
    "latitude": "29.94544036819871",
    "geocoded_column": {
      "latitude": "29.94544036819871",
      "longitude": "-90.0913762331745"
    }
  },
  {
    "service_request": "2022-916817",
    "request_type": "Roads/Drainage",
    "request_reason": "Man hole cover issue",
    "date_created": "2022-09-06T15:18:04.000",
    "date_modified": "2022-09-06T15:18:04.000",
    "request_status": "Pending",
    "responsible_agency": "Department of Public Works",
    "final_address": "POYDRAS ST & CAMP ST",
    "address_councildis": "B",
    "status": "Pending",
    "rowid": "916817",
    "final_x": "3681111.4",
    "final_y": "529242.58",
    "longitude": "-90.0693767053642",
    "latitude": "29.94924533968395",
    "geocoded_column": {
      "latitude": "29.94924533968395",
      "longitude": "-90.0693767053642"
    }
  },
  {
    "service_request": "2022-916816",
    "request_type": "Property Maintenance",
    "request_reason": "Property Maintenance",
    "date_created": "2022-09-06T15:16:18.000",
    "date_modified": "2022-09-06T15:16:19.000",
    "request_status": "Pending",
    "responsible_agency": "Department of Code Enforcement",
    "final_address": "1761 Pace Blvd",
    "address_councildis": "C",
    "status": "Pending",
    "rowid": "916816",
    "final_x": "3694164.18141",
    "final_y": "523963.879868",
    "longitude": "-90.02835331132894",
    "latitude": "29.934328374237356",
    "geocoded_column": {
      "latitude": "29.934328374237356",
      "longitude": "-90.02835331132894"
    }
  },
  {
    "service_request": "2022-916815",
    "request_type": "Property Maintenance",
    "request_reason": "Property Maintenance",
    "date_created": "2022-09-06T15:15:58.000",
    "date_modified": "2022-09-06T15:16:30.000",
    "request_status": "Pending",
    "responsible_agency": "Department of Code Enforcement",
    "final_address": "2317 Gallier St",
    "address_councildis": "D",
    "status": "Pending",
    "rowid": "916815",
    "final_x": "3691663.91459",
    "final_y": "540319.924683",
    "longitude": "-90.03566177366487",
    "latitude": "29.97937986103155",
    "geocoded_column": {
      "latitude": "29.97937986103155",
      "longitude": "-90.03566177366487"
    }
  },
  {
    "service_request": "2022-916814",
    "request_type": "Roads/Drainage",
    "request_reason": "Catch Basin - Broken/Damage",
    "date_created": "2022-09-06T15:14:20.000",
    "date_modified": "2022-09-06T15:14:20.000",
    "request_status": "Pending",
    "responsible_agency": "Department of Public Works",
    "final_address": "7111 W Laverne St",
    "address_councildis": "D",
    "status": "Pending",
    "rowid": "916814",
    "final_x": "3695972.0529",
    "final_y": "556703.419098",
    "longitude": "-90.02146260600325",
    "latitude": "30.024293548124664",
    "geocoded_column": {
      "latitude": "30.024293548124664",
      "longitude": "-90.02146260600325"
    }
  },
  {
    "service_request": "2022-916813",
    "request_type": "Trash/Recycling",
    "request_reason": "Repair Trash Cart",
    "date_created": "2022-09-06T15:10:35.000",
    "date_modified": "2022-09-06T15:10:36.000",
    "request_status": "Pending",
    "responsible_agency": "Department of Sanitation",
    "final_address": "2818 Martin Luther King, Jr. Blvd",
    "address_councildis": "B",
    "status": "Assigned to Contractor",
    "contractor": "Richards Disposal",
    "rowid": "916813",
    "final_x": "3675449.27118",
    "final_y": "527794.248255",
    "longitude": "-90.0873042986679",
    "latitude": "29.945433430685195",
    "geocoded_column": {
      "latitude": "29.945433430685195",
      "longitude": "-90.0873042986679"
    }
  },
  {
    "service_request": "2022-916812",
    "request_type": "Trash/Recycling",
    "request_reason": "Request a Large Item Pick Up",
    "date_created": "2022-09-06T15:09:04.000",
    "date_modified": "2022-09-06T15:09:05.000",
    "request_status": "Pending",
    "responsible_agency": "Department of Sanitation",
    "final_address": "1507 Napoleon Ave",
    "address_councildis": "B",
    "status": "Assigned to Contractor",
    "contractor": "Richards Disposal",
    "rowid": "916812",
    "final_x": "3670965.18817",
    "final_y": "520661.853625",
    "longitude": "-90.10170407882987",
    "latitude": "29.925954965627486",
    "geocoded_column": {
      "latitude": "29.925954965627486",
      "longitude": "-90.10170407882987"
    }
  },
  {
    "service_request": "2022-916810",
    "request_type": "Trash/Recycling",
    "request_reason": "Illegal Dumping",
    "date_created": "2022-09-06T15:05:39.000",
    "date_modified": "2022-09-06T15:05:40.000",
    "request_status": "Pending",
    "responsible_agency": "Department of Sanitation",
    "final_address": "3611 River Oaks Dr",
    "address_councildis": "C",
    "status": "Pending",
    "rowid": "916810",
    "final_x": "3701289.94212",
    "final_y": "517694.259894",
    "longitude": "-90.00608691544235",
    "latitude": "29.916864011661428",
    "geocoded_column": {
      "latitude": "29.916864011661428",
      "longitude": "-90.00608691544235"
    }
  },
  {
    "service_request": "2022-916809",
    "request_type": "Trash/Recycling",
    "request_reason": "Request a Large Item Pick Up",
    "date_created": "2022-09-06T15:05:18.000",
    "date_modified": "2022-09-06T15:05:19.000",
    "request_status": "Pending",
    "responsible_agency": "Department of Sanitation",
    "final_address": "7100 W Laverne St",
    "address_councildis": "D",
    "status": "Assigned to Contractor",
    "contractor": "Metro Disposal",
    "rowid": "916809",
    "final_x": "3695801.63491",
    "final_y": "556648.60745",
    "longitude": "-90.02200307519941",
    "latitude": "30.024148200635857",
    "geocoded_column": {
      "latitude": "30.024148200635857",
      "longitude": "-90.02200307519941"
    }
  },
  {
    "service_request": "2022-916808",
    "request_type": "Property Maintenance",
    "request_reason": "Property Maintenance",
    "date_created": "2022-09-06T15:05:15.000",
    "date_modified": "2022-09-06T15:05:15.000",
    "request_status": "Pending",
    "responsible_agency": "Department of Code Enforcement",
    "final_address": "3604 Baronne St",
    "address_councildis": "B",
    "status": "Pending",
    "rowid": "916808",
    "final_x": "3673193.48705",
    "final_y": "521916.391802",
    "longitude": "-90.09462717119355",
    "latitude": "29.929338495441364",
    "geocoded_column": {
      "latitude": "29.929338495441364",
      "longitude": "-90.09462717119355"
    }
  },
  {
    "service_request": "2022-916807",
    "request_type": "Traffic Signals/Signs/Striping/Streetlights",
    "request_reason": "Street Light Outage/Malfunction",
    "date_created": "2022-09-06T15:03:46.000",
    "date_modified": "2022-09-06T15:29:04.000",
    "request_status": "Pending",
    "responsible_agency": "Department of Public Works",
    "final_address": "49 Eugenie Ct, New Orleans, Louisiana, 70131",
    "address_councildis": "C",
    "status": "Pending",
    "contractor": "Legacy Professional Services",
    "rowid": "916807",
    "final_x": "3700539.96657",
    "final_y": "511267.36824",
    "longitude": "-90.0086886507033",
    "latitude": "29.899216098226827",
    "geocoded_column": {
      "latitude": "29.899216098226827",
      "longitude": "-90.0086886507033"
    }
  },
  {
    "service_request": "2022-916806",
    "request_type": "Traffic Signals/Signs/Striping/Streetlights",
    "request_reason": "Traffic Sign Missing/Damaged",
    "date_created": "2022-09-06T14:58:51.000",
    "date_modified": "2022-09-06T14:58:51.000",
    "request_status": "Pending",
    "responsible_agency": "Department of Public Works",
    "final_address": "2022 Jefferson Ave",
    "address_councildis": "A",
    "status": "Pending",
    "rowid": "916806",
    "final_x": "3667615.72551",
    "final_y": "523183.547259",
    "longitude": "-90.11219254869634",
    "latitude": "29.932987391135594",
    "geocoded_column": {
      "latitude": "29.932987391135594",
      "longitude": "-90.11219254869634"
    }
  },
  {
    "service_request": "2022-916805",
    "request_type": "Trash/Recycling",
    "request_reason": "Request a Large Item Pick Up",
    "date_created": "2022-09-06T14:58:25.000",
    "date_modified": "2022-09-06T14:58:25.000",
    "request_status": "Pending",
    "responsible_agency": "Department of Sanitation",
    "final_address": "1919 S Carrollton Ave",
    "address_councildis": "A",
    "status": "Assigned to Contractor",
    "contractor": "Richards Disposal",
    "rowid": "916805",
    "final_x": "3663884.52685",
    "final_y": "530218.627521",
    "longitude": "-90.12373727687003",
    "latitude": "29.952440422230044",
    "geocoded_column": {
      "latitude": "29.952440422230044",
      "longitude": "-90.12373727687003"
    }
  },
  {
    "service_request": "2022-916804",
    "request_type": "Abandoned Vehicles",
    "request_reason": "Abandoned/Junk Vehicles",
    "date_created": "2022-09-06T14:56:51.000",
    "date_modified": "2022-09-06T14:58:00.000",
    "request_status": "Pending",
    "responsible_agency": "Department of Public Works",
    "final_address": "2900 BLK General Taylor St",
    "address_councildis": "B",
    "status": "Pending",
    "rowid": "916804",
    "final_x": "3671530.23663",
    "final_y": "525729.765585",
    "longitude": "-90.09974815333617",
    "latitude": "29.939873377223748",
    "geocoded_column": {
      "latitude": "29.939873377223748",
      "longitude": "-90.09974815333617"
    }
  },
  {
    "service_request": "2022-916803",
    "request_type": "Trash/Recycling",
    "request_reason": "Missed Trash Pick-Up",
    "date_created": "2022-09-06T14:56:05.000",
    "date_modified": "2022-09-06T14:56:06.000",
    "request_status": "Pending",
    "responsible_agency": "Department of Sanitation",
    "final_address": "1116 Crete St, New Orleans, Louisiana, 70119",
    "address_councildis": "A",
    "status": "Assigned to Contractor",
    "contractor": "Richards Disposal",
    "rowid": "916803",
    "final_x": "3677703.04008",
    "final_y": "538834.381705",
    "longitude": "-90.07980709125921",
    "latitude": "29.975722485118784",
    "geocoded_column": {
      "latitude": "29.975722485118784",
      "longitude": "-90.07980709125921"
    }
  },
  {
    "service_request": "2022-916802",
    "request_type": "Traffic Signals/Signs/Striping/Streetlights",
    "request_reason": "Street Light Outage/Malfunction",
    "date_created": "2022-09-06T14:56:01.000",
    "date_modified": "2022-09-06T14:56:02.000",
    "request_status": "Pending",
    "responsible_agency": "Department of Public Works",
    "final_address": "7557 Forest Glen Rd",
    "address_councildis": "E",
    "status": "Pending",
    "contractor": "Legacy Professional Services",
    "rowid": "916802",
    "final_x": "3709883.88331",
    "final_y": "564738.65789",
    "longitude": "-89.97720368037342",
    "latitude": "30.045941978280243",
    "geocoded_column": {
      "latitude": "30.045941978280243",
      "longitude": "-89.97720368037342"
    }
  },
  {
    "service_request": "2022-916801",
    "request_type": "Property Maintenance",
    "request_reason": "Property Maintenance",
    "date_created": "2022-09-06T14:55:59.000",
    "date_modified": "2022-09-06T14:55:59.000",
    "request_status": "Pending",
    "responsible_agency": "Department of Code Enforcement",
    "final_address": "4941 Werner Dr",
    "address_councildis": "E",
    "status": "Pending",
    "rowid": "916801",
    "final_x": "3704706.01066",
    "final_y": "556359.281242",
    "longitude": "-89.99387781810563",
    "latitude": "30.02306946130372",
    "geocoded_column": {
      "latitude": "30.02306946130372",
      "longitude": "-89.99387781810563"
    }
  },
  {
    "service_request": "2022-916800",
    "request_type": "Property Maintenance",
    "request_reason": "Property Maintenance",
    "date_created": "2022-09-06T14:55:41.000",
    "date_modified": "2022-09-06T14:55:41.000",
    "request_status": "Pending",
    "responsible_agency": "Department of Code Enforcement",
    "final_address": "2026 Reynes St",
    "address_councildis": "E",
    "status": "Pending",
    "rowid": "916800",
    "final_x": "3696920.156",
    "final_y": "537830.411785",
    "longitude": "-90.01915075394434",
    "latitude": "29.972369871183236",
    "geocoded_column": {
      "latitude": "29.972369871183236",
      "longitude": "-90.01915075394434"
    }
  },
  {
    "service_request": "2022-916799",
    "request_type": "Trash/Recycling",
    "request_reason": "Request a Large Item Pick Up",
    "date_created": "2022-09-06T14:53:41.000",
    "date_modified": "2022-09-06T14:53:42.000",
    "request_status": "Pending",
    "responsible_agency": "Department of Sanitation",
    "final_address": "3660 Plymouth Pl",
    "address_councildis": "C",
    "status": "Assigned to Contractor",
    "contractor": "Richards Disposal",
    "rowid": "916799",
    "final_x": "3702809.51876",
    "final_y": "517148.968181",
    "longitude": "-90.00131053985704",
    "latitude": "29.915316160627984",
    "geocoded_column": {
      "latitude": "29.915316160627984",
      "longitude": "-90.00131053985704"
    }
  },
  {
    "service_request": "2022-916798",
    "request_type": "Traffic Signals/Signs/Striping/Streetlights",
    "request_reason": "Street Light Outage/Malfunction",
    "date_created": "2022-09-06T14:50:09.000",
    "date_modified": "2022-09-06T14:50:10.000",
    "request_status": "Pending",
    "responsible_agency": "Department of Public Works",
    "final_address": "8001 Fig St",
    "address_councildis": "B",
    "status": "Pending",
    "contractor": "Legacy Professional Services",
    "rowid": "916798",
    "final_x": "3666658.75649",
    "final_y": "532921.957508",
    "longitude": "-90.11488672649722",
    "latitude": "29.959792877303094",
    "geocoded_column": {
      "latitude": "29.959792877303094",
      "longitude": "-90.11488672649722"
    }
  },
  {
    "service_request": "2022-916797",
    "request_type": "Traffic Signals/Signs/Striping/Streetlights",
    "request_reason": "Street Light Outage/Malfunction",
    "date_created": "2022-09-06T14:49:10.000",
    "date_modified": "2022-09-06T14:49:10.000",
    "request_status": "Pending",
    "responsible_agency": "Department of Public Works",
    "final_address": "7599 Forest Glen Rd",
    "address_councildis": "E",
    "status": "Pending",
    "contractor": "Legacy Professional Services",
    "rowid": "916797",
    "final_x": "3709676.91448",
    "final_y": "565048.381666",
    "longitude": "-89.9778462201911",
    "latitude": "30.046800327836724",
    "geocoded_column": {
      "latitude": "30.046800327836724",
      "longitude": "-89.9778462201911"
    }
  },
  {
    "service_request": "2022-916796",
    "request_type": "Trash/Recycling",
    "request_reason": "Repair Recycling Cart",
    "date_created": "2022-09-06T14:46:22.000",
    "date_modified": "2022-09-06T14:46:22.000",
    "request_status": "Pending",
    "responsible_agency": "Department of Sanitation",
    "final_address": "3123 Bienville Ave",
    "address_councildis": "B",
    "status": "Pending",
    "rowid": "916796",
    "final_x": "3674447.09435",
    "final_y": "536917.12212",
    "longitude": "-90.09015599070543",
    "latitude": "29.970548212724665",
    "geocoded_column": {
      "latitude": "29.970548212724665",
      "longitude": "-90.09015599070543"
    }
  },
  {
    "service_request": "2022-916794",
    "request_type": "Trash/Recycling",
    "request_reason": "Replace Trash Cart",
    "date_created": "2022-09-06T14:44:10.000",
    "date_modified": "2022-09-06T14:44:11.000",
    "request_status": "Pending",
    "responsible_agency": "Department of Sanitation",
    "final_address": "3123 Bienville Ave",
    "address_councildis": "B",
    "status": "Assigned to Contractor",
    "contractor": "Richards Disposal",
    "rowid": "916794",
    "final_x": "3674447.09435",
    "final_y": "536917.12212",
    "longitude": "-90.09015599070543",
    "latitude": "29.970548212724665",
    "geocoded_column": {
      "latitude": "29.970548212724665",
      "longitude": "-90.09015599070543"
    }
  },
  {
    "service_request": "2022-916793",
    "request_type": "Abandoned Vehicles",
    "request_reason": "Abandoned/Junk Vehicles",
    "date_created": "2022-09-06T14:43:30.000",
    "date_modified": "2022-09-06T14:43:30.000",
    "request_status": "Pending",
    "responsible_agency": "Department of Public Works",
    "final_address": "2547 Dumaine St",
    "address_councildis": "D",
    "status": "Pending",
    "rowid": "916793",
    "final_x": "3677689.06453",
    "final_y": "537153.957256",
    "longitude": "-90.07990928550632",
    "latitude": "29.971102314502875",
    "geocoded_column": {
      "latitude": "29.971102314502875",
      "longitude": "-90.07990928550632"
    }
  },
  {
    "service_request": "2022-916792",
    "request_type": "Trash/Recycling",
    "request_reason": "Replace Trash Cart",
    "date_created": "2022-09-06T14:33:31.000",
    "date_modified": "2022-09-06T14:33:32.000",
    "request_status": "Pending",
    "responsible_agency": "Department of Sanitation",
    "final_address": "4437 Carondelet St",
    "address_councildis": "B",
    "status": "Assigned to Contractor",
    "contractor": "Richards Disposal",
    "rowid": "916792",
    "final_x": "3670471.49697",
    "final_y": "521275.684409",
    "longitude": "-90.10324171902985",
    "latitude": "29.927657386290356",
    "geocoded_column": {
      "latitude": "29.927657386290356",
      "longitude": "-90.10324171902985"
    }
  },
  {
    "service_request": "2022-916791",
    "request_type": "Property Maintenance",
    "request_reason": "Property Maintenance",
    "date_created": "2022-09-06T14:31:54.000",
    "date_modified": "2022-09-06T14:31:55.000",
    "request_status": "Pending",
    "responsible_agency": "Department of Code Enforcement",
    "final_address": "3521 White Oak Ave",
    "address_councildis": "C",
    "status": "Pending",
    "rowid": "916791",
    "final_x": "3703204.14474",
    "final_y": "514404.231219",
    "longitude": "-90.00016576099999",
    "latitude": "29.90775645188833",
    "geocoded_column": {
      "latitude": "29.90775645188833",
      "longitude": "-90.00016576099999"
    }
  },
  {
    "service_request": "2022-916790",
    "request_type": "Trash/Recycling",
    "request_reason": "Repair Trash Cart",
    "date_created": "2022-09-06T14:30:20.000",
    "date_modified": "2022-09-06T14:30:21.000",
    "request_status": "Pending",
    "responsible_agency": "Department of Sanitation",
    "final_address": "32 Allard Blvd",
    "address_councildis": "A",
    "status": "Assigned to Contractor",
    "contractor": "Richards Disposal",
    "rowid": "916790",
    "final_x": "3672930.06305",
    "final_y": "541062.667596",
    "longitude": "-90.09480544938435",
    "latitude": "29.981992222141294",
    "geocoded_column": {
      "latitude": "29.981992222141294",
      "longitude": "-90.09480544938435"
    }
  },
  {
    "service_request": "2022-916789",
    "request_type": "Parks & Parkways",
    "request_reason": "Request Tree Service (Right of Way/Public Property)",
    "date_created": "2022-09-06T14:25:57.000",
    "date_modified": "2022-09-06T14:25:57.000",
    "request_status": "Pending",
    "responsible_agency": "Department of Parks & Parkway",
    "final_address": "34 Neron Pl",
    "address_councildis": "A",
    "status": "Pending",
    "rowid": "916789",
    "final_x": "3665221.44839",
    "final_y": "530581.480322",
    "longitude": "-90.11950373469328",
    "latitude": "29.953399275569225",
    "geocoded_column": {
      "latitude": "29.953399275569225",
      "longitude": "-90.11950373469328"
    }
  },
  {
    "service_request": "2022-916788",
    "request_type": "Abandoned Vehicles",
    "request_reason": "Abandoned/Junk Vehicles",
    "date_created": "2022-09-06T14:25:03.000",
    "date_modified": "2022-09-06T14:25:03.000",
    "request_status": "Pending",
    "responsible_agency": "Department of Public Works",
    "final_address": "306 S Clark St",
    "address_councildis": "B",
    "status": "Pending",
    "rowid": "916788",
    "final_x": "3672364.3931",
    "final_y": "536276.611527",
    "longitude": "-90.09675524680925",
    "latitude": "29.968848992027976",
    "geocoded_column": {
      "latitude": "29.968848992027976",
      "longitude": "-90.09675524680925"
    }
  },
  {
    "service_request": "2022-916787",
    "request_type": "Property Maintenance",
    "request_reason": "Property Maintenance",
    "date_created": "2022-09-06T14:24:27.000",
    "date_modified": "2022-09-06T14:24:27.000",
    "request_status": "Pending",
    "responsible_agency": "Department of Code Enforcement",
    "final_address": "2310 Mendez St",
    "address_councildis": "D",
    "status": "Pending",
    "rowid": "916787",
    "final_x": "3684502.13052",
    "final_y": "553434.656279",
    "longitude": "-90.05782039425651",
    "latitude": "30.015661744723133",
    "geocoded_column": {
      "latitude": "30.015661744723133",
      "longitude": "-90.05782039425651"
    }
  },
  {
    "service_request": "2022-916786",
    "request_type": "Property Maintenance",
    "request_reason": "Property Maintenance",
    "date_created": "2022-09-06T14:24:01.000",
    "date_modified": "2022-09-06T14:24:01.000",
    "request_status": "Pending",
    "responsible_agency": "Department of Code Enforcement",
    "final_address": "2612 Franklin Ave",
    "address_councildis": "D",
    "status": "Pending",
    "rowid": "916786",
    "final_x": "3687378.22018",
    "final_y": "542198.900173",
    "longitude": "-90.04913114754811",
    "latitude": "29.98467913781619",
    "geocoded_column": {
      "latitude": "29.98467913781619",
      "longitude": "-90.04913114754811"
    }
  },
  {
    "service_request": "2022-916785",
    "request_type": "Trash/Recycling",
    "request_reason": "Start Trash Service",
    "date_created": "2022-09-06T14:21:57.000",
    "date_modified": "2022-09-06T14:21:58.000",
    "request_status": "Pending",
    "responsible_agency": "Department of Sanitation",
    "final_address": "4822 Majestic Oaks Dr",
    "address_councildis": "D",
    "status": "Assigned to Contractor",
    "contractor": "Metro Disposal",
    "rowid": "916785",
    "final_x": "3697642.78813",
    "final_y": "554824.59452",
    "longitude": "-90.01625165599971",
    "latitude": "30.019074793294347",
    "geocoded_column": {
      "latitude": "30.019074793294347",
      "longitude": "-90.01625165599971"
    }
  },
  {
    "service_request": "2022-916784",
    "request_type": "Trash/Recycling",
    "request_reason": "Order Recycling Cart",
    "date_created": "2022-09-06T14:21:47.000",
    "date_modified": "2022-09-06T14:21:48.000",
    "request_status": "Pending",
    "responsible_agency": "Department of Sanitation",
    "final_address": "4822 Majestic Oaks Dr",
    "address_councildis": "D",
    "status": "Pending",
    "rowid": "916784",
    "final_x": "3697642.78813",
    "final_y": "554824.59452",
    "longitude": "-90.01625165599971",
    "latitude": "30.019074793294347",
    "geocoded_column": {
      "latitude": "30.019074793294347",
      "longitude": "-90.01625165599971"
    }
  },
  {
    "service_request": "2022-916783",
    "request_type": "Trash/Recycling",
    "request_reason": "Order Trash Cart",
    "date_created": "2022-09-06T14:21:25.000",
    "date_modified": "2022-09-06T14:21:26.000",
    "request_status": "Pending",
    "responsible_agency": "Department of Sanitation",
    "final_address": "4822 Majestic Oaks Dr",
    "address_councildis": "D",
    "status": "Assigned to Contractor",
    "contractor": "Metro Disposal",
    "rowid": "916783",
    "final_x": "3697642.78813",
    "final_y": "554824.59452",
    "longitude": "-90.01625165599971",
    "latitude": "30.019074793294347",
    "geocoded_column": {
      "latitude": "30.019074793294347",
      "longitude": "-90.01625165599971"
    }
  },
  {
    "service_request": "2022-916781",
    "request_type": "Abandoned Vehicles",
    "request_reason": "Abandoned/Junk Vehicles",
    "date_created": "2022-09-06T14:20:11.000",
    "date_modified": "2022-09-06T14:20:11.000",
    "request_status": "Pending",
    "responsible_agency": "Department of Public Works",
    "final_address": "306 S Clark St",
    "address_councildis": "B",
    "status": "Pending",
    "rowid": "916781",
    "final_x": "3672364.3931",
    "final_y": "536276.611527",
    "longitude": "-90.09675524680925",
    "latitude": "29.968848992027976",
    "geocoded_column": {
      "latitude": "29.968848992027976",
      "longitude": "-90.09675524680925"
    }
  },
  {
    "service_request": "2022-916780",
    "request_type": "Trash/Recycling",
    "request_reason": "Missed Trash Pick-Up",
    "date_created": "2022-09-06T14:17:46.000",
    "date_modified": "2022-09-06T14:17:47.000",
    "request_status": "Pending",
    "responsible_agency": "Department of Sanitation",
    "final_address": "8623 Colapissa St",
    "address_councildis": "A",
    "status": "Assigned to Contractor",
    "contractor": "Richards Disposal",
    "rowid": "916780",
    "final_x": "3665106.47405",
    "final_y": "534751.887814",
    "longitude": "-90.11972730443175",
    "latitude": "29.9648698807414",
    "geocoded_column": {
      "latitude": "29.9648698807414",
      "longitude": "-90.11972730443175"
    }
  },
  {
    "service_request": "2022-916779",
    "request_type": "Trash/Recycling",
    "request_reason": "Request a Large Item Pick Up",
    "date_created": "2022-09-06T14:16:51.000",
    "date_modified": "2022-09-06T14:16:52.000",
    "request_status": "Pending",
    "responsible_agency": "Department of Sanitation",
    "final_address": "2217 Laurel St",
    "address_councildis": "B",
    "status": "Assigned to Contractor",
    "contractor": "Richards Disposal",
    "rowid": "916779",
    "final_x": "3679142.22107",
    "final_y": "521407.923321",
    "longitude": "-90.07586574805345",
    "latitude": "29.92776220555056",
    "geocoded_column": {
      "latitude": "29.92776220555056",
      "longitude": "-90.07586574805345"
    }
  },
  {
    "service_request": "2022-916778",
    "request_type": "Roads/Drainage",
    "request_reason": "Street Flooding / Drainage",
    "date_created": "2022-09-06T14:14:17.000",
    "date_modified": "2022-09-06T14:14:17.000",
    "request_status": "Pending",
    "responsible_agency": "Department of Public Works",
    "final_address": "5821 Colbert St",
    "address_councildis": "A",
    "status": "Pending",
    "rowid": "916778",
    "final_x": "3667388.67578",
    "final_y": "546402.19976",
    "longitude": "-90.11212812283972",
    "latitude": "29.996837645331112",
    "geocoded_column": {
      "latitude": "29.996837645331112",
      "longitude": "-90.11212812283972"
    }
  },