[
  {
    "service_request": "2026-1268354",
    "request_type": "Trash/Recycling",
    "request_reason": "Replace Recycling Cart",
    "date_created": "2026-03-24T23:37:41.000",
    "date_modified": "2026-03-24T23:37:43.000",
    "request_status": "Pending",
    "responsible_agency": "Department of Sanitation",
    "final_address": "4566 Hickerson Dr",
    "address_councildis": "E",
    "status": "Pending",
    "rowid": "1268354",
    "final_x": "3710392.51576",
    "final_y": "554718.44604",
    "longitude": "-89.97597130973892",
    "latitude": "30.018373802229394",
    "geocoded_column": {
      "latitude": "30.018373802229394",
      "longitude": "-89.97597130973892"
    }
  },
  {
    "service_request": "2026-1268353",
    "request_type": "Trash/Recycling",
    "request_reason": "Order Second Trash Cart",
    "date_created": "2026-03-24T23:36:28.000",
    "date_modified": "2026-03-24T23:36:31.000",
    "request_status": "Pending",
    "responsible_agency": "Department of Sanitation",
    "final_address": "4566 Hickerson Dr",
    "address_councildis": "E",
    "status": "Assigned to Contractor",
    "contractor": "Waste Pro",
    "rowid": "1268353",
    "final_x": "3710392.51576",
    "final_y": "554718.44604",
    "longitude": "-89.97597130973892",
    "latitude": "30.018373802229394",
    "geocoded_column": {
      "latitude": "30.018373802229394",
      "longitude": "-89.97597130973892"
    }
  },
  {
    "service_request": "2026-1268352",
    "request_type": "General Services",
    "request_reason": "General Service Request",
    "date_created": "2026-03-24T23:10:28.000",
    "date_modified": "2026-03-24T23:10:30.000",
    "request_status": "Pending",
    "responsible_agency": "Orleans Parish Communication District",
    "final_address": "1718 Abundance St",
    "address_councildis": "D",
    "status": "Pending",
    "rowid": "1268352",
    "final_x": "3680846.67707",
    "final_y": "543349.233678",
    "longitude": "-90.06972136294331",
    "latitude": "29.988041815505067",
    "geocoded_column": {
      "latitude": "29.988041815505067",
      "longitude": "-90.06972136294331"
    }
  },
  {
    "service_request": "2026-1268351",
    "request_type": "Property Maintenance",
    "request_reason": "Property Maintenance",
    "date_created": "2026-03-24T23:06:18.000",
    "date_modified": "2026-03-24T23:06:20.000",
    "request_status": "Pending",
    "responsible_agency": "Department of Code Enforcement",
    "final_address": "2020 Seventh St",
    "address_councildis": "B",
    "status": "Pending",
    "rowid": "1268351",
    "final_x": "3674330.05057",
    "final_y": "523415.858555",
    "longitude": "-90.09098792599798",
    "latitude": "29.933427709429793",
    "geocoded_column": {
      "latitude": "29.933427709429793",
      "longitude": "-90.09098792599798"
    }
  },
  {
    "service_request": "2026-1268350",
    "request_type": "Property Maintenance",
    "request_reason": "Property Maintenance",
    "date_created": "2026-03-24T23:03:06.000",
    "date_modified": "2026-03-24T23:03:08.000",
    "request_status": "Pending",
    "responsible_agency": "Department of Code Enforcement",
    "final_address": "3013 Danneel St",
    "address_councildis": "B",
    "status": "Pending",
    "rowid": "1268350",
    "final_x": "3674345.78177",
    "final_y": "523254.169659",
    "longitude": "-90.09094379797071",
    "latitude": "29.932982648488554",
    "geocoded_column": {
      "latitude": "29.932982648488554",
      "longitude": "-90.09094379797071"
    }
  },
  {
    "service_request": "2026-1268349",
    "request_type": "Streetlights",
    "request_reason": "Streetlight Outage/Malfunction",
    "date_created": "2026-03-24T22:46:11.000",
    "date_modified": "2026-03-24T22:46:13.000",
    "request_status": "Pending",
    "responsible_agency": "Department of Public Works",
    "final_address": "6836 Bundy Rd",
    "address_councildis": "E",
    "status": "Pending",
    "rowid": "1268349",
    "final_x": "3707497.60196",
    "final_y": "559565.073501",
    "longitude": "-89.98493788149602",
    "latitude": "30.03179411175419",
    "geocoded_column": {
      "latitude": "30.03179411175419",
      "longitude": "-89.98493788149602"
    }
  },
  {
    "service_request": "2026-1268348",
    "request_type": "Property Maintenance",
    "request_reason": "Property Maintenance",
    "date_created": "2026-03-24T22:40:40.000",
    "date_modified": "2026-03-24T22:40:42.000",
    "request_status": "Pending",
    "responsible_agency": "Department of Code Enforcement",
    "final_address": "1718 Port St",
    "address_councildis": "D",
    "status": "Pending",
    "rowid": "1268348",
    "final_x": "3688003.94633",
    "final_y": "538813.474569",
    "longitude": "-90.04727477301357",
    "latitude": "29.975351118919242",
    "geocoded_column": {
      "latitude": "29.975351118919242",
      "longitude": "-90.04727477301357"
    }
  },
  {
    "service_request": "2026-1268347",
    "request_type": "Trash/Recycling",
    "request_reason": "Order Trash Cart",
    "date_created": "2026-03-24T22:38:31.000",
    "date_modified": "2026-03-24T22:38:33.000",
    "request_status": "Pending",
    "responsible_agency": "Department of Sanitation",
    "final_address": "8818 Palm St",
    "address_councildis": "A",
    "status": "Assigned to Contractor",
    "contractor": "IV Waste",
    "rowid": "1268347",
    "final_x": "3665721.26407",
    "final_y": "536467.015623",
    "longitude": "-90.11772836836762",
    "latitude": "29.96956799632828",
    "geocoded_column": {
      "latitude": "29.96956799632828",
      "longitude": "-90.11772836836762"
    }
  },
  {
    "service_request": "2026-1268346",
    "request_type": "Health Related Request",
    "request_reason": "Noise Ordinance Complaint",
    "date_created": "2026-03-24T22:24:06.000",
    "date_modified": "2026-03-24T22:24:07.000",
    "request_status": "Pending",
    "responsible_agency": "Health Department",
    "final_address": "801 Bourbon St, New Orleans, Louisiana, 70116",
    "address_councildis": "C",
    "status": "Pending",
    "rowid": "1268346",
    "final_x": "3682490.98735",
    "final_y": "533018.672772",
    "longitude": "-90.06488875731978",
    "latitude": "29.959586396383013",
    "geocoded_column": {
      "latitude": "29.959586396383013",
      "longitude": "-90.06488875731978"
    }
  },
  {
    "service_request": "2026-1268345",
    "request_type": "Trash/Recycling",
    "request_reason": "Return Trash Cart",
    "date_created": "2026-03-24T22:22:45.000",
    "date_modified": "2026-03-24T22:22:46.000",
    "request_status": "Pending",
    "responsible_agency": "Department of Sanitation",
    "final_address": "1992 N Dorgenois St",
    "address_councildis": "D",
    "status": "Assigned to Contractor",
    "contractor": "IV Waste",
    "rowid": "1268345",
    "final_x": "3682261.62485",
    "final_y": "541234.85838",
    "longitude": "-90.0653259206139",
    "latitude": "29.982185045677888",
    "geocoded_column": {
      "latitude": "29.982185045677888",
      "longitude": "-90.0653259206139"
    }
  },
  {
    "service_request": "2026-1268344",
    "request_type": "Trash/Recycling",
    "request_reason": "Request a Large Item Pick Up",
    "date_created": "2026-03-24T22:02:03.000",
    "date_modified": "2026-03-24T22:02:04.000",
    "request_status": "Pending",
    "responsible_agency": "Department of Sanitation",
    "final_address": "2921 Preston Pl",
    "address_councildis": "C",
    "status": "Assigned to Contractor",
    "contractor": "Richards Disposal",
    "rowid": "1268344",
    "final_x": "3708574.12868",
    "final_y": "519060.175031",
    "longitude": "-89.9830443827841",
    "latitude": "29.920385791750356",
    "geocoded_column": {
      "latitude": "29.920385791750356",
      "longitude": "-89.9830443827841"
    }
  },
  {
    "service_request": "2026-1268343",
    "request_type": "Property Maintenance",
    "request_reason": "Property Maintenance",
    "date_created": "2026-03-24T21:50:30.000",
    "date_modified": "2026-03-24T21:50:32.000",
    "request_status": "Pending",
    "responsible_agency": "Department of Code Enforcement",
    "final_address": "1115 Tennessee St",
    "address_councildis": "E",
    "status": "Pending",
    "rowid": "1268343",
    "final_x": "3695794.04534",
    "final_y": "534547.032837",
    "longitude": "-90.02282578551339",
    "latitude": "29.96337721339479",
    "geocoded_column": {
      "latitude": "29.96337721339479",
      "longitude": "-90.02282578551339"
    }
  },
  {
    "service_request": "2026-1268342",
    "request_type": "Mosquito, Termite & Rodent Control",
    "request_reason": "Non-Rodent Complaint (Possums & Snakes)",
    "date_created": "2026-03-24T21:42:02.000",
    "date_modified": "2026-03-24T21:42:05.000",
    "request_status": "Pending",
    "responsible_agency": "Mosquito, Termite & Rodent Control Board",
    "final_address": "1116 Tennessee St",
    "address_councildis": "E",
    "status": "Pending",
    "rowid": "1268342",
    "final_x": "3695688.2392",
    "final_y": "534558.282181",
    "longitude": "-90.0231595017008",
    "latitude": "29.963411472077706",
    "geocoded_column": {
      "latitude": "29.963411472077706",
      "longitude": "-90.0231595017008"
    }
  },
  {
    "service_request": "2026-1268341",
    "request_type": "Trash/Recycling",
    "request_reason": "Dead Animal Pick Up",
    "date_created": "2026-03-24T21:36:49.000",
    "date_modified": "2026-03-24T21:36:51.000",
    "request_status": "Pending",
    "responsible_agency": "Department of Sanitation",
    "final_address": "2625 St Philip St",
    "address_councildis": "C",
    "status": "Assigned to Contractor",
    "contractor": "IV Waste",
    "rowid": "1268341",
    "final_x": "3677677.10696",
    "final_y": "537683.737096",
    "longitude": "-90.07992874735733",
    "latitude": "29.972559387392714",
    "geocoded_column": {
      "latitude": "29.972559387392714",
      "longitude": "-90.07992874735733"
    }
  },
  {
    "service_request": "2026-1268340",
    "request_type": "Streetlights",
    "request_reason": "Streetlight Outage/Malfunction",
    "date_created": "2026-03-24T21:33:34.000",
    "date_modified": "2026-03-24T21:33:36.000",
    "request_status": "Pending",
    "responsible_agency": "Department of Public Works",
    "final_address": "5642 Chatham Dr",
    "address_councildis": "D",
    "status": "Pending",
    "rowid": "1268340",
    "final_x": "3679606.24578",
    "final_y": "553335.493207",
    "longitude": "-90.07329260485847",
    "latitude": "30.01553802716469",
    "geocoded_column": {
      "latitude": "30.01553802716469",
      "longitude": "-90.07329260485847"
    }
  },
  {
    "service_request": "2026-1268339",
    "request_type": "Trash/Recycling",
    "request_reason": "Request a Large Item Pick Up",
    "date_created": "2026-03-24T21:30:36.000",
    "date_modified": "2026-03-24T21:30:38.000",
    "request_status": "Pending",
    "responsible_agency": "Department of Sanitation",
    "final_address": "5524 S Miro St",
    "address_councildis": "B",
    "status": "Assigned to Contractor",
    "contractor": "IV Waste",
    "rowid": "1268339",
    "final_x": "3668173.501",
    "final_y": "527682.612415",
    "longitude": "-90.1102800826477",
    "latitude": "29.945342015044364",
    "geocoded_column": {
      "latitude": "29.945342015044364",
      "longitude": "-90.1102800826477"
    }
  },
  {
    "service_request": "2026-1268338",
    "request_type": "Trash/Recycling",
    "request_reason": "Replace Trash Cart",
    "date_created": "2026-03-24T21:15:19.000",
    "date_modified": "2026-03-24T21:15:21.000",
    "request_status": "Pending",
    "responsible_agency": "Department of Sanitation",
    "final_address": "1218 Joseph St",
    "address_councildis": "A",
    "status": "Assigned to Contractor",
    "contractor": "IV Waste",
    "rowid": "1268338",
    "final_x": "3666406.68961",
    "final_y": "520366.103352",
    "longitude": "-90.11610388868765",
    "latitude": "29.92527568710882",
    "geocoded_column": {
      "latitude": "29.92527568710882",
      "longitude": "-90.11610388868765"
    }
  },
  {
    "service_request": "2026-1268337",
    "request_type": "Trash/Recycling",
    "request_reason": "Replace Recycling Cart",
    "date_created": "2026-03-24T21:13:20.000",
    "date_modified": "2026-03-24T21:13:22.000",
    "request_status": "Pending",
    "responsible_agency": "Department of Sanitation",
    "final_address": "1218 Joseph St",
    "address_councildis": "A",
    "status": "Pending",
    "rowid": "1268337",
    "final_x": "3666406.68961",
    "final_y": "520366.103352",
    "longitude": "-90.11610388868765",
    "latitude": "29.92527568710882",
    "geocoded_column": {
      "latitude": "29.92527568710882",
      "longitude": "-90.11610388868765"
    }
  },
  {
    "service_request": "2026-1268336",
    "request_type": "Property Maintenance",
    "request_reason": "Property Maintenance",
    "date_created": "2026-03-24T21:09:00.000",
    "date_modified": "2026-03-24T21:09:02.000",
    "request_status": "Pending",
    "responsible_agency": "Department of Code Enforcement",
    "final_address": "7744 S Interstate 10 Service Rd",
    "address_councildis": "E",
    "status": "Pending",
    "rowid": "1268336",
    "final_x": "3702569.65578",
    "final_y": "557896.315355",
    "longitude": "-90.00057168969282",
    "latitude": "30.02736420635903",
    "geocoded_column": {
      "latitude": "30.02736420635903",
      "longitude": "-90.00057168969282"
    }
  },
  {
    "service_request": "2026-1268335",
    "request_type": "Trash/Recycling",
    "request_reason": "Missed Trash Pick-Up",
    "date_created": "2026-03-24T21:07:00.000",
    "date_modified": "2026-03-24T21:07:02.000",
    "request_status": "Pending",
    "responsible_agency": "Department of Sanitation",
    "final_address": "1338 Fern St",
    "address_councildis": "A",
    "status": "Assigned to Contractor",
    "contractor": "IV Waste",
    "rowid": "1268335",
    "final_x": "3662945.25095",
    "final_y": "528362.443968",
    "longitude": "-90.12676481158141",
    "latitude": "29.947363745346895",
    "geocoded_column": {
      "latitude": "29.947363745346895",
      "longitude": "-90.12676481158141"
    }
  },
  {
    "service_request": "2026-1268334",
    "request_type": "Property Maintenance",
    "request_reason": "Property Maintenance",
    "date_created": "2026-03-24T20:28:41.000",
    "date_modified": "2026-03-24T20:28:43.000",
    "request_status": "Pending",
    "responsible_agency": "Department of Code Enforcement",
    "final_address": "6800 BLK Interstate 10 Service Rd S",
    "address_councildis": "E",
    "status": "Pending",
    "rowid": "1268334",
    "final_x": "3699984.98024",
    "final_y": "557197.726271",
    "longitude": "-90.00876451139469",
    "latitude": "30.025525763957457",
    "geocoded_column": {
      "latitude": "30.025525763957457",
      "longitude": "-90.00876451139469"
    }
  },
  {
    "service_request": "2026-1268333",
    "request_type": "Streetlights",
    "request_reason": "Streetlight Outage/Malfunction",
    "date_created": "2026-03-24T20:26:44.000",
    "date_modified": "2026-03-24T20:26:48.000",
    "request_status": "Pending",
    "responsible_agency": "Department of Public Works",
    "final_address": "1537 Mithra St",
    "address_councildis": "D",
    "status": "Pending",
    "rowid": "1268333",
    "final_x": "3679041.58235",
    "final_y": "552301.927766",
    "longitude": "-90.07511254084419",
    "latitude": "30.01271315680064",
    "geocoded_column": {
      "latitude": "30.01271315680064",
      "longitude": "-90.07511254084419"
    }
  },
  {
    "service_request": "2026-1268332",
    "request_type": "Drainage",
    "request_reason": "Catch Basin Frame and Cover Missing or Damaged",
    "date_created": "2026-03-24T20:10:10.000",
    "date_modified": "2026-03-24T20:10:12.000",
    "request_status": "Pending",
    "responsible_agency": "Sewerage & Water Board",
    "final_address": "638 Seguin St",
    "address_councildis": "C",
    "status": "Pending",
    "rowid": "1268332",
    "final_x": "3686888.66351",
    "final_y": "529436.816833",
    "longitude": "-90.05112851003524",
    "latitude": "29.94960292968739",
    "geocoded_column": {
      "latitude": "29.94960292968739",
      "longitude": "-90.05112851003524"
    }
  },
  {
    "service_request": "2026-1268331",
    "request_type": "Trash/Recycling",
    "request_reason": "Illegal Dumping",
    "date_created": "2026-03-24T20:03:07.000",
    "date_modified": "2026-03-24T20:03:09.000",
    "request_status": "Pending",
    "responsible_agency": "Department of Sanitation",
    "final_address": "6888 Farwood Rd",
    "address_councildis": "E",
    "status": "Pending",
    "rowid": "1268331",
    "final_x": "3700605.85597",
    "final_y": "557482.428379",
    "longitude": "-90.00679223088521",
    "latitude": "30.026288836029426",
    "geocoded_column": {
      "latitude": "30.026288836029426",
      "longitude": "-90.00679223088521"
    }
  },
  {
    "service_request": "2026-1268329",
    "request_type": "Drainage",
    "request_reason": "Catch Basin Not Draining",
    "date_created": "2026-03-24T19:40:13.000",
    "date_modified": "2026-03-24T19:40:17.000",
    "request_status": "Pending",
    "responsible_agency": "Sewerage & Water Board",
    "final_address": "100 BLK Woodland Pl",
    "address_councildis": "C",
    "status": "Pending",
    "rowid": "1268329",
    "final_x": "3705744.91295",
    "final_y": "521779.496583",
    "longitude": "-89.99187432131302",
    "latitude": "29.9279543500221",
    "geocoded_column": {
      "latitude": "29.9279543500221",
      "longitude": "-89.99187432131302"
    }
  },
  {
    "service_request": "2026-1268328",
    "request_type": "Trash/Recycling",
    "request_reason": "Replace Trash Cart",
    "date_created": "2026-03-24T19:38:34.000",
    "date_modified": "2026-03-24T19:38:37.000",
    "request_status": "Pending",
    "responsible_agency": "Department of Sanitation",
    "final_address": "1028 Joseph St",
    "address_councildis": "A",
    "status": "Assigned to Contractor",
    "contractor": "IV Waste",
    "rowid": "1268328",
    "final_x": "3666271.46612",
    "final_y": "519780.839608",
    "longitude": "-90.11655036694887",
    "latitude": "29.92367034540412",
    "geocoded_column": {
      "latitude": "29.92367034540412",
      "longitude": "-90.11655036694887"
    }
  },
  {
    "service_request": "2026-1268327",
    "request_type": "Trash/Recycling",
    "request_reason": "Order Recycling Cart",
    "date_created": "2026-03-24T19:26:02.000",
    "date_modified": "2026-03-24T19:26:04.000",
    "request_status": "Pending",
    "responsible_agency": "Department of Sanitation",
    "final_address": "825 Topaz St",
    "address_councildis": "D",
    "status": "Pending",
    "rowid": "1268327",
    "final_x": "3670450.44385",
    "final_y": "556609.568026",
    "longitude": "-90.10210965686089",
    "latitude": "30.02481422999425",
    "geocoded_column": {
      "latitude": "30.02481422999425",
      "longitude": "-90.10210965686089"
    }
  },
  {
    "service_request": "2026-1268326",
    "request_type": "Trash/Recycling",
    "request_reason": "Missed Trash Pick-Up",
    "date_created": "2026-03-24T19:05:27.000",
    "date_modified": "2026-03-24T19:05:30.000",
    "request_status": "Pending",
    "responsible_agency": "Department of Sanitation",
    "final_address": "7026 Louis Xiv St",
    "address_councildis": "A",
    "status": "Assigned to Contractor",
    "contractor": "IV Waste",
    "rowid": "1268326",
    "final_x": "3668608.87681",
    "final_y": "554243.246424",
    "longitude": "-90.10800868155803",
    "latitude": "30.018361968180347",
    "geocoded_column": {
      "latitude": "30.018361968180347",
      "longitude": "-90.10800868155803"
    }
  },
  {
    "service_request": "2026-1268325",
    "request_type": "Trash/Recycling",
    "request_reason": "Order Recycling Cart",
    "date_created": "2026-03-24T18:56:00.000",
    "date_modified": "2026-03-24T18:56:02.000",
    "request_status": "Pending",
    "responsible_agency": "Department of Sanitation",
    "final_address": "8414 Sycamore St",
    "address_councildis": "A",
    "status": "Pending",
    "rowid": "1268325",
    "final_x": "3663419.34855",
    "final_y": "531749.784195",
    "longitude": "-90.12515512707664",
    "latitude": "29.95666410144404",
    "geocoded_column": {
      "latitude": "29.95666410144404",
      "longitude": "-90.12515512707664"
    }
  },
  {
    "service_request": "2026-1268324",
    "request_type": "Trash/Recycling",
    "request_reason": "Request a Large Item Pick Up",
    "date_created": "2026-03-24T18:39:15.000",
    "date_modified": "2026-03-24T18:39:17.000",
    "request_status": "Pending",
    "responsible_agency": "Department of Sanitation",
    "final_address": "4114 Duplessis St",
    "address_councildis": "D",
    "status": "Assigned to Contractor",
    "contractor": "IV Waste",
    "rowid": "1268324",
    "final_x": "3678329.06798",
    "final_y": "547406.491089",
    "longitude": "-90.07753320762646",
    "latitude": "29.999273946798795",
    "geocoded_column": {
      "latitude": "29.999273946798795",
      "longitude": "-90.07753320762646"
    }
  },
  {
    "service_request": "2026-1268323",
    "request_type": "Property Maintenance",
    "request_reason": "Property Maintenance",
    "date_created": "2026-03-24T18:10:08.000",
    "date_modified": "2026-03-24T18:10:12.000",
    "request_status": "Pending",
    "responsible_agency": "Department of Code Enforcement",
    "final_address": "4901 Perrault Walk",
    "address_councildis": "E",
    "status": "Pending",
    "rowid": "1268323",
    "final_x": "3709782.54693",
    "final_y": "556601.03497",
    "longitude": "-89.97782820068133",
    "latitude": "30.02357004045313",
    "geocoded_column": {
      "latitude": "30.02357004045313",
      "longitude": "-89.97782820068133"
    }
  },
  {
    "service_request": "2026-1268322",
    "request_type": "Trash/Recycling",
    "request_reason": "Order Trash Cart",
    "date_created": "2026-03-24T18:08:05.000",
    "date_modified": "2026-03-24T18:08:07.000",
    "request_status": "Pending",
    "responsible_agency": "Department of Sanitation",
    "final_address": "611 Lyons St Apt 1B",
    "address_councildis": "B",
    "status": "Assigned to Contractor",
    "contractor": "IV Waste",
    "rowid": "1268322",
    "final_x": "3669379.01793",
    "final_y": "517692.220918",
    "longitude": "-90.10681150915019",
    "latitude": "29.9178362008503",
    "geocoded_column": {
      "latitude": "29.9178362008503",
      "longitude": "-90.10681150915019"
    }
  },
  {
    "service_request": "2026-1268321",
    "request_type": "General Services",
    "request_reason": "General Service Request",
    "date_created": "2026-03-24T17:59:08.000",
    "date_modified": "2026-03-24T17:59:10.000",
    "request_status": "Pending",
    "responsible_agency": "Orleans Parish Communication District",
    "final_address": "1622 Shirley Dr",
    "address_councildis": "C",
    "status": "Pending",
    "rowid": "1268321",
    "final_x": "3693102.72425",
    "final_y": "524518.078716",
    "longitude": "-90.03168441079589",
    "latitude": "29.935885429339283",
    "geocoded_column": {
      "latitude": "29.935885429339283",
      "longitude": "-90.03168441079589"
    }
  },
  {
    "service_request": "2026-1268320",
    "request_type": "Trash/Recycling",
    "request_reason": "Damaged Caused By Contractor",
    "date_created": "2026-03-24T17:53:23.000",
    "date_modified": "2026-03-24T17:53:25.000",
    "request_status": "Pending",
    "responsible_agency": "Department of Sanitation",
    "final_address": "417 S Genois St",
    "address_councildis": "B",
    "status": "Assigned to Contractor",
    "contractor": "IV Waste",
    "rowid": "1268320",
    "final_x": "3671677.8331",
    "final_y": "536056.708551",
    "longitude": "-90.09893093250686",
    "latitude": "29.9682646878723",
    "geocoded_column": {
      "latitude": "29.9682646878723",
      "longitude": "-90.09893093250686"
    }
  },
  {
    "service_request": "2026-1268319",
    "request_type": "Trash/Recycling",
    "request_reason": "Repair Recycling Cart",
    "date_created": "2026-03-24T17:51:36.000",
    "date_modified": "2026-03-24T17:51:38.000",
    "request_status": "Pending",
    "responsible_agency": "Department of Sanitation",
    "final_address": "3510 Post Oak Ave",
    "address_councildis": "C",
    "status": "Pending",
    "rowid": "1268319",
    "final_x": "3703256.47978",
    "final_y": "514794.800115",
    "longitude": "-89.9999862420343",
    "latitude": "29.908828708913113",
    "geocoded_column": {
      "latitude": "29.908828708913113",
      "longitude": "-89.9999862420343"
    }
  },
  {
    "service_request": "2026-1268318",
    "request_type": "Trash/Recycling",
    "request_reason": "Request a Large Item Pick Up",
    "date_created": "2026-03-24T17:49:53.000",
    "date_modified": "2026-03-24T17:49:55.000",
    "request_status": "Pending",
    "responsible_agency": "Department of Sanitation",
    "final_address": "1510 Pauger St",
    "address_councildis": "C",
    "status": "Assigned to Contractor",
    "contractor": "IV Waste",
    "rowid": "1268318",
    "final_x": "3683922.55522",
    "final_y": "535247.97607",
    "longitude": "-90.060289991615",
    "latitude": "29.965672561138778",
    "geocoded_column": {
      "latitude": "29.965672561138778",
      "longitude": "-90.060289991615"
    }
  },
  {
    "service_request": "2026-1268317",
    "request_type": "Trash/Recycling",
    "request_reason": "Return Trash Cart",
    "date_created": "2026-03-24T17:39:12.000",
    "date_modified": "2026-03-24T17:39:14.000",
    "request_status": "Pending",
    "responsible_agency": "Department of Sanitation",
    "final_address": "4208 Orleans Ave",
    "address_councildis": "A",
    "status": "Assigned to Contractor",
    "contractor": "IV Waste",
    "rowid": "1268317",
    "final_x": "3671885.94907",
    "final_y": "540607.251723",
    "longitude": "-90.09811877436721",
    "latitude": "29.980770974475018",
    "geocoded_column": {
      "latitude": "29.980770974475018",
      "longitude": "-90.09811877436721"
    }
  },
  {
    "service_request": "2026-1268316",
    "request_type": "Trash/Recycling",
    "request_reason": "Replace Trash Cart",
    "date_created": "2026-03-24T17:07:20.000",
    "date_modified": "2026-03-24T17:07:22.000",
    "request_status": "Pending",
    "responsible_agency": "Department of Sanitation",
    "final_address": "3424 Delachaise St",
    "address_councildis": "B",
    "status": "Assigned to Contractor",
    "contractor": "IV Waste",
    "rowid": "1268316",
    "final_x": "3671384.59348",
    "final_y": "527558.604543",
    "longitude": "-90.10014583046076",
    "latitude": "29.94490639913504",
    "geocoded_column": {
      "latitude": "29.94490639913504",
      "longitude": "-90.10014583046076"
    }
  },
  {
    "service_request": "2026-1268315",
    "request_type": "Abandoned Vehicles",
    "request_reason": "Abandoned/Junk Vehicles",
    "date_created": "2026-03-24T16:43:25.000",
    "date_modified": "2026-03-24T16:43:26.000",
    "request_status": "Pending",
    "responsible_agency": "Department of Public Works",
    "final_address": "1418 Crete St",
    "address_councildis": "D",
    "status": "Pending",
    "rowid": "1268315",
    "final_x": "3677916.43246",
    "final_y": "539477.02049",
    "longitude": "-90.07911092199508",
    "latitude": "29.977483099760146",
    "geocoded_column": {
      "latitude": "29.977483099760146",
      "longitude": "-90.07911092199508"
    }
  },
  {
    "service_request": "2026-1268314",
    "request_type": "Roads and Streets",
    "request_reason": "Street Subsidence (Sinking)",
    "date_created": "2026-03-24T16:41:39.000",
    "date_modified": "2026-03-24T16:41:43.000",
    "request_status": "Pending",
    "responsible_agency": "Sewerage & Water Board",
    "final_address": "2500 BLK Upperline St",
    "address_councildis": "B",
    "status": "Pending",
    "rowid": "1268314",
    "final_x": "3669170.47002",
    "final_y": "524077.894545",
    "longitude": "-90.10725410667855",
    "latitude": "29.935400907769733",
    "geocoded_column": {
      "latitude": "29.935400907769733",
      "longitude": "-90.10725410667855"
    }
  },
  {
    "service_request": "2026-1268313",
    "request_type": "Trash/Recycling",
    "request_reason": "Request a Large Item Pick Up",
    "date_created": "2026-03-24T16:38:01.000",
    "date_modified": "2026-03-24T16:38:02.000",
    "request_status": "Pending",
    "responsible_agency": "Department of Sanitation",
    "final_address": "311 Hillary St",
    "address_councildis": "A",
    "status": "Assigned to Contractor",
    "contractor": "IV Waste",
    "rowid": "1268313",
    "final_x": "3661287.37325",
    "final_y": "524903.82022",
    "longitude": "-90.13211387357674",
    "latitude": "29.93790152707632",
    "geocoded_column": {
      "latitude": "29.93790152707632",
      "longitude": "-90.13211387357674"
    }
  },
  {
    "service_request": "2026-1268312",
    "request_type": "Trash/Recycling",
    "request_reason": "Request a Large Item Pick Up",
    "date_created": "2026-03-24T16:37:30.000",
    "date_modified": "2026-03-24T16:37:32.000",
    "request_status": "Pending",
    "responsible_agency": "Department of Sanitation",
    "final_address": "4942 Redwood St",
    "address_councildis": "E",
    "status": "Assigned to Contractor",
    "contractor": "Waste Pro",
    "rowid": "1268312",
    "final_x": "3712289.2853",
    "final_y": "557395.708187",
    "longitude": "-89.96987762441385",
    "latitude": "30.025673302271347",
    "geocoded_column": {
      "latitude": "30.025673302271347",
      "longitude": "-89.96987762441385"
    }
  },
  {
    "service_request": "2026-1268311",
    "request_type": "Property Maintenance",
    "request_reason": "Property Maintenance",
    "date_created": "2026-03-24T16:36:34.000",
    "date_modified": "2026-03-24T16:36:37.000",
    "request_status": "Pending",
    "responsible_agency": "Department of Code Enforcement",
    "final_address": "2831 Milan St",
    "address_councildis": "B",
    "status": "Pending",
    "rowid": "1268311",
    "final_x": "3671200.09294",
    "final_y": "525405.022077",
    "longitude": "-90.10080149587957",
    "latitude": "29.93899020685485",
    "geocoded_column": {
      "latitude": "29.93899020685485",
      "longitude": "-90.10080149587957"
    }
  },
  {
    "service_request": "2026-1268310",
    "request_type": "Parks & Parkways",
    "request_reason": "Request Tree Service (Right of Way/Public Property)",
    "date_created": "2026-03-24T16:33:19.000",
    "date_modified": "2026-03-24T16:34:30.000",
    "request_status": "Pending",
    "responsible_agency": "Department of Parks & Parkway",
    "final_address": "4726 Gawain Dr",
    "address_councildis": "E",
    "status": "Pending",
    "rowid": "1268310",
    "final_x": "3706909.5347",
    "final_y": "555324.546777",
    "longitude": "-89.98695364591609",
    "latitude": "30.02015333263444",
    "geocoded_column": {
      "latitude": "30.02015333263444",
      "longitude": "-89.98695364591609"
    }
  },
  {
    "service_request": "2026-1268309",
    "request_type": "Trash/Recycling",
    "request_reason": "Request a Large Item Pick Up",
    "date_created": "2026-03-24T16:31:20.000",
    "date_modified": "2026-03-24T16:31:22.000",
    "request_status": "Pending",
    "responsible_agency": "Department of Sanitation",
    "final_address": "270 Oakmont Dr",
    "address_councildis": "E",
    "status": "Assigned to Contractor",
    "contractor": "Waste Pro",
    "rowid": "1268309",
    "final_x": "3719898.2087",
    "final_y": "562577.0696",
    "longitude": "-89.94563650785209",
    "latitude": "30.03966880290823",
    "geocoded_column": {
      "latitude": "30.03966880290823",
      "longitude": "-89.94563650785209"
    }
  },
  {
    "service_request": "2026-1268308",
    "request_type": "Roads and Streets",
    "request_reason": "Street Subsidence (Sinking)",
    "date_created": "2026-03-24T16:31:13.000",
    "date_modified": "2026-03-24T16:31:15.000",
    "request_status": "Pending",
    "responsible_agency": "Sewerage & Water Board",
    "final_address": "1900 BLK Brutus St",
    "address_councildis": "D",
    "status": "Pending",
    "rowid": "1268308",
    "final_x": "3681837.39482",
    "final_y": "550135.058966",
    "longitude": "-90.06635501313207",
    "latitude": "30.006670339907423",
    "geocoded_column": {
      "latitude": "30.006670339907423",
      "longitude": "-90.06635501313207"
    }
  },
  {
    "service_request": "2026-1268307",
    "request_type": "Trash/Recycling",
    "request_reason": "Order Second Trash Cart",
    "date_created": "2026-03-24T16:26:33.000",
    "date_modified": "2026-03-24T16:26:35.000",
    "request_status": "Pending",
    "responsible_agency": "Department of Sanitation",
    "final_address": "3450 Bennett St",
    "address_councildis": "C",
    "status": "Assigned to Contractor",
    "contractor": "Richards Disposal",
    "rowid": "1268307",
    "final_x": "3710437.67192",
    "final_y": "517678.925302",
    "longitude": "-89.97721371205705",
    "latitude": "29.916527323595936",
    "geocoded_column": {
      "latitude": "29.916527323595936",
      "longitude": "-89.97721371205705"
    }
  },
  {
    "service_request": "2026-1268306",
    "request_type": "Trash/Recycling",
    "request_reason": "Repair Trash Cart",
    "date_created": "2026-03-24T16:24:45.000",
    "date_modified": "2026-03-24T16:24:47.000",
    "request_status": "Pending",
    "responsible_agency": "Department of Sanitation",
    "final_address": "3450 Bennett St",
    "address_councildis": "C",
    "status": "Assigned to Contractor",
    "contractor": "Richards Disposal",
    "rowid": "1268306",
    "final_x": "3710437.67192",
    "final_y": "517678.925302",
    "longitude": "-89.97721371205705",
    "latitude": "29.916527323595936",
    "geocoded_column": {
      "latitude": "29.916527323595936",
      "longitude": "-89.97721371205705"
    }
  },
  {
    "service_request": "2026-1268305",
    "request_type": "Trash/Recycling",
    "request_reason": "Request a Large Item Pick Up",
    "date_created": "2026-03-24T16:22:35.000",
    "date_modified": "2026-03-24T16:22:37.000",
    "request_status": "Pending",
    "responsible_agency": "Department of Sanitation",
    "final_address": "4912 Chrysler St",
    "address_councildis": "E",
    "status": "Assigned to Contractor",
    "contractor": "Waste Pro",
    "rowid": "1268305",
    "final_x": "3715160.81413",
    "final_y": "557504.293467",
    "longitude": "-89.96079998302066",
    "latitude": "30.02587760459259",
    "geocoded_column": {
      "latitude": "30.02587760459259",
      "longitude": "-89.96079998302066"
    }
  },
  {
    "service_request": "2026-1268304",
    "request_type": "Trash/Recycling",
    "request_reason": "Request a Large Item Pick Up",
    "date_created": "2026-03-24T16:18:34.000",
    "date_modified": "2026-03-24T16:18:35.000",
    "request_status": "Pending",
    "responsible_agency": "Department of Sanitation",
    "final_address": "820 Polk St",
    "address_councildis": "A",
    "status": "Assigned to Contractor",
    "contractor": "IV Waste",
    "rowid": "1268304",
    "final_x": "3669360.4985",
    "final_y": "547118.750353",
    "longitude": "-90.10587497017468",
    "latitude": "29.99874997987799",
    "geocoded_column": {
      "latitude": "29.99874997987799",
      "longitude": "-90.10587497017468"
    }
  },
  {
    "service_request": "2026-1268303",
    "request_type": "Trash/Recycling",
    "request_reason": "Request a Large Item Pick Up",
    "date_created": "2026-03-24T16:15:54.000",
    "date_modified": "2026-03-24T16:15:56.000",
    "request_status": "Pending",
    "responsible_agency": "Department of Sanitation",
    "final_address": "4710 Schindler Dr",
    "address_councildis": "E",
    "status": "Assigned to Contractor",
    "contractor": "Waste Pro",
    "rowid": "1268303",
    "final_x": "3714289.11275",
    "final_y": "556439.45641",
    "longitude": "-89.96359463619194",
    "latitude": "30.02297840609669",
    "geocoded_column": {
      "latitude": "30.02297840609669",
      "longitude": "-89.96359463619194"
    }
  },
  {
    "service_request": "2026-1268302",
    "request_type": "Trash/Recycling",
    "request_reason": "Damaged Caused By Contractor",
    "date_created": "2026-03-24T16:14:42.000",
    "date_modified": "2026-03-24T16:14:45.000",
    "request_status": "Pending",
    "responsible_agency": "Department of Sanitation",
    "final_address": "1221 Frenchmen St",
    "address_councildis": "C",
    "status": "Assigned to Contractor",
    "contractor": "IV Waste",
    "rowid": "1268302",
    "final_x": "3684575.50613",
    "final_y": "536811.546568",
    "longitude": "-90.05817305124928",
    "latitude": "29.969951875134406",
    "geocoded_column": {
      "latitude": "29.969951875134406",
      "longitude": "-90.05817305124928"
    }
  },
  {
    "service_request": "2026-1268301",
    "request_type": "Trash/Recycling",
    "request_reason": "Request a Large Item Pick Up",
    "date_created": "2026-03-24T16:09:03.000",
    "date_modified": "2026-03-24T16:09:04.000",
    "request_status": "Pending",
    "responsible_agency": "Department of Sanitation",
    "final_address": "3657 Piedmont Dr",
    "address_councildis": "D",
    "status": "Assigned to Contractor",
    "contractor": "IV Waste",
    "rowid": "1268301",
    "final_x": "3686016.97398",
    "final_y": "546233.707408",
    "longitude": "-90.05328835293862",
    "latitude": "29.995815297330473",
    "geocoded_column": {
      "latitude": "29.995815297330473",
      "longitude": "-90.05328835293862"
    }
  },
  {
    "service_request": "2026-1268300",
    "request_type": "Trash/Recycling",
    "request_reason": "Request a Large Item Pick Up",
    "date_created": "2026-03-24T16:08:43.000",
    "date_modified": "2026-03-24T16:08:45.000",
    "request_status": "Pending",
    "responsible_agency": "Department of Sanitation",
    "final_address": "6501 Wales St",
    "address_councildis": "E",
    "status": "Assigned to Contractor",
    "contractor": "Waste Pro",
    "rowid": "1268300",
    "final_x": "3696926.26973",
    "final_y": "560269.432733",
    "longitude": "-90.01831815522675",
    "latitude": "30.034068646920286",
    "geocoded_column": {
      "latitude": "30.034068646920286",
      "longitude": "-90.01831815522675"
    }
  },
  {
    "service_request": "2026-1268299",
    "request_type": "Streetlights",
    "request_reason": "Streetlight Outage/Malfunction",
    "date_created": "2026-03-24T16:07:42.000",
    "date_modified": "2026-03-24T16:07:44.000",
    "request_status": "Pending",
    "responsible_agency": "Department of Public Works",
    "final_address": "11051 Harrow Rd",
    "address_councildis": "E",
    "status": "Pending",
    "rowid": "1268299",
    "final_x": "3711980.31032",
    "final_y": "564152.278881",
    "longitude": "-89.97060002265906",
    "latitude": "30.04426128315203",
    "geocoded_column": {
      "latitude": "30.04426128315203",
      "longitude": "-89.97060002265906"
    }
  },
  {
    "service_request": "2026-1268298",
    "request_type": "Street and Traffic Signs",
    "request_reason": "Traffic or Parking Sign Damaged or Missing",
    "date_created": "2026-03-24T16:07:28.000",
    "date_modified": "2026-03-24T16:07:30.000",
    "request_status": "Pending",
    "responsible_agency": "Department of Public Works",
    "final_address": "BROADWAY ST & HAMPSON ST",
    "address_councildis": "A",
    "status": "Pending",
    "rowid": "1268298",
    "final_x": "3663192.6",
    "final_y": "525064.48",
    "longitude": "-90.12609354151101",
    "latitude": "29.938288233511624",
    "geocoded_column": {
      "latitude": "29.938288233511624",
      "longitude": "-90.12609354151101"
    }
  },
  {
    "service_request": "2026-1268297",
    "request_type": "Streetlights",
    "request_reason": "Streetlight Outage/Malfunction",
    "date_created": "2026-03-24T16:06:22.000",
    "date_modified": "2026-03-24T16:06:23.000",
    "request_status": "Pending",
    "responsible_agency": "Department of Public Works",
    "final_address": "7160 Northgate Dr",
    "address_councildis": "E",
    "status": "Pending",
    "rowid": "1268297",
    "final_x": "3713557.21419",
    "final_y": "565128.727074",
    "longitude": "-89.96557951261322",
    "latitude": "30.046894459908916",
    "geocoded_column": {
      "latitude": "30.046894459908916",
      "longitude": "-89.96557951261322"
    }
  },
  {
    "service_request": "2026-1268296",
    "request_type": "Trash/Recycling",
    "request_reason": "Request a Large Item Pick Up",
    "date_created": "2026-03-24T16:04:10.000",
    "date_modified": "2026-03-24T16:04:11.000",
    "request_status": "Pending",
    "responsible_agency": "Department of Sanitation",
    "final_address": "11300 Prentiss Ave",
    "address_councildis": "E",
    "status": "Assigned to Contractor",
    "contractor": "Waste Pro",
    "rowid": "1268296",
    "final_x": "3717057.16863",
    "final_y": "556706.107226",
    "longitude": "-89.95483816682949",
    "latitude": "30.023620315874414",
    "geocoded_column": {
      "latitude": "30.023620315874414",
      "longitude": "-89.95483816682949"
    }
  },
  {
    "service_request": "2026-1268295",
    "request_type": "Trash/Recycling",
    "request_reason": "Request a Large Item Pick Up",
    "date_created": "2026-03-24T16:03:10.000",
    "date_modified": "2026-03-24T16:25:58.000",
    "request_status": "Pending",
    "responsible_agency": "Department of Sanitation",
    "final_address": "7902 Belfast St",
    "address_councildis": "A",
    "status": "Assigned to Contractor",
    "contractor": "IV Waste",
    "rowid": "1268295",
    "final_x": "3666101.70989",
    "final_y": "531841.143683",
    "longitude": "-90.1166820005558",
    "latitude": "29.95683726899636",
    "geocoded_column": {
      "latitude": "29.95683726899636",
      "longitude": "-90.1166820005558"
    }
  },
  {
    "service_request": "2026-1268294",
    "request_type": "Trash/Recycling",
    "request_reason": "Request a Large Item Pick Up",
    "date_created": "2026-03-24T16:02:28.000",
    "date_modified": "2026-03-24T16:02:29.000",
    "request_status": "Pending",
    "responsible_agency": "Department of Sanitation",
    "final_address": "6757 Louisville St",
    "address_councildis": "A",
    "status": "Assigned to Contractor",
    "contractor": "IV Waste",
    "rowid": "1268294",
    "final_x": "3668269.37159",
    "final_y": "552529.185558",
    "longitude": "-90.10913925748213",
    "latitude": "30.013658884078406",
    "geocoded_column": {
      "latitude": "30.013658884078406",
      "longitude": "-90.10913925748213"
    }
  },
  {
    "service_request": "2026-1268293",
    "request_type": "Trash/Recycling",
    "request_reason": "Request a Large Item Pick Up",
    "date_created": "2026-03-24T16:02:23.000",
    "date_modified": "2026-03-24T16:24:49.000",
    "request_status": "Pending",
    "responsible_agency": "Department of Sanitation",
    "final_address": "5525 Pratt Dr",
    "address_councildis": "D",
    "status": "Assigned to Contractor",
    "contractor": "IV Waste",
    "rowid": "1268293",
    "final_x": "3680443.88514",
    "final_y": "552873.514519",
    "longitude": "-90.07066213472915",
    "latitude": "30.0142423990705",
    "geocoded_column": {
      "latitude": "30.0142423990705",
      "longitude": "-90.07066213472915"
    }
  },
  {
    "service_request": "2026-1268292",
    "request_type": "Trash/Recycling",
    "request_reason": "Request a Large Item Pick Up",
    "date_created": "2026-03-24T16:01:03.000",
    "date_modified": "2026-03-24T16:04:57.000",
    "request_status": "Pending",
    "responsible_agency": "Department of Sanitation",
    "final_address": "208 Chartres St",
    "address_councildis": "C",
    "status": "Assigned to Contractor",
    "contractor": "IV Waste",
    "rowid": "1268292",
    "final_x": "3681800.4758",
    "final_y": "530837.645698",
    "longitude": "-90.0671453372047",
    "latitude": "29.95361031318125",
    "geocoded_column": {
      "latitude": "29.95361031318125",
      "longitude": "-90.0671453372047"
    }
  },
  {
    "service_request": "2026-1268291",
    "request_type": "Trash/Recycling",
    "request_reason": "Order Second Trash Cart",
    "date_created": "2026-03-24T15:59:35.000",
    "date_modified": "2026-03-24T15:59:36.000",
    "request_status": "Pending",
    "responsible_agency": "Department of Sanitation",
    "final_address": "707 Tupelo St",
    "address_councildis": "E",
    "status": "Assigned to Contractor",
    "contractor": "Waste Pro",
    "rowid": "1268291",
    "final_x": "3699067.70903",
    "final_y": "531986.697283",
    "longitude": "-90.01258117600175",
    "latitude": "29.956233845103185",
    "geocoded_column": {
      "latitude": "29.956233845103185",
      "longitude": "-90.01258117600175"
    }
  },
  {
    "service_request": "2026-1268290",
    "request_type": "Trash/Recycling",
    "request_reason": "Repair Trash Cart",
    "date_created": "2026-03-24T15:57:25.000",
    "date_modified": "2026-03-24T15:58:07.000",
    "request_status": "Pending",
    "responsible_agency": "Department of Sanitation",
    "final_address": "4219 S Liberty St",
    "address_councildis": "B",
    "status": "Assigned to Contractor",
    "contractor": "IV Waste",
    "rowid": "1268290",
    "final_x": "3671170.72865",
    "final_y": "523451.513851",
    "longitude": "-90.10096053481031",
    "latitude": "29.933619559384514",
    "geocoded_column": {
      "latitude": "29.933619559384514",
      "longitude": "-90.10096053481031"
    }
  },
  {
    "service_request": "2026-1268289",
    "request_type": "Trash/Recycling",
    "request_reason": "Return Recycling Cart",
    "date_created": "2026-03-24T15:54:16.000",
    "date_modified": "2026-03-24T15:54:18.000",
    "request_status": "Pending",
    "responsible_agency": "Department of Sanitation",
    "final_address": "2775 Madrid St",
    "address_councildis": "D",
    "status": "Pending",
    "rowid": "1268289",
    "final_x": "3687729.7679",
    "final_y": "555721.694937",
    "longitude": "-90.04754147042331",
    "latitude": "30.021851067572225",
    "geocoded_column": {
      "latitude": "30.021851067572225",
      "longitude": "-90.04754147042331"
    }
  },
  {
    "service_request": "2026-1268288",
    "request_type": "Trash/Recycling",
    "request_reason": "Request a Large Item Pick Up",
    "date_created": "2026-03-24T15:48:44.000",
    "date_modified": "2026-03-24T15:48:46.000",
    "request_status": "Pending",
    "responsible_agency": "Department of Sanitation",
    "final_address": "607 N St Patrick St",
    "address_councildis": "A",
    "status": "Assigned to Contractor",
    "contractor": "IV Waste",
    "rowid": "1268288",
    "final_x": "3670216.83745",
    "final_y": "541373.476044",
    "longitude": "-90.10336459959338",
    "latitude": "29.98292719968493",
    "geocoded_column": {
      "latitude": "29.98292719968493",
      "longitude": "-90.10336459959338"
    }
  },
  {
    "service_request": "2026-1268287",
    "request_type": "Trash/Recycling",
    "request_reason": "Request a Large Item Pick Up",
    "date_created": "2026-03-24T15:48:42.000",
    "date_modified": "2026-03-24T16:24:17.000",
    "request_status": "Pending",
    "responsible_agency": "Department of Sanitation",
    "final_address": "5825 Music St",
    "address_councildis": "D",
    "status": "Assigned to Contractor",
    "contractor": "IV Waste",
    "rowid": "1268287",
    "final_x": "3685431.1526",
    "final_y": "554584.882136",
    "longitude": "-90.0548445639846",
    "latitude": "30.01879597465425",
    "geocoded_column": {
      "latitude": "30.01879597465425",
      "longitude": "-90.0548445639846"
    }
  },
  {
    "service_request": "2026-1268286",
    "request_type": "Street and Traffic Signs",
    "request_reason": "Street Name Sign Damaged or Missing",
    "date_created": "2026-03-24T15:45:22.000",
    "date_modified": "2026-03-24T15:45:24.000",
    "request_status": "Pending",
    "responsible_agency": "Department of Public Works",
    "final_address": "MARCONI DR & SWAN ST",
    "address_councildis": "D",
    "status": "Pending",
    "rowid": "1268286",
    "final_x": "3672342.0",
    "final_y": "557600.98",
    "longitude": "-90.09609881399967",
    "latitude": "30.02748423315325",
    "geocoded_column": {
      "latitude": "30.02748423315325",
      "longitude": "-90.09609881399967"
    }
  },
  {
    "service_request": "2026-1268285",
    "request_type": "Trash/Recycling",
    "request_reason": "Illegal Dumping",
    "date_created": "2026-03-24T15:43:50.000",
    "date_modified": "2026-03-24T15:43:51.000",
    "request_status": "Pending",
    "responsible_agency": "Department of Sanitation",
    "final_address": "1300 BLK Magnolia St",
    "address_councildis": "B",
    "status": "Pending",
    "rowid": "1268285",
    "final_x": "3676136.76678",
    "final_y": "528009.719687",
    "longitude": "-90.08512624108378",
    "latitude": "29.946005331181055",
    "geocoded_column": {
      "latitude": "29.946005331181055",
      "longitude": "-90.08512624108378"
    }
  },
  {
    "service_request": "2026-1268284",
    "request_type": "Trash/Recycling",
    "request_reason": "Replace Trash Cart",
    "date_created": "2026-03-24T15:42:16.000",
    "date_modified": "2026-03-24T15:42:17.000",
    "request_status": "Pending",
    "responsible_agency": "Department of Sanitation",
    "final_address": "4837 Virgilian St",
    "address_councildis": "D",
    "status": "Assigned to Contractor",
    "contractor": "Waste Pro",
    "rowid": "1268284",
    "final_x": "3697505.53367",
    "final_y": "554332.309208",
    "longitude": "-90.01670320289696",
    "latitude": "30.01772553231827",
    "geocoded_column": {
      "latitude": "30.01772553231827",
      "longitude": "-90.01670320289696"
    }
  },
  {
    "service_request": "2026-1268283",
    "request_type": "Trash/Recycling",
    "request_reason": "Replace Recycling Cart",
    "date_created": "2026-03-24T15:41:07.000",
    "date_modified": "2026-03-24T15:41:08.000",
    "request_status": "Pending",
    "responsible_agency": "Department of Sanitation",
    "final_address": "3533 S Liberty St",
    "address_councildis": "B",
    "status": "Pending",
    "rowid": "1268283",
    "final_x": "3672561.85659",
    "final_y": "523643.558523",
    "longitude": "-90.09656226379872",
    "latitude": "29.93410640661636",
    "geocoded_column": {
      "latitude": "29.93410640661636",
      "longitude": "-90.09656226379872"
    }
  },
  {
    "service_request": "2026-1268282",
    "request_type": "Trash/Recycling",
    "request_reason": "Request a Large Item Pick Up",
    "date_created": "2026-03-24T15:39:15.000",
    "date_modified": "2026-03-24T15:39:17.000",
    "request_status": "Pending",
    "responsible_agency": "Department of Sanitation",
    "final_address": "4608 Crowder Blvd",
    "address_councildis": "E",
    "status": "Assigned to Contractor",
    "contractor": "Waste Pro",
    "rowid": "1268282",
    "final_x": "3706421.20843",
    "final_y": "554703.914456",
    "longitude": "-89.98851960619247",
    "latitude": "30.018462601873857",
    "geocoded_column": {
      "latitude": "30.018462601873857",
      "longitude": "-89.98851960619247"
    }
  },
  {
    "service_request": "2026-1268281",
    "request_type": "Street and Traffic Signs",
    "request_reason": "Stop Sign Missing or Damaged",
    "date_created": "2026-03-24T15:30:12.000",
    "date_modified": "2026-03-24T15:30:13.000",
    "request_status": "Pending",
    "responsible_agency": "Department of Public Works",
    "final_address": "PLEASURE ST & HAVANA PL",
    "address_councildis": "D",
    "status": "Pending",
    "rowid": "1268281",
    "final_x": "3680885.6",
    "final_y": "544870.38",
    "longitude": "-90.06954542449377",
    "latitude": "29.992223251616497",
    "geocoded_column": {
      "latitude": "29.992223251616497",
      "longitude": "-90.06954542449377"
    }
  },
  {
    "service_request": "2026-1268280",
    "request_type": "Roads and Streets",
    "request_reason": "Street Subsidence (Sinking)",
    "date_created": "2026-03-24T15:30:09.000",
    "date_modified": "2026-03-24T15:30:11.000",
    "request_status": "Pending",
    "responsible_agency": "Sewerage & Water Board",
    "final_address": "2061 Rousseau St",
    "address_councildis": "B",
    "status": "Pending",
    "rowid": "1268280",
    "final_x": "3680611.37224",
    "final_y": "520657.303289",
    "longitude": "-90.07125408754324",
    "latitude": "29.925653832359096",
    "geocoded_column": {
      "latitude": "29.925653832359096",
      "longitude": "-90.07125408754324"
    }
  },
  {
    "service_request": "2026-1268279",
    "request_type": "Street and Traffic Signs",
    "request_reason": "Stop Sign Missing or Damaged",
    "date_created": "2026-03-24T15:29:01.000",
    "date_modified": "2026-03-24T15:29:03.000",
    "request_status": "Pending",
    "responsible_agency": "Department of Public Works",
    "final_address": "REPUBLIC ST & PLEASURE ST",
    "address_councildis": "D",
    "status": "Pending",
    "rowid": "1268279",
    "final_x": "3680518.1",
    "final_y": "544841.88",
    "longitude": "-90.07070727594007",
    "latitude": "29.992156026667775",
    "geocoded_column": {
      "latitude": "29.992156026667775",
      "longitude": "-90.07070727594007"
    }
  },
  {
    "service_request": "2026-1268278",
    "request_type": "Trash/Recycling",
    "request_reason": "Repair Trash Cart",
    "date_created": "2026-03-24T15:27:55.000",
    "date_modified": "2026-03-24T15:31:46.000",
    "request_status": "Pending",
    "responsible_agency": "Department of Sanitation",
    "final_address": "4612 Magnolia St",
    "address_councildis": "B",
    "status": "Assigned to Contractor",
    "contractor": "IV Waste",
    "rowid": "1268278",
    "final_x": "3669584.66887",
    "final_y": "524617.095868",
    "longitude": "-90.10592824105912",
    "latitude": "29.93687134463764",
    "geocoded_column": {
      "latitude": "29.93687134463764",
      "longitude": "-90.10592824105912"
    }
  },
  {
    "service_request": "2026-1268277",
    "request_type": "Trash/Recycling",
    "request_reason": "Request a Large Item Pick Up",
    "date_created": "2026-03-24T15:27:40.000",
    "date_modified": "2026-03-24T15:27:42.000",
    "request_status": "Pending",
    "responsible_agency": "Department of Sanitation",
    "final_address": "4546 Stemway Dr",
    "address_councildis": "D",
    "status": "Assigned to Contractor",
    "contractor": "Waste Pro",
    "rowid": "1268277",
    "final_x": "3696934.52061",
    "final_y": "553237.446295",
    "longitude": "-90.0185470655372",
    "latitude": "30.014733100799962",
    "geocoded_column": {
      "latitude": "30.014733100799962",
      "longitude": "-90.0185470655372"
    }
  },
  {
    "service_request": "2026-1268276",
    "request_type": "Trash/Recycling",
    "request_reason": "Return Trash Cart",
    "date_created": "2026-03-24T15:27:21.000",
    "date_modified": "2026-03-24T15:27:23.000",
    "request_status": "Pending",
    "responsible_agency": "Department of Sanitation",
    "final_address": "5801 S Claiborne Ave",
    "address_councildis": "B",
    "status": "Assigned to Contractor",
    "contractor": "IV Waste",
    "rowid": "1268276",
    "final_x": "3667635.2473",
    "final_y": "526968.123006",
    "longitude": "-90.11200357189315",
    "latitude": "29.94339318682717",
    "geocoded_column": {
      "latitude": "29.94339318682717",
      "longitude": "-90.11200357189315"
    }
  },
  {
    "service_request": "2026-1268275",
    "request_type": "Trash/Recycling",
    "request_reason": "Request a Large Item Pick Up",
    "date_created": "2026-03-24T15:24:23.000",
    "date_modified": "2026-03-24T15:24:24.000",
    "request_status": "Pending",
    "responsible_agency": "Department of Sanitation",
    "final_address": "6661 Coventry St",
    "address_councildis": "E",
    "status": "Assigned to Contractor",
    "contractor": "Waste Pro",
    "rowid": "1268275",
    "final_x": "3697879.8993",
    "final_y": "559501.449949",
    "longitude": "-90.01533249675109",
    "latitude": "30.031926863090238",
    "geocoded_column": {
      "latitude": "30.031926863090238",
      "longitude": "-90.01533249675109"
    }
  },
  {
    "service_request": "2026-1268274",
    "request_type": "Streetlights",
    "request_reason": "Streetlight Outage/Malfunction",
    "date_created": "2026-03-24T15:23:38.000",
    "date_modified": "2026-03-24T15:23:39.000",
    "request_status": "Pending",
    "responsible_agency": "Department of Public Works",
    "final_address": "4141 Vendome Pl",
    "address_councildis": "B",
    "status": "Pending",
    "rowid": "1268274",
    "final_x": "3668974.60116",
    "final_y": "530705.950978",
    "longitude": "-90.10764863834834",
    "latitude": "29.953631672790085",
    "geocoded_column": {
      "latitude": "29.953631672790085",
      "longitude": "-90.10764863834834"
    }
  },
  {
    "service_request": "2026-1268273",
    "request_type": "Trash/Recycling",
    "request_reason": "Request a Large Item Pick Up",
    "date_created": "2026-03-24T15:22:18.000",
    "date_modified": "2026-03-24T15:22:20.000",
    "request_status": "Pending",
    "responsible_agency": "Department of Sanitation",
    "final_address": "1416 Lizardi St",
    "address_councildis": "E",
    "status": "Assigned to Contractor",
    "contractor": "Waste Pro",
    "rowid": "1268273",
    "final_x": "3696847.59415",
    "final_y": "535412.36135",
    "longitude": "-90.01946748001806",
    "latitude": "29.965723384933657",
    "geocoded_column": {
      "latitude": "29.965723384933657",
      "longitude": "-90.01946748001806"
    }
  },
  {
    "service_request": "2026-1268272",
    "request_type": "Trash/Recycling",
    "request_reason": "Repair Trash Cart",
    "date_created": "2026-03-24T15:17:29.000",
    "date_modified": "2026-03-24T15:17:31.000",
    "request_status": "Pending",
    "responsible_agency": "Department of Sanitation",
    "final_address": "7615 Mercier St",
    "address_councildis": "E",
    "status": "Assigned to Contractor",
    "contractor": "Waste Pro",
    "rowid": "1268272",
    "final_x": "3711474.87736",
    "final_y": "566516.730979",
    "longitude": "-89.97210862892638",
    "latitude": "30.05077908960563",
    "geocoded_column": {
      "latitude": "30.05077908960563",
      "longitude": "-89.97210862892638"
    }
  },
  {
    "service_request": "2026-1268271",
    "request_type": "Roads and Streets",
    "request_reason": "Pothole",
    "date_created": "2026-03-24T15:16:44.000",
    "date_modified": "2026-03-24T15:16:46.000",
    "request_status": "Pending",
    "responsible_agency": "Department of Public Works",
    "final_address": "1600 BLK Saint Mary St",
    "address_councildis": "B",
    "status": "Pending",
    "rowid": "1268271",
    "final_x": "3678200.97099",
    "final_y": "524511.7923",
    "longitude": "-90.07872976979411",
    "latitude": "29.936325197548683",
    "geocoded_column": {
      "latitude": "29.936325197548683",
      "longitude": "-90.07872976979411"
    }
  },
  {
    "service_request": "2026-1268270",
    "request_type": "Trash/Recycling",
    "request_reason": "MIssed Recycling Pick-Up",
    "date_created": "2026-03-24T15:12:44.000",
    "date_modified": "2026-03-24T15:17:10.000",
    "request_status": "Pending",
    "responsible_agency": "Department of Sanitation",
    "final_address": "7615 Mercier St",
    "address_councildis": "E",
    "status": "Assigned to Contractor",
    "contractor": "Waste Pro",
    "rowid": "1268270",
    "final_x": "3711474.87736",
    "final_y": "566516.730979",
    "longitude": "-89.97210862892638",
    "latitude": "30.05077908960563",
    "geocoded_column": {
      "latitude": "30.05077908960563",
      "longitude": "-89.97210862892638"
    }
  },
  {
    "service_request": "2026-1268269",
    "request_type": "Safety & Permits",
    "request_reason": "Zoning Enforcement",
    "date_created": "2026-03-24T15:12:06.000",
    "date_modified": "2026-03-24T15:15:56.000",
    "request_status": "Pending",
    "responsible_agency": "Safety and Permits",
    "final_address": "2221 Music St",
    "address_councildis": "D",
    "status": "Pending",
    "rowid": "1268269",
    "final_x": "3686565.92713",
    "final_y": "540709.781451",
    "longitude": "-90.05174942778288",
    "latitude": "29.9806095957915",
    "geocoded_column": {
      "latitude": "29.9806095957915",
      "longitude": "-90.05174942778288"
    }
  },
  {
    "service_request": "2026-1268268",
    "request_type": "Trash/Recycling",
    "request_reason": "Order Recycling Cart",
    "date_created": "2026-03-24T15:07:28.000",
    "date_modified": "2026-03-24T15:07:31.000",
    "request_status": "Pending",
    "responsible_agency": "Department of Sanitation",
    "final_address": "1827 Eighth St",
    "address_councildis": "B",
    "status": "Pending",
    "rowid": "1268268",
    "final_x": "3674514.76232",
    "final_y": "522698.664698",
    "longitude": "-90.09042936027292",
    "latitude": "29.93145015115798",
    "geocoded_column": {
      "latitude": "29.93145015115798",
      "longitude": "-90.09042936027292"
    }
  },
  {
    "service_request": "2026-1268267",
    "request_type": "Trash/Recycling",
    "request_reason": "Request a Large Item Pick Up",
    "date_created": "2026-03-24T15:03:09.000",
    "date_modified": "2026-03-24T15:03:11.000",
    "request_status": "Pending",
    "responsible_agency": "Department of Sanitation",
    "final_address": "1814 Gentilly Blvd",
    "address_councildis": "D",
    "status": "Assigned to Contractor",
    "contractor": "IV Waste",
    "rowid": "1268267",
    "final_x": "3678809.8667",
    "final_y": "542426.303693",
    "longitude": "-90.07618695976382",
    "latitude": "29.985565684621953",
    "geocoded_column": {
      "latitude": "29.985565684621953",
      "longitude": "-90.07618695976382"
    }
  },
  {
    "service_request": "2026-1268266",
    "request_type": "Trash/Recycling",
    "request_reason": "Request a Large Item Pick Up",
    "date_created": "2026-03-24T15:01:31.000",
    "date_modified": "2026-03-24T15:01:33.000",
    "request_status": "Pending",
    "responsible_agency": "Department of Sanitation",
    "final_address": "2021 Socrates St",
    "address_councildis": "C",
    "status": "Assigned to Contractor",
    "contractor": "Richards Disposal",
    "rowid": "1268266",
    "final_x": "3691553.43644",
    "final_y": "526200.25011",
    "longitude": "-90.03651542031508",
    "latitude": "29.940559128862404",
    "geocoded_column": {
      "latitude": "29.940559128862404",
      "longitude": "-90.03651542031508"
    }
  },
  {
    "service_request": "2026-1268265",
    "request_type": "Trash/Recycling",
    "request_reason": "Request a Large Item Pick Up",
    "date_created": "2026-03-24T14:59:31.000",
    "date_modified": "2026-03-24T14:59:35.000",
    "request_status": "Pending",
    "responsible_agency": "Department of Sanitation",
    "final_address": "731 Whitney Ave",
    "address_councildis": "C",
    "status": "Assigned to Contractor",
    "contractor": "Richards Disposal",
    "rowid": "1268265",
    "final_x": "3690039.80041",
    "final_y": "528725.4672",
    "longitude": "-90.04120430297336",
    "latitude": "29.947549629308934",
    "geocoded_column": {
      "latitude": "29.947549629308934",
      "longitude": "-90.04120430297336"
    }
  },
  {
    "service_request": "2026-1268264",
    "request_type": "Abandoned Vehicles",
    "request_reason": "Abandoned/Junk Vehicles",
    "date_created": "2026-03-24T14:58:31.000",
    "date_modified": "2026-03-24T14:59:39.000",
    "request_status": "Pending",
    "responsible_agency": "Department of Public Works",
    "final_address": "4325 St Ann St",
    "address_councildis": "A",
    "status": "Pending",
    "rowid": "1268264",
    "final_x": "3671732.70139",
    "final_y": "541216.901132",
    "longitude": "-90.09858204949153",
    "latitude": "29.982451843838295",
    "geocoded_column": {
      "latitude": "29.982451843838295",
      "longitude": "-90.09858204949153"
    }
  },
  {
    "service_request": "2026-1268263",
    "request_type": "Abandoned Vehicles",
    "request_reason": "Abandoned/Junk Vehicles",
    "date_created": "2026-03-24T14:56:03.000",
    "date_modified": "2026-03-24T14:56:04.000",
    "request_status": "Pending",
    "responsible_agency": "Department of Public Works",
    "final_address": "2500 BLK Milan St",
    "address_councildis": "B",
    "status": "Pending",
    "rowid": "1268263",
    "final_x": "3671260.74898",
    "final_y": "524290.710393",
    "longitude": "-90.10064784368147",
    "latitude": "29.93592441642773",
    "geocoded_column": {
      "latitude": "29.93592441642773",
      "longitude": "-90.10064784368147"
    }
  },
  {
    "service_request": "2026-1268262",
    "request_type": "Abandoned Vehicles",
    "request_reason": "Abandoned/Junk Vehicles",
    "date_created": "2026-03-24T14:55:45.000",
    "date_modified": "2026-03-24T14:55:47.000",
    "request_status": "Pending",
    "responsible_agency": "Department of Public Works",
    "final_address": "3149 Marais St",
    "address_councildis": "C",
    "status": "Pending",
    "rowid": "1268262",
    "final_x": "3689472.86319",
    "final_y": "536294.441543",
    "longitude": "-90.04272516327507",
    "latitude": "29.96837925083537",
    "geocoded_column": {
      "latitude": "29.96837925083537",
      "longitude": "-90.04272516327507"
    }
  },
  {
    "service_request": "2026-1268261",
    "request_type": "Abandoned Vehicles",
    "request_reason": "Abandoned/Junk Vehicles",
    "date_created": "2026-03-24T14:54:43.000",
    "date_modified": "2026-03-24T14:54:45.000",
    "request_status": "Pending",
    "responsible_agency": "Department of Public Works",
    "final_address": "1516 Ursulines Ave",
    "address_councildis": "C",
    "status": "Pending",
    "rowid": "1268261",
    "final_x": "3681074.33525",
    "final_y": "535427.986054",
    "longitude": "-90.06927828566431",
    "latitude": "29.966254229919794",
    "geocoded_column": {
      "latitude": "29.966254229919794",
      "longitude": "-90.06927828566431"
    }
  },
  {
    "service_request": "2026-1268260",
    "request_type": "City-Owned Cemeteries",
    "request_reason": "Property Maintenance",
    "date_created": "2026-03-24T14:53:59.000",
    "date_modified": "2026-03-24T14:54:01.000",
    "request_status": "Pending",
    "responsible_agency": "Department of Property Management",
    "final_address": "7409 Spruce St",
    "address_councildis": "A",
    "status": "Pending",
    "rowid": "1268260",
    "final_x": "3665199.88064",
    "final_y": "529277.096833",
    "longitude": "-90.1196154634946",
    "latitude": "29.94981327211562",
    "geocoded_column": {
      "latitude": "29.94981327211562",
      "longitude": "-90.1196154634946"
    }
  },
  {
    "service_request": "2026-1268259",
    "request_type": "Trash/Recycling",
    "request_reason": "Request a Large Item Pick Up",
    "date_created": "2026-03-24T14:48:05.000",
    "date_modified": "2026-03-24T14:48:07.000",
    "request_status": "Pending",
    "responsible_agency": "Department of Sanitation",
    "final_address": "4110 Dale St",
    "address_councildis": "E",
    "status": "Assigned to Contractor",
    "contractor": "Waste Pro",
    "rowid": "1268259",
    "final_x": "3699712.83447",
    "final_y": "551797.716566",
    "longitude": "-90.00982153781194",
    "latitude": "30.010686438504262",
    "geocoded_column": {
      "latitude": "30.010686438504262",
      "longitude": "-90.00982153781194"
    }
  },
  {
    "service_request": "2026-1268258",
    "request_type": "Trash/Recycling",
    "request_reason": "Request a Large Item Pick Up",
    "date_created": "2026-03-24T14:48:03.000",
    "date_modified": "2026-03-24T14:48:05.000",
    "request_status": "Pending",
    "responsible_agency": "Department of Sanitation",
    "final_address": "7710 N Coronet Ct",
    "address_councildis": "E",
    "status": "Assigned to Contractor",
    "contractor": "Waste Pro",
    "rowid": "1268258",
    "final_x": "3702458.33661",
    "final_y": "557474.842843",
    "longitude": "-90.000938932786",
    "latitude": "30.02620887958794",
    "geocoded_column": {
      "latitude": "30.02620887958794",
      "longitude": "-90.000938932786"
    }
  },
  {
    "service_request": "2026-1268257",
    "request_type": "Utility Poles",
    "request_reason": "Utility Pole Leaning",
    "date_created": "2026-03-24T14:47:20.000",
    "date_modified": "2026-03-24T14:47:21.000",
    "request_status": "Pending",
    "responsible_agency": "Utility Company Collective",
    "final_address": "4700 BLK Saint Peter St",
    "address_councildis": "A",
    "status": "Pending",
    "rowid": "1268257",
    "final_x": "3670265.49506",
    "final_y": "541660.217976",
    "longitude": "-90.103201190706",
    "latitude": "29.98371420604082",
    "geocoded_column": {
      "latitude": "29.98371420604082",
      "longitude": "-90.103201190706"
    }
  },
  {
    "service_request": "2026-1268256",
    "request_type": "Roads and Streets",
    "request_reason": "Debris in Driving Lanes",
    "date_created": "2026-03-24T14:41:53.000",
    "date_modified": "2026-03-24T14:41:55.000",
    "request_status": "Pending",
    "responsible_agency": "Department of Public Works",
    "final_address": "0 E Interstate 510 Service Rd",
    "address_councildis": "E",
    "status": "Pending",
    "rowid": "1268256",
    "final_x": "3722341.92652",
    "final_y": "560297.487581",
    "longitude": "-89.93800144683745",
    "latitude": "30.03331928245021",
    "geocoded_column": {
      "latitude": "30.03331928245021",
      "longitude": "-89.93800144683745"
    }
  },
  {
    "service_request": "2026-1268255",
    "request_type": "Trash/Recycling",
    "request_reason": "Request a Large Item Pick Up",
    "date_created": "2026-03-24T14:35:32.000",
    "date_modified": "2026-03-24T16:23:32.000",
    "request_status": "Pending",
    "responsible_agency": "Department of Sanitation",
    "final_address": "5387 Charlotte Dr",
    "address_councildis": "D",
    "status": "Assigned to Contractor",
    "contractor": "IV Waste",
    "rowid": "1268255",
    "final_x": "3680166.8516",
    "final_y": "552305.825366",
    "longitude": "-90.07155717280224",
    "latitude": "30.012689850365504",
    "geocoded_column": {
      "latitude": "30.012689850365504",
      "longitude": "-90.07155717280224"
    }
  },
  {
    "service_request": "2026-1268254",
    "request_type": "Utility Poles",
    "request_reason": "Utility Pole Leaning",
    "date_created": "2026-03-24T14:35:02.000",
    "date_modified": "2026-03-24T14:35:06.000",
    "request_status": "Pending",
    "responsible_agency": "Utility Company Collective",
    "final_address": "4714 St Peter St",
    "address_councildis": "A",
    "status": "Pending",
    "rowid": "1268254",
    "final_x": "3670278.33953",
    "final_y": "541598.37998",
    "longitude": "-90.10316271783762",
    "latitude": "29.98354379346871",
    "geocoded_column": {
      "latitude": "29.98354379346871",
      "longitude": "-90.10316271783762"
    }
  },
  {
    "service_request": "2026-1268253",
    "request_type": "Trash/Recycling",
    "request_reason": "Request a Large Item Pick Up",
    "date_created": "2026-03-24T14:32:50.000",
    "date_modified": "2026-03-24T14:32:52.000",
    "request_status": "Pending",
    "responsible_agency": "Department of Sanitation",
    "final_address": "2821 General Pershing St",
    "address_councildis": "B",
    "status": "Assigned to Contractor",
    "contractor": "IV Waste",
    "rowid": "1268253",
    "final_x": "3670863.68039",
    "final_y": "525295.537341",
    "longitude": "-90.10186730742465",
    "latitude": "29.93869910510978",
    "geocoded_column": {
      "latitude": "29.93869910510978",
      "longitude": "-90.10186730742465"
    }
  },
  {
    "service_request": "2026-1268251",
    "request_type": "Health Related Request",
    "request_reason": "Homeless Encampment Complaint",
    "date_created": "2026-03-24T14:32:34.000",
    "date_modified": "2026-03-24T14:32:35.000",
    "request_status": "Pending",
    "responsible_agency": "Office Of Homeless Services And Strategy",
    "final_address": "2028 Marais St",
    "address_councildis": "C",
    "status": "Pending",
    "rowid": "1268251",
    "final_x": "3684431.6109",
    "final_y": "536599.916423",
    "longitude": "-90.05863492076256",
    "latitude": "29.969374368068074",
    "geocoded_column": {
      "latitude": "29.969374368068074",
      "longitude": "-90.05863492076256"
    }
  },
  {
    "service_request": "2026-1268250",
    "request_type": "Trash/Recycling",
    "request_reason": "Request a Large Item Pick Up",
    "date_created": "2026-03-24T14:32:33.000",
    "date_modified": "2026-03-24T14:32:34.000",
    "request_status": "Pending",
    "responsible_agency": "Department of Sanitation",
    "final_address": "5940 Marshal Foch St",
    "address_councildis": "A",
    "status": "Assigned to Contractor",
    "contractor": "IV Waste",
    "rowid": "1268250",
    "final_x": "3669700.82964",
    "final_y": "546863.071313",
    "longitude": "-90.10480851771048",
    "latitude": "29.998036922264994",
    "geocoded_column": {
      "latitude": "29.998036922264994",
      "longitude": "-90.10480851771048"
    }
  },
  {
    "service_request": "2026-1268249",
    "request_type": "Trash/Recycling",
    "request_reason": "Illegal Dumping",
    "date_created": "2026-03-24T14:32:29.000",
    "date_modified": "2026-03-24T14:32:30.000",
    "request_status": "Pending",
    "responsible_agency": "Department of Sanitation",
    "final_address": "6116 Kuebel Dr",
    "address_councildis": "E",
    "status": "Pending",
    "rowid": "1268249",
    "final_x": "3695605.46653",
    "final_y": "559835.294429",
    "longitude": "-90.02250773594419",
    "latitude": "30.032916546055546",
    "geocoded_column": {
      "latitude": "30.032916546055546",
      "longitude": "-90.02250773594419"
    }
  },
  {
    "service_request": "2026-1268248",
    "request_type": "Safety & Permits",
    "request_reason": "Zoning Enforcement",
    "date_created": "2026-03-24T14:30:59.000",
    "date_modified": "2026-03-24T14:53:15.000",
    "case_close_date": "2026-03-24T09:53:14.000",
    "request_status": "Closed",
    "responsible_agency": "Safety and Permits",
    "final_address": "8200 Willow St",
    "address_councildis": "A",
    "status": "Resolved",
    "rowid": "1268248",
    "final_x": "3662101.86599",
    "final_y": "529136.635328",
    "longitude": "-90.12940203059486",
    "latitude": "29.949516915823203",
    "geocoded_column": {
      "latitude": "29.949516915823203",
      "longitude": "-90.12940203059486"
    }
  },
  {
    "service_request": "2026-1268247",
    "request_type": "Trash/Recycling",
    "request_reason": "Order Second Trash Cart",
    "date_created": "2026-03-24T14:29:55.000",
    "date_modified": "2026-03-24T14:29:58.000",
    "request_status": "Pending",
    "responsible_agency": "Department of Sanitation",
    "final_address": "9325 Palm St",
    "address_councildis": "A",
    "status": "Assigned to Contractor",
    "contractor": "IV Waste",
    "rowid": "1268247",
    "final_x": "3664422.98503",
    "final_y": "537798.622216",
    "longitude": "-90.1217839973082",
    "latitude": "29.973267281182952",
    "geocoded_column": {
      "latitude": "29.973267281182952",
      "longitude": "-90.1217839973082"
    }
  },
  {
    "service_request": "2026-1268246",
    "request_type": "Property Maintenance",
    "request_reason": "Property Maintenance",
    "date_created": "2026-03-24T14:29:51.000",
    "date_modified": "2026-03-24T14:30:20.000",
    "request_status": "Pending",
    "responsible_agency": "Department of Code Enforcement",
    "final_address": "1140 Frenchmen St",
    "address_councildis": "C",
    "status": "Pending",
    "rowid": "1268246",
    "final_x": "3684532.95471",
    "final_y": "536589.508423",
    "longitude": "-90.05831523526206",
    "latitude": "29.96934264931081",
    "geocoded_column": {
      "latitude": "29.96934264931081",
      "longitude": "-90.05831523526206"
    }
  },
  {
    "service_request": "2026-1268245",
    "request_type": "Trash/Recycling",
    "request_reason": "Request a Large Item Pick Up",
    "date_created": "2026-03-24T14:29:40.000",
    "date_modified": "2026-03-24T14:29:42.000",
    "request_status": "Pending",
    "responsible_agency": "Department of Sanitation",
    "final_address": "4231 America St",
    "address_councildis": "E",
    "status": "Assigned to Contractor",
    "contractor": "Waste Pro",
    "rowid": "1268245",
    "final_x": "3700036.83972",
    "final_y": "552309.362966",
    "longitude": "-90.00877920036596",
    "latitude": "30.012082978512716",
    "geocoded_column": {
      "latitude": "30.012082978512716",
      "longitude": "-90.00877920036596"
    }
  },
  {
    "service_request": "2026-1268243",
    "request_type": "Trash/Recycling",
    "request_reason": "Repair Recycling Cart",
    "date_created": "2026-03-24T14:27:27.000",
    "date_modified": "2026-03-24T14:27:29.000",
    "request_status": "Pending",
    "responsible_agency": "Department of Sanitation",
    "final_address": "4061 Piedmont Dr",
    "address_councildis": "D",
    "status": "Pending",
    "rowid": "1268243",
    "final_x": "3685166.86089",
    "final_y": "547646.893586",
    "longitude": "-90.0559240168407",
    "latitude": "29.99972713727435",
    "geocoded_column": {
      "latitude": "29.99972713727435",
      "longitude": "-90.0559240168407"
    }
  },
  {
    "service_request": "2026-1268242",
    "request_type": "Trash/Recycling",
    "request_reason": "Request a Large Item Pick Up",
    "date_created": "2026-03-24T14:24:37.000",
    "date_modified": "2026-03-24T14:24:39.000",
    "request_status": "Pending",
    "responsible_agency": "Department of Sanitation",
    "final_address": "1900 Seventh St",
    "address_councildis": "B",
    "status": "Assigned to Contractor",
    "contractor": "IV Waste",
    "rowid": "1268242",
    "final_x": "3674600.1874",
    "final_y": "523002.211515",
    "longitude": "-90.09014928654604",
    "latitude": "29.932282258230316",
    "geocoded_column": {
      "latitude": "29.932282258230316",
      "longitude": "-90.09014928654604"
    }
  },
  {
    "service_request": "2026-1268241",
    "request_type": "Trash/Recycling",
    "request_reason": "Repair Trash Cart",
    "date_created": "2026-03-24T14:24:16.000",
    "date_modified": "2026-03-24T14:24:18.000",
    "request_status": "Pending",
    "responsible_agency": "Department of Sanitation",
    "final_address": "429 S Alexander St",
    "address_councildis": "A",
    "status": "Assigned to Contractor",
    "contractor": "IV Waste",
    "rowid": "1268241",
    "final_x": "3669053.11438",
    "final_y": "537987.409545",
    "longitude": "-90.10715468735414",
    "latitude": "29.973650956964146",
    "geocoded_column": {
      "latitude": "29.973650956964146",
      "longitude": "-90.10715468735414"
    }
  },
  {
    "service_request": "2026-1268240",
    "request_type": "Safety & Permits",
    "request_reason": "Licenses & Permits",
    "date_created": "2026-03-24T14:20:07.000",
    "date_modified": "2026-03-24T14:50:02.000",
    "case_close_date": "2026-03-24T09:50:01.000",
    "request_status": "Closed",
    "responsible_agency": "Safety and Permits",
    "final_address": "1200 Teche St",
    "address_councildis": "C",
    "status": "Resolved",
    "rowid": "1268240",
    "final_x": "3686667.63503",
    "final_y": "527107.528895",
    "longitude": "-90.05190864423092",
    "latitude": "29.943204978746575",
    "geocoded_column": {
      "latitude": "29.943204978746575",
      "longitude": "-90.05190864423092"
    }
  },
  {
    "service_request": "2026-1268239",
    "request_type": "Abandoned Vehicles",
    "request_reason": "Abandoned/Junk Vehicles",
    "date_created": "2026-03-24T14:17:17.000",
    "date_modified": "2026-03-24T14:17:20.000",
    "request_status": "Pending",
    "responsible_agency": "Department of Public Works",
    "final_address": "2736 Orleans Ave",
    "address_councildis": "C",
    "status": "Pending",
    "rowid": "1268239",
    "final_x": "3676480.8267",
    "final_y": "537166.809992",
    "longitude": "-90.08372462269412",
    "latitude": "29.971173941496257",
    "geocoded_column": {
      "latitude": "29.971173941496257",
      "longitude": "-90.08372462269412"
    }
  },
  {
    "service_request": "2026-1268238",
    "request_type": "Roads and Streets",
    "request_reason": "Abandoned Service Cut",
    "date_created": "2026-03-24T14:14:17.000",
    "date_modified": "2026-03-24T14:14:18.000",
    "request_status": "Pending",
    "responsible_agency": "Department of Public Works",
    "final_address": "1528 Fats Domino Ave",
    "address_councildis": "E",
    "status": "Pending",
    "rowid": "1268238",
    "final_x": "3698378.75946",
    "final_y": "535465.975942",
    "longitude": "-90.01463019595892",
    "latitude": "29.965822441544407",
    "geocoded_column": {
      "latitude": "29.965822441544407",
      "longitude": "-90.01463019595892"
    }
  },
  {
    "service_request": "2026-1268237",
    "request_type": "Trash/Recycling",
    "request_reason": "Request a Large Item Pick Up",
    "date_created": "2026-03-24T14:13:10.000",
    "date_modified": "2026-03-24T14:13:12.000",
    "request_status": "Pending",
    "responsible_agency": "Department of Sanitation",
    "final_address": "8616 Jeannette St",
    "address_councildis": "A",
    "status": "Assigned to Contractor",
    "contractor": "IV Waste",
    "rowid": "1268237",
    "final_x": "3661216.76275",
    "final_y": "530423.509378",
    "longitude": "-90.13215412048294",
    "latitude": "29.95308094802106",
    "geocoded_column": {
      "latitude": "29.95308094802106",
      "longitude": "-90.13215412048294"
    }
  },
  {
    "service_request": "2026-1268236",
    "request_type": "Streetlights",
    "request_reason": "Streetlight Outage/Malfunction",
    "date_created": "2026-03-24T14:13:02.000",
    "date_modified": "2026-03-24T14:13:04.000",
    "request_status": "Pending",
    "responsible_agency": "Department of Public Works",
    "final_address": "7641 Avalon Way",
    "address_councildis": "E",
    "status": "Pending",
    "rowid": "1268236",
    "final_x": "3708980.33476",
    "final_y": "564775.722018",
    "longitude": "-89.98005793927405",
    "latitude": "30.046073262417856",
    "geocoded_column": {
      "latitude": "30.046073262417856",
      "longitude": "-89.98005793927405"
    }
  },
  {
    "service_request": "2026-1268235",
    "request_type": "Property Maintenance",
    "request_reason": "Property Maintenance",
    "date_created": "2026-03-24T14:10:20.000",
    "date_modified": "2026-03-24T14:10:22.000",
    "request_status": "Pending",
    "responsible_agency": "Department of Code Enforcement",
    "final_address": "6116 Kuebel Dr",
    "address_councildis": "E",
    "status": "Pending",
    "rowid": "1268235",
    "final_x": "3695605.46653",
    "final_y": "559835.294429",
    "longitude": "-90.02250773594419",
    "latitude": "30.032916546055546",
    "geocoded_column": {
      "latitude": "30.032916546055546",
      "longitude": "-90.02250773594419"
    }
  },
  {
    "service_request": "2026-1268234",
    "request_type": "Trash/Recycling",
    "request_reason": "Request a Large Item Pick Up",
    "date_created": "2026-03-24T14:06:42.000",
    "date_modified": "2026-03-24T16:22:10.000",
    "request_status": "Pending",
    "responsible_agency": "Department of Sanitation",
    "final_address": "5800 Magazine St Apt 2B",
    "address_councildis": "A",
    "status": "Assigned to Contractor",
    "contractor": "IV Waste",
    "rowid": "1268234",
    "final_x": "3665432.6528",
    "final_y": "518979.188727",
    "longitude": "-90.1192250166634",
    "latitude": "29.921490523029593",
    "geocoded_column": {
      "latitude": "29.921490523029593",
      "longitude": "-90.1192250166634"
    }
  },
  {
    "service_request": "2026-1268233",
    "request_type": "Trash/Recycling",
    "request_reason": "Request a Large Item Pick Up",
    "date_created": "2026-03-24T14:00:07.000",
    "date_modified": "2026-03-24T14:00:10.000",
    "request_status": "Pending",
    "responsible_agency": "Department of Sanitation",
    "final_address": "6701 E Hermes St",
    "address_councildis": "D",
    "status": "Assigned to Contractor",
    "contractor": "Waste Pro",
    "rowid": "1268233",
    "final_x": "3697792.16247",
    "final_y": "556185.68841",
    "longitude": "-90.01573023528542",
    "latitude": "30.02281256251938",
    "geocoded_column": {
      "latitude": "30.02281256251938",
      "longitude": "-90.01573023528542"
    }
  },
  {
    "service_request": "2026-1268232",
    "request_type": "Trash/Recycling",
    "request_reason": "Replace Trash Cart",
    "date_created": "2026-03-24T13:59:24.000",
    "date_modified": "2026-03-24T13:59:25.000",
    "request_status": "Pending",
    "responsible_agency": "Department of Sanitation",
    "final_address": "246 26Th St",
    "address_councildis": "A",
    "status": "Assigned to Contractor",
    "contractor": "IV Waste",
    "rowid": "1268232",
    "final_x": "3665385.99354",
    "final_y": "549872.542484",
    "longitude": "-90.1183382762026",
    "latitude": "30.006438429064335",
    "geocoded_column": {
      "latitude": "30.006438429064335",
      "longitude": "-90.1183382762026"
    }
  },
  {
    "service_request": "2026-1268231",
    "request_type": "Trash/Recycling",
    "request_reason": "Request a Large Item Pick Up",
    "date_created": "2026-03-24T13:58:59.000",
    "date_modified": "2026-03-24T13:59:01.000",
    "request_status": "Pending",
    "responsible_agency": "Department of Sanitation",
    "final_address": "3310 Magazine St",
    "address_councildis": "B",
    "status": "Assigned to Contractor",
    "contractor": "IV Waste",
    "rowid": "1268231",
    "final_x": "3675311.25057",
    "final_y": "519705.878392",
    "longitude": "-90.08801762084411",
    "latitude": "29.923197176868143",
    "geocoded_column": {
      "latitude": "29.923197176868143",
      "longitude": "-90.08801762084411"
    }
  },
  {
    "service_request": "2026-1268230",
    "request_type": "Parks & Parkways",
    "request_reason": "Request Tree Service (Right of Way/Public Property)",
    "date_created": "2026-03-24T13:56:33.000",
    "date_modified": "2026-03-24T13:56:36.000",
    "request_status": "Pending",
    "responsible_agency": "Department of Parks & Parkway",
    "final_address": "2003 Napoleon Ave",
    "address_councildis": "B",
    "status": "Pending",
    "rowid": "1268230",
    "final_x": "3670835.74452",
    "final_y": "522371.700538",
    "longitude": "-90.10205469588594",
    "latitude": "29.93066032231826",
    "geocoded_column": {
      "latitude": "29.93066032231826",
      "longitude": "-90.10205469588594"
    }
  },
  {
    "service_request": "2026-1268229",
    "request_type": "Traffic Signals",
    "request_reason": "Traffic Signal Malfunctioning or Damaged",
    "date_created": "2026-03-24T13:56:27.000",
    "date_modified": "2026-03-24T13:56:28.000",
    "request_status": "Pending",
    "responsible_agency": "Department of Public Works",
    "final_address": "CANAL ST & ELK PL & BASIN ST",
    "address_councildis": "B",
    "status": "Pending",
    "rowid": "1268229",
    "final_x": "3679735.6",
    "final_y": "531724.58",
    "longitude": "-90.07363455869165",
    "latitude": "29.956111662169793",
    "geocoded_column": {
      "latitude": "29.956111662169793",
      "longitude": "-90.07363455869165"
    }
  },
  {
    "service_request": "2026-1268227",
    "request_type": "Street and Traffic Signs",
    "request_reason": "Additional Signage Request",
    "date_created": "2026-03-24T13:55:30.000",
    "date_modified": "2026-03-24T13:55:32.000",
    "request_status": "Pending",
    "responsible_agency": "Department of Public Works",
    "final_address": "1200 BLK Annunciation St",
    "address_councildis": "B",
    "status": "Pending",
    "rowid": "1268227",
    "final_x": "3681375.77501",
    "final_y": "525238.008695",
    "longitude": "-90.06868150977512",
    "latitude": "29.938226086825214",
    "geocoded_column": {
      "latitude": "29.938226086825214",
      "longitude": "-90.06868150977512"
    }
  },
  {
    "service_request": "2026-1268226",
    "request_type": "Abandoned Vehicles",
    "request_reason": "Abandoned/Junk Vehicles",
    "date_created": "2026-03-24T13:54:05.000",
    "date_modified": "2026-03-24T13:55:02.000",
    "request_status": "Pending",
    "responsible_agency": "Department of Public Works",
    "final_address": "2138 Spain St",
    "address_councildis": "D",
    "status": "Pending",
    "rowid": "1268226",
    "final_x": "3685777.61385",
    "final_y": "540411.122699",
    "longitude": "-90.0542497886728",
    "latitude": "29.979812609648338",
    "geocoded_column": {
      "latitude": "29.979812609648338",
      "longitude": "-90.0542497886728"
    }
  },
  {
    "service_request": "2026-1268225",
    "request_type": "Trash/Recycling",
    "request_reason": "Request a Large Item Pick Up",
    "date_created": "2026-03-24T13:54:01.000",
    "date_modified": "2026-03-24T13:56:53.000",
    "request_status": "Pending",
    "responsible_agency": "Department of Sanitation",
    "final_address": "6010 Franklin Ave",
    "address_councildis": "D",
    "status": "Assigned to Contractor",
    "contractor": "IV Waste",
    "rowid": "1268225",
    "final_x": "3686332.33276",
    "final_y": "555293.544025",
    "longitude": "-90.051972122217",
    "latitude": "30.020716854472195",
    "geocoded_column": {
      "latitude": "30.020716854472195",
      "longitude": "-90.051972122217"
    }
  },
  {
    "service_request": "2026-1268224",
    "request_type": "Trash/Recycling",
    "request_reason": "Illegal Dumping",
    "date_created": "2026-03-24T13:53:33.000",
    "date_modified": "2026-03-24T14:00:55.000",
    "request_status": "Pending",
    "responsible_agency": "Department of Sanitation",
    "final_address": "9100 BLK Old Gentilly Rd",
    "address_councildis": "E",
    "status": "Pending",
    "rowid": "1268224",
    "final_x": "3709977.93959",
    "final_y": "552701.054162",
    "longitude": "-89.97735663625252",
    "latitude": "30.012840255111055",
    "geocoded_column": {
      "latitude": "30.012840255111055",
      "longitude": "-89.97735663625252"
    }
  },
  {
    "service_request": "2026-1268223",
    "request_type": "Parks & Parkways",
    "request_reason": "Request Tree Service (Right of Way/Public Property)",
    "date_created": "2026-03-24T13:53:22.000",
    "date_modified": "2026-03-24T13:56:39.000",
    "request_status": "Pending",
    "responsible_agency": "Department of Parks & Parkway",
    "final_address": "7618 St Charles Ave",
    "address_councildis": "A",
    "status": "Pending",
    "rowid": "1268223",
    "final_x": "3661747.12179",
    "final_y": "525675.573117",
    "longitude": "-90.13063682774626",
    "latitude": "29.940010342531107",
    "geocoded_column": {
      "latitude": "29.940010342531107",
      "longitude": "-90.13063682774626"
    }
  },
  {
    "service_request": "2026-1268222",
    "request_type": "Trash/Recycling",
    "request_reason": "Request a Large Item Pick Up",
    "date_created": "2026-03-24T13:51:03.000",
    "date_modified": "2026-03-24T13:51:04.000",
    "request_status": "Pending",
    "responsible_agency": "Department of Sanitation",
    "final_address": "703 St Roch Ave",
    "address_councildis": "C",
    "status": "Assigned to Contractor",
    "contractor": "IV Waste",
    "rowid": "1268222",
    "final_x": "3686634.48713",
    "final_y": "535070.613382",
    "longitude": "-90.0517320979357",
    "latitude": "29.965101749741493",
    "geocoded_column": {
      "latitude": "29.965101749741493",
      "longitude": "-90.0517320979357"
    }
  },
  {
    "service_request": "2026-1268221",
    "request_type": "Parks & Parkways",
    "request_reason": "Request Tree Service (Right of Way/Public Property)",
    "date_created": "2026-03-24T13:50:31.000",
    "date_modified": "2026-03-24T13:50:33.000",
    "request_status": "Pending",
    "responsible_agency": "Department of Parks & Parkway",
    "final_address": "5801 St Bernard Ave",
    "address_councildis": "D",
    "status": "Pending",
    "rowid": "1268221",
    "final_x": "3676988.22152",
    "final_y": "553760.933591",
    "longitude": "-90.08154968021898",
    "latitude": "30.016786735888108",
    "geocoded_column": {
      "latitude": "30.016786735888108",
      "longitude": "-90.08154968021898"
    }
  },
  {
    "service_request": "2026-1268220",
    "request_type": "Trash/Recycling",
    "request_reason": "Order Recycling Cart",
    "date_created": "2026-03-24T13:48:42.000",
    "date_modified": "2026-03-24T13:48:43.000",
    "request_status": "Pending",
    "responsible_agency": "Department of Sanitation",
    "final_address": "6027 Memphis St",
    "address_councildis": "A",
    "status": "Pending",
    "rowid": "1268220",
    "final_x": "3669300.14554",
    "final_y": "547434.948881",
    "longitude": "-90.10605492761229",
    "latitude": "29.99962119380741",
    "geocoded_column": {
      "latitude": "29.99962119380741",
      "longitude": "-90.10605492761229"
    }
  },
  {
    "service_request": "2026-1268219",
    "request_type": "Trash/Recycling",
    "request_reason": "Request a Large Item Pick Up",
    "date_created": "2026-03-24T13:48:04.000",
    "date_modified": "2026-03-24T13:48:20.000",
    "request_status": "Pending",
    "responsible_agency": "Department of Sanitation",
    "final_address": "7733 Dogwood Dr",
    "address_councildis": "E",
    "status": "Assigned to Contractor",
    "contractor": "Waste Pro",
    "rowid": "1268219",
    "final_x": "3701189.50801",
    "final_y": "561475.559775",
    "longitude": "-90.00480167669622",
    "latitude": "30.037249807357217",
    "geocoded_column": {
      "latitude": "30.037249807357217",
      "longitude": "-90.00480167669622"
    }
  },
  {
    "service_request": "2026-1268218",
    "request_type": "Abandoned Vehicles",
    "request_reason": "Abandoned/Junk Vehicles",
    "date_created": "2026-03-24T13:46:56.000",
    "date_modified": "2026-03-24T13:46:57.000",
    "request_status": "Pending",
    "responsible_agency": "Department of Public Works",
    "final_address": "1000 BLK Gallier St",
    "address_councildis": "C",
    "status": "Pending",
    "rowid": "1268218",
    "final_x": "3690409.90294",
    "final_y": "535418.382035",
    "longitude": "-90.03979718976414",
    "latitude": "29.965941340936684",
    "geocoded_column": {
      "latitude": "29.965941340936684",
      "longitude": "-90.03979718976414"
    }
  },
  {
    "service_request": "2026-1268217",
    "request_type": "Trash/Recycling",
    "request_reason": "Request a Large Item Pick Up",
    "date_created": "2026-03-24T13:45:23.000",
    "date_modified": "2026-03-24T13:56:16.000",
    "request_status": "Pending",
    "responsible_agency": "Department of Sanitation",
    "final_address": "1128 Nashville Ave",
    "address_councildis": "A",
    "status": "Assigned to Contractor",
    "contractor": "IV Waste",
    "rowid": "1268217",
    "final_x": "3665732.63508",
    "final_y": "520218.262968",
    "longitude": "-90.11823662329108",
    "latitude": "29.924888844462647",
    "geocoded_column": {
      "latitude": "29.924888844462647",
      "longitude": "-90.11823662329108"
    }
  },
  {
    "service_request": "2026-1268216",
    "request_type": "Trash/Recycling",
    "request_reason": "Request a Large Item Pick Up",
    "date_created": "2026-03-24T13:43:19.000",
    "date_modified": "2026-03-24T13:43:20.000",
    "request_status": "Pending",
    "responsible_agency": "Department of Sanitation",
    "final_address": "1005 Sumner St",
    "address_councildis": "C",
    "status": "Assigned to Contractor",
    "contractor": "Richards Disposal",
    "rowid": "1268216",
    "final_x": "3691054.07747",
    "final_y": "527677.092223",
    "longitude": "-90.03803926655792",
    "latitude": "29.9446354695787",
    "geocoded_column": {
      "latitude": "29.9446354695787",
      "longitude": "-90.03803926655792"
    }
  },
  {
    "service_request": "2026-1268215",
    "request_type": "Streetlights",
    "request_reason": "Streetlight Outage/Malfunction",
    "date_created": "2026-03-24T13:43:17.000",
    "date_modified": "2026-03-24T13:43:19.000",
    "request_status": "Pending",
    "responsible_agency": "Department of Public Works",
    "final_address": "2672 Touro St",
    "address_councildis": "D",
    "status": "Pending",
    "rowid": "1268215",
    "final_x": "3683699.37577",
    "final_y": "542386.557453",
    "longitude": "-90.06074441267025",
    "latitude": "29.985307986227195",
    "geocoded_column": {
      "latitude": "29.985307986227195",
      "longitude": "-90.06074441267025"
    }
  },
  {
    "service_request": "2026-1268214",
    "request_type": "Trash/Recycling",
    "request_reason": "Replace Trash Cart",
    "date_created": "2026-03-24T13:42:57.000",
    "date_modified": "2026-03-24T13:42:59.000",
    "request_status": "Pending",
    "responsible_agency": "Department of Sanitation",
    "final_address": "935 Teche St",
    "address_councildis": "C",
    "status": "Assigned to Contractor",
    "contractor": "Richards Disposal",
    "rowid": "1268214",
    "final_x": "3686518.4543",
    "final_y": "527980.057279",
    "longitude": "-90.05234884722019",
    "latitude": "29.94560872242326",
    "geocoded_column": {
      "latitude": "29.94560872242326",
      "longitude": "-90.05234884722019"
    }
  },
  {
    "service_request": "2026-1268213",
    "request_type": "Trash/Recycling",
    "request_reason": "Repair Trash Cart",
    "date_created": "2026-03-24T13:41:39.000",
    "date_modified": "2026-03-24T13:41:40.000",
    "request_status": "Pending",
    "responsible_agency": "Department of Sanitation",
    "final_address": "6216 Campus Blvd",
    "address_councildis": "D",
    "status": "Assigned to Contractor",
    "contractor": "IV Waste",
    "rowid": "1268213",
    "final_x": "3688434.90179",
    "final_y": "556405.414874",
    "longitude": "-90.04528915148427",
    "latitude": "30.023709267082612",
    "geocoded_column": {
      "latitude": "30.023709267082612",
      "longitude": "-90.04528915148427"
    }
  },
  {
    "service_request": "2026-1268212",
    "request_type": "Trash/Recycling",
    "request_reason": "Request a Large Item Pick Up",
    "date_created": "2026-03-24T13:41:29.000",
    "date_modified": "2026-03-24T13:41:30.000",
    "request_status": "Pending",
    "responsible_agency": "Department of Sanitation",
    "final_address": "718 Deslonde St",
    "address_councildis": "E",
    "status": "Assigned to Contractor",
    "contractor": "Waste Pro",
    "rowid": "1268212",
    "final_x": "3694973.12899",
    "final_y": "533114.77946",
    "longitude": "-90.02546976019084",
    "latitude": "29.959464812638565",
    "geocoded_column": {
      "latitude": "29.959464812638565",
      "longitude": "-90.02546976019084"
    }
  },