[
  {
    "service_request": "2022-905654",
    "request_type": "Trash/Recycling",
    "request_reason": "Request a Large Item Pick Up",
    "date_created": "2022-08-02T00:16:41.000",
    "date_modified": "2022-08-02T00:16:42.000",
    "request_status": "Pending",
    "responsible_agency": "Department of Sanitation",
    "final_address": "1808 Desire St",
    "address_councildis": "D",
    "status": "Assigned to Contractor",
    "contractor": "Metro Disposal",
    "rowid": "905654",
    "final_x": "3690818.91708",
    "final_y": "538432.301321",
    "longitude": "-90.03839797676963",
    "latitude": "29.974215853654368",
    "geocoded_column": {
      "latitude": "29.974215853654368",
      "longitude": "-90.03839797676963"
    }
  },
  {
    "service_request": "2022-905653",
    "request_type": "Trash/Recycling",
    "request_reason": "MIssed Recycling Pick-Up",
    "date_created": "2022-08-01T23:56:57.000",
    "date_modified": "2022-08-01T23:56:58.000",
    "request_status": "Pending",
    "responsible_agency": "Department of Sanitation",
    "final_address": "3131 Dickens Dr",
    "address_councildis": "C",
    "status": "Assigned to Contractor",
    "contractor": "Richards Disposal",
    "rowid": "905653",
    "final_x": "3708272.32113",
    "final_y": "518685.824119",
    "longitude": "-89.98401095336939",
    "latitude": "29.919366233392076",
    "geocoded_column": {
      "latitude": "29.919366233392076",
      "longitude": "-89.98401095336939"
    }
  },
  {
    "service_request": "2022-905652",
    "request_type": "Traffic Signals/Signs/Striping/Streetlights",
    "request_reason": "Street Light Outage/Malfunction",
    "date_created": "2022-08-01T23:03:07.000",
    "date_modified": "2022-08-01T23:03:08.000",
    "request_status": "Pending",
    "responsible_agency": "Department of Public Works",
    "final_address": "4780 Francisco Verrett Dr",
    "address_councildis": "E",
    "status": "Pending",
    "contractor": "Royal Engineering",
    "rowid": "905652",
    "final_x": "3704107.02103",
    "final_y": "555512.056665",
    "longitude": "-89.99580172737626",
    "latitude": "30.020759159989943",
    "geocoded_column": {
      "latitude": "30.020759159989943",
      "longitude": "-89.99580172737626"
    }
  },
  {
    "service_request": "2022-905651",
    "request_type": "Traffic Signals/Signs/Striping/Streetlights",
    "request_reason": "Street Light Outage/Malfunction",
    "date_created": "2022-08-01T22:37:32.000",
    "date_modified": "2022-08-01T22:37:33.000",
    "request_status": "Pending",
    "responsible_agency": "Department of Public Works",
    "final_address": "5623 Mandeville St",
    "address_councildis": "D",
    "status": "Pending",
    "contractor": "Royal Engineering",
    "rowid": "905651",
    "final_x": "3684422.75228",
    "final_y": "553677.634327",
    "longitude": "-90.0580626487973",
    "latitude": "30.016332274736953",
    "geocoded_column": {
      "latitude": "30.016332274736953",
      "longitude": "-90.0580626487973"
    }
  },
  {
    "service_request": "2022-905650",
    "request_type": "Property Maintenance",
    "request_reason": "Property Maintenance",
    "date_created": "2022-08-01T22:35:58.000",
    "date_modified": "2022-08-01T22:35:58.000",
    "request_status": "Pending",
    "responsible_agency": "Department of Code Enforcement",
    "final_address": "6500 Manchester St",
    "address_councildis": "E",
    "status": "Pending",
    "rowid": "905650",
    "final_x": "3697328.98755",
    "final_y": "559212.958876",
    "longitude": "-90.01708387350745",
    "latitude": "30.031151035940443",
    "geocoded_column": {
      "latitude": "30.031151035940443",
      "longitude": "-90.01708387350745"
    }
  },
  {
    "service_request": "2022-905649",
    "request_type": "Trash/Recycling",
    "request_reason": "Order Recycling Cart",
    "date_created": "2022-08-01T22:29:10.000",
    "date_modified": "2022-08-01T22:29:10.000",
    "request_status": "Pending",
    "responsible_agency": "Department of Sanitation",
    "final_address": "12 Audubon Pl, New Orleans, Louisiana, 70118",
    "address_councildis": "A",
    "status": "Pending",
    "rowid": "905649",
    "final_x": "3663869.95501",
    "final_y": "524783.288124",
    "longitude": "-90.12396442700657",
    "latitude": "29.937495404836586",
    "geocoded_column": {
      "latitude": "29.937495404836586",
      "longitude": "-90.12396442700657"
    }
  },
  {
    "service_request": "2022-905648",
    "request_type": "Traffic Signals/Signs/Striping/Streetlights",
    "request_reason": "Street Light Outage/Malfunction",
    "date_created": "2022-08-01T22:09:00.000",
    "date_modified": "2022-08-01T22:09:01.000",
    "request_status": "Pending",
    "responsible_agency": "Department of Public Works",
    "final_address": "1461 Magazine St",
    "address_councildis": "B",
    "status": "Pending",
    "contractor": "Royal Engineering",
    "rowid": "905648",
    "final_x": "3680202.78491",
    "final_y": "524023.150652",
    "longitude": "-90.0724269539209",
    "latitude": "29.934921174757065",
    "geocoded_column": {
      "latitude": "29.934921174757065",
      "longitude": "-90.0724269539209"
    }
  },
  {
    "service_request": "2022-905647",
    "request_type": "Abandoned Vehicles",
    "request_reason": "Abandoned/Junk Vehicles",
    "date_created": "2022-08-01T22:03:20.000",
    "date_modified": "2022-08-01T22:03:20.000",
    "request_status": "Pending",
    "responsible_agency": "Department of Public Works",
    "final_address": "10143 Boulevard Way",
    "address_councildis": "E",
    "status": "Pending",
    "rowid": "905647",
    "final_x": "3708747.18884",
    "final_y": "564884.661282",
    "longitude": "-89.98079072796894",
    "latitude": "30.046380370806457",
    "geocoded_column": {
      "latitude": "30.046380370806457",
      "longitude": "-89.98079072796894"
    }
  },
  {
    "service_request": "2022-905646",
    "request_type": "Trash/Recycling",
    "request_reason": "Request a Large Item Pick Up",
    "date_created": "2022-08-01T21:50:17.000",
    "date_modified": "2022-08-01T21:50:18.000",
    "request_status": "Pending",
    "responsible_agency": "Department of Sanitation",
    "final_address": "808 Roosevelt Pl",
    "address_councildis": "A",
    "status": "Assigned to Contractor",
    "contractor": "Richards Disposal",
    "rowid": "905646",
    "final_x": "3673577.48078",
    "final_y": "539656.807306",
    "longitude": "-90.09280866397195",
    "latitude": "29.97810732977191",
    "geocoded_column": {
      "latitude": "29.97810732977191",
      "longitude": "-90.09280866397195"
    }
  },
  {
    "service_request": "2022-905645",
    "request_type": "Abandoned Vehicles",
    "request_reason": "Abandoned/Junk Vehicles",
    "date_created": "2022-08-01T21:46:15.000",
    "date_modified": "2022-08-01T21:46:15.000",
    "request_status": "Pending",
    "responsible_agency": "Department of Public Works",
    "final_address": "10123 Hammond St",
    "address_councildis": "E",
    "status": "Pending",
    "rowid": "905645",
    "final_x": "3712979.44139",
    "final_y": "556489.634266",
    "longitude": "-89.96773097135893",
    "latitude": "30.02315935803256",
    "geocoded_column": {
      "latitude": "30.02315935803256",
      "longitude": "-89.96773097135893"
    }
  },
  {
    "service_request": "2022-905644",
    "request_type": "Abandoned Vehicles",
    "request_reason": "Abandoned/Junk Vehicles",
    "date_created": "2022-08-01T21:22:59.000",
    "date_modified": "2022-08-01T21:22:59.000",
    "request_status": "Pending",
    "responsible_agency": "Department of Public Works",
    "final_address": "10123 Hammond St",
    "address_councildis": "E",
    "status": "Pending",
    "rowid": "905644",
    "final_x": "3712979.44139",
    "final_y": "556489.634266",
    "longitude": "-89.96773097135893",
    "latitude": "30.02315935803256",
    "geocoded_column": {
      "latitude": "30.02315935803256",
      "longitude": "-89.96773097135893"
    }
  },
  {
    "service_request": "2022-905643",
    "request_type": "Abandoned Vehicles",
    "request_reason": "Vehicle Blocking Your Driveway",
    "date_created": "2022-08-01T20:40:52.000",
    "date_modified": "2022-08-01T20:40:52.000",
    "request_status": "Pending",
    "responsible_agency": "Department of Public Works",
    "final_address": "1202 Elysian Fields Ave",
    "address_councildis": "C",
    "status": "Pending",
    "rowid": "905643",
    "final_x": "3684887.98754",
    "final_y": "536709.537671",
    "longitude": "-90.0571897941232",
    "latitude": "29.96966182053927",
    "geocoded_column": {
      "latitude": "29.96966182053927",
      "longitude": "-90.0571897941232"
    }
  },
  {
    "service_request": "2022-905642",
    "request_type": "Trash/Recycling",
    "request_reason": "Missed Trash Pick-Up",
    "date_created": "2022-08-01T20:23:16.000",
    "date_modified": "2022-08-01T20:23:17.000",
    "request_status": "Pending",
    "responsible_agency": "Department of Sanitation",
    "final_address": "5225 Sandhurst Dr",
    "address_councildis": "E",
    "status": "Assigned to Contractor",
    "contractor": "Metro Disposal",
    "rowid": "905642",
    "final_x": "3704895.58577",
    "final_y": "557166.349595",
    "longitude": "-89.99324898282778",
    "latitude": "30.025282491727033",
    "geocoded_column": {
      "latitude": "30.025282491727033",
      "longitude": "-89.99324898282778"
    }
  },
  {
    "service_request": "2022-905640",
    "request_type": "Trash/Recycling",
    "request_reason": "Illegal Dumping",
    "date_created": "2022-08-01T20:22:10.000",
    "date_modified": "2022-08-01T20:22:10.000",
    "request_status": "Pending",
    "responsible_agency": "Department of Sanitation",
    "final_address": "4401 S Claiborne Ave",
    "address_councildis": "B",
    "status": "Pending",
    "rowid": "905640",
    "final_x": "3670179.75175",
    "final_y": "525957.600509",
    "longitude": "-90.1040041251433",
    "latitude": "29.940539757842572",
    "geocoded_column": {
      "latitude": "29.940539757842572",
      "longitude": "-90.1040041251433"
    }
  },
  {
    "service_request": "2022-905639",
    "request_type": "Roads/Drainage",
    "request_reason": "Service Cut",
    "date_created": "2022-08-01T20:06:42.000",
    "date_modified": "2022-08-01T20:06:42.000",
    "request_status": "Pending",
    "responsible_agency": "Department of Public Works",
    "final_address": "161 Mary Jane Ln",
    "address_councildis": "E",
    "status": "Pending",
    "rowid": "905639",
    "final_x": "3718320.98911",
    "final_y": "571281.994792",
    "longitude": "-89.95028889079146",
    "latitude": "30.063656186332228",
    "geocoded_column": {
      "latitude": "30.063656186332228",
      "longitude": "-89.95028889079146"
    }
  },
  {
    "service_request": "2022-905638",
    "request_type": "Roads/Drainage",
    "request_reason": "Pothole",
    "date_created": "2022-08-01T19:56:11.000",
    "date_modified": "2022-08-01T19:56:11.000",
    "request_status": "Pending",
    "responsible_agency": "Department of Public Works",
    "final_address": "1200 Joseph St",
    "address_councildis": "A",
    "status": "Pending",
    "rowid": "905638",
    "final_x": "3666382.94413",
    "final_y": "520240.99404",
    "longitude": "-90.1161830410409",
    "latitude": "29.92493236954438",
    "geocoded_column": {
      "latitude": "29.92493236954438",
      "longitude": "-90.1161830410409"
    }
  },
  {
    "service_request": "2022-905637",
    "request_type": "Trash/Recycling",
    "request_reason": "Missed Trash Pick-Up",
    "date_created": "2022-08-01T19:49:30.000",
    "date_modified": "2022-08-01T19:49:31.000",
    "request_status": "Pending",
    "responsible_agency": "Department of Sanitation",
    "final_address": "2216 St Nick Dr",
    "address_councildis": "C",
    "status": "Assigned to Contractor",
    "contractor": "Richards Disposal",
    "rowid": "905637",
    "final_x": "3699854.49514",
    "final_y": "522857.086267",
    "longitude": "-90.01042961531681",
    "latitude": "29.93110565343332",
    "geocoded_column": {
      "latitude": "29.93110565343332",
      "longitude": "-90.01042961531681"
    }
  },
  {
    "service_request": "2022-905636",
    "request_type": "Trash/Recycling",
    "request_reason": "Missed Trash Pick-Up",
    "date_created": "2022-08-01T19:38:47.000",
    "date_modified": "2022-08-01T19:38:48.000",
    "request_status": "Pending",
    "responsible_agency": "Department of Sanitation",
    "final_address": "4000 Block of Copernicus St, New Orleans, Louisiana, 70114",
    "status": "Assigned to Contractor",
    "rowid": "905636",
    "longitude": "0.0",
    "latitude": "0.0",
    "geocoded_column": {
      "latitude": "0.0",
      "longitude": "0.0"
    }
  },
  {
    "service_request": "2022-905635",
    "request_type": "Trash/Recycling",
    "request_reason": "Request a Large Item Pick Up",
    "date_created": "2022-08-01T19:23:56.000",
    "date_modified": "2022-08-01T19:23:57.000",
    "request_status": "Pending",
    "responsible_agency": "Department of Sanitation",
    "final_address": "1224 Riviera Ave",
    "address_councildis": "D",
    "status": "Assigned to Contractor",
    "contractor": "Metro Disposal",
    "rowid": "905635",
    "final_x": "3676930.94146",
    "final_y": "550762.593557",
    "longitude": "-90.08183413187048",
    "latitude": "30.008544096382458",
    "geocoded_column": {
      "latitude": "30.008544096382458",
      "longitude": "-90.08183413187048"
    }
  },
  {
    "service_request": "2022-905634",
    "request_type": "Trash/Recycling",
    "request_reason": "Replace Recycling Cart",
    "date_created": "2022-08-01T19:18:15.000",
    "date_modified": "2022-08-01T19:18:15.000",
    "request_status": "Pending",
    "responsible_agency": "Department of Sanitation",
    "final_address": "8141 Freret St, New Orleans, Louisiana, 70118",
    "address_councildis": "A",
    "status": "Pending",
    "rowid": "905634",
    "final_x": "3661297.93715",
    "final_y": "528089.543423",
    "longitude": "-90.13197507310498",
    "latitude": "29.94666094952247",
    "geocoded_column": {
      "latitude": "29.94666094952247",
      "longitude": "-90.13197507310498"
    }
  },
  {
    "service_request": "2022-905633",
    "request_type": "Trash/Recycling",
    "request_reason": "Missed Trash Pick-Up",
    "date_created": "2022-08-01T19:06:35.000",
    "date_modified": "2022-08-01T19:06:35.000",
    "request_status": "Pending",
    "responsible_agency": "Department of Sanitation",
    "final_address": "4301 Baudin St, New Orleans, Louisiana, 70119",
    "address_councildis": "A",
    "status": "Assigned to Contractor",
    "contractor": "Richards Disposal",
    "rowid": "905633",
    "final_x": "3669309.05012",
    "final_y": "537726.148552",
    "longitude": "-90.10635522046991",
    "latitude": "29.972925043761933",
    "geocoded_column": {
      "latitude": "29.972925043761933",
      "longitude": "-90.10635522046991"
    }
  },
  {
    "service_request": "2022-905632",
    "request_type": "Property Maintenance",
    "request_reason": "Property Maintenance",
    "date_created": "2022-08-01T19:06:29.000",
    "date_modified": "2022-08-01T19:06:29.000",
    "request_status": "Pending",
    "responsible_agency": "Department of Code Enforcement",
    "final_address": "2830 Behrman Hwy",
    "address_councildis": "C",
    "status": "Pending",
    "rowid": "905632",
    "final_x": "3693362.00886",
    "final_y": "520319.306744",
    "longitude": "-90.03101650550178",
    "latitude": "29.924332131260602",
    "geocoded_column": {
      "latitude": "29.924332131260602",
      "longitude": "-90.03101650550178"
    }
  },
  {
    "service_request": "2022-905631",
    "request_type": "Trash/Recycling",
    "request_reason": "Request a Large Item Pick Up",
    "date_created": "2022-08-01T19:04:24.000",
    "date_modified": "2022-08-01T19:04:24.000",
    "request_status": "Pending",
    "responsible_agency": "Department of Sanitation",
    "final_address": "427 S Alexander St, New Orleans, Louisiana, 70119",
    "address_councildis": "A",
    "status": "Assigned to Contractor",
    "contractor": "Richards Disposal",
    "rowid": "905631",
    "final_x": "3669063.16519",
    "final_y": "537999.470281",
    "longitude": "-90.10712253702317",
    "latitude": "29.97368382419314",
    "geocoded_column": {
      "latitude": "29.97368382419314",
      "longitude": "-90.10712253702317"
    }
  },
  {
    "service_request": "2022-905630",
    "request_type": "Trash/Recycling",
    "request_reason": "Illegal Dumping",
    "date_created": "2022-08-01T18:52:13.000",
    "date_modified": "2022-08-01T18:52:13.000",
    "request_status": "Pending",
    "responsible_agency": "Department of Sanitation",
    "final_address": "3109 Banks St",
    "address_councildis": "B",
    "status": "Pending",
    "rowid": "905630",
    "final_x": "3673303.24628",
    "final_y": "535219.361222",
    "longitude": "-90.09382640253959",
    "latitude": "29.965914016935443",
    "geocoded_column": {
      "latitude": "29.965914016935443",
      "longitude": "-90.09382640253959"
    }
  },
  {
    "service_request": "2022-905629",
    "request_type": "Traffic Signals/Signs/Striping/Streetlights",
    "request_reason": "Traffic Signal Malfunctioning/Damaged",
    "date_created": "2022-08-01T18:51:56.000",
    "date_modified": "2022-08-01T18:51:57.000",
    "request_status": "Pending",
    "responsible_agency": "Department of Public Works",
    "final_address": "GENTILLY BLVD & PARIS AVE",
    "address_councildis": "D",
    "status": "Pending",
    "rowid": "905629",
    "final_x": "3679776.8",
    "final_y": "543766.48",
    "longitude": "-90.07308625565985",
    "latitude": "29.989221494628048",
    "geocoded_column": {
      "latitude": "29.989221494628048",
      "longitude": "-90.07308625565985"
    }
  },
  {
    "service_request": "2022-905628",
    "request_type": "Trash/Recycling",
    "request_reason": "Illegal Dumping",
    "date_created": "2022-08-01T18:51:19.000",
    "date_modified": "2022-08-01T18:51:19.000",
    "request_status": "Pending",
    "responsible_agency": "Department of Sanitation",
    "final_address": "3105 Banks St",
    "address_councildis": "B",
    "status": "Pending",
    "rowid": "905628",
    "final_x": "3673321.93793",
    "final_y": "535202.79559",
    "longitude": "-90.09376794070151",
    "latitude": "29.96586791103564",
    "geocoded_column": {
      "latitude": "29.96586791103564",
      "longitude": "-90.09376794070151"
    }
  },
  {
    "service_request": "2022-905627",
    "request_type": "Trash/Recycling",
    "request_reason": "Illegal Dumping",
    "date_created": "2022-08-01T18:50:40.000",
    "date_modified": "2022-08-01T18:50:40.000",
    "request_status": "Pending",
    "responsible_agency": "Department of Sanitation",
    "final_address": "3105 Banks St",
    "address_councildis": "B",
    "status": "Pending",
    "rowid": "905627",
    "final_x": "3673321.93793",
    "final_y": "535202.79559",
    "longitude": "-90.09376794070151",
    "latitude": "29.96586791103564",
    "geocoded_column": {
      "latitude": "29.96586791103564",
      "longitude": "-90.09376794070151"
    }
  },
  {
    "service_request": "2022-905626",
    "request_type": "Property Maintenance",
    "request_reason": "Property Maintenance",
    "date_created": "2022-08-01T18:43:42.000",
    "date_modified": "2022-08-01T18:43:42.000",
    "request_status": "Pending",
    "responsible_agency": "Department of Code Enforcement",
    "final_address": "4713 Corinne St",
    "address_councildis": "E",
    "status": "Pending",
    "rowid": "905626",
    "final_x": "3715127.79135",
    "final_y": "556700.733338",
    "longitude": "-89.96093474125641",
    "latitude": "30.02366922086066",
    "geocoded_column": {
      "latitude": "30.02366922086066",
      "longitude": "-89.96093474125641"
    }
  },
  {
    "service_request": "2022-905625",
    "request_type": "Property Maintenance",
    "request_reason": "Property Maintenance",
    "date_created": "2022-08-01T18:22:25.000",
    "date_modified": "2022-08-01T18:24:34.000",
    "request_status": "Pending",
    "responsible_agency": "Department of Code Enforcement",
    "final_address": "New Orleans,LA",
    "address_councildis": "D",
    "rowid": "905625",
    "final_x": "3685535.71241",
    "final_y": "538884.219337",
    "longitude": "-90.05506761031825",
    "latitude": "29.97562158434253",
    "geocoded_column": {
      "latitude": "29.97562158434253",
      "longitude": "-90.05506761031825"
    }
  },
  {
    "service_request": "2022-905624",
    "request_type": "Trash/Recycling",
    "request_reason": "Illegal Dumping",
    "date_created": "2022-08-01T18:16:21.000",
    "date_modified": "2022-08-01T18:16:21.000",
    "request_status": "Pending",
    "responsible_agency": "Department of Sanitation",
    "final_address": "3305 Banks St",
    "address_councildis": "B",
    "status": "Pending",
    "rowid": "905624",
    "final_x": "3672824.12987",
    "final_y": "535570.82471",
    "longitude": "-90.0953274486141",
    "latitude": "29.966894665677692",
    "geocoded_column": {
      "latitude": "29.966894665677692",
      "longitude": "-90.0953274486141"
    }
  },
  {
    "service_request": "2022-905623",
    "request_type": "Parks & Parkways",
    "request_reason": "Request Grass Cutting Service (City Owned Property)",
    "date_created": "2022-08-01T18:11:05.000",
    "date_modified": "2022-08-01T18:11:05.000",
    "request_status": "Pending",
    "responsible_agency": "Department of Parks & Parkway",
    "final_address": "4386 Lincoln St",
    "address_councildis": "C",
    "status": "Pending",
    "rowid": "905623",
    "final_x": "3710748.19013",
    "final_y": "513623.034034",
    "longitude": "-89.97638520600009",
    "latitude": "29.905364926068252",
    "geocoded_column": {
      "latitude": "29.905364926068252",
      "longitude": "-89.97638520600009"
    }
  },
  {
    "service_request": "2022-905622",
    "request_type": "Abandoned Vehicles",
    "request_reason": "Abandoned/Junk Vehicles",
    "date_created": "2022-08-01T17:54:00.000",
    "date_modified": "2022-08-01T17:54:00.000",
    "request_status": "Pending",
    "responsible_agency": "Department of Public Works",
    "final_address": "3619 Dauphine St",
    "address_councildis": "C",
    "status": "Pending",
    "rowid": "905622",
    "final_x": "3690602.49033",
    "final_y": "534417.808581",
    "longitude": "-90.03922469303436",
    "latitude": "29.963184134964205",
    "geocoded_column": {
      "latitude": "29.963184134964205",
      "longitude": "-90.03922469303436"
    }
  },
  {
    "service_request": "2022-905621",
    "request_type": "Trash/Recycling",
    "request_reason": "Request a Large Item Pick Up",
    "date_created": "2022-08-01T17:49:27.000",
    "date_modified": "2022-08-01T17:49:27.000",
    "request_status": "Pending",
    "responsible_agency": "Department of Sanitation",
    "final_address": "4 Warbler St",
    "address_councildis": "D",
    "status": "Assigned to Contractor",
    "contractor": "Metro Disposal",
    "rowid": "905621",
    "final_x": "3672537.4283",
    "final_y": "557184.388059",
    "longitude": "-90.09549549598373",
    "latitude": "30.026332952158143",
    "geocoded_column": {
      "latitude": "30.026332952158143",
      "longitude": "-90.09549549598373"
    }
  },
  {
    "service_request": "2022-905620",
    "request_type": "Trash/Recycling",
    "request_reason": "Illegal Dumping",
    "date_created": "2022-08-01T17:14:13.000",
    "date_modified": "2022-08-01T17:14:13.000",
    "request_status": "Pending",
    "responsible_agency": "Department of Sanitation",
    "final_address": "3305 Banks St",
    "address_councildis": "B",
    "status": "Pending",
    "rowid": "905620",
    "final_x": "3672824.12987",
    "final_y": "535570.82471",
    "longitude": "-90.0953274486141",
    "latitude": "29.966894665677692",
    "geocoded_column": {
      "latitude": "29.966894665677692",
      "longitude": "-90.0953274486141"
    }
  },
  {
    "service_request": "2022-905619",
    "request_type": "Trash/Recycling",
    "request_reason": "Illegal Dumping",
    "date_created": "2022-08-01T17:07:48.000",
    "date_modified": "2022-08-01T17:07:48.000",
    "request_status": "Pending",
    "responsible_agency": "Department of Sanitation",
    "final_address": "4500 Banks St",
    "address_councildis": "A",
    "status": "Pending",
    "rowid": "905619",
    "final_x": "3668902.24935",
    "final_y": "538409.836489",
    "longitude": "-90.10761688177072",
    "latitude": "29.974816927369496",
    "geocoded_column": {
      "latitude": "29.974816927369496",
      "longitude": "-90.10761688177072"
    }
  },
  {
    "service_request": "2022-905618",
    "request_type": "Trash/Recycling",
    "request_reason": "Illegal Dumping",
    "date_created": "2022-08-01T17:05:15.000",
    "date_modified": "2022-08-01T17:05:15.000",
    "request_status": "Pending",
    "responsible_agency": "Department of Sanitation",
    "final_address": "3305 Banks St",
    "address_councildis": "B",
    "status": "Pending",
    "rowid": "905618",
    "final_x": "3672824.12987",
    "final_y": "535570.82471",
    "longitude": "-90.0953274486141",
    "latitude": "29.966894665677692",
    "geocoded_column": {
      "latitude": "29.966894665677692",
      "longitude": "-90.0953274486141"
    }
  },
  {
    "service_request": "2022-905617",
    "request_type": "Roads/Drainage",
    "request_reason": "Catch Basin - Clogged",
    "date_created": "2022-08-01T16:58:30.000",
    "date_modified": "2022-08-01T17:01:10.000",
    "request_status": "Pending",
    "responsible_agency": "Department of Public Works",
    "final_address": "8240 Green St",
    "address_councildis": "A",
    "status": "Pending",
    "rowid": "905617",
    "final_x": "3662617.4313",
    "final_y": "530094.562369",
    "longitude": "-90.12774232720575",
    "latitude": "29.95213600174324",
    "geocoded_column": {
      "latitude": "29.95213600174324",
      "longitude": "-90.12774232720575"
    }
  },
  {
    "service_request": "2022-905616",
    "request_type": "Trash/Recycling",
    "request_reason": "Request a Large Item Pick Up",
    "date_created": "2022-08-01T16:56:20.000",
    "date_modified": "2022-08-01T16:56:20.000",
    "request_status": "Pending",
    "responsible_agency": "Department of Sanitation",
    "final_address": "4110 Macarthur Blvd",
    "address_councildis": "C",
    "status": "Assigned to Contractor",
    "contractor": "Richards Disposal",
    "rowid": "905616",
    "final_x": "3698972.6666",
    "final_y": "520520.532152",
    "longitude": "-90.01329839020265",
    "latitude": "29.924708897600123",
    "geocoded_column": {
      "latitude": "29.924708897600123",
      "longitude": "-90.01329839020265"
    }
  },
  {
    "service_request": "2022-905615",
    "request_type": "Abandoned Vehicles",
    "request_reason": "Abandoned/Junk Vehicles",
    "date_created": "2022-08-01T16:54:58.000",
    "date_modified": "2022-08-01T16:54:58.000",
    "request_status": "Pending",
    "responsible_agency": "Department of Public Works",
    "final_address": "SUMNER ST & HOMER ST",
    "address_councildis": "C",
    "status": "Pending",
    "rowid": "905615",
    "final_x": "3691147.1",
    "final_y": "528188.28",
    "longitude": "-90.03772731873478",
    "latitude": "29.94603816867132",
    "geocoded_column": {
      "latitude": "29.94603816867132",
      "longitude": "-90.03772731873478"
    }
  },
  {
    "service_request": "2022-905614",
    "request_type": "Trash/Recycling",
    "request_reason": "Request a Large Item Pick Up",
    "date_created": "2022-08-01T16:54:24.000",
    "date_modified": "2022-08-01T16:54:25.000",
    "request_status": "Pending",
    "responsible_agency": "Department of Sanitation",
    "final_address": "4334 Macarthur Blvd",
    "address_councildis": "C",
    "status": "Assigned to Contractor",
    "contractor": "Richards Disposal",
    "rowid": "905614",
    "final_x": "3699818.3633",
    "final_y": "520471.197432",
    "longitude": "-90.01063062289457",
    "latitude": "29.924546427985838",
    "geocoded_column": {
      "latitude": "29.924546427985838",
      "longitude": "-90.01063062289457"
    }
  },
  {
    "service_request": "2022-905613",
    "request_type": "Property Maintenance",
    "request_reason": "Property Maintenance",
    "date_created": "2022-08-01T16:52:28.000",
    "date_modified": "2022-08-01T16:52:28.000",
    "request_status": "Pending",
    "responsible_agency": "Department of Code Enforcement",
    "final_address": "5500 Clements Dr",
    "address_councildis": "E",
    "status": "Pending",
    "rowid": "905613",
    "final_x": "3702382.68804",
    "final_y": "555951.448025",
    "longitude": "-90.00123393353094",
    "latitude": "30.02202254931675",
    "geocoded_column": {
      "latitude": "30.02202254931675",
      "longitude": "-90.00123393353094"
    }
  },
  {
    "service_request": "2022-905612",
    "request_type": "Roads/Drainage",
    "request_reason": "Street Subsidence (Sinking)",
    "date_created": "2022-08-01T16:50:53.000",
    "date_modified": "2022-08-01T16:50:53.000",
    "request_status": "Pending",
    "responsible_agency": "Department of Public Works",
    "final_address": "2618 Jackson Ave",
    "address_councildis": "B",
    "status": "Pending",
    "rowid": "905612",
    "final_x": "3675053.37179",
    "final_y": "526909.185726",
    "longitude": "-90.08858463832416",
    "latitude": "29.943011632138695",
    "geocoded_column": {
      "latitude": "29.943011632138695",
      "longitude": "-90.08858463832416"
    }
  },
  {
    "service_request": "2022-905611",
    "request_type": "Trash/Recycling",
    "request_reason": "Request a Large Item Pick Up",
    "date_created": "2022-08-01T16:48:38.000",
    "date_modified": "2022-08-01T16:48:38.000",
    "request_status": "Pending",
    "responsible_agency": "Department of Sanitation",
    "final_address": "406 Aurora Oaks Dr",
    "address_councildis": "C",
    "status": "Assigned to Contractor",
    "contractor": "Richards Disposal",
    "rowid": "905611",
    "final_x": "3701382.67204",
    "final_y": "522300.665978",
    "longitude": "-90.00562574864102",
    "latitude": "29.929527089168168",
    "geocoded_column": {
      "latitude": "29.929527089168168",
      "longitude": "-90.00562574864102"
    }
  },
  {
    "service_request": "2022-905610",
    "request_type": "Trash/Recycling",
    "request_reason": "Missed Trash Pick-Up",
    "date_created": "2022-08-01T16:47:32.000",
    "date_modified": "2022-08-01T16:47:33.000",
    "request_status": "Pending",
    "responsible_agency": "Department of Sanitation",
    "final_address": "306 River Oaks Dr",
    "address_councildis": "C",
    "status": "Assigned to Contractor",
    "contractor": "Richards Disposal",
    "rowid": "905610",
    "final_x": "3701627.35287",
    "final_y": "522634.040506",
    "longitude": "-90.0048411394969",
    "latitude": "29.930435955472543",
    "geocoded_column": {
      "latitude": "29.930435955472543",
      "longitude": "-90.0048411394969"
    }
  },
  {
    "service_request": "2022-905609",
    "request_type": "Trash/Recycling",
    "request_reason": "Replace Trash Cart",
    "date_created": "2022-08-01T16:46:17.000",
    "date_modified": "2022-08-01T16:46:18.000",
    "request_status": "Pending",
    "responsible_agency": "Department of Sanitation",
    "final_address": "1719 Pace Blvd",
    "address_councildis": "C",
    "status": "Assigned to Contractor",
    "contractor": "Richards Disposal",
    "rowid": "905609",
    "final_x": "3694229.13072",
    "final_y": "524318.718844",
    "longitude": "-90.02813550915899",
    "latitude": "29.935302025931005",
    "geocoded_column": {
      "latitude": "29.935302025931005",
      "longitude": "-90.02813550915899"
    }
  },
  {
    "service_request": "2022-905608",
    "request_type": "Property Maintenance",
    "request_reason": "Property Maintenance",
    "date_created": "2022-08-01T16:41:13.000",
    "date_modified": "2022-08-01T16:41:13.000",
    "request_status": "Pending",
    "responsible_agency": "Department of Code Enforcement",
    "final_address": "1619 Choctaw St",
    "address_councildis": "E",
    "status": "Pending",
    "rowid": "905608",
    "final_x": "3698025.41731",
    "final_y": "535943.393799",
    "longitude": "-90.01572869549413",
    "latitude": "29.96714634666454",
    "geocoded_column": {
      "latitude": "29.96714634666454",
      "longitude": "-90.01572869549413"
    }
  },
  {
    "service_request": "2022-905607",
    "request_type": "Trash/Recycling",
    "request_reason": "Replace Trash Cart",
    "date_created": "2022-08-01T16:39:56.000",
    "date_modified": "2022-08-01T16:39:57.000",
    "request_status": "Pending",
    "responsible_agency": "Department of Sanitation",
    "final_address": "935 Esplanade Ave",
    "address_councildis": "C",
    "status": "Assigned to Contractor",
    "contractor": "Metro Disposal",
    "rowid": "905607",
    "final_x": "3683329.03048",
    "final_y": "535058.790278",
    "longitude": "-90.06217094564697",
    "latitude": "29.96517048364581",
    "geocoded_column": {
      "latitude": "29.96517048364581",
      "longitude": "-90.06217094564697"
    }
  },
  {
    "service_request": "2022-905606",
    "request_type": "Property Maintenance",
    "request_reason": "Property Maintenance",
    "date_created": "2022-08-01T16:36:42.000",
    "date_modified": "2022-08-01T16:36:43.000",
    "request_status": "Pending",
    "responsible_agency": "Department of Code Enforcement",
    "final_address": "5422 N Derbigny St",
    "address_councildis": "E",
    "status": "Pending",
    "rowid": "905606",
    "final_x": "3697958.09379",
    "final_y": "536119.790791",
    "longitude": "-90.01593489784493",
    "latitude": "29.967633503770305",
    "geocoded_column": {
      "latitude": "29.967633503770305",
      "longitude": "-90.01593489784493"
    }
  },
  {
    "service_request": "2022-905605",
    "request_type": "Trash/Recycling",
    "request_reason": "Request a Large Item Pick Up",
    "date_created": "2022-08-01T16:36:23.000",
    "date_modified": "2022-08-01T16:36:24.000",
    "request_status": "Pending",
    "responsible_agency": "Department of Sanitation",
    "final_address": "2824 S Robertson St, New Orleans, Louisiana, 70115",
    "status": "Assigned to Contractor",
    "rowid": "905605",
    "longitude": "0.0",
    "latitude": "0.0",
    "geocoded_column": {
      "latitude": "0.0",
      "longitude": "0.0"
    }
  },
  {
    "service_request": "2022-905604",
    "request_type": "Trash/Recycling",
    "request_reason": "Order Recycling Cart",
    "date_created": "2022-08-01T16:35:45.000",
    "date_modified": "2022-08-01T16:35:46.000",
    "request_status": "Pending",
    "responsible_agency": "Department of Sanitation",
    "final_address": "713 Huntlee Dr",
    "address_councildis": "C",
    "status": "Pending",
    "rowid": "905604",
    "final_x": "3701726.62103",
    "final_y": "519940.404536",
    "longitude": "-90.00462637172238",
    "latitude": "29.92302622286213",
    "geocoded_column": {
      "latitude": "29.92302622286213",
      "longitude": "-90.00462637172238"
    }
  },
  {
    "service_request": "2022-905603",
    "request_type": "Trash/Recycling",
    "request_reason": "Missed Trash Pick-Up",
    "date_created": "2022-08-01T16:35:15.000",
    "date_modified": "2022-08-01T16:35:16.000",
    "request_status": "Pending",
    "responsible_agency": "Department of Sanitation",
    "final_address": "5525 Wickfield Dr",
    "address_councildis": "D",
    "status": "Assigned to Contractor",
    "contractor": "Metro Disposal",
    "rowid": "905603",
    "final_x": "3681157.84821",
    "final_y": "553533.398359",
    "longitude": "-90.06838335361276",
    "latitude": "30.01603518763719",
    "geocoded_column": {
      "latitude": "30.01603518763719",
      "longitude": "-90.06838335361276"
    }
  },
  {
    "service_request": "2022-905602",
    "request_type": "Trash/Recycling",
    "request_reason": "Request a Large Item Pick Up",
    "date_created": "2022-08-01T16:34:32.000",
    "date_modified": "2022-08-01T16:34:32.000",
    "request_status": "Pending",
    "responsible_agency": "Department of Sanitation",
    "final_address": "305 River Oaks Dr",
    "address_councildis": "C",
    "status": "Assigned to Contractor",
    "contractor": "Richards Disposal",
    "rowid": "905602",
    "final_x": "3701514.0817",
    "final_y": "522687.770682",
    "longitude": "-90.0051967507642",
    "latitude": "29.930587305385398",
    "geocoded_column": {
      "latitude": "29.930587305385398",
      "longitude": "-90.0051967507642"
    }
  },
  {
    "service_request": "2022-905601",
    "request_type": "Trash/Recycling",
    "request_reason": "Request a Large Item Pick Up",
    "date_created": "2022-08-01T16:33:59.000",
    "date_modified": "2022-08-01T16:34:00.000",
    "request_status": "Pending",
    "responsible_agency": "Department of Sanitation",
    "final_address": "304 River Oaks Dr",
    "address_councildis": "C",
    "status": "Assigned to Contractor",
    "contractor": "Richards Disposal",
    "rowid": "905601",
    "final_x": "3701628.88829",
    "final_y": "522687.721082",
    "longitude": "-90.00483432769673",
    "latitude": "29.93058350947907",
    "geocoded_column": {
      "latitude": "29.93058350947907",
      "longitude": "-90.00483432769673"
    }
  },
  {
    "service_request": "2022-905600",
    "request_type": "Trash/Recycling",
    "request_reason": "Order Trash Cart",
    "date_created": "2022-08-01T16:32:09.000",
    "date_modified": "2022-08-01T16:32:10.000",
    "request_status": "Pending",
    "responsible_agency": "Department of Sanitation",
    "final_address": "5231 Timber Haven Ln",
    "address_councildis": "C",
    "status": "Assigned to Contractor",
    "contractor": "Richards Disposal",
    "rowid": "905600",
    "final_x": "3703559.45162",
    "final_y": "511371.855024",
    "longitude": "-89.9991558109626",
    "latitude": "29.899407074373514",
    "geocoded_column": {
      "latitude": "29.899407074373514",
      "longitude": "-89.9991558109626"
    }
  },
  {
    "service_request": "2022-905599",
    "request_type": "Trash/Recycling",
    "request_reason": "Request a Large Item Pick Up",
    "date_created": "2022-08-01T16:31:47.000",
    "date_modified": "2022-08-01T16:32:08.000",
    "request_status": "Pending",
    "responsible_agency": "Department of Sanitation",
    "final_address": "994 Topaz St",
    "address_councildis": "D",
    "status": "Assigned to Contractor",
    "contractor": "Metro Disposal",
    "rowid": "905599",
    "final_x": "3671424.9211",
    "final_y": "557280.411483",
    "longitude": "-90.09900762809676",
    "latitude": "30.02662998097407",
    "geocoded_column": {
      "latitude": "30.02662998097407",
      "longitude": "-90.09900762809676"
    }
  },
  {
    "service_request": "2022-905598",
    "request_type": "Safety & Permits",
    "request_reason": "Short term Rental (Enforcement)",
    "date_created": "2022-08-01T16:28:28.000",
    "date_modified": "2022-08-01T16:28:28.000",
    "request_status": "Pending",
    "responsible_agency": "Safety and Permits",
    "final_address": "1727 Henriette Delille St",
    "address_councildis": "C",
    "status": "Pending",
    "rowid": "905598",
    "final_x": "3683380.26133",
    "final_y": "536223.915271",
    "longitude": "-90.0619683368799",
    "latitude": "29.968372612528402",
    "geocoded_column": {
      "latitude": "29.968372612528402",
      "longitude": "-90.0619683368799"
    }
  },
  {
    "service_request": "2022-905597",
    "request_type": "Traffic Signals/Signs/Striping/Streetlights",
    "request_reason": "Traffic Signal Malfunctioning/Damaged",
    "date_created": "2022-08-01T16:20:46.000",
    "date_modified": "2022-08-01T16:25:47.000",
    "request_status": "Pending",
    "responsible_agency": "Department of Public Works",
    "final_address": "New Orleans,LA",
    "address_councildis": "B",
    "rowid": "905597",
    "final_x": "3674619.0",
    "final_y": "527616.98",
    "longitude": "-90.0899318088514",
    "latitude": "29.944970801128957",
    "geocoded_column": {
      "latitude": "29.944970801128957",
      "longitude": "-90.0899318088514"
    }
  },
  {
    "service_request": "2022-905596",
    "request_type": "Trash/Recycling",
    "request_reason": "Request a Large Item Pick Up",
    "date_created": "2022-08-01T16:16:55.000",
    "date_modified": "2022-08-01T16:16:55.000",
    "request_status": "Pending",
    "responsible_agency": "Department of Sanitation",
    "final_address": "220 S Lopez St",
    "address_councildis": "B",
    "status": "Assigned to Contractor",
    "contractor": "Richards Disposal",
    "rowid": "905596",
    "final_x": "3673558.46913",
    "final_y": "535690.548167",
    "longitude": "-90.0930043081932",
    "latitude": "29.96720202844801",
    "geocoded_column": {
      "latitude": "29.96720202844801",
      "longitude": "-90.0930043081932"
    }
  },
  {
    "service_request": "2022-905595",
    "request_type": "Trash/Recycling",
    "request_reason": "Request a Large Item Pick Up",
    "date_created": "2022-08-01T16:14:15.000",
    "date_modified": "2022-08-01T16:14:16.000",
    "request_status": "Pending",
    "responsible_agency": "Department of Sanitation",
    "final_address": "2424 Palmer Ave",
    "address_councildis": "A",
    "status": "Assigned to Contractor",
    "contractor": "Richards Disposal",
    "rowid": "905595",
    "final_x": "3666355.37889",
    "final_y": "525802.022269",
    "longitude": "-90.11608357215991",
    "latitude": "29.94022423330627",
    "geocoded_column": {
      "latitude": "29.94022423330627",
      "longitude": "-90.11608357215991"
    }
  },
  {
    "service_request": "2022-905594",
    "request_type": "Trash/Recycling",
    "request_reason": "Repair Trash Cart",
    "date_created": "2022-08-01T16:11:53.000",
    "date_modified": "2022-08-01T16:11:53.000",
    "request_status": "Pending",
    "responsible_agency": "Department of Sanitation",
    "final_address": "1314 Calhoun St",
    "address_councildis": "A",
    "status": "Assigned to Contractor",
    "contractor": "Richards Disposal",
    "rowid": "905594",
    "final_x": "3664113.92493",
    "final_y": "521429.996473",
    "longitude": "-90.12330598958215",
    "latitude": "29.928267831234187",
    "geocoded_column": {
      "latitude": "29.928267831234187",
      "longitude": "-90.12330598958215"
    }
  },
  {
    "service_request": "2022-905593",
    "request_type": "Trash/Recycling",
    "request_reason": "Request a Large Item Pick Up",
    "date_created": "2022-08-01T16:09:20.000",
    "date_modified": "2022-08-01T16:23:47.000",
    "request_status": "Pending",
    "responsible_agency": "Department of Sanitation",
    "final_address": "4442 Music St, New Orleans, Louisiana, 70122",
    "address_councildis": "D",
    "status": "Assigned to Contractor",
    "contractor": "Metro Disposal",
    "rowid": "905593",
    "final_x": "3685652.11535",
    "final_y": "549153.546195",
    "longitude": "-90.05433795489168",
    "latitude": "30.00385500396897",
    "geocoded_column": {
      "latitude": "30.00385500396897",
      "longitude": "-90.05433795489168"
    }
  },
  {
    "service_request": "2022-905592",
    "request_type": "Roads/Drainage",
    "request_reason": "Damaged Sidewalk",
    "date_created": "2022-08-01T16:07:45.000",
    "date_modified": "2022-08-01T16:07:45.000",
    "request_status": "Pending",
    "responsible_agency": "Department of Public Works",
    "final_address": "9141 Dixon St",
    "address_councildis": "A",
    "status": "Pending",
    "rowid": "905592",
    "final_x": "3665643.96397",
    "final_y": "538094.516873",
    "longitude": "-90.1179179708501",
    "latitude": "29.974045338400888",
    "geocoded_column": {
      "latitude": "29.974045338400888",
      "longitude": "-90.1179179708501"
    }
  },
  {
    "service_request": "2022-905591",
    "request_type": "Roads/Drainage",
    "request_reason": "Pothole",
    "date_created": "2022-08-01T16:05:52.000",
    "date_modified": "2022-08-01T16:05:52.000",
    "request_status": "Pending",
    "responsible_agency": "Department of Public Works",
    "final_address": "2700 Gravier St",
    "address_councildis": "B",
    "status": "Pending",
    "rowid": "905591",
    "final_x": "3673669.72878",
    "final_y": "533217.348932",
    "longitude": "-90.09273751122163",
    "latitude": "29.96039824905914",
    "geocoded_column": {
      "latitude": "29.96039824905914",
      "longitude": "-90.09273751122163"
    }
  },
  {
    "service_request": "2022-905590",
    "request_type": "Trash/Recycling",
    "request_reason": "Missed Trash Pick-Up",
    "date_created": "2022-08-01T16:04:58.000",
    "date_modified": "2022-08-01T16:04:59.000",
    "request_status": "Pending",
    "responsible_agency": "Department of Sanitation",
    "final_address": "3511 Post Oak Ave",
    "address_councildis": "C",
    "status": "Assigned to Contractor",
    "contractor": "Richards Disposal",
    "rowid": "905590",
    "final_x": "3703267.95038",
    "final_y": "514680.551603",
    "longitude": "-89.99995423523995",
    "latitude": "29.908514197413414",
    "geocoded_column": {
      "latitude": "29.908514197413414",
      "longitude": "-89.99995423523995"
    }
  },
  {
    "service_request": "2022-905589",
    "request_type": "Trash/Recycling",
    "request_reason": "Missed Trash Pick-Up",
    "date_created": "2022-08-01T16:02:57.000",
    "date_modified": "2022-08-01T16:02:58.000",
    "request_status": "Pending",
    "responsible_agency": "Department of Sanitation",
    "final_address": "3325 Patterson St",
    "address_councildis": "C",
    "status": "Assigned to Contractor",
    "contractor": "Richards Disposal",
    "rowid": "905589",
    "final_x": "3696622.18039",
    "final_y": "528110.932799",
    "longitude": "-90.02044351581354",
    "latitude": "29.94565413204411",
    "geocoded_column": {
      "latitude": "29.94565413204411",
      "longitude": "-90.02044351581354"
    }
  },
  {
    "service_request": "2022-905588",
    "request_type": "Trash/Recycling",
    "request_reason": "Order Recycling Cart",
    "date_created": "2022-08-01T15:59:49.000",
    "date_modified": "2022-08-01T15:59:50.000",
    "request_status": "Pending",
    "responsible_agency": "Department of Sanitation",
    "final_address": "2365 Chippewa St",
    "address_councildis": "B",
    "status": "Pending",
    "rowid": "905588",
    "final_x": "3678971.75016",
    "final_y": "520381.276792",
    "longitude": "-90.07643943410511",
    "latitude": "29.92494440538568",
    "geocoded_column": {
      "latitude": "29.92494440538568",
      "longitude": "-90.07643943410511"
    }
  },
  {
    "service_request": "2022-905587",
    "request_type": "Trash/Recycling",
    "request_reason": "Start Trash Service",
    "date_created": "2022-08-01T15:59:38.000",
    "date_modified": "2022-08-01T15:59:39.000",
    "request_status": "Pending",
    "responsible_agency": "Department of Sanitation",
    "final_address": "2365 Chippewa St",
    "address_councildis": "B",
    "status": "Assigned to Contractor",
    "contractor": "Richards Disposal",
    "rowid": "905587",
    "final_x": "3678971.75016",
    "final_y": "520381.276792",
    "longitude": "-90.07643943410511",
    "latitude": "29.92494440538568",
    "geocoded_column": {
      "latitude": "29.92494440538568",
      "longitude": "-90.07643943410511"
    }
  },
  {
    "service_request": "2022-905586",
    "request_type": "Trash/Recycling",
    "request_reason": "Request a Large Item Pick Up",
    "date_created": "2022-08-01T15:56:58.000",
    "date_modified": "2022-08-01T15:56:59.000",
    "request_status": "Pending",
    "responsible_agency": "Department of Sanitation",
    "final_address": "2521 Orleans Ave",
    "address_councildis": "D",
    "status": "Assigned to Contractor",
    "contractor": "Richards Disposal",
    "rowid": "905586",
    "final_x": "3677476.01979",
    "final_y": "536574.841799",
    "longitude": "-90.08060210502417",
    "latitude": "29.969516351055606",
    "geocoded_column": {
      "latitude": "29.969516351055606",
      "longitude": "-90.08060210502417"
    }
  },
  {
    "service_request": "2022-905585",
    "request_type": "Trash/Recycling",
    "request_reason": "Missed Trash Pick-Up",
    "date_created": "2022-08-01T15:56:05.000",
    "date_modified": "2022-08-01T15:56:05.000",
    "request_status": "Pending",
    "responsible_agency": "Department of Sanitation",
    "final_address": "1627 Reynes St",
    "address_councildis": "E",
    "status": "Assigned to Contractor",
    "contractor": "Metro Disposal",
    "rowid": "905585",
    "final_x": "3696624.18371",
    "final_y": "536305.394375",
    "longitude": "-90.0201406777361",
    "latitude": "29.968185949381965",
    "geocoded_column": {
      "latitude": "29.968185949381965",
      "longitude": "-90.0201406777361"
    }
  },
  {
    "service_request": "2022-905584",
    "request_type": "Abandoned Vehicles",
    "request_reason": "Abandoned/Junk Vehicles",
    "date_created": "2022-08-01T15:54:00.000",
    "date_modified": "2022-08-01T15:54:00.000",
    "request_status": "Pending",
    "responsible_agency": "Department of Public Works",
    "final_address": "3322 Cleveland Ave",
    "address_councildis": "B",
    "status": "Pending",
    "rowid": "905584",
    "final_x": "3673106.37851",
    "final_y": "536188.804231",
    "longitude": "-90.09441500450386",
    "latitude": "29.968585513031787",
    "geocoded_column": {
      "latitude": "29.968585513031787",
      "longitude": "-90.09441500450386"
    }
  },
  {
    "service_request": "2022-905583",
    "request_type": "Trash/Recycling",
    "request_reason": "Replace Trash Cart",
    "date_created": "2022-08-01T15:52:56.000",
    "date_modified": "2022-08-01T15:52:57.000",
    "request_status": "Pending",
    "responsible_agency": "Department of Sanitation",
    "final_address": "3318 Cleveland Ave",
    "address_councildis": "B",
    "status": "Assigned to Contractor",
    "contractor": "Richards Disposal",
    "rowid": "905583",
    "final_x": "3673140.88219",
    "final_y": "536163.181319",
    "longitude": "-90.09430691480948",
    "latitude": "29.968514032819172",
    "geocoded_column": {
      "latitude": "29.968514032819172",
      "longitude": "-90.09430691480948"
    }
  },
  {
    "service_request": "2022-905582",
    "request_type": "Trash/Recycling",
    "request_reason": "Replace Trash Cart",
    "date_created": "2022-08-01T15:52:32.000",
    "date_modified": "2022-08-01T15:52:32.000",
    "request_status": "Pending",
    "responsible_agency": "Department of Sanitation",
    "final_address": "3316 Cleveland Ave",
    "address_councildis": "B",
    "status": "Assigned to Contractor",
    "contractor": "Richards Disposal",
    "rowid": "905582",
    "final_x": "3673140.88219",
    "final_y": "536163.181319",
    "longitude": "-90.09430691480948",
    "latitude": "29.968514032819172",
    "geocoded_column": {
      "latitude": "29.968514032819172",
      "longitude": "-90.09430691480948"
    }
  },
  {
    "service_request": "2022-905581",
    "request_type": "Trash/Recycling",
    "request_reason": "Order Trash Cart",
    "date_created": "2022-08-01T15:51:56.000",
    "date_modified": "2022-08-01T15:51:56.000",
    "request_status": "Pending",
    "responsible_agency": "Department of Sanitation",
    "final_address": "7440 Dartmoor Dr, New Orleans, Louisiana, 70127",
    "address_councildis": "E",
    "status": "Assigned to Contractor",
    "contractor": "Metro Disposal",
    "rowid": "905581",
    "final_x": "3704805.84843",
    "final_y": "562142.659359",
    "longitude": "-89.99334865118041",
    "latitude": "30.03896828312503",
    "geocoded_column": {
      "latitude": "30.03896828312503",
      "longitude": "-89.99334865118041"
    }
  },
  {
    "service_request": "2022-905580",
    "request_type": "Trash/Recycling",
    "request_reason": "Order Trash Cart",
    "date_created": "2022-08-01T15:47:01.000",
    "date_modified": "2022-08-01T15:47:02.000",
    "request_status": "Pending",
    "responsible_agency": "Department of Sanitation",
    "final_address": "13232 Willowbrook Dr",
    "address_councildis": "E",
    "status": "Assigned to Contractor",
    "contractor": "Metro Disposal",
    "rowid": "905580",
    "final_x": "3726870.76038",
    "final_y": "564123.664289",
    "longitude": "-89.92354131586873",
    "latitude": "30.043687267539152",
    "geocoded_column": {
      "latitude": "30.043687267539152",
      "longitude": "-89.92354131586873"
    }
  },
  {
    "service_request": "2022-905579",
    "request_type": "Roads/Drainage",
    "request_reason": "Catch Basin - Clogged",
    "date_created": "2022-08-01T15:46:06.000",
    "date_modified": "2022-08-01T15:46:06.000",
    "request_status": "Pending",
    "responsible_agency": "Department of Public Works",
    "final_address": "1019 Opelousas Ave",
    "address_councildis": "C",
    "status": "Pending",
    "rowid": "905579",
    "final_x": "3688631.01641",
    "final_y": "529013.955136",
    "longitude": "-90.04564213223962",
    "latitude": "29.94838647952265",
    "geocoded_column": {
      "latitude": "29.94838647952265",
      "longitude": "-90.04564213223962"
    }
  },
  {
    "service_request": "2022-905578",
    "request_type": "Abandoned Vehicles",
    "request_reason": "Abandoned/Junk Vehicles",
    "date_created": "2022-08-01T15:44:37.000",
    "date_modified": "2022-08-01T15:47:17.000",
    "request_status": "Pending",
    "responsible_agency": "Department of Public Works",
    "final_address": "2700 BLK Josephine St",
    "address_councildis": "B",
    "status": "Pending",
    "rowid": "905578",
    "final_x": "3675428.30888",
    "final_y": "527175.596027",
    "longitude": "-90.08739172271062",
    "latitude": "29.943732967931723",
    "geocoded_column": {
      "latitude": "29.943732967931723",
      "longitude": "-90.08739172271062"
    }
  },
  {
    "service_request": "2022-905577",
    "request_type": "Traffic Signals/Signs/Striping/Streetlights",
    "request_reason": "Traffic Signal Malfunctioning/Damaged",
    "date_created": "2022-08-01T15:42:58.000",
    "date_modified": "2022-08-01T15:42:58.000",
    "request_status": "Pending",
    "responsible_agency": "Department of Public Works",
    "final_address": "2223 Broadway St",
    "address_councildis": "A",
    "status": "Pending",
    "rowid": "905577",
    "final_x": "3666277.71597",
    "final_y": "529550.944705",
    "longitude": "-90.11620304372894",
    "latitude": "29.950534828339777",
    "geocoded_column": {
      "latitude": "29.950534828339777",
      "longitude": "-90.11620304372894"
    }
  },
  {
    "service_request": "2022-905576",
    "request_type": "Trash/Recycling",
    "request_reason": "Illegal Dumping",
    "date_created": "2022-08-01T15:42:18.000",
    "date_modified": "2022-08-01T15:42:18.000",
    "request_status": "Pending",
    "responsible_agency": "Department of Sanitation",
    "final_address": "10501 Curran Rd OFFICE",
    "address_councildis": "E",
    "status": "Pending",
    "rowid": "905576",
    "final_x": "3709141.10411",
    "final_y": "565510.349474",
    "longitude": "-89.97952239921453",
    "latitude": "30.048087971052293",
    "geocoded_column": {
      "latitude": "30.048087971052293",
      "longitude": "-89.97952239921453"
    }
  },
  {
    "service_request": "2022-905575",
    "request_type": "Abandoned Vehicles",
    "request_reason": "Abandoned/Junk Vehicles",
    "date_created": "2022-08-01T15:42:04.000",
    "date_modified": "2022-08-01T15:42:04.000",
    "request_status": "Pending",
    "responsible_agency": "Department of Public Works",
    "final_address": "8601 Leake Ave",
    "address_councildis": "A",
    "status": "Pending",
    "rowid": "905575",
    "final_x": "3660208.80339",
    "final_y": "529136.21248",
    "longitude": "-90.13537932999203",
    "latitude": "29.949570309269692",
    "geocoded_column": {
      "latitude": "29.949570309269692",
      "longitude": "-90.13537932999203"
    }
  },
  {
    "service_request": "2022-905574",
    "request_type": "Trash/Recycling",
    "request_reason": "Request a Large Item Pick Up",
    "date_created": "2022-08-01T15:41:17.000",
    "date_modified": "2022-08-01T15:41:19.000",
    "request_status": "Pending",
    "responsible_agency": "Department of Sanitation",
    "final_address": "3513 Desaix Blvd",
    "address_councildis": "D",
    "status": "Assigned to Contractor",
    "contractor": "Metro Disposal",
    "rowid": "905574",
    "final_x": "3676187.87534",
    "final_y": "543775.220686",
    "longitude": "-90.08442232790097",
    "latitude": "29.989353576177407",
    "geocoded_column": {
      "latitude": "29.989353576177407",
      "longitude": "-90.08442232790097"
    }
  },
  {
    "service_request": "2022-905573",
    "request_type": "Trash/Recycling",
    "request_reason": "Order Recycling Cart",
    "date_created": "2022-08-01T15:40:25.000",
    "date_modified": "2022-08-01T15:40:25.000",
    "request_status": "Pending",
    "responsible_agency": "Department of Sanitation",
    "final_address": "1544 Holiday Pl",
    "address_councildis": "C",
    "status": "Pending",
    "rowid": "905573",
    "final_x": "3699014.94461",
    "final_y": "525372.682045",
    "longitude": "-90.01298844140052",
    "latitude": "29.938049296227934",
    "geocoded_column": {
      "latitude": "29.938049296227934",
      "longitude": "-90.01298844140052"
    }
  },
  {
    "service_request": "2022-905572",
    "request_type": "Trash/Recycling",
    "request_reason": "Request a Large Item Pick Up",
    "date_created": "2022-08-01T15:39:19.000",
    "date_modified": "2022-08-01T15:39:20.000",
    "request_status": "Pending",
    "responsible_agency": "Department of Sanitation",
    "final_address": "1723 Congress St",
    "address_councildis": "D",
    "status": "Assigned to Contractor",
    "contractor": "Metro Disposal",
    "rowid": "905572",
    "final_x": "3691354.39593",
    "final_y": "538008.249417",
    "longitude": "-90.03672197119018",
    "latitude": "29.9730332107418",
    "geocoded_column": {
      "latitude": "29.9730332107418",
      "longitude": "-90.03672197119018"
    }
  },
  {
    "service_request": "2022-905571",
    "request_type": "Traffic Signals/Signs/Striping/Streetlights",
    "request_reason": "Street Light Outage/Malfunction",
    "date_created": "2022-08-01T15:37:26.000",
    "date_modified": "2022-08-01T15:37:26.000",
    "request_status": "Pending",
    "responsible_agency": "Department of Public Works",
    "final_address": "4127 Eden St",
    "address_councildis": "B",
    "status": "Pending",
    "contractor": "Royal Engineering",
    "rowid": "905571",
    "final_x": "3670569.86119",
    "final_y": "530295.616321",
    "longitude": "-90.10262537898778",
    "latitude": "29.952456370245635",
    "geocoded_column": {
      "latitude": "29.952456370245635",
      "longitude": "-90.10262537898778"
    }
  },
  {
    "service_request": "2022-905570",
    "request_type": "Roads/Drainage",
    "request_reason": "Catch Basin - Clogged",
    "date_created": "2022-08-01T15:35:49.000",
    "date_modified": "2022-08-01T15:35:50.000",
    "request_status": "Pending",
    "responsible_agency": "Department of Public Works",
    "final_address": "4723 Erato St",
    "address_councildis": "B",
    "status": "Pending",
    "rowid": "905570",
    "final_x": "3669426.32705",
    "final_y": "532447.810628",
    "longitude": "-90.1061633686138",
    "latitude": "29.958407918981614",
    "geocoded_column": {
      "latitude": "29.958407918981614",
      "longitude": "-90.1061633686138"
    }
  },
  {
    "service_request": "2022-905569",
    "request_type": "Trash/Recycling",
    "request_reason": "Order Trash Cart",
    "date_created": "2022-08-01T15:32:26.000",
    "date_modified": "2022-08-01T15:32:26.000",
    "request_status": "Pending",
    "responsible_agency": "Department of Sanitation",
    "final_address": "2740 Pressburg St",
    "address_councildis": "D",
    "status": "Assigned to Contractor",
    "contractor": "Metro Disposal",
    "rowid": "905569",
    "final_x": "3687637.95459",
    "final_y": "554874.546072",
    "longitude": "-90.04786160552037",
    "latitude": "30.019524555069566",
    "geocoded_column": {
      "latitude": "30.019524555069566",
      "longitude": "-90.04786160552037"
    }
  },
  {
    "service_request": "2022-905568",
    "request_type": "Abandoned Vehicles",
    "request_reason": "Abandoned/Junk Vehicles",
    "date_created": "2022-08-01T15:30:53.000",
    "date_modified": "2022-08-01T15:30:54.000",
    "request_status": "Pending",
    "responsible_agency": "Department of Public Works",
    "final_address": "1900 BLK Jena St",
    "address_councildis": "B",
    "status": "Pending",
    "rowid": "905568",
    "final_x": "3670326.2351",
    "final_y": "522078.231878",
    "longitude": "-90.10367308923969",
    "latitude": "29.92986842219442",
    "geocoded_column": {
      "latitude": "29.92986842219442",
      "longitude": "-90.10367308923969"
    }
  },
  {
    "service_request": "2022-905566",
    "request_type": "Parks & Parkways",
    "request_reason": "Request Tree Service (Right of Way/Public Property)",
    "date_created": "2022-08-01T15:21:02.000",
    "date_modified": "2022-08-01T15:22:20.000",
    "request_status": "Pending",
    "responsible_agency": "Department of Parks & Parkway",
    "final_address": "5514 Fontainebleau Dr",
    "address_councildis": "A",
    "status": "Pending",
    "rowid": "905566",
    "final_x": "3668713.0121",
    "final_y": "529655.461825",
    "longitude": "-90.10851008605732",
    "latitude": "29.950750862879964",
    "geocoded_column": {
      "latitude": "29.950750862879964",
      "longitude": "-90.10851008605732"
    }
  },
  {
    "service_request": "2022-905565",
    "request_type": "Property Maintenance",
    "request_reason": "Property Maintenance",
    "date_created": "2022-08-01T15:17:31.000",
    "date_modified": "2022-08-01T15:31:08.000",
    "case_close_date": "2022-08-01T10:31:08.000",
    "request_status": "Closed",
    "responsible_agency": "Department of Code Enforcement",
    "final_address": "8915 Peach St",
    "address_councildis": "A",
    "status": "Referred to Code Enforcement",
    "rowid": "905565",
    "final_x": "3666497.38861",
    "final_y": "537740.588744",
    "longitude": "-90.1152345347128",
    "latitude": "29.973047235460783",
    "geocoded_column": {
      "latitude": "29.973047235460783",
      "longitude": "-90.1152345347128"
    }
  },
  {
    "service_request": "2022-905564",
    "request_type": "Trash/Recycling",
    "request_reason": "Illegal Dumping",
    "date_created": "2022-08-01T15:16:06.000",
    "date_modified": "2022-08-01T15:16:06.000",
    "request_status": "Pending",
    "responsible_agency": "Department of Sanitation",
    "final_address": "1018 S Carrollton Ave",
    "address_councildis": "A",
    "status": "Pending",
    "rowid": "905564",
    "final_x": "3661578.41107",
    "final_y": "527979.905343",
    "longitude": "-90.13109314330612",
    "latitude": "29.94635139106853",
    "geocoded_column": {
      "latitude": "29.94635139106853",
      "longitude": "-90.13109314330612"
    }
  },
  {
    "service_request": "2022-905563",
    "request_type": "Trash/Recycling",
    "request_reason": "Order Trash Cart",
    "date_created": "2022-08-01T15:13:21.000",
    "date_modified": "2022-08-01T15:13:22.000",
    "request_status": "Pending",
    "responsible_agency": "Department of Sanitation",
    "final_address": "622 Audubon St",
    "address_councildis": "A",
    "status": "Assigned to Contractor",
    "contractor": "Richards Disposal",
    "rowid": "905563",
    "final_x": "3663301.27021",
    "final_y": "524750.99846",
    "longitude": "-90.12576088778118",
    "latitude": "29.93742311019221",
    "geocoded_column": {
      "latitude": "29.93742311019221",
      "longitude": "-90.12576088778118"
    }
  },
  {
    "service_request": "2022-905562",
    "request_type": "Trash/Recycling",
    "request_reason": "Request a Large Item Pick Up",
    "date_created": "2022-08-01T15:12:17.000",
    "date_modified": "2022-08-01T15:12:18.000",
    "request_status": "Pending",
    "responsible_agency": "Department of Sanitation",
    "final_address": "1806 Delery St",
    "address_councildis": "E",
    "status": "Assigned to Contractor",
    "contractor": "Metro Disposal",
    "rowid": "905562",
    "final_x": "3701392.27293",
    "final_y": "535523.921606",
    "longitude": "-90.00511156532208",
    "latitude": "29.96588606547674",
    "geocoded_column": {
      "latitude": "29.96588606547674",
      "longitude": "-90.00511156532208"
    }
  },
  {
    "service_request": "2022-905561",
    "request_type": "Property Maintenance",
    "request_reason": "Property Maintenance",
    "date_created": "2022-08-01T15:08:59.000",
    "date_modified": "2022-08-01T15:33:49.000",
    "case_close_date": "2022-08-01T10:33:49.000",
    "request_status": "Closed",
    "responsible_agency": "Department of Code Enforcement",
    "final_address": "1713 Charbonnet St",
    "address_councildis": "E",
    "status": "Referred to Code Enforcement",
    "rowid": "905561",
    "final_x": "3699301.73277",
    "final_y": "535963.401799",
    "longitude": "-90.01169737665494",
    "latitude": "29.96716094480836",
    "geocoded_column": {
      "latitude": "29.96716094480836",
      "longitude": "-90.01169737665494"
    }
  },
  {
    "service_request": "2022-905560",
    "request_type": "Property Maintenance",
    "request_reason": "Property Maintenance",
    "date_created": "2022-08-01T15:07:37.000",
    "date_modified": "2022-08-01T15:41:49.000",
    "case_close_date": "2022-08-01T10:41:49.000",
    "request_status": "Closed",
    "responsible_agency": "Department of Code Enforcement",
    "final_address": "1733 Charbonnet St",
    "address_councildis": "E",
    "status": "Referred to Code Enforcement",
    "rowid": "905560",
    "final_x": "3699339.40394",
    "final_y": "536099.968839",
    "longitude": "-90.01157343657482",
    "latitude": "29.967535260351",
    "geocoded_column": {
      "latitude": "29.967535260351",
      "longitude": "-90.01157343657482"
    }
  },
  {
    "service_request": "2022-905559",
    "request_type": "Property Maintenance",
    "request_reason": "Property Maintenance",
    "date_created": "2022-08-01T15:07:02.000",
    "date_modified": "2022-08-01T15:42:56.000",
    "case_close_date": "2022-08-01T10:42:56.000",
    "request_status": "Closed",
    "responsible_agency": "Department of Code Enforcement",
    "final_address": "1733 Charbonnet St",
    "address_councildis": "E",
    "status": "Referred to Code Enforcement",
    "rowid": "905559",
    "final_x": "3699339.40394",
    "final_y": "536099.968839",
    "longitude": "-90.01157343657482",
    "latitude": "29.967535260351",
    "geocoded_column": {
      "latitude": "29.967535260351",
      "longitude": "-90.01157343657482"
    }
  },
  {
    "service_request": "2022-905558",
    "request_type": "Traffic Signals/Signs/Striping/Streetlights",
    "request_reason": "Street Light Outage/Malfunction",
    "date_created": "2022-08-01T15:03:30.000",
    "date_modified": "2022-08-01T15:03:31.000",
    "request_status": "Pending",
    "responsible_agency": "Department of Public Works",
    "final_address": "3631 Behrman Pl",
    "address_councildis": "C",
    "status": "Pending",
    "contractor": "Royal Engineering",
    "rowid": "905558",
    "final_x": "3697485.44023",
    "final_y": "518067.755318",
    "longitude": "-90.01808191385706",
    "latitude": "29.918011622413985",
    "geocoded_column": {
      "latitude": "29.918011622413985",
      "longitude": "-90.01808191385706"
    }
  },
  {
    "service_request": "2022-905557",
    "request_type": "Property Maintenance",
    "request_reason": "Property Maintenance",
    "date_created": "2022-08-01T15:02:52.000",
    "date_modified": "2022-08-01T15:02:52.000",
    "request_status": "Pending",
    "responsible_agency": "Department of Code Enforcement",
    "final_address": "4016 Dumaine St",
    "address_councildis": "A",
    "status": "Pending",
    "rowid": "905557",
    "final_x": "3673272.0052",
    "final_y": "540368.934475",
    "longitude": "-90.09374913457236",
    "latitude": "29.98007452633275",
    "geocoded_column": {
      "latitude": "29.98007452633275",
      "longitude": "-90.09374913457236"
    }
  },
  {
    "service_request": "2022-905556",
    "request_type": "Property Maintenance",
    "request_reason": "Property Maintenance",
    "date_created": "2022-08-01T14:59:10.000",
    "date_modified": "2022-08-01T15:27:37.000",
    "case_close_date": "2022-08-01T10:27:37.000",
    "request_status": "Closed",
    "responsible_agency": "Department of Code Enforcement",
    "final_address": "4302 S Miro St",
    "address_councildis": "B",
    "status": "Referred to Code Enforcement",
    "rowid": "905556",
    "final_x": "3670517.29121",
    "final_y": "527808.814847",
    "longitude": "-90.10287569197149",
    "latitude": "29.945620033232718",
    "geocoded_column": {
      "latitude": "29.945620033232718",
      "longitude": "-90.10287569197149"
    }
  },
  {
    "service_request": "2022-905555",
    "request_type": "Trash/Recycling",
    "request_reason": "Missed Trash Pick-Up",
    "date_created": "2022-08-01T14:58:35.000",
    "date_modified": "2022-08-01T14:58:36.000",
    "request_status": "Pending",
    "responsible_agency": "Department of Sanitation",
    "final_address": "2662 Gallinghouse St",
    "address_councildis": "C",
    "status": "Assigned to Contractor",
    "contractor": "Richards Disposal",
    "rowid": "905555",
    "final_x": "3700137.22788",
    "final_y": "521208.606585",
    "longitude": "-90.00959719071085",
    "latitude": "29.926563924658815",
    "geocoded_column": {
      "latitude": "29.926563924658815",
      "longitude": "-90.00959719071085"
    }
  },
  {
    "service_request": "2022-905554",
    "request_type": "Roads/Drainage",
    "request_reason": "Catch Basin - Clogged",
    "date_created": "2022-08-01T14:58:30.000",
    "date_modified": "2022-08-01T14:59:11.000",
    "request_status": "Pending",
    "responsible_agency": "Department of Public Works",
    "final_address": "1101 Peniston St",
    "address_councildis": "B",
    "status": "Pending",
    "rowid": "905554",
    "final_x": "3673261.15048",
    "final_y": "519824.409976",
    "longitude": "-90.09448497049877",
    "latitude": "29.92358420648677",
    "geocoded_column": {
      "latitude": "29.92358420648677",
      "longitude": "-90.09448497049877"
    }
  },
  {
    "service_request": "2022-905553",
    "request_type": "Roads/Drainage",
    "request_reason": "Catch Basin - Clogged",
    "date_created": "2022-08-01T14:57:10.000",
    "date_modified": "2022-08-01T14:57:11.000",
    "request_status": "Pending",
    "responsible_agency": "Department of Public Works",
    "final_address": "1015 Peniston St",
    "address_councildis": "B",
    "status": "Pending",
    "rowid": "905553",
    "final_x": "3673297.29384",
    "final_y": "519566.473592",
    "longitude": "-90.09437968280942",
    "latitude": "29.922873889520673",
    "geocoded_column": {
      "latitude": "29.922873889520673",
      "longitude": "-90.09437968280942"
    }
  },
  {
    "service_request": "2022-905552",
    "request_type": "Roads/Drainage",
    "request_reason": "Man hole cover issue",
    "date_created": "2022-08-01T14:55:56.000",
    "date_modified": "2022-08-01T14:55:56.000",
    "request_status": "Pending",
    "responsible_agency": "Department of Public Works",
    "final_address": "2950 Maurepas St",
    "address_councildis": "A",
    "status": "Pending",
    "rowid": "905552",
    "final_x": "3677297.17672",
    "final_y": "540688.947467",
    "longitude": "-90.08102490737714",
    "latitude": "29.980834104403485",
    "geocoded_column": {
      "latitude": "29.980834104403485",
      "longitude": "-90.08102490737714"
    }
  },
  {
    "service_request": "2022-905551",
    "request_type": "Roads/Drainage",
    "request_reason": "Catch Basin - Clogged",
    "date_created": "2022-08-01T14:48:58.000",
    "date_modified": "2022-08-01T14:48:59.000",
    "request_status": "Pending",
    "responsible_agency": "Department of Public Works",
    "final_address": "22 Park Island Dr",
    "address_councildis": "A",
    "status": "Pending",
    "rowid": "905551",
    "final_x": "3676269.14984",
    "final_y": "548347.823122",
    "longitude": "-90.08400812515829",
    "latitude": "30.001924192784735",
    "geocoded_column": {
      "latitude": "30.001924192784735",
      "longitude": "-90.08400812515829"
    }
  },
  {
    "service_request": "2022-905550",
    "request_type": "Property Maintenance",
    "request_reason": "Property Maintenance",
    "date_created": "2022-08-01T14:48:45.000",
    "date_modified": "2022-08-01T14:56:12.000",
    "case_close_date": "2022-08-01T09:56:12.000",
    "request_status": "Closed",
    "responsible_agency": "Department of Code Enforcement",
    "final_address": "4321 Paris Ave",
    "address_councildis": "D",
    "status": "Referred to Code Enforcement",
    "rowid": "905550",
    "final_x": "3679560.51707",
    "final_y": "548052.368466",
    "longitude": "-90.0736205976197",
    "latitude": "30.001012712682407",
    "geocoded_column": {
      "latitude": "30.001012712682407",
      "longitude": "-90.0736205976197"
    }
  },
  {
    "service_request": "2022-905549",
    "request_type": "Traffic Signals/Signs/Striping/Streetlights",
    "request_reason": "Street Light Outage/Malfunction",
    "date_created": "2022-08-01T14:47:34.000",
    "date_modified": "2022-08-01T14:47:34.000",
    "request_status": "Pending",
    "responsible_agency": "Department of Public Works",
    "final_address": "118 City Park Ave",
    "address_councildis": "A",
    "status": "Pending",
    "contractor": "Royal Engineering",
    "rowid": "905549",
    "final_x": "3667651.43245",
    "final_y": "540854.232907",
    "longitude": "-90.1114849682831",
    "latitude": "29.98157492613766",
    "geocoded_column": {
      "latitude": "29.98157492613766",
      "longitude": "-90.1114849682831"
    }
  },
  {
    "service_request": "2022-905548",
    "request_type": "Traffic Signals/Signs/Striping/Streetlights",
    "request_reason": "Street Light Outage/Malfunction",
    "date_created": "2022-08-01T14:47:20.000",
    "date_modified": "2022-08-01T14:47:20.000",
    "request_status": "Pending",
    "responsible_agency": "Department of Public Works",
    "final_address": "118 City Park Ave",
    "address_councildis": "A",
    "status": "Pending",
    "contractor": "Royal Engineering",
    "rowid": "905548",
    "final_x": "3667651.43245",
    "final_y": "540854.232907",
    "longitude": "-90.1114849682831",
    "latitude": "29.98157492613766",
    "geocoded_column": {
      "latitude": "29.98157492613766",
      "longitude": "-90.1114849682831"
    }
  },
  {
    "service_request": "2022-905547",
    "request_type": "Traffic Signals/Signs/Striping/Streetlights",
    "request_reason": "Street Light Outage/Malfunction",
    "date_created": "2022-08-01T14:47:07.000",
    "date_modified": "2022-08-01T14:47:07.000",
    "request_status": "Pending",
    "responsible_agency": "Department of Public Works",
    "final_address": "118 City Park Ave",
    "address_councildis": "A",
    "status": "Pending",
    "contractor": "Royal Engineering",
    "rowid": "905547",
    "final_x": "3667651.43245",
    "final_y": "540854.232907",
    "longitude": "-90.1114849682831",
    "latitude": "29.98157492613766",
    "geocoded_column": {
      "latitude": "29.98157492613766",
      "longitude": "-90.1114849682831"
    }
  },
  {
    "service_request": "2022-905546",
    "request_type": "Traffic Signals/Signs/Striping/Streetlights",
    "request_reason": "Street Light Outage/Malfunction",
    "date_created": "2022-08-01T14:46:56.000",
    "date_modified": "2022-08-01T14:46:56.000",
    "request_status": "Pending",
    "responsible_agency": "Department of Public Works",
    "final_address": "118 City Park Ave",
    "address_councildis": "A",
    "status": "Pending",
    "contractor": "Royal Engineering",
    "rowid": "905546",
    "final_x": "3667651.43245",
    "final_y": "540854.232907",
    "longitude": "-90.1114849682831",
    "latitude": "29.98157492613766",
    "geocoded_column": {
      "latitude": "29.98157492613766",
      "longitude": "-90.1114849682831"
    }
  },
  {
    "service_request": "2022-905545",
    "request_type": "Traffic Signals/Signs/Striping/Streetlights",
    "request_reason": "Street Light Outage/Malfunction",
    "date_created": "2022-08-01T14:46:45.000",
    "date_modified": "2022-08-01T14:46:45.000",
    "request_status": "Pending",
    "responsible_agency": "Department of Public Works",
    "final_address": "118 City Park Ave",
    "address_councildis": "A",
    "status": "Pending",
    "contractor": "Royal Engineering",
    "rowid": "905545",
    "final_x": "3667651.43245",
    "final_y": "540854.232907",
    "longitude": "-90.1114849682831",
    "latitude": "29.98157492613766",
    "geocoded_column": {
      "latitude": "29.98157492613766",
      "longitude": "-90.1114849682831"
    }
  },
  {
    "service_request": "2022-905544",
    "request_type": "Roads/Drainage",
    "request_reason": "Catch Basin - Clogged",
    "date_created": "2022-08-01T14:45:05.000",
    "date_modified": "2022-08-01T14:45:05.000",
    "request_status": "Pending",
    "responsible_agency": "Department of Public Works",
    "final_address": "7541 Willow St",
    "address_councildis": "A",
    "status": "Pending",
    "rowid": "905544",
    "final_x": "3663837.90624",
    "final_y": "527693.162559",
    "longitude": "-90.12396864776015",
    "latitude": "29.945497560315292",
    "geocoded_column": {
      "latitude": "29.945497560315292",
      "longitude": "-90.12396864776015"
    }
  },
  {
    "service_request": "2022-905543",
    "request_type": "Traffic Signals/Signs/Striping/Streetlights",
    "request_reason": "Request for Traffic Calming due to Speeding",
    "date_created": "2022-08-01T14:44:07.000",
    "date_modified": "2022-08-01T14:44:07.000",
    "request_status": "Pending",
    "responsible_agency": "Department of Public Works",
    "final_address": "ELYSIAN FIELDS AVE & LEON C SIMON DR",
    "address_councildis": "D",
    "status": "Pending",
    "rowid": "905543",
    "final_x": "3683284.5",
    "final_y": "556817.78",
    "longitude": "-90.06154890746612",
    "latitude": "30.02500130577329",
    "geocoded_column": {
      "latitude": "30.02500130577329",
      "longitude": "-90.06154890746612"
    }
  },
  {
    "service_request": "2022-905542",
    "request_type": "Roads/Drainage",
    "request_reason": "Catch Basin - Clogged",
    "date_created": "2022-08-01T14:42:19.000",
    "date_modified": "2022-08-01T14:42:19.000",
    "request_status": "Pending",
    "responsible_agency": "Department of Public Works",
    "final_address": "4600 BLK Francisco Verrett Dr",
    "address_councildis": "E",
    "status": "Pending",
    "rowid": "905542",
    "final_x": "3704286.25117",
    "final_y": "554594.657987",
    "longitude": "-89.99526926704334",
    "latitude": "30.01823091296297",
    "geocoded_column": {
      "latitude": "30.01823091296297",
      "longitude": "-89.99526926704334"
    }
  },
  {
    "service_request": "2022-905541",
    "request_type": "Abandoned Vehicles",
    "request_reason": "Abandoned/Junk Vehicles",
    "date_created": "2022-08-01T14:41:29.000",
    "date_modified": "2022-08-01T14:41:29.000",
    "request_status": "Pending",
    "responsible_agency": "Department of Public Works",
    "final_address": "326 S Bernadotte St",
    "address_councildis": "A",
    "status": "Pending",
    "rowid": "905541",
    "final_x": "3668271.78023",
    "final_y": "539216.261258",
    "longitude": "-90.10958086750139",
    "latitude": "29.977052853511278",
    "geocoded_column": {
      "latitude": "29.977052853511278",
      "longitude": "-90.10958086750139"
    }
  },
  {
    "service_request": "2022-905540",
    "request_type": "Roads/Drainage",
    "request_reason": "Catch Basin - Clogged",
    "date_created": "2022-08-01T14:41:27.000",
    "date_modified": "2022-08-01T14:41:27.000",
    "request_status": "Pending",
    "responsible_agency": "Department of Public Works",
    "final_address": "4600 BLK Viola St",
    "address_councildis": "E",
    "status": "Pending",
    "rowid": "905540",
    "final_x": "3704054.04724",
    "final_y": "554571.128834",
    "longitude": "-89.99600380663344",
    "latitude": "30.018173670628254",
    "geocoded_column": {
      "latitude": "30.018173670628254",
      "longitude": "-89.99600380663344"
    }
  },
  {
    "service_request": "2022-905539",
    "request_type": "Abandoned Vehicles",
    "request_reason": "Abandoned/Junk Vehicles",
    "date_created": "2022-08-01T14:39:29.000",
    "date_modified": "2022-08-01T14:39:29.000",
    "request_status": "Pending",
    "responsible_agency": "Department of Public Works",
    "final_address": "326 S Bernadotte St",
    "address_councildis": "A",
    "status": "Pending",
    "rowid": "905539",
    "final_x": "3668271.78023",
    "final_y": "539216.261258",
    "longitude": "-90.10958086750139",
    "latitude": "29.977052853511278",
    "geocoded_column": {
      "latitude": "29.977052853511278",
      "longitude": "-90.10958086750139"
    }
  },
  {
    "service_request": "2022-905538",
    "request_type": "Trash/Recycling",
    "request_reason": "Request a Large Item Pick Up",
    "date_created": "2022-08-01T14:37:57.000",
    "date_modified": "2022-08-01T14:37:57.000",
    "request_status": "Pending",
    "responsible_agency": "Department of Sanitation",
    "final_address": "6116 Baccich St",
    "address_councildis": "D",
    "status": "Assigned to Contractor",
    "contractor": "Metro Disposal",
    "rowid": "905538",
    "final_x": "3687399.29468",
    "final_y": "555788.456601",
    "longitude": "-90.048583312316",
    "latitude": "30.022044829864736",
    "geocoded_column": {
      "latitude": "30.022044829864736",
      "longitude": "-90.048583312316"
    }
  },
  {
    "service_request": "2022-905537",
    "request_type": "Abandoned Vehicles",
    "request_reason": "Abandoned/Junk Vehicles",
    "date_created": "2022-08-01T14:37:09.000",
    "date_modified": "2022-08-01T14:37:09.000",
    "request_status": "Pending",
    "responsible_agency": "Department of Public Works",
    "final_address": "326 S Bernadotte St",
    "address_councildis": "A",
    "status": "Pending",
    "rowid": "905537",
    "final_x": "3668271.78023",
    "final_y": "539216.261258",
    "longitude": "-90.10958086750139",
    "latitude": "29.977052853511278",
    "geocoded_column": {
      "latitude": "29.977052853511278",
      "longitude": "-90.10958086750139"
    }
  },
  {
    "service_request": "2022-905536",
    "request_type": "Traffic Signals/Signs/Striping/Streetlights",
    "request_reason": "Street Light Outage/Malfunction",
    "date_created": "2022-08-01T14:35:17.000",
    "date_modified": "2022-08-01T14:35:17.000",
    "request_status": "Pending",
    "responsible_agency": "Department of Public Works",
    "final_address": "3425 Thalia St Apt A",
    "address_councildis": "B",
    "status": "Pending",
    "contractor": "Royal Engineering",
    "rowid": "905536",
    "final_x": "3673480.19425",
    "final_y": "529550.088257",
    "longitude": "-90.09346133141729",
    "latitude": "29.95032014233299",
    "geocoded_column": {
      "latitude": "29.95032014233299",
      "longitude": "-90.09346133141729"
    }
  },
  {
    "service_request": "2022-905535",
    "request_type": "Traffic Signals/Signs/Striping/Streetlights",
    "request_reason": "Street Light Outage/Malfunction",
    "date_created": "2022-08-01T14:35:02.000",
    "date_modified": "2022-08-01T14:35:02.000",
    "request_status": "Pending",
    "responsible_agency": "Department of Public Works",
    "final_address": "3425 Thalia St Apt A",
    "address_councildis": "B",
    "status": "Pending",
    "contractor": "Royal Engineering",
    "rowid": "905535",
    "final_x": "3673480.19425",
    "final_y": "529550.088257",
    "longitude": "-90.09346133141729",
    "latitude": "29.95032014233299",
    "geocoded_column": {
      "latitude": "29.95032014233299",
      "longitude": "-90.09346133141729"
    }
  },
  {
    "service_request": "2022-905534",
    "request_type": "Traffic Signals/Signs/Striping/Streetlights",
    "request_reason": "Street Light Outage/Malfunction",
    "date_created": "2022-08-01T14:34:58.000",
    "date_modified": "2022-08-01T14:34:59.000",
    "request_status": "Pending",
    "responsible_agency": "Department of Public Works",
    "final_address": "3661 Post Oak Ave",
    "address_councildis": "C",
    "status": "Pending",
    "contractor": "Royal Engineering",
    "rowid": "905534",
    "final_x": "3703965.12746",
    "final_y": "514350.789299",
    "longitude": "-89.99776598503422",
    "latitude": "29.907585137529832",
    "geocoded_column": {
      "latitude": "29.907585137529832",
      "longitude": "-89.99776598503422"
    }
  },
  {
    "service_request": "2022-905533",
    "request_type": "Traffic Signals/Signs/Striping/Streetlights",
    "request_reason": "Street Light Outage/Malfunction",
    "date_created": "2022-08-01T14:34:51.000",
    "date_modified": "2022-08-01T14:34:51.000",
    "request_status": "Pending",
    "responsible_agency": "Department of Public Works",
    "final_address": "3425 Thalia St Apt A",
    "address_councildis": "B",
    "status": "Pending",
    "contractor": "Royal Engineering",
    "rowid": "905533",
    "final_x": "3673480.19425",
    "final_y": "529550.088257",
    "longitude": "-90.09346133141729",
    "latitude": "29.95032014233299",
    "geocoded_column": {
      "latitude": "29.95032014233299",
      "longitude": "-90.09346133141729"
    }
  },
  {
    "service_request": "2022-905532",
    "request_type": "Traffic Signals/Signs/Striping/Streetlights",
    "request_reason": "Street Light Outage/Malfunction",
    "date_created": "2022-08-01T14:34:28.000",
    "date_modified": "2022-08-01T14:34:28.000",
    "request_status": "Pending",
    "responsible_agency": "Department of Public Works",
    "final_address": "3425 Thalia St Apt A",
    "address_councildis": "B",
    "status": "Pending",
    "contractor": "Royal Engineering",
    "rowid": "905532",
    "final_x": "3673480.19425",
    "final_y": "529550.088257",
    "longitude": "-90.09346133141729",
    "latitude": "29.95032014233299",
    "geocoded_column": {
      "latitude": "29.95032014233299",
      "longitude": "-90.09346133141729"
    }
  },
  {
    "service_request": "2022-905531",
    "request_type": "Trash/Recycling",
    "request_reason": "MIssed Recycling Pick-Up",
    "date_created": "2022-08-01T14:32:08.000",
    "date_modified": "2022-08-01T14:32:09.000",
    "request_status": "Pending",
    "responsible_agency": "Department of Sanitation",
    "final_address": "3011 Sullen Pl",
    "address_councildis": "C",
    "status": "Assigned to Contractor",
    "contractor": "Richards Disposal",
    "rowid": "905531",
    "final_x": "3707785.08331",
    "final_y": "519617.937592",
    "longitude": "-89.98551429608008",
    "latitude": "29.921944987773887",
    "geocoded_column": {
      "latitude": "29.921944987773887",
      "longitude": "-89.98551429608008"
    }
  },
  {
    "service_request": "2022-905530",
    "request_type": "Property Maintenance",
    "request_reason": "Property Maintenance",
    "date_created": "2022-08-01T14:30:37.000",
    "date_modified": "2022-08-01T14:57:07.000",
    "case_close_date": "2022-08-01T09:57:07.000",
    "request_status": "Closed",
    "responsible_agency": "Department of Code Enforcement",
    "final_address": "LEON C SIMON DR & ST ROCH AVE",
    "address_councildis": "D",
    "status": "Referred to Code Enforcement",
    "rowid": "905530",
    "final_x": "3684790.5",
    "final_y": "557044.38",
    "longitude": "-90.05678221852526",
    "latitude": "30.025578324844233",
    "geocoded_column": {
      "latitude": "30.025578324844233",
      "longitude": "-90.05678221852526"
    }
  },
  {
    "service_request": "2022-905529",
    "request_type": "Traffic Signals/Signs/Striping/Streetlights",
    "request_reason": "Street Light Outage/Malfunction",
    "date_created": "2022-08-01T14:28:38.000",
    "date_modified": "2022-08-01T14:28:38.000",
    "request_status": "Pending",
    "responsible_agency": "Department of Public Works",
    "final_address": "1329 Andry St",
    "address_councildis": "E",
    "status": "Pending",
    "contractor": "Royal Engineering",
    "rowid": "905529",
    "final_x": "3697509.65975",
    "final_y": "534889.751302",
    "longitude": "-90.0173956665821",
    "latitude": "29.964265502952077",
    "geocoded_column": {
      "latitude": "29.964265502952077",
      "longitude": "-90.0173956665821"
    }
  },
  {
    "service_request": "2022-905528",
    "request_type": "Roads/Drainage",
    "request_reason": "Street Subsidence (Sinking)",
    "date_created": "2022-08-01T14:23:51.000",
    "date_modified": "2022-08-01T14:23:51.000",
    "request_status": "Pending",
    "responsible_agency": "Department of Public Works",
    "final_address": "1544 State St",
    "address_councildis": "A",
    "status": "Pending",
    "rowid": "905528",
    "final_x": "3665562.32045",
    "final_y": "522219.480122",
    "longitude": "-90.11870728865692",
    "latitude": "29.93039652496733",
    "geocoded_column": {
      "latitude": "29.93039652496733",
      "longitude": "-90.11870728865692"
    }
  },
  {
    "service_request": "2022-905527",
    "request_type": "Trash/Recycling",
    "request_reason": "MIssed Recycling Pick-Up",
    "date_created": "2022-08-01T14:23:02.000",
    "date_modified": "2022-08-01T14:23:03.000",
    "request_status": "Pending",
    "responsible_agency": "Department of Sanitation",
    "final_address": "108 Wilshire Pl",
    "address_councildis": "D",
    "status": "Assigned to Contractor",
    "contractor": "Metro Disposal",
    "rowid": "905527",
    "final_x": "3677436.25006",
    "final_y": "544408.323535",
    "longitude": "-90.08045720418266",
    "latitude": "29.99105691505989",
    "geocoded_column": {
      "latitude": "29.99105691505989",
      "longitude": "-90.08045720418266"
    }
  },
  {
    "service_request": "2022-905526",
    "request_type": "Property Maintenance",
    "request_reason": "Property Maintenance",
    "date_created": "2022-08-01T14:21:00.000",
    "date_modified": "2022-08-01T15:01:15.000",
    "case_close_date": "2022-08-01T10:01:15.000",
    "request_status": "Closed",
    "responsible_agency": "Department of Code Enforcement",
    "final_address": "1817 Napoleon Ave",
    "address_councildis": "B",
    "status": "Referred to Code Enforcement",
    "rowid": "905526",
    "final_x": "3670897.6411",
    "final_y": "521755.326266",
    "longitude": "-90.10188020879816",
    "latitude": "29.928963661778372",
    "geocoded_column": {
      "latitude": "29.928963661778372",
      "longitude": "-90.10188020879816"
    }
  },
  {
    "service_request": "2022-905525",
    "request_type": "Abandoned Vehicles",
    "request_reason": "Abandoned/Junk Vehicles",
    "date_created": "2022-08-01T14:18:08.000",
    "date_modified": "2022-08-01T14:18:10.000",
    "request_status": "Pending",
    "responsible_agency": "Department of Public Works",
    "final_address": "724 Evelina St",
    "address_councildis": "C",
    "status": "Pending",
    "contractor": "Richards Disposal",
    "rowid": "905525",
    "final_x": "3687712.863",
    "final_y": "529546.164929",
    "longitude": "-90.04852227392078",
    "latitude": "29.94987821405223",
    "geocoded_column": {
      "latitude": "29.94987821405223",
      "longitude": "-90.04852227392078"
    }
  },
  {
    "service_request": "2022-905524",
    "request_type": "Trash/Recycling",
    "request_reason": "Illegal Dumping",
    "date_created": "2022-08-01T14:17:38.000",
    "date_modified": "2022-08-01T14:17:38.000",
    "request_status": "Pending",
    "responsible_agency": "Department of Sanitation",
    "final_address": "4317 Dryades St",
    "address_councildis": "B",
    "status": "Pending",
    "rowid": "905524",
    "final_x": "3670978.82286",
    "final_y": "522038.916154",
    "longitude": "-90.101614310199",
    "latitude": "29.929741043765045",
    "geocoded_column": {
      "latitude": "29.929741043765045",
      "longitude": "-90.101614310199"
    }
  },
  {
    "service_request": "2022-905523",
    "request_type": "Roads/Drainage",
    "request_reason": "Catch Basin - Clogged",
    "date_created": "2022-08-01T14:15:26.000",
    "date_modified": "2022-08-01T14:15:26.000",
    "request_status": "Pending",
    "responsible_agency": "Department of Public Works",
    "final_address": "1830 Cambronne St",
    "address_councildis": "A",
    "status": "Pending",
    "rowid": "905523",
    "final_x": "3662708.88903",
    "final_y": "530860.659522",
    "longitude": "-90.12742808709885",
    "latitude": "29.95423987534759",
    "geocoded_column": {
      "latitude": "29.95423987534759",
      "longitude": "-90.12742808709885"
    }
  },
  {
    "service_request": "2022-905522",
    "request_type": "Roads/Drainage",
    "request_reason": "Catch Basin - Clogged",
    "date_created": "2022-08-01T14:14:59.000",
    "date_modified": "2022-08-01T14:15:00.000",
    "request_status": "Pending",
    "responsible_agency": "Department of Public Works",
    "final_address": "1830 Cambronne St",
    "address_councildis": "A",
    "status": "Pending",
    "rowid": "905522",
    "final_x": "3662708.88903",
    "final_y": "530860.659522",
    "longitude": "-90.12742808709885",
    "latitude": "29.95423987534759",
    "geocoded_column": {
      "latitude": "29.95423987534759",
      "longitude": "-90.12742808709885"
    }
  },
  {
    "service_request": "2022-905521",
    "request_type": "Traffic Signals/Signs/Striping/Streetlights",
    "request_reason": "Traffic Signal Malfunctioning/Damaged",
    "date_created": "2022-08-01T14:10:15.000",
    "date_modified": "2022-08-01T14:24:05.000",
    "request_status": "Pending",
    "responsible_agency": "Department of Public Works",
    "final_address": "New Orleans,LA",
    "address_councildis": "B",
    "rowid": "905521",
    "final_x": "3678705.21",
    "final_y": "527297.49",
    "longitude": "-90.07704144738564",
    "latitude": "29.943969753650155",
    "geocoded_column": {
      "latitude": "29.943969753650155",
      "longitude": "-90.07704144738564"
    }
  },
  {
    "service_request": "2022-905520",
    "request_type": "Abandoned Vehicles",
    "request_reason": "Abandoned/Junk Vehicles",
    "date_created": "2022-08-01T14:08:35.000",
    "date_modified": "2022-08-01T14:08:35.000",
    "request_status": "Pending",
    "responsible_agency": "Department of Public Works",
    "final_address": "4115 S Carrollton Ave",
    "address_councildis": "A",
    "status": "Pending",
    "rowid": "905520",
    "final_x": "3669231.28954",
    "final_y": "536574.153991",
    "longitude": "-90.1066397534481",
    "latitude": "29.96975973413392",
    "geocoded_column": {
      "latitude": "29.96975973413392",
      "longitude": "-90.1066397534481"
    }
  },
  {
    "service_request": "2022-905519",
    "request_type": "Property Maintenance",
    "request_reason": "Property Maintenance",
    "date_created": "2022-08-01T14:07:08.000",
    "date_modified": "2022-08-01T14:52:28.000",
    "case_close_date": "2022-08-01T09:52:28.000",
    "request_status": "Closed",
    "responsible_agency": "Department of Code Enforcement",
    "final_address": "7441 Poitevent Ave",
    "address_councildis": "E",
    "status": "Referred to Code Enforcement",
    "rowid": "905519",
    "final_x": "3707260.58136",
    "final_y": "563702.709537",
    "longitude": "-89.98553307648577",
    "latitude": "30.043178641014954",
    "geocoded_column": {
      "latitude": "30.043178641014954",
      "longitude": "-89.98553307648577"
    }
  },
  {
    "service_request": "2022-905518",
    "request_type": "Trash/Recycling",
    "request_reason": "Request a Large Item Pick Up",
    "date_created": "2022-08-01T14:05:08.000",
    "date_modified": "2022-08-01T14:05:09.000",
    "request_status": "Pending",
    "responsible_agency": "Department of Sanitation",
    "final_address": "6025 St Anthony Ave",
    "address_councildis": "D",
    "status": "Assigned to Contractor",
    "contractor": "Metro Disposal",
    "rowid": "905518",
    "final_x": "3682125.00258",
    "final_y": "555013.314201",
    "longitude": "-90.06527583123177",
    "latitude": "30.020075022652033",
    "geocoded_column": {
      "latitude": "30.020075022652033",
      "longitude": "-90.06527583123177"
    }
  },
  {
    "service_request": "2022-905517",
    "request_type": "Trash/Recycling",
    "request_reason": "Request a Large Item Pick Up",
    "date_created": "2022-08-01T14:04:24.000",
    "date_modified": "2022-08-01T14:04:25.000",
    "request_status": "Pending",
    "responsible_agency": "Department of Sanitation",
    "final_address": "4035 Dauphine St",
    "address_councildis": "C",
    "status": "Assigned to Contractor",
    "contractor": "Metro Disposal",
    "rowid": "905517",
    "final_x": "3691790.76451",
    "final_y": "534121.417477",
    "longitude": "-90.03548287783723",
    "latitude": "29.962332208542332",
    "geocoded_column": {
      "latitude": "29.962332208542332",
      "longitude": "-90.03548287783723"
    }
  },
  {
    "service_request": "2022-905516",
    "request_type": "Property Maintenance",
    "request_reason": "Property Maintenance",
    "date_created": "2022-08-01T14:03:09.000",
    "date_modified": "2022-08-01T14:03:10.000",
    "request_status": "Pending",
    "responsible_agency": "Department of Code Enforcement",
    "final_address": "1605 N Broad St",
    "address_councildis": "D",
    "status": "Pending",
    "rowid": "905516",
    "final_x": "3679077.32578",
    "final_y": "540244.483851",
    "longitude": "-90.07541782107101",
    "latitude": "29.97955836748041",
    "geocoded_column": {
      "latitude": "29.97955836748041",
      "longitude": "-90.07541782107101"
    }
  },
  {
    "service_request": "2022-905515",
    "request_type": "Property Maintenance",
    "request_reason": "Property Maintenance",
    "date_created": "2022-08-01T13:58:56.000",
    "date_modified": "2022-08-01T13:58:56.000",
    "request_status": "Pending",
    "responsible_agency": "Department of Code Enforcement",
    "final_address": "2832 Carver St",
    "address_councildis": "C",
    "status": "Pending",
    "rowid": "905515",
    "final_x": "3708607.57841",
    "final_y": "519831.32012",
    "longitude": "-89.98291011135929",
    "latitude": "29.922505086972016",
    "geocoded_column": {
      "latitude": "29.922505086972016",
      "longitude": "-89.98291011135929"
    }
  },