[
  {
    "service_request": "2021-826093",
    "request_type": "Abandoned Vehicles",
    "request_reason": "Abandoned/Junk Vehicles",
    "date_created": "2021-09-27T00:50:23.000",
    "date_modified": "2021-09-27T00:50:23.000",
    "request_status": "Pending",
    "responsible_agency": "Department of Public Works",
    "final_address": "2101 Robert E Lee Blvd",
    "address_councildis": "D",
    "status": "Pending",
    "rowid": "826093",
    "final_x": "3682314.6438",
    "final_y": "555722.014745",
    "longitude": "-90.06465183202972",
    "latitude": "30.022017917286018",
    "geocoded_column": {
      "latitude": "30.022017917286018",
      "longitude": "-90.06465183202972"
    }
  },
  {
    "service_request": "2021-826091",
    "request_type": "Trash/Recycling",
    "request_reason": "Missed Trash Pick-Up",
    "date_created": "2021-09-26T23:27:46.000",
    "date_modified": "2021-09-26T23:27:46.000",
    "request_status": "Pending",
    "responsible_agency": "Department of Sanitation",
    "final_address": "1938 Pauline St",
    "address_councildis": "D",
    "status": "Assigned to Contractor",
    "contractor": "Metro Disposal",
    "rowid": "826091",
    "final_x": "3691959.58557",
    "final_y": "538813.026761",
    "longitude": "-90.03478186809815",
    "latitude": "29.975227218472593",
    "geocoded_column": {
      "latitude": "29.975227218472593",
      "longitude": "-90.03478186809815"
    }
  },
  {
    "service_request": "2021-826090",
    "request_type": "Trash/Recycling",
    "request_reason": "Missed Trash Pick-Up",
    "date_created": "2021-09-26T23:02:06.000",
    "date_modified": "2021-09-26T23:02:07.000",
    "request_status": "Pending",
    "responsible_agency": "Department of Sanitation",
    "final_address": "3131 Mansfield Ave",
    "address_councildis": "C",
    "status": "Assigned to Contractor",
    "contractor": "Richards Disposal",
    "rowid": "826090",
    "final_x": "3709061.38737",
    "final_y": "518702.694583",
    "longitude": "-89.98151966312746",
    "latitude": "29.919387048023438",
    "geocoded_column": {
      "latitude": "29.919387048023438",
      "longitude": "-89.98151966312746"
    }
  },
  {
    "service_request": "2021-826085",
    "request_type": "Trash/Recycling",
    "request_reason": "Missed Trash Pick-Up",
    "date_created": "2021-09-26T22:26:25.000",
    "date_modified": "2021-09-26T22:26:25.000",
    "request_status": "Pending",
    "responsible_agency": "Department of Sanitation",
    "final_address": "6023 Freret St",
    "address_councildis": "A",
    "status": "Assigned to Contractor",
    "contractor": "Richards Disposal",
    "rowid": "826085",
    "final_x": "3666246.58292",
    "final_y": "524549.3319",
    "longitude": "-90.11646906030212",
    "latitude": "29.9367829133896",
    "geocoded_column": {
      "latitude": "29.9367829133896",
      "longitude": "-90.11646906030212"
    }
  },
  {
    "service_request": "2021-826084",
    "request_type": "Trash/Recycling",
    "request_reason": "Missed Trash Pick-Up",
    "date_created": "2021-09-26T22:26:21.000",
    "date_modified": "2021-09-26T22:26:22.000",
    "request_status": "Pending",
    "responsible_agency": "Department of Sanitation",
    "final_address": "6023 Freret St",
    "address_councildis": "A",
    "status": "Assigned to Contractor",
    "contractor": "Richards Disposal",
    "rowid": "826084",
    "final_x": "3666246.58292",
    "final_y": "524549.3319",
    "longitude": "-90.11646906030212",
    "latitude": "29.9367829133896",
    "geocoded_column": {
      "latitude": "29.9367829133896",
      "longitude": "-90.11646906030212"
    }
  },
  {
    "service_request": "2021-826083",
    "request_type": "Property Maintenance",
    "request_reason": "Property Maintenance",
    "date_created": "2021-09-26T22:24:34.000",
    "date_modified": "2021-09-26T22:24:34.000",
    "request_status": "Pending",
    "responsible_agency": "Department of Code Enforcement",
    "final_address": "1701 Simon Bolivar Ave",
    "address_councildis": "B",
    "status": "Pending",
    "rowid": "826083",
    "final_x": "3676910.22754",
    "final_y": "526217.346942",
    "longitude": "-90.08274592565637",
    "latitude": "29.94105370867618",
    "geocoded_column": {
      "latitude": "29.94105370867618",
      "longitude": "-90.08274592565637"
    }
  },
  {
    "service_request": "2021-826082",
    "request_type": "COVID-19",
    "request_reason": "COVID-19 Business Non-Compliance",
    "date_created": "2021-09-26T22:21:05.000",
    "date_modified": "2021-09-26T22:21:05.000",
    "request_status": "Pending",
    "responsible_agency": "Safety and Permits",
    "final_address": "8539 Willow St",
    "address_councildis": "A",
    "status": "Pending",
    "rowid": "826082",
    "final_x": "3661181.16979",
    "final_y": "530088.844289",
    "longitude": "-90.13227758460653",
    "latitude": "29.952161752498654",
    "geocoded_column": {
      "latitude": "29.952161752498654",
      "longitude": "-90.13227758460653"
    }
  },
  {
    "service_request": "2021-826081",
    "request_type": "Trash/Recycling",
    "request_reason": "Missed Trash Pick-Up",
    "date_created": "2021-09-26T22:12:06.000",
    "date_modified": "2021-09-26T22:12:07.000",
    "request_status": "Pending",
    "responsible_agency": "Department of Sanitation",
    "final_address": "3021 Burgundy St Apt A",
    "address_councildis": "C",
    "status": "Assigned to Contractor",
    "contractor": "Metro Disposal",
    "rowid": "826081",
    "final_x": "3688416.47606",
    "final_y": "535352.505862",
    "longitude": "-90.04609469226017",
    "latitude": "29.965821931426184",
    "geocoded_column": {
      "latitude": "29.965821931426184",
      "longitude": "-90.04609469226017"
    }
  },
  {
    "service_request": "2021-826080",
    "request_type": "Trash/Recycling",
    "request_reason": "Missed Trash Pick-Up",
    "date_created": "2021-09-26T22:11:10.000",
    "date_modified": "2021-09-26T22:11:11.000",
    "request_status": "Pending",
    "responsible_agency": "Department of Sanitation",
    "final_address": "3021 Burgundy St",
    "address_councildis": "C",
    "status": "Assigned to Contractor",
    "contractor": "Metro Disposal",
    "rowid": "826080",
    "final_x": "3688411.62255",
    "final_y": "535340.11335",
    "longitude": "-90.04611045907863",
    "latitude": "29.96578800626453",
    "geocoded_column": {
      "latitude": "29.96578800626453",
      "longitude": "-90.04611045907863"
    }
  },
  {
    "service_request": "2021-826079",
    "request_type": "Health Related Questions",
    "request_reason": "Noise Ordinance Complaint",
    "date_created": "2021-09-26T21:31:31.000",
    "date_modified": "2021-09-26T21:31:31.000",
    "request_status": "Pending",
    "responsible_agency": "Health Department",
    "final_address": "1727 Joliet St",
    "address_councildis": "A",
    "status": "Pending",
    "rowid": "826079",
    "final_x": "3662265.53485",
    "final_y": "530778.65261",
    "longitude": "-90.12883075137823",
    "latitude": "29.9540272051742",
    "geocoded_column": {
      "latitude": "29.9540272051742",
      "longitude": "-90.12883075137823"
    }
  },
  {
    "service_request": "2021-826078",
    "request_type": "Trash/Recycling",
    "request_reason": "Missed Trash Pick-Up",
    "date_created": "2021-09-26T21:31:20.000",
    "date_modified": "2021-09-26T21:31:20.000",
    "request_status": "Pending",
    "responsible_agency": "Department of Sanitation",
    "final_address": "1921 Burgundy St",
    "address_councildis": "C",
    "status": "Assigned to Contractor",
    "contractor": "Metro Disposal",
    "rowid": "826078",
    "final_x": "3684112.86063",
    "final_y": "535539.768518",
    "longitude": "-90.0596787727184",
    "latitude": "29.96646907457239",
    "geocoded_column": {
      "latitude": "29.96646907457239",
      "longitude": "-90.0596787727184"
    }
  },
  {
    "service_request": "2021-826077",
    "request_type": "Mosquito, Termite & Rodent Control",
    "request_reason": "Non-Rodent Complaint (Mice, Possums, Snakes)",
    "date_created": "2021-09-26T21:13:17.000",
    "date_modified": "2021-09-26T21:13:17.000",
    "request_status": "Pending",
    "responsible_agency": "Mosquito, Termite & Rodent Control Board",
    "final_address": "3489 Wall Blvd",
    "address_councildis": "C",
    "status": "Pending",
    "rowid": "826077",
    "final_x": "3696210.55101",
    "final_y": "523768.064187",
    "longitude": "-90.02190009244144",
    "latitude": "29.93372570663259",
    "geocoded_column": {
      "latitude": "29.93372570663259",
      "longitude": "-90.02190009244144"
    }
  },
  {
    "service_request": "2021-826075",
    "request_type": "Trash/Recycling",
    "request_reason": "Replace Trash Cart",
    "date_created": "2021-09-26T21:06:06.000",
    "date_modified": "2021-09-26T21:06:07.000",
    "request_status": "Pending",
    "responsible_agency": "Department of Sanitation",
    "final_address": "915 Louisiana Ave",
    "address_councildis": "B",
    "status": "Assigned to Contractor",
    "contractor": "Richards Disposal",
    "rowid": "826075",
    "final_x": "3675388.89077",
    "final_y": "519119.493303",
    "longitude": "-90.087792660594",
    "latitude": "29.921582486144608",
    "geocoded_column": {
      "latitude": "29.921582486144608",
      "longitude": "-90.087792660594"
    }
  },
  {
    "service_request": "2021-826074",
    "request_type": "Trash/Recycling",
    "request_reason": "Missed Trash Pick-Up",
    "date_created": "2021-09-26T20:35:45.000",
    "date_modified": "2021-09-26T20:35:45.000",
    "request_status": "Pending",
    "responsible_agency": "Department of Sanitation",
    "final_address": "262 Hillary St",
    "address_councildis": "A",
    "status": "Assigned to Contractor",
    "contractor": "Richards Disposal",
    "rowid": "826074",
    "final_x": "3661106.89709",
    "final_y": "524807.891132",
    "longitude": "-90.13268682832036",
    "latitude": "29.937642953491448",
    "geocoded_column": {
      "latitude": "29.937642953491448",
      "longitude": "-90.13268682832036"
    }
  },
  {
    "service_request": "2021-826073",
    "request_type": "Traffic Signals/Signs/Striping/Streetlights",
    "request_reason": "Street Light Outage/Malfunction",
    "date_created": "2021-09-26T20:31:32.000",
    "date_modified": "2021-09-26T20:31:33.000",
    "request_status": "Pending",
    "responsible_agency": "Department of Public Works",
    "final_address": "1022 N Roman St",
    "address_councildis": "D",
    "status": "Pending",
    "contractor": "Royal Engineering",
    "rowid": "826073",
    "final_x": "3680025.05941",
    "final_y": "536074.579527",
    "longitude": "-90.0725694100487",
    "latitude": "29.968063926935837",
    "geocoded_column": {
      "latitude": "29.968063926935837",
      "longitude": "-90.0725694100487"
    }
  },
  {
    "service_request": "2021-826072",
    "request_type": "Mosquito, Termite & Rodent Control",
    "request_reason": "Mosquito Complaint",
    "date_created": "2021-09-26T20:26:26.000",
    "date_modified": "2021-09-26T20:26:26.000",
    "request_status": "Pending",
    "responsible_agency": "Mosquito, Termite & Rodent Control Board",
    "final_address": "1 BLK Yellowstone Ct",
    "address_councildis": "C",
    "status": "Pending",
    "rowid": "826072",
    "final_x": "3699525.31253",
    "final_y": "518124.025548",
    "longitude": "-90.01164114198045",
    "latitude": "29.91810180620833",
    "geocoded_column": {
      "latitude": "29.91810180620833",
      "longitude": "-90.01164114198045"
    }
  },
  {
    "service_request": "2021-826071",
    "request_type": "Trash/Recycling",
    "request_reason": "Missed Trash Pick-Up",
    "date_created": "2021-09-26T20:25:57.000",
    "date_modified": "2021-09-26T20:25:57.000",
    "request_status": "Pending",
    "responsible_agency": "Department of Sanitation",
    "final_address": "4981 Baccich St, New Orleans, Louisiana, 70122",
    "address_councildis": "D",
    "status": "Assigned to Contractor",
    "contractor": "Metro Disposal",
    "rowid": "826071",
    "final_x": "3687706.92713",
    "final_y": "551621.722837",
    "longitude": "-90.04775898781101",
    "latitude": "30.010578362518565",
    "geocoded_column": {
      "latitude": "30.010578362518565",
      "longitude": "-90.04775898781101"
    }
  },
  {
    "service_request": "2021-826070",
    "request_type": "Traffic Signals/Signs/Striping/Streetlights",
    "request_reason": "Street Light Outage/Malfunction",
    "date_created": "2021-09-26T20:18:59.000",
    "date_modified": "2021-09-26T20:19:00.000",
    "request_status": "Pending",
    "responsible_agency": "Department of Public Works",
    "final_address": "1 BLK Yellowstone Dr",
    "address_councildis": "C",
    "status": "Pending",
    "contractor": "Royal Engineering",
    "rowid": "826070",
    "final_x": "3699384.35283",
    "final_y": "518078.40392",
    "longitude": "-90.0120877329148",
    "latitude": "29.917980832282662",
    "geocoded_column": {
      "latitude": "29.917980832282662",
      "longitude": "-90.0120877329148"
    }
  },
  {
    "service_request": "2021-826069",
    "request_type": "Trash/Recycling",
    "request_reason": "Missed Trash Pick-Up",
    "date_created": "2021-09-26T19:47:15.000",
    "date_modified": "2021-09-26T19:47:15.000",
    "request_status": "Pending",
    "responsible_agency": "Department of Sanitation",
    "final_address": "7451 Benjamin St",
    "address_councildis": "A",
    "status": "Assigned to Contractor",
    "contractor": "Richards Disposal",
    "rowid": "826069",
    "final_x": "3661576.44422",
    "final_y": "524507.525052",
    "longitude": "-90.13121437357768",
    "latitude": "29.936803504768722",
    "geocoded_column": {
      "latitude": "29.936803504768722",
      "longitude": "-90.13121437357768"
    }
  },
  {
    "service_request": "2021-826068",
    "request_type": "Trash/Recycling",
    "request_reason": "Dead Animal Pick Up",
    "date_created": "2021-09-26T19:26:38.000",
    "date_modified": "2021-09-26T19:26:39.000",
    "request_status": "Pending",
    "responsible_agency": "Department of Sanitation",
    "final_address": "2650 Lepage St",
    "address_councildis": "A",
    "status": "Assigned to Contractor",
    "contractor": "Metro Disposal",
    "rowid": "826068",
    "final_x": "3678135.49307",
    "final_y": "539571.790346",
    "longitude": "-90.07841577673244",
    "latitude": "29.9777370892061",
    "geocoded_column": {
      "latitude": "29.9777370892061",
      "longitude": "-90.07841577673244"
    }
  },
  {
    "service_request": "2021-826067",
    "request_type": "Health Related Questions",
    "request_reason": "Noise Ordinance Complaint",
    "date_created": "2021-09-26T19:01:01.000",
    "date_modified": "2021-09-26T19:01:01.000",
    "request_status": "Pending",
    "responsible_agency": "Health Department",
    "final_address": "1727 Joliet St",
    "address_councildis": "A",
    "status": "Pending",
    "rowid": "826067",
    "final_x": "3662265.53485",
    "final_y": "530778.65261",
    "longitude": "-90.12883075137823",
    "latitude": "29.9540272051742",
    "geocoded_column": {
      "latitude": "29.9540272051742",
      "longitude": "-90.12883075137823"
    }
  },
  {
    "service_request": "2021-826066",
    "request_type": "Roads/Drainage",
    "request_reason": "Street Subsidence (Sinking)",
    "date_created": "2021-09-26T18:40:50.000",
    "date_modified": "2021-09-26T18:40:50.000",
    "request_status": "Pending",
    "responsible_agency": "Department of Public Works",
    "final_address": "16 Virginia Ct",
    "address_councildis": "A",
    "status": "Pending",
    "rowid": "826066",
    "final_x": "3668875.6578",
    "final_y": "542212.292813",
    "longitude": "-90.10757239740929",
    "latitude": "29.985273177838913",
    "geocoded_column": {
      "latitude": "29.985273177838913",
      "longitude": "-90.10757239740929"
    }
  },
  {
    "service_request": "2021-826065",
    "request_type": "COVID-19",
    "request_reason": "COVID-19 Business Non-Compliance",
    "date_created": "2021-09-26T17:59:21.000",
    "date_modified": "2021-09-26T17:59:22.000",
    "request_status": "Pending",
    "responsible_agency": "Safety and Permits",
    "final_address": "900 Harrison Ave",
    "address_councildis": "A",
    "status": "Pending",
    "rowid": "826065",
    "final_x": "3670039.5449",
    "final_y": "548995.858259",
    "longitude": "-90.10366621438051",
    "latitude": "30.00389135444685",
    "geocoded_column": {
      "latitude": "30.00389135444685",
      "longitude": "-90.10366621438051"
    }
  },
  {
    "service_request": "2021-826064",
    "request_type": "Trash/Recycling",
    "request_reason": "Missed Trash Pick-Up",
    "date_created": "2021-09-26T17:37:21.000",
    "date_modified": "2021-09-26T17:37:22.000",
    "request_status": "Pending",
    "responsible_agency": "Department of Sanitation",
    "final_address": "2242 Tupelo St",
    "address_councildis": "E",
    "status": "Assigned to Contractor",
    "contractor": "Metro Disposal",
    "rowid": "826064",
    "final_x": "3701077.32324",
    "final_y": "537571.606152",
    "longitude": "-90.00603125400221",
    "latitude": "29.9715264934127",
    "geocoded_column": {
      "latitude": "29.9715264934127",
      "longitude": "-90.00603125400221"
    }
  },
  {
    "service_request": "2021-826063",
    "request_type": "Trash/Recycling",
    "request_reason": "Missed Trash Pick-Up",
    "date_created": "2021-09-26T17:28:59.000",
    "date_modified": "2021-09-26T17:28:59.000",
    "request_status": "Pending",
    "responsible_agency": "Department of Sanitation",
    "final_address": "2021 N Roman St",
    "address_councildis": "D",
    "status": "Assigned to Contractor",
    "contractor": "Metro Disposal",
    "rowid": "826063",
    "final_x": "3684222.16949",
    "final_y": "538870.513481",
    "longitude": "-90.05921661748566",
    "latitude": "29.975624124678358",
    "geocoded_column": {
      "latitude": "29.975624124678358",
      "longitude": "-90.05921661748566"
    }
  },
  {
    "service_request": "2021-826062",
    "request_type": "Trash/Recycling",
    "request_reason": "Missed Trash Pick-Up",
    "date_created": "2021-09-26T17:28:03.000",
    "date_modified": "2021-09-26T17:28:04.000",
    "request_status": "Pending",
    "responsible_agency": "Department of Sanitation",
    "final_address": "7813 Maple St",
    "address_councildis": "A",
    "status": "Assigned to Contractor",
    "contractor": "Richards Disposal",
    "rowid": "826062",
    "final_x": "3661784.94854",
    "final_y": "526697.301694",
    "longitude": "-90.130483539929",
    "latitude": "29.942818679757288",
    "geocoded_column": {
      "latitude": "29.942818679757288",
      "longitude": "-90.130483539929"
    }
  },
  {
    "service_request": "2021-826061",
    "request_type": "Property Maintenance",
    "request_reason": "Property Maintenance",
    "date_created": "2021-09-26T17:23:43.000",
    "date_modified": "2021-09-26T17:23:43.000",
    "request_status": "Pending",
    "responsible_agency": "Department of Code Enforcement",
    "final_address": "1926 Dante St",
    "address_councildis": "A",
    "status": "Pending",
    "rowid": "826061",
    "final_x": "3663191.08666",
    "final_y": "530871.592514",
    "longitude": "-90.1259051287768",
    "latitude": "29.95425597486963",
    "geocoded_column": {
      "latitude": "29.95425597486963",
      "longitude": "-90.1259051287768"
    }
  },
  {
    "service_request": "2021-826060",
    "request_type": "Trash/Recycling",
    "request_reason": "Request a Large Item Pick Up",
    "date_created": "2021-09-26T17:18:41.000",
    "date_modified": "2021-09-26T17:18:41.000",
    "request_status": "Pending",
    "responsible_agency": "Department of Sanitation",
    "final_address": "2228 Annunciation St",
    "address_councildis": "B",
    "status": "Assigned to Contractor",
    "contractor": "Richards Disposal",
    "rowid": "826060",
    "final_x": "3679336.25736",
    "final_y": "521026.825465",
    "longitude": "-90.07526643020485",
    "latitude": "29.926708454424453",
    "geocoded_column": {
      "latitude": "29.926708454424453",
      "longitude": "-90.07526643020485"
    }
  },
  {
    "service_request": "2021-826059",
    "request_type": "Trash/Recycling",
    "request_reason": "Repair Trash Cart",
    "date_created": "2021-09-26T17:17:54.000",
    "date_modified": "2021-09-26T17:17:55.000",
    "request_status": "Pending",
    "responsible_agency": "Department of Sanitation",
    "final_address": "1600 Sauvage St",
    "address_councildis": "A",
    "status": "Assigned to Contractor",
    "contractor": "Metro Disposal",
    "rowid": "826059",
    "final_x": "3677181.03797",
    "final_y": "540545.440523",
    "longitude": "-90.08139667735654",
    "latitude": "29.980442999497054",
    "geocoded_column": {
      "latitude": "29.980442999497054",
      "longitude": "-90.08139667735654"
    }
  },
  {
    "service_request": "2021-826058",
    "request_type": "Abandoned Vehicles",
    "request_reason": "Abandoned/Junk Vehicles",
    "date_created": "2021-09-26T17:10:14.000",
    "date_modified": "2021-09-26T17:10:14.000",
    "request_status": "Pending",
    "responsible_agency": "Department of Public Works",
    "final_address": "434 S Pierce St",
    "address_councildis": "B",
    "status": "Pending",
    "rowid": "826058",
    "final_x": "3670585.15111",
    "final_y": "536814.46868",
    "longitude": "-90.10235597071475",
    "latitude": "29.97038059601084",
    "geocoded_column": {
      "latitude": "29.97038059601084",
      "longitude": "-90.10235597071475"
    }
  },
  {
    "service_request": "2021-826057",
    "request_type": "Trash/Recycling",
    "request_reason": "Order Recycling Cart",
    "date_created": "2021-09-26T17:09:16.000",
    "date_modified": "2021-09-26T17:09:16.000",
    "request_status": "Pending",
    "responsible_agency": "Department of Sanitation",
    "final_address": "2427 Calhoun St",
    "address_councildis": "A",
    "status": "Pending",
    "rowid": "826057",
    "final_x": "3666172.55732",
    "final_y": "525881.119421",
    "longitude": "-90.11665811915512",
    "latitude": "29.940447064112508",
    "geocoded_column": {
      "latitude": "29.940447064112508",
      "longitude": "-90.11665811915512"
    }
  },
  {
    "service_request": "2021-826056",
    "request_type": "Trash/Recycling",
    "request_reason": "Replace Trash Cart",
    "date_created": "2021-09-26T16:45:13.000",
    "date_modified": "2021-09-26T16:45:14.000",
    "request_status": "Pending",
    "responsible_agency": "Department of Sanitation",
    "final_address": "304 S Murat St",
    "address_councildis": "A",
    "status": "Assigned to Contractor",
    "contractor": "Richards Disposal",
    "rowid": "826056",
    "final_x": "3669217.2818",
    "final_y": "538690.464905",
    "longitude": "-90.10661243857403",
    "latitude": "29.975579291112652",
    "geocoded_column": {
      "latitude": "29.975579291112652",
      "longitude": "-90.10661243857403"
    }
  },
  {
    "service_request": "2021-826055",
    "request_type": "Traffic Signals/Signs/Striping/Streetlights",
    "request_reason": "Street Light Outage/Malfunction",
    "date_created": "2021-09-26T16:32:44.000",
    "date_modified": "2021-09-26T16:32:45.000",
    "request_status": "Pending",
    "responsible_agency": "Department of Public Works",
    "final_address": "5621 Canal Blvd",
    "address_councildis": "A",
    "status": "Pending",
    "contractor": "Royal Engineering",
    "rowid": "826055",
    "final_x": "3668422.32417",
    "final_y": "544871.823247",
    "longitude": "-90.10891452935812",
    "latitude": "29.992599304773297",
    "geocoded_column": {
      "latitude": "29.992599304773297",
      "longitude": "-90.10891452935812"
    }
  },
  {
    "service_request": "2021-826054",
    "request_type": "Safety & Permits",
    "request_reason": "Licenses & Permits",
    "date_created": "2021-09-26T16:06:32.000",
    "date_modified": "2021-09-26T16:06:32.000",
    "request_status": "Pending",
    "responsible_agency": "Safety and Permits",
    "final_address": "4205 Burgundy St",
    "address_councildis": "C",
    "status": "Pending",
    "rowid": "826054",
    "final_x": "3692277.94409",
    "final_y": "534438.079365",
    "longitude": "-90.03393310112727",
    "latitude": "29.963187735704754",
    "geocoded_column": {
      "latitude": "29.963187735704754",
      "longitude": "-90.03393310112727"
    }
  },
  {
    "service_request": "2021-826053",
    "request_type": "Trash/Recycling",
    "request_reason": "Missed Trash Pick-Up",
    "date_created": "2021-09-26T15:53:00.000",
    "date_modified": "2021-09-26T15:53:01.000",
    "request_status": "Pending",
    "responsible_agency": "Department of Sanitation",
    "final_address": "16 S Park Pl",
    "address_councildis": "A",
    "status": "Assigned to Contractor",
    "contractor": "Metro Disposal",
    "rowid": "826053",
    "final_x": "3670230.2811",
    "final_y": "543757.66747",
    "longitude": "-90.10324129561782",
    "latitude": "29.989482514042358",
    "geocoded_column": {
      "latitude": "29.989482514042358",
      "longitude": "-90.10324129561782"
    }
  },
  {
    "service_request": "2021-826052",
    "request_type": "Traffic Signals/Signs/Striping/Streetlights",
    "request_reason": "Street Light Outage/Malfunction",
    "date_created": "2021-09-26T15:45:30.000",
    "date_modified": "2021-09-26T15:45:31.000",
    "request_status": "Pending",
    "responsible_agency": "Department of Public Works",
    "final_address": "3726 Preston Pl",
    "address_councildis": "C",
    "status": "Pending",
    "contractor": "Royal Engineering",
    "rowid": "826052",
    "final_x": "3708413.15294",
    "final_y": "517300.794933",
    "longitude": "-89.9836179191254",
    "latitude": "29.915553324803902",
    "geocoded_column": {
      "latitude": "29.915553324803902",
      "longitude": "-89.9836179191254"
    }
  },
  {
    "service_request": "2021-826051",
    "request_type": "Parks & Parkways",
    "request_reason": "Request Tree Service (Right of Way/Public Property)",
    "date_created": "2021-09-26T15:31:06.000",
    "date_modified": "2021-09-26T15:31:06.000",
    "request_status": "Pending",
    "responsible_agency": "Department of Parks & Parkway",
    "final_address": "1020 Aurora Dr",
    "address_councildis": "C",
    "status": "Pending",
    "rowid": "826051",
    "final_x": "3706836.70308",
    "final_y": "517910.234294",
    "longitude": "-89.98857116993406",
    "latitude": "29.917280037438264",
    "geocoded_column": {
      "latitude": "29.917280037438264",
      "longitude": "-89.98857116993406"
    }
  },
  {
    "service_request": "2021-826050",
    "request_type": "Trash/Recycling",
    "request_reason": "Missed Trash Pick-Up",
    "date_created": "2021-09-26T15:29:18.000",
    "date_modified": "2021-09-26T15:29:19.000",
    "request_status": "Pending",
    "responsible_agency": "Department of Sanitation",
    "final_address": "5819 E Louis Prima Dr",
    "address_councildis": "E",
    "status": "Assigned to Contractor",
    "contractor": "Metro Disposal",
    "rowid": "826050",
    "final_x": "3715833.15084",
    "final_y": "562823.657824",
    "longitude": "-89.95847383291007",
    "latitude": "30.04048156009481",
    "geocoded_column": {
      "latitude": "30.04048156009481",
      "longitude": "-89.95847383291007"
    }
  },
  {
    "service_request": "2021-826049",
    "request_type": "Traffic Signals/Signs/Striping/Streetlights",
    "request_reason": "Traffic Sign Missing/Damaged",
    "date_created": "2021-09-26T15:15:45.000",
    "date_modified": "2021-09-26T15:15:45.000",
    "request_status": "Pending",
    "responsible_agency": "Department of Public Works",
    "final_address": "800 BLK Tchoupitoulas St",
    "address_councildis": "B",
    "status": "Pending",
    "rowid": "826049",
    "final_x": "3681715.43542",
    "final_y": "527400.465",
    "longitude": "-90.06753375282509",
    "latitude": "29.94416180737785",
    "geocoded_column": {
      "latitude": "29.94416180737785",
      "longitude": "-90.06753375282509"
    }
  },
  {
    "service_request": "2021-826048",
    "request_type": "Parks & Parkways",
    "request_reason": "Tree Stump (removal, grind)",
    "date_created": "2021-09-26T15:11:14.000",
    "date_modified": "2021-09-26T15:11:14.000",
    "request_status": "Pending",
    "responsible_agency": "Department of Parks & Parkway",
    "final_address": "1660 N Tonti St",
    "address_councildis": "D",
    "status": "Pending",
    "rowid": "826048",
    "final_x": "3680561.82703",
    "final_y": "539688.439626",
    "longitude": "-90.07074852350748",
    "latitude": "29.977984544417247",
    "geocoded_column": {
      "latitude": "29.977984544417247",
      "longitude": "-90.07074852350748"
    }
  },
  {
    "service_request": "2021-826046",
    "request_type": "Property Maintenance",
    "request_reason": "Property Maintenance",
    "date_created": "2021-09-26T14:56:51.000",
    "date_modified": "2021-09-26T14:56:51.000",
    "request_status": "Pending",
    "responsible_agency": "Department of Code Enforcement",
    "final_address": "1034 Tricou St",
    "address_councildis": "E",
    "status": "Pending",
    "rowid": "826046",
    "final_x": "3700036.54199",
    "final_y": "532901.775428",
    "longitude": "-90.00948856374288",
    "latitude": "29.958719242847327",
    "geocoded_column": {
      "latitude": "29.958719242847327",
      "longitude": "-90.00948856374288"
    }
  },
  {
    "service_request": "2021-826045",
    "request_type": "Roads/Drainage",
    "request_reason": "Man hole cover issue",
    "date_created": "2021-09-26T14:53:19.000",
    "date_modified": "2021-09-26T14:53:19.000",
    "request_status": "Pending",
    "responsible_agency": "Department of Public Works",
    "final_address": "SPAIN ST & MADRID ST",
    "address_councildis": "D",
    "status": "Pending",
    "rowid": "826045",
    "final_x": "3684603.3",
    "final_y": "555421.88",
    "longitude": "-90.05743083124383",
    "latitude": "30.021122782736974",
    "geocoded_column": {
      "latitude": "30.021122782736974",
      "longitude": "-90.05743083124383"
    }
  },
  {
    "service_request": "2021-826044",
    "request_type": "Abandoned Vehicles",
    "request_reason": "Abandoned/Junk Vehicles",
    "date_created": "2021-09-26T14:52:52.000",
    "date_modified": "2021-09-26T14:52:52.000",
    "request_status": "Pending",
    "responsible_agency": "Department of Public Works",
    "final_address": "1533 Dublin St",
    "address_councildis": "A",
    "status": "Pending",
    "rowid": "826044",
    "final_x": "3662626.01357",
    "final_y": "529563.317121",
    "longitude": "-90.12773287738425",
    "latitude": "29.950675000133472",
    "geocoded_column": {
      "latitude": "29.950675000133472",
      "longitude": "-90.12773287738425"
    }
  },
  {
    "service_request": "2021-826043",
    "request_type": "Abandoned Vehicles",
    "request_reason": "Abandoned/Junk Vehicles",
    "date_created": "2021-09-26T14:48:44.000",
    "date_modified": "2021-09-26T14:48:44.000",
    "request_status": "Pending",
    "responsible_agency": "Department of Public Works",
    "final_address": "1537 Dublin St",
    "address_councildis": "A",
    "status": "Pending",
    "rowid": "826043",
    "final_x": "3662644.74503",
    "final_y": "529585.889281",
    "longitude": "-90.12767298282327",
    "latitude": "29.950736524380154",
    "geocoded_column": {
      "latitude": "29.950736524380154",
      "longitude": "-90.12767298282327"
    }
  },
  {
    "service_request": "2021-826042",
    "request_type": "Trash/Recycling",
    "request_reason": "Missed Trash Pick-Up",
    "date_created": "2021-09-26T14:45:04.000",
    "date_modified": "2021-09-26T14:45:05.000",
    "request_status": "Pending",
    "responsible_agency": "Department of Sanitation",
    "final_address": "6402 Peoples Ave",
    "address_councildis": "D",
    "status": "Assigned to Contractor",
    "contractor": "Metro Disposal",
    "rowid": "826042",
    "final_x": "3687639.96771",
    "final_y": "556895.594202",
    "longitude": "-90.04778360032876",
    "latitude": "30.025081624007303",
    "geocoded_column": {
      "latitude": "30.025081624007303",
      "longitude": "-90.04778360032876"
    }
  },
  {
    "service_request": "2021-826041",
    "request_type": "Property Maintenance",
    "request_reason": "Property Maintenance",
    "date_created": "2021-09-26T14:25:23.000",
    "date_modified": "2021-09-26T14:25:23.000",
    "request_status": "Pending",
    "responsible_agency": "Department of Code Enforcement",
    "final_address": "1902 Pauline St",
    "address_councildis": "D",
    "status": "Pending",
    "rowid": "826041",
    "final_x": "3691933.81744",
    "final_y": "538505.441289",
    "longitude": "-90.03487425858502",
    "latitude": "29.974382270704925",
    "geocoded_column": {
      "latitude": "29.974382270704925",
      "longitude": "-90.03487425858502"
    }
  },
  {
    "service_request": "2021-826040",
    "request_type": "Property Maintenance",
    "request_reason": "Property Maintenance",
    "date_created": "2021-09-26T14:25:21.000",
    "date_modified": "2021-09-26T14:25:21.000",
    "request_status": "Pending",
    "responsible_agency": "Department of Code Enforcement",
    "final_address": "1902 Pauline St",
    "address_councildis": "D",
    "status": "Pending",
    "rowid": "826040",
    "final_x": "3691933.81744",
    "final_y": "538505.441289",
    "longitude": "-90.03487425858502",
    "latitude": "29.974382270704925",
    "geocoded_column": {
      "latitude": "29.974382270704925",
      "longitude": "-90.03487425858502"
    }
  },
  {
    "service_request": "2021-826039",
    "request_type": "Trash/Recycling",
    "request_reason": "Illegal Dumping",
    "date_created": "2021-09-26T14:18:48.000",
    "date_modified": "2021-09-26T14:18:48.000",
    "request_status": "Pending",
    "responsible_agency": "Department of Sanitation",
    "final_address": "8 Warbler St",
    "address_councildis": "D",
    "status": "Pending",
    "rowid": "826039",
    "final_x": "3672757.99297",
    "final_y": "557074.996058",
    "longitude": "-90.09480227239096",
    "latitude": "30.026025610154466",
    "geocoded_column": {
      "latitude": "30.026025610154466",
      "longitude": "-90.09480227239096"
    }
  },
  {
    "service_request": "2021-826038",
    "request_type": "Trash/Recycling",
    "request_reason": "Order Recycling Cart",
    "date_created": "2021-09-26T13:59:47.000",
    "date_modified": "2021-09-26T13:59:47.000",
    "request_status": "Pending",
    "responsible_agency": "Department of Sanitation",
    "final_address": "8119 Nelson St",
    "address_councildis": "A",
    "status": "Pending",
    "rowid": "826038",
    "final_x": "3665078.43156",
    "final_y": "531990.364035",
    "longitude": "-90.11990821221245",
    "latitude": "29.95727741214862",
    "geocoded_column": {
      "latitude": "29.95727741214862",
      "longitude": "-90.11990821221245"
    }
  },
  {
    "service_request": "2021-826037",
    "request_type": "Trash/Recycling",
    "request_reason": "Missed Trash Pick-Up",
    "date_created": "2021-09-26T13:46:41.000",
    "date_modified": "2021-09-26T13:46:42.000",
    "request_status": "Pending",
    "responsible_agency": "Department of Sanitation",
    "final_address": "515 Hillary St",
    "address_councildis": "A",
    "status": "Assigned to Contractor",
    "contractor": "Richards Disposal",
    "rowid": "826037",
    "final_x": "3661771.90848",
    "final_y": "525425.243901",
    "longitude": "-90.13056686796594",
    "latitude": "29.939321301152734",
    "geocoded_column": {
      "latitude": "29.939321301152734",
      "longitude": "-90.13056686796594"
    }
  },
  {
    "service_request": "2021-826036",
    "request_type": "Trash/Recycling",
    "request_reason": "Replace Trash Cart",
    "date_created": "2021-09-26T13:39:57.000",
    "date_modified": "2021-09-26T13:39:58.000",
    "request_status": "Pending",
    "responsible_agency": "Department of Sanitation",
    "final_address": "2014 Toledano St",
    "address_councildis": "B",
    "status": "Assigned to Contractor",
    "contractor": "Richards Disposal",
    "rowid": "826036",
    "final_x": "3673909.76846",
    "final_y": "523141.271227",
    "longitude": "-90.09232412281308",
    "latitude": "29.932685206347685",
    "geocoded_column": {
      "latitude": "29.932685206347685",
      "longitude": "-90.09232412281308"
    }
  },
  {
    "service_request": "2021-826035",
    "request_type": "Trash/Recycling",
    "request_reason": "Missed Trash Pick-Up",
    "date_created": "2021-09-26T13:34:13.000",
    "date_modified": "2021-09-26T13:34:14.000",
    "request_status": "Pending",
    "responsible_agency": "Department of Sanitation",
    "final_address": "925 Fourth St",
    "address_councildis": "B",
    "status": "Assigned to Contractor",
    "contractor": "Richards Disposal",
    "rowid": "826035",
    "final_x": "3677631.31982",
    "final_y": "520585.693624",
    "longitude": "-90.08066368269719",
    "latitude": "29.92554684690363",
    "geocoded_column": {
      "latitude": "29.92554684690363",
      "longitude": "-90.08066368269719"
    }
  },
  {
    "service_request": "2021-826034",
    "request_type": "Trash/Recycling",
    "request_reason": "Missed Trash Pick-Up",
    "date_created": "2021-09-26T13:33:37.000",
    "date_modified": "2021-09-26T13:33:38.000",
    "request_status": "Pending",
    "responsible_agency": "Department of Sanitation",
    "final_address": "2634 Constance St",
    "address_councildis": "B",
    "status": "Assigned to Contractor",
    "contractor": "Richards Disposal",
    "rowid": "826034",
    "final_x": "3677568.48654",
    "final_y": "520677.208377",
    "longitude": "-90.08085887046292",
    "latitude": "29.92580037139369",
    "geocoded_column": {
      "latitude": "29.92580037139369",
      "longitude": "-90.08085887046292"
    }
  },
  {
    "service_request": "2021-826033",
    "request_type": "Trash/Recycling",
    "request_reason": "MIssed Recycling Pick-Up",
    "date_created": "2021-09-26T13:32:21.000",
    "date_modified": "2021-09-26T13:32:21.000",
    "request_status": "Pending",
    "responsible_agency": "Department of Sanitation",
    "final_address": "1361 Mithra St",
    "address_councildis": "D",
    "status": "Assigned to Contractor",
    "contractor": "Metro Disposal",
    "rowid": "826033",
    "final_x": "3677559.08693",
    "final_y": "552183.53519",
    "longitude": "-90.0798005074813",
    "latitude": "30.012432297627733",
    "geocoded_column": {
      "latitude": "30.012432297627733",
      "longitude": "-90.0798005074813"
    }
  },
  {
    "service_request": "2021-826032",
    "request_type": "Trash/Recycling",
    "request_reason": "Missed Trash Pick-Up",
    "date_created": "2021-09-26T13:28:49.000",
    "date_modified": "2021-09-26T13:28:49.000",
    "request_status": "Pending",
    "responsible_agency": "Department of Sanitation",
    "final_address": "1361 Mithra St",
    "address_councildis": "D",
    "status": "Assigned to Contractor",
    "contractor": "Metro Disposal",
    "rowid": "826032",
    "final_x": "3677559.08693",
    "final_y": "552183.53519",
    "longitude": "-90.0798005074813",
    "latitude": "30.012432297627733",
    "geocoded_column": {
      "latitude": "30.012432297627733",
      "longitude": "-90.0798005074813"
    }
  },
  {
    "service_request": "2021-826031",
    "request_type": "Abandoned Vehicles",
    "request_reason": "Abandoned/Junk Vehicles",
    "date_created": "2021-09-26T13:27:53.000",
    "date_modified": "2021-09-26T13:27:53.000",
    "request_status": "Pending",
    "responsible_agency": "Department of Public Works",
    "final_address": "1834 Broadway St",
    "address_councildis": "A",
    "status": "Pending",
    "rowid": "826031",
    "final_x": "3665456.008",
    "final_y": "528520.851968",
    "longitude": "-90.118832057248",
    "latitude": "29.947726380948694",
    "geocoded_column": {
      "latitude": "29.947726380948694",
      "longitude": "-90.118832057248"
    }
  },
  {
    "service_request": "2021-826030",
    "request_type": "Roads/Drainage",
    "request_reason": "Catch Basin - Clogged",
    "date_created": "2021-09-26T13:20:34.000",
    "date_modified": "2021-09-26T13:20:34.000",
    "request_status": "Pending",
    "responsible_agency": "Department of Public Works",
    "final_address": "3600 Banks St",
    "address_councildis": "B",
    "status": "Pending",
    "rowid": "826030",
    "final_x": "3671801.70299",
    "final_y": "536205.346695",
    "longitude": "-90.09853468658996",
    "latitude": "29.96866972297879",
    "geocoded_column": {
      "latitude": "29.96866972297879",
      "longitude": "-90.09853468658996"
    }
  },
  {
    "service_request": "2021-826029",
    "request_type": "Trash/Recycling",
    "request_reason": "Missed Trash Pick-Up",
    "date_created": "2021-09-26T13:12:29.000",
    "date_modified": "2021-09-26T13:12:30.000",
    "request_status": "Pending",
    "responsible_agency": "Department of Sanitation",
    "final_address": "5801 Franklin Ave",
    "address_councildis": "D",
    "status": "Assigned to Contractor",
    "contractor": "Metro Disposal",
    "rowid": "826029",
    "final_x": "3686545.6639",
    "final_y": "554501.742872",
    "longitude": "-90.05132605193532",
    "latitude": "30.018533132670623",
    "geocoded_column": {
      "latitude": "30.018533132670623",
      "longitude": "-90.05132605193532"
    }
  },
  {
    "service_request": "2021-826027",
    "request_type": "Trash/Recycling",
    "request_reason": "Replace Trash Cart",
    "date_created": "2021-09-26T12:59:28.000",
    "date_modified": "2021-09-26T12:59:29.000",
    "request_status": "Pending",
    "responsible_agency": "Department of Sanitation",
    "final_address": "4107 Clara St",
    "address_councildis": "B",
    "status": "Assigned to Contractor",
    "contractor": "Richards Disposal",
    "rowid": "826027",
    "final_x": "3671565.1131",
    "final_y": "525234.260861",
    "longitude": "-90.099654886031",
    "latitude": "29.938509867671172",
    "geocoded_column": {
      "latitude": "29.938509867671172",
      "longitude": "-90.099654886031"
    }
  },
  {
    "service_request": "2021-826026",
    "request_type": "Trash/Recycling",
    "request_reason": "Missed Trash Pick-Up",
    "date_created": "2021-09-26T12:52:02.000",
    "date_modified": "2021-09-26T12:52:03.000",
    "request_status": "Pending",
    "responsible_agency": "Department of Sanitation",
    "final_address": "2217 N Miro St",
    "address_councildis": "D",
    "status": "Assigned to Contractor",
    "contractor": "Metro Disposal",
    "rowid": "826026",
    "final_x": "3684907.36405",
    "final_y": "540407.549643",
    "longitude": "-90.05699851483821",
    "latitude": "29.979829467682375",
    "geocoded_column": {
      "latitude": "29.979829467682375",
      "longitude": "-90.05699851483821"
    }
  },
  {
    "service_request": "2021-826025",
    "request_type": "Trash/Recycling",
    "request_reason": "Missed Trash Pick-Up",
    "date_created": "2021-09-26T12:49:43.000",
    "date_modified": "2021-09-26T12:49:44.000",
    "request_status": "Pending",
    "responsible_agency": "Department of Sanitation",
    "final_address": "2700 Jonquil St",
    "address_councildis": "D",
    "status": "Assigned to Contractor",
    "contractor": "Metro Disposal",
    "rowid": "826025",
    "final_x": "3687851.25795",
    "final_y": "547199.406801",
    "longitude": "-90.04745978528584",
    "latitude": "29.998414150862555",
    "geocoded_column": {
      "latitude": "29.998414150862555",
      "longitude": "-90.04745978528584"
    }
  },
  {
    "service_request": "2021-826024",
    "request_type": "Trash/Recycling",
    "request_reason": "Missed Trash Pick-Up",
    "date_created": "2021-09-26T12:48:38.000",
    "date_modified": "2021-09-26T12:48:38.000",
    "request_status": "Pending",
    "responsible_agency": "Department of Sanitation",
    "final_address": "411 Bienville St",
    "address_councildis": "C",
    "status": "Assigned to Contractor",
    "contractor": "Empire Services",
    "rowid": "826024",
    "final_x": "3682381.96456",
    "final_y": "530787.44333",
    "longitude": "-90.06531099576203",
    "latitude": "29.953454592579792",
    "geocoded_column": {
      "latitude": "29.953454592579792",
      "longitude": "-90.06531099576203"
    }
  },
  {
    "service_request": "2021-826023",
    "request_type": "Trash/Recycling",
    "request_reason": "Missed Trash Pick-Up",
    "date_created": "2021-09-26T12:35:16.000",
    "date_modified": "2021-09-26T12:35:17.000",
    "request_status": "Pending",
    "responsible_agency": "Department of Sanitation",
    "final_address": "1715 S Dupre St",
    "address_councildis": "B",
    "status": "Assigned to Contractor",
    "contractor": "Richards Disposal",
    "rowid": "826023",
    "final_x": "3670652.28199",
    "final_y": "530031.409345",
    "longitude": "-90.10237409321797",
    "latitude": "29.951727453530943",
    "geocoded_column": {
      "latitude": "29.951727453530943",
      "longitude": "-90.10237409321797"
    }
  },
  {
    "service_request": "2021-826021",
    "request_type": "Trash/Recycling",
    "request_reason": "Missed Trash Pick-Up",
    "date_created": "2021-09-26T12:30:53.000",
    "date_modified": "2021-09-26T12:30:54.000",
    "request_status": "Pending",
    "responsible_agency": "Department of Sanitation",
    "final_address": "1210 Frenchmen St",
    "address_councildis": "C",
    "status": "Assigned to Contractor",
    "contractor": "Metro Disposal",
    "rowid": "826021",
    "final_x": "3684522.08495",
    "final_y": "536744.435912",
    "longitude": "-90.0583441185649",
    "latitude": "29.969768978702696",
    "geocoded_column": {
      "latitude": "29.969768978702696",
      "longitude": "-90.0583441185649"
    }
  },
  {
    "service_request": "2021-826020",
    "request_type": "Trash/Recycling",
    "request_reason": "Repair Trash Cart",
    "date_created": "2021-09-26T12:28:07.000",
    "date_modified": "2021-09-26T12:28:07.000",
    "request_status": "Pending",
    "responsible_agency": "Department of Sanitation",
    "final_address": "2716 New Orleans St",
    "address_councildis": "D",
    "status": "Assigned to Contractor",
    "contractor": "Metro Disposal",
    "rowid": "826020",
    "final_x": "3681857.74901",
    "final_y": "542496.847309",
    "longitude": "-90.06655748857781",
    "latitude": "29.98566735576039",
    "geocoded_column": {
      "latitude": "29.98566735576039",
      "longitude": "-90.06655748857781"
    }
  },
  {
    "service_request": "2021-826019",
    "request_type": "Trash/Recycling",
    "request_reason": "Return Recycling Cart",
    "date_created": "2021-09-26T12:17:49.000",
    "date_modified": "2021-09-26T12:17:49.000",
    "request_status": "Pending",
    "responsible_agency": "Department of Sanitation",
    "final_address": "6854 Argonne Blvd",
    "address_councildis": "A",
    "status": "Pending",
    "rowid": "826019",
    "final_x": "3670623.2354",
    "final_y": "552926.655383",
    "longitude": "-90.10168875121856",
    "latitude": "30.01468242671583",
    "geocoded_column": {
      "latitude": "30.01468242671583",
      "longitude": "-90.10168875121856"
    }
  },
  {
    "service_request": "2021-826018",
    "request_type": "Traffic Signals/Signs/Striping/Streetlights",
    "request_reason": "Street Name Sign Damaged or Missing",
    "date_created": "2021-09-26T12:10:13.000",
    "date_modified": "2021-09-26T12:10:13.000",
    "request_status": "Pending",
    "responsible_agency": "Department of Public Works",
    "final_address": "6301 Fleur-De-Lis Dr",
    "address_councildis": "A",
    "status": "Pending",
    "rowid": "826018",
    "final_x": "3665371.51085",
    "final_y": "550030.929556",
    "longitude": "-90.11837872519285",
    "latitude": "30.00687436087157",
    "geocoded_column": {
      "latitude": "30.00687436087157",
      "longitude": "-90.11837872519285"
    }
  },
  {
    "service_request": "2021-826017",
    "request_type": "Trash/Recycling",
    "request_reason": "Order Recycling Cart",
    "date_created": "2021-09-26T12:08:03.000",
    "date_modified": "2021-09-26T12:08:03.000",
    "request_status": "Pending",
    "responsible_agency": "Department of Sanitation",
    "final_address": "1822 Broadway St",
    "address_councildis": "A",
    "status": "Pending",
    "rowid": "826017",
    "final_x": "3665368.46624",
    "final_y": "528544.825792",
    "longitude": "-90.11910766009585",
    "latitude": "29.947794852280172",
    "geocoded_column": {
      "latitude": "29.947794852280172",
      "longitude": "-90.11910766009585"
    }
  },
  {
    "service_request": "2021-826015",
    "request_type": "Property Maintenance",
    "request_reason": "Property Maintenance",
    "date_created": "2021-09-26T12:06:49.000",
    "date_modified": "2021-09-26T12:06:49.000",
    "request_status": "Pending",
    "responsible_agency": "Department of Code Enforcement",
    "final_address": "2200 Foucher St",
    "address_councildis": "B",
    "status": "Pending",
    "rowid": "826015",
    "final_x": "3672742.43624",
    "final_y": "523324.203451",
    "longitude": "-90.09600306629278",
    "latitude": "29.933222922913703",
    "geocoded_column": {
      "latitude": "29.933222922913703",
      "longitude": "-90.09600306629278"
    }
  },
  {
    "service_request": "2021-826014",
    "request_type": "Roads/Drainage",
    "request_reason": "Catch Basin - Clogged",
    "date_created": "2021-09-26T12:04:48.000",
    "date_modified": "2021-09-26T12:04:48.000",
    "request_status": "Pending",
    "responsible_agency": "Department of Public Works",
    "final_address": "4748 Flake Ave",
    "address_councildis": "E",
    "status": "Pending",
    "rowid": "826014",
    "final_x": "3706019.72599",
    "final_y": "555505.173081",
    "longitude": "-89.98975844729992",
    "latitude": "30.02067870349428",
    "geocoded_column": {
      "latitude": "30.02067870349428",
      "longitude": "-89.98975844729992"
    }
  },
  {
    "service_request": "2021-826013",
    "request_type": "Trash/Recycling",
    "request_reason": "Missed Trash Pick-Up",
    "date_created": "2021-09-26T12:04:44.000",
    "date_modified": "2021-09-26T12:04:45.000",
    "request_status": "Pending",
    "responsible_agency": "Department of Sanitation",
    "final_address": "246 26Th St",
    "address_councildis": "A",
    "status": "Assigned to Contractor",
    "contractor": "Metro Disposal",
    "rowid": "826013",
    "final_x": "3665385.99354",
    "final_y": "549872.542484",
    "longitude": "-90.1183382762026",
    "latitude": "30.006438429064335",
    "geocoded_column": {
      "latitude": "30.006438429064335",
      "longitude": "-90.1183382762026"
    }
  },
  {
    "service_request": "2021-826012",
    "request_type": "Traffic Signals/Signs/Striping/Streetlights",
    "request_reason": "Street Light Outage/Malfunction",
    "date_created": "2021-09-26T11:57:27.000",
    "date_modified": "2021-09-26T11:57:27.000",
    "request_status": "Pending",
    "responsible_agency": "Department of Public Works",
    "final_address": "PACE BLVD & SOCRATES ST",
    "address_councildis": "C",
    "status": "Pending",
    "contractor": "Royal Engineering",
    "rowid": "826012",
    "final_x": "3694391.8",
    "final_y": "526126.98",
    "longitude": "-90.02755690959566",
    "latitude": "29.940269027257457",
    "geocoded_column": {
      "latitude": "29.940269027257457",
      "longitude": "-90.02755690959566"
    }
  },
  {
    "service_request": "2021-826011",
    "request_type": "Traffic Signals/Signs/Striping/Streetlights",
    "request_reason": "Street Light Outage/Malfunction",
    "date_created": "2021-09-26T11:56:38.000",
    "date_modified": "2021-09-26T11:56:38.000",
    "request_status": "Pending",
    "responsible_agency": "Department of Public Works",
    "final_address": "1313 Pace Blvd",
    "address_councildis": "C",
    "status": "Pending",
    "contractor": "Royal Engineering",
    "rowid": "826011",
    "final_x": "3694338.37917",
    "final_y": "526379.985662",
    "longitude": "-90.02771646522478",
    "latitude": "29.940966379509582",
    "geocoded_column": {
      "latitude": "29.940966379509582",
      "longitude": "-90.02771646522478"
    }
  },
  {
    "service_request": "2021-826010",
    "request_type": "Trash/Recycling",
    "request_reason": "Illegal Dumping",
    "date_created": "2021-09-26T11:54:56.000",
    "date_modified": "2021-09-26T11:54:56.000",
    "request_status": "Pending",
    "responsible_agency": "Department of Code Enforcement",
    "final_address": "3708 Milan St",
    "address_councildis": "B",
    "status": "Pending",
    "rowid": "826010",
    "final_x": "3670816.78663",
    "final_y": "528323.17568",
    "longitude": "-90.10191263148295",
    "latitude": "29.94702551076777",
    "geocoded_column": {
      "latitude": "29.94702551076777",
      "longitude": "-90.10191263148295"
    }
  },
  {
    "service_request": "2021-826009",
    "request_type": "Trash/Recycling",
    "request_reason": "Missed Trash Pick-Up",
    "date_created": "2021-09-26T11:38:01.000",
    "date_modified": "2021-09-26T11:38:01.000",
    "request_status": "Pending",
    "responsible_agency": "Department of Sanitation",
    "final_address": "1624 Tricou St",
    "address_councildis": "E",
    "status": "Assigned to Contractor",
    "contractor": "Metro Disposal",
    "rowid": "826009",
    "final_x": "3700879.44266",
    "final_y": "535028.630982",
    "longitude": "-90.00674916465057",
    "latitude": "29.964540529821818",
    "geocoded_column": {
      "latitude": "29.964540529821818",
      "longitude": "-90.00674916465057"
    }
  },
  {
    "service_request": "2021-826008",
    "request_type": "Trash/Recycling",
    "request_reason": "Missed Trash Pick-Up",
    "date_created": "2021-09-26T11:34:42.000",
    "date_modified": "2021-09-26T11:34:43.000",
    "request_status": "Pending",
    "responsible_agency": "Department of Sanitation",
    "final_address": "5620 Woodlawn Pl",
    "address_councildis": "A",
    "status": "Assigned to Contractor",
    "contractor": "Metro Disposal",
    "rowid": "826008",
    "final_x": "3667434.55169",
    "final_y": "544855.490319",
    "longitude": "-90.11203528009378",
    "latitude": "29.992583380702907",
    "geocoded_column": {
      "latitude": "29.992583380702907",
      "longitude": "-90.11203528009378"
    }
  },
  {
    "service_request": "2021-826007",
    "request_type": "Trash/Recycling",
    "request_reason": "Missed Trash Pick-Up",
    "date_created": "2021-09-26T11:28:56.000",
    "date_modified": "2021-09-26T11:28:57.000",
    "request_status": "Pending",
    "responsible_agency": "Department of Sanitation",
    "final_address": "10911 Guildford Rd",
    "address_councildis": "E",
    "status": "Assigned to Contractor",
    "contractor": "Metro Disposal",
    "rowid": "826007",
    "final_x": "3711385.91768",
    "final_y": "564035.096545",
    "longitude": "-89.97248295085919",
    "latitude": "30.043958502612004",
    "geocoded_column": {
      "latitude": "30.043958502612004",
      "longitude": "-89.97248295085919"
    }
  },
  {
    "service_request": "2021-826006",
    "request_type": "Trash/Recycling",
    "request_reason": "Missed Trash Pick-Up",
    "date_created": "2021-09-26T11:27:02.000",
    "date_modified": "2021-09-26T11:27:02.000",
    "request_status": "Pending",
    "responsible_agency": "Department of Sanitation",
    "final_address": "2659 Pressburg St",
    "address_councildis": "D",
    "status": "Assigned to Contractor",
    "contractor": "Metro Disposal",
    "rowid": "826006",
    "final_x": "3686999.23746",
    "final_y": "554960.2886",
    "longitude": "-90.04987669969529",
    "latitude": "30.01978000235231",
    "geocoded_column": {
      "latitude": "30.01978000235231",
      "longitude": "-90.04987669969529"
    }
  },
  {
    "service_request": "2021-826005",
    "request_type": "Trash/Recycling",
    "request_reason": "Repair Trash Cart",
    "date_created": "2021-09-26T11:18:22.000",
    "date_modified": "2021-09-26T11:18:23.000",
    "request_status": "Pending",
    "responsible_agency": "Department of Sanitation",
    "final_address": "4911 Magnolia St",
    "address_councildis": "B",
    "status": "Assigned to Contractor",
    "contractor": "Richards Disposal",
    "rowid": "826005",
    "final_x": "3669089.46644",
    "final_y": "524648.525436",
    "longitude": "-90.10749056344149",
    "latitude": "29.936972342251075",
    "geocoded_column": {
      "latitude": "29.936972342251075",
      "longitude": "-90.10749056344149"
    }
  },
  {
    "service_request": "2021-826004",
    "request_type": "Trash/Recycling",
    "request_reason": "Missed Trash Pick-Up",
    "date_created": "2021-09-26T11:18:14.000",
    "date_modified": "2021-09-26T11:18:14.000",
    "request_status": "Pending",
    "responsible_agency": "Department of Sanitation",
    "final_address": "7637 Berg Rd",
    "address_councildis": "E",
    "status": "Assigned to Contractor",
    "contractor": "Metro Disposal",
    "rowid": "826004",
    "final_x": "3711953.07941",
    "final_y": "566792.907299",
    "longitude": "-89.97058683023066",
    "latitude": "30.051522833384904",
    "geocoded_column": {
      "latitude": "30.051522833384904",
      "longitude": "-89.97058683023066"
    }
  },
  {
    "service_request": "2021-826003",
    "request_type": "Traffic Signals/Signs/Striping/Streetlights",
    "request_reason": "Traffic Sign Missing/Damaged",
    "date_created": "2021-09-26T11:16:41.000",
    "date_modified": "2021-09-26T11:16:41.000",
    "request_status": "Pending",
    "responsible_agency": "Department of Public Works",
    "final_address": "2502 Verbena St",
    "address_councildis": "D",
    "status": "Pending",
    "rowid": "826003",
    "final_x": "3686333.06262",
    "final_y": "547691.670866",
    "longitude": "-90.05223836538053",
    "latitude": "29.999814458735873",
    "geocoded_column": {
      "latitude": "29.999814458735873",
      "longitude": "-90.05223836538053"
    }
  },
  {
    "service_request": "2021-826002",
    "request_type": "Trash/Recycling",
    "request_reason": "Missed Trash Pick-Up",
    "date_created": "2021-09-26T10:54:37.000",
    "date_modified": "2021-09-26T10:54:37.000",
    "request_status": "Pending",
    "responsible_agency": "Department of Sanitation",
    "final_address": "1309 St Anthony St",
    "address_councildis": "C",
    "status": "Assigned to Contractor",
    "contractor": "Metro Disposal",
    "rowid": "826002",
    "final_x": "3683503.57225",
    "final_y": "536651.879879",
    "longitude": "-90.06156391499444",
    "latitude": "29.969545604486097",
    "geocoded_column": {
      "latitude": "29.969545604486097",
      "longitude": "-90.06156391499444"
    }
  },
  {
    "service_request": "2021-826001",
    "request_type": "Traffic Signals/Signs/Striping/Streetlights",
    "request_reason": "Street Light Outage/Malfunction",
    "date_created": "2021-09-26T10:54:04.000",
    "date_modified": "2021-09-26T10:54:04.000",
    "request_status": "Pending",
    "responsible_agency": "Department of Public Works",
    "final_address": "81 Yosemite Dr",
    "address_councildis": "C",
    "status": "Pending",
    "contractor": "Royal Engineering",
    "rowid": "826001",
    "final_x": "3699372.69815",
    "final_y": "516019.04594",
    "longitude": "-90.01219946691747",
    "latitude": "29.912318666675368",
    "geocoded_column": {
      "latitude": "29.912318666675368",
      "longitude": "-90.01219946691747"
    }
  },
  {
    "service_request": "2021-826000",
    "request_type": "Trash/Recycling",
    "request_reason": "Replace Trash Cart",
    "date_created": "2021-09-26T10:46:25.000",
    "date_modified": "2021-09-26T10:46:25.000",
    "request_status": "Pending",
    "responsible_agency": "Department of Sanitation",
    "final_address": "9501 Springwood St",
    "address_councildis": "E",
    "status": "Assigned to Contractor",
    "contractor": "Metro Disposal",
    "rowid": "826000",
    "final_x": "3710405.86181",
    "final_y": "555460.043993",
    "longitude": "-89.9759013829769",
    "latitude": "30.02041247237975",
    "geocoded_column": {
      "latitude": "30.02041247237975",
      "longitude": "-89.9759013829769"
    }
  },
  {
    "service_request": "2021-825999",
    "request_type": "Roads/Drainage",
    "request_reason": "Debris in Roadway",
    "date_created": "2021-09-26T10:40:02.000",
    "date_modified": "2021-09-26T10:40:02.000",
    "request_status": "Pending",
    "responsible_agency": "Department of Public Works",
    "final_address": "CRAIGIE RD & CAROLE LN",
    "address_councildis": "E",
    "status": "Pending",
    "rowid": "825999",
    "final_x": "3696031.4",
    "final_y": "558858.18",
    "longitude": "-90.02119711314063",
    "latitude": "30.030216450914224",
    "geocoded_column": {
      "latitude": "30.030216450914224",
      "longitude": "-90.02119711314063"
    }
  },
  {
    "service_request": "2021-825998",
    "request_type": "COVID-19",
    "request_reason": "COVID-19 Business Non-Compliance",
    "date_created": "2021-09-26T10:36:06.000",
    "date_modified": "2021-09-26T10:36:07.000",
    "request_status": "Pending",
    "responsible_agency": "Safety and Permits",
    "final_address": "3138 Magazine St",
    "address_councildis": "B",
    "status": "Pending",
    "rowid": "825998",
    "final_x": "3675849.56033",
    "final_y": "519982.702264",
    "longitude": "-90.08630887079022",
    "latitude": "29.923942255466056",
    "geocoded_column": {
      "latitude": "29.923942255466056",
      "longitude": "-90.08630887079022"
    }
  },
  {
    "service_request": "2021-825997",
    "request_type": "Roads/Drainage",
    "request_reason": "Man hole cover issue",
    "date_created": "2021-09-26T10:35:10.000",
    "date_modified": "2021-09-26T10:35:10.000",
    "request_status": "Pending",
    "responsible_agency": "Department of Public Works",
    "final_address": "6141 Craigie Rd",
    "address_councildis": "E",
    "status": "Pending",
    "rowid": "825997",
    "final_x": "3695975.48874",
    "final_y": "558920.902748",
    "longitude": "-90.0213715227464",
    "latitude": "30.030390674830926",
    "geocoded_column": {
      "latitude": "30.030390674830926",
      "longitude": "-90.0213715227464"
    }
  },
  {
    "service_request": "2021-825996",
    "request_type": "Trash/Recycling",
    "request_reason": "Missed Trash Pick-Up",
    "date_created": "2021-09-26T10:19:22.000",
    "date_modified": "2021-09-26T10:19:23.000",
    "request_status": "Pending",
    "responsible_agency": "Department of Sanitation",
    "final_address": "4500 Hickerson Dr",
    "address_councildis": "E",
    "status": "Assigned to Contractor",
    "contractor": "Metro Disposal",
    "rowid": "825996",
    "final_x": "3710435.15224",
    "final_y": "554235.398296",
    "longitude": "-89.97585467700627",
    "latitude": "30.017044220335006",
    "geocoded_column": {
      "latitude": "30.017044220335006",
      "longitude": "-89.97585467700627"
    }
  },
  {
    "service_request": "2021-825995",
    "request_type": "Trash/Recycling",
    "request_reason": "Missed Trash Pick-Up",
    "date_created": "2021-09-26T10:15:34.000",
    "date_modified": "2021-09-26T10:15:35.000",
    "request_status": "Pending",
    "responsible_agency": "Department of Sanitation",
    "final_address": "7901 St Charles Ave",
    "address_councildis": "A",
    "status": "Assigned to Contractor",
    "contractor": "Richards Disposal",
    "rowid": "825995",
    "final_x": "3661141.61158",
    "final_y": "526398.277566",
    "longitude": "-90.13252461303658",
    "latitude": "29.942015012457837",
    "geocoded_column": {
      "latitude": "29.942015012457837",
      "longitude": "-90.13252461303658"
    }
  },
  {
    "service_request": "2021-825994",
    "request_type": "Traffic Signals/Signs/Striping/Streetlights",
    "request_reason": "Traffic Sign Missing/Damaged",
    "date_created": "2021-09-26T10:15:11.000",
    "date_modified": "2021-09-26T10:15:11.000",
    "request_status": "Pending",
    "responsible_agency": "Department of Public Works",
    "final_address": "410 N Alexander St",
    "address_councildis": "A",
    "status": "Pending",
    "rowid": "825994",
    "final_x": "3670954.98958",
    "final_y": "540204.621835",
    "longitude": "-90.10107283713049",
    "latitude": "29.979691441177696",
    "geocoded_column": {
      "latitude": "29.979691441177696",
      "longitude": "-90.10107283713049"
    }
  },
  {
    "service_request": "2021-825993",
    "request_type": "COVID-19",
    "request_reason": "COVID-19 Business Non-Compliance",
    "date_created": "2021-09-26T10:09:16.000",
    "date_modified": "2021-09-26T10:09:17.000",
    "request_status": "Pending",
    "responsible_agency": "Safety and Permits",
    "final_address": "8550 Pontchartrain Blvd",
    "address_councildis": "A",
    "status": "Pending",
    "rowid": "825993",
    "final_x": "3666468.75149",
    "final_y": "555327.528217",
    "longitude": "-90.11473427732953",
    "latitude": "30.021406114289903",
    "geocoded_column": {
      "latitude": "30.021406114289903",
      "longitude": "-90.11473427732953"
    }
  },
  {
    "service_request": "2021-825992",
    "request_type": "Trash/Recycling",
    "request_reason": "Missed Trash Pick-Up",
    "date_created": "2021-09-26T10:07:15.000",
    "date_modified": "2021-09-26T10:07:16.000",
    "request_status": "Pending",
    "responsible_agency": "Department of Sanitation",
    "final_address": "8817 Edinburgh St",
    "address_councildis": "A",
    "status": "Assigned to Contractor",
    "contractor": "Richards Disposal",
    "rowid": "825992",
    "final_x": "3665555.21127",
    "final_y": "536238.001543",
    "longitude": "-90.11826044885233",
    "latitude": "29.968943126331798",
    "geocoded_column": {
      "latitude": "29.968943126331798",
      "longitude": "-90.11826044885233"
    }
  },
  {
    "service_request": "2021-825990",
    "request_type": "Trash/Recycling",
    "request_reason": "Missed Trash Pick-Up",
    "date_created": "2021-09-26T10:01:58.000",
    "date_modified": "2021-09-26T10:01:59.000",
    "request_status": "Pending",
    "responsible_agency": "Department of Sanitation",
    "final_address": "4500 Marque Dr",
    "address_councildis": "E",
    "status": "Assigned to Contractor",
    "contractor": "Metro Disposal",
    "rowid": "825990",
    "final_x": "3710156.76741",
    "final_y": "554148.746584",
    "longitude": "-89.97673749136706",
    "latitude": "30.01681502725831",
    "geocoded_column": {
      "latitude": "30.01681502725831",
      "longitude": "-89.97673749136706"
    }
  },
  {
    "service_request": "2021-825989",
    "request_type": "COVID-19",
    "request_reason": "COVID-19 Business Non-Compliance",
    "date_created": "2021-09-26T10:00:19.000",
    "date_modified": "2021-09-26T10:00:20.000",
    "request_status": "Pending",
    "responsible_agency": "Safety and Permits",
    "final_address": "718 S Carrollton Ave",
    "address_councildis": "A",
    "status": "Pending",
    "rowid": "825989",
    "final_x": "3660935.42803",
    "final_y": "527257.895231",
    "longitude": "-90.13314715479223",
    "latitude": "29.94438462769403",
    "geocoded_column": {
      "latitude": "29.94438462769403",
      "longitude": "-90.13314715479223"
    }
  },
  {
    "service_request": "2021-825988",
    "request_type": "Trash/Recycling",
    "request_reason": "Missed Trash Pick-Up",
    "date_created": "2021-09-26T09:55:16.000",
    "date_modified": "2021-09-26T09:55:16.000",
    "request_status": "Pending",
    "responsible_agency": "Department of Sanitation",
    "final_address": "1515 Piety St",
    "address_councildis": "D",
    "status": "Assigned to Contractor",
    "contractor": "Metro Disposal",
    "rowid": "825988",
    "final_x": "3690276.07011",
    "final_y": "537408.694216",
    "longitude": "-90.04014889271039",
    "latitude": "29.97141815316875",
    "geocoded_column": {
      "latitude": "29.97141815316875",
      "longitude": "-90.04014889271039"
    }
  },
  {
    "service_request": "2021-825987",
    "request_type": "Roads/Drainage",
    "request_reason": "Debris in Roadway",
    "date_created": "2021-09-26T09:55:11.000",
    "date_modified": "2021-09-26T09:55:11.000",
    "request_status": "Pending",
    "responsible_agency": "Department of Public Works",
    "final_address": "4001 Banks St",
    "address_councildis": "A",
    "status": "Pending",
    "rowid": "825987",
    "final_x": "3670766.63828",
    "final_y": "537173.550024",
    "longitude": "-90.10177062407267",
    "latitude": "29.971362586671603",
    "geocoded_column": {
      "latitude": "29.971362586671603",
      "longitude": "-90.10177062407267"
    }
  },
  {
    "service_request": "2021-825986",
    "request_type": "Abandoned Vehicles",
    "request_reason": "Abandoned/Junk Vehicles",
    "date_created": "2021-09-26T09:49:56.000",
    "date_modified": "2021-09-26T09:49:56.000",
    "request_status": "Pending",
    "responsible_agency": "Department of Public Works",
    "final_address": "2627 Urquhart St",
    "address_councildis": "C",
    "status": "Pending",
    "rowid": "825986",
    "final_x": "3687530.92751",
    "final_y": "537178.705096",
    "longitude": "-90.04882656807028",
    "latitude": "29.970870666262897",
    "geocoded_column": {
      "latitude": "29.970870666262897",
      "longitude": "-90.04882656807028"
    }
  },
  {
    "service_request": "2021-825985",
    "request_type": "Trash/Recycling",
    "request_reason": "Missed Trash Pick-Up",
    "date_created": "2021-09-26T09:47:05.000",
    "date_modified": "2021-09-26T09:47:06.000",
    "request_status": "Pending",
    "responsible_agency": "Department of Sanitation",
    "final_address": "8922 Birch St",
    "address_councildis": "A",
    "status": "Assigned to Contractor",
    "contractor": "Richards Disposal",
    "rowid": "825985",
    "final_x": "3660631.10163",
    "final_y": "531431.380995",
    "longitude": "-90.13397008203167",
    "latitude": "29.955869139229996",
    "geocoded_column": {
      "latitude": "29.955869139229996",
      "longitude": "-90.13397008203167"
    }
  },
  {
    "service_request": "2021-825984",
    "request_type": "Abandoned Vehicles",
    "request_reason": "Abandoned/Junk Vehicles",
    "date_created": "2021-09-26T09:45:14.000",
    "date_modified": "2021-09-26T09:45:14.000",
    "request_status": "Pending",
    "responsible_agency": "Department of Public Works",
    "final_address": "4600 Bienville Ave",
    "address_councildis": "A",
    "status": "Pending",
    "rowid": "825984",
    "final_x": "3669828.11092",
    "final_y": "540228.950091",
    "longitude": "-90.1046311631113",
    "latitude": "29.97979160972628",
    "geocoded_column": {
      "latitude": "29.97979160972628",
      "longitude": "-90.1046311631113"
    }
  },
  {
    "service_request": "2021-825983",
    "request_type": "Traffic Signals/Signs/Striping/Streetlights",
    "request_reason": "Street Light Outage/Malfunction",
    "date_created": "2021-09-26T09:39:35.000",
    "date_modified": "2021-09-26T21:47:48.000",
    "request_status": "Pending",
    "responsible_agency": "Department of Public Works",
    "final_address": "1512 Constance St, New Orleans, Louisiana, 70130",
    "address_councildis": "B",
    "status": "Pending",
    "contractor": "Royal Engineering",
    "rowid": "825983",
    "final_x": "3680553.51093",
    "final_y": "523587.183675",
    "longitude": "-90.07133487484771",
    "latitude": "29.933711792692062",
    "geocoded_column": {
      "latitude": "29.933711792692062",
      "longitude": "-90.07133487484771"
    }
  },
  {
    "service_request": "2021-825982",
    "request_type": "Trash/Recycling",
    "request_reason": "Missed Trash Pick-Up",
    "date_created": "2021-09-26T09:36:22.000",
    "date_modified": "2021-09-26T09:36:23.000",
    "request_status": "Pending",
    "responsible_agency": "Department of Sanitation",
    "final_address": "10710 Dwyer Rd",
    "address_councildis": "E",
    "status": "Assigned to Contractor",
    "contractor": "Metro Disposal",
    "rowid": "825982",
    "final_x": "3715041.3877",
    "final_y": "558231.07478",
    "longitude": "-89.96114984886911",
    "latitude": "30.027879896939474",
    "geocoded_column": {
      "latitude": "30.027879896939474",
      "longitude": "-89.96114984886911"
    }
  },
  {
    "service_request": "2021-825981",
    "request_type": "Trash/Recycling",
    "request_reason": "Missed Trash Pick-Up",
    "date_created": "2021-09-26T09:32:05.000",
    "date_modified": "2021-09-26T09:32:06.000",
    "request_status": "Pending",
    "responsible_agency": "Department of Sanitation",
    "final_address": "1400 BLK Desire St",
    "address_councildis": "C",
    "status": "Assigned to Contractor",
    "contractor": "Metro Disposal",
    "rowid": "825981",
    "final_x": "3690505.98116",
    "final_y": "537005.654451",
    "longitude": "-90.0394371763103",
    "latitude": "29.97030279928646",
    "geocoded_column": {
      "latitude": "29.97030279928646",
      "longitude": "-90.0394371763103"
    }
  },
  {
    "service_request": "2021-825980",
    "request_type": "Trash/Recycling",
    "request_reason": "Request a Large Item Pick Up",
    "date_created": "2021-09-26T09:30:06.000",
    "date_modified": "2021-09-26T09:30:06.000",
    "request_status": "Pending",
    "responsible_agency": "Department of Sanitation",
    "final_address": "7731 Allison Rd",
    "address_councildis": "E",
    "status": "Assigned to Contractor",
    "contractor": "Metro Disposal",
    "rowid": "825980",
    "final_x": "3699969.70404",
    "final_y": "560900.585886",
    "longitude": "-90.00867751754741",
    "latitude": "30.035707683829635",
    "geocoded_column": {
      "latitude": "30.035707683829635",
      "longitude": "-90.00867751754741"
    }
  },
  {
    "service_request": "2021-825979",
    "request_type": "Trash/Recycling",
    "request_reason": "Missed Trash Pick-Up",
    "date_created": "2021-09-26T09:28:55.000",
    "date_modified": "2021-09-26T09:28:56.000",
    "request_status": "Pending",
    "responsible_agency": "Department of Sanitation",
    "final_address": "7731 Allison Rd",
    "address_councildis": "E",
    "status": "Assigned to Contractor",
    "contractor": "Metro Disposal",
    "rowid": "825979",
    "final_x": "3699969.70404",
    "final_y": "560900.585886",
    "longitude": "-90.00867751754741",
    "latitude": "30.035707683829635",
    "geocoded_column": {
      "latitude": "30.035707683829635",
      "longitude": "-90.00867751754741"
    }
  },
  {
    "service_request": "2021-825978",
    "request_type": "Trash/Recycling",
    "request_reason": "Missed Trash Pick-Up",
    "date_created": "2021-09-26T09:24:18.000",
    "date_modified": "2021-09-26T09:24:18.000",
    "request_status": "Pending",
    "responsible_agency": "Department of Sanitation",
    "final_address": "4783 Eunice Dr",
    "address_councildis": "E",
    "status": "Assigned to Contractor",
    "contractor": "Metro Disposal",
    "rowid": "825978",
    "final_x": "3710586.91499",
    "final_y": "556079.015834",
    "longitude": "-89.97530613652243",
    "latitude": "30.022108503878222",
    "geocoded_column": {
      "latitude": "30.022108503878222",
      "longitude": "-89.97530613652243"
    }
  },
  {
    "service_request": "2021-825977",
    "request_type": "Trash/Recycling",
    "request_reason": "Missed Trash Pick-Up",
    "date_created": "2021-09-26T09:23:41.000",
    "date_modified": "2021-09-26T09:23:41.000",
    "request_status": "Pending",
    "responsible_agency": "Department of Sanitation",
    "final_address": "4441 Music St",
    "address_councildis": "D",
    "status": "Assigned to Contractor",
    "contractor": "Metro Disposal",
    "rowid": "825977",
    "final_x": "3685822.69737",
    "final_y": "549180.896403",
    "longitude": "-90.05379809339178",
    "latitude": "30.003924970578574",
    "geocoded_column": {
      "latitude": "30.003924970578574",
      "longitude": "-90.05379809339178"
    }
  },
  {
    "service_request": "2021-825976",
    "request_type": "Trash/Recycling",
    "request_reason": "MIssed Recycling Pick-Up",
    "date_created": "2021-09-26T09:20:02.000",
    "date_modified": "2021-09-26T09:20:02.000",
    "request_status": "Pending",
    "responsible_agency": "Department of Sanitation",
    "final_address": "1434 Desire St",
    "address_councildis": "C",
    "status": "Assigned to Contractor",
    "contractor": "Metro Disposal",
    "rowid": "825976",
    "final_x": "3690495.2591",
    "final_y": "537105.85492",
    "longitude": "-90.03946746438807",
    "latitude": "29.970578648163116",
    "geocoded_column": {
      "latitude": "29.970578648163116",
      "longitude": "-90.03946746438807"
    }
  },
  {
    "service_request": "2021-825975",
    "request_type": "Trash/Recycling",
    "request_reason": "Missed Trash Pick-Up",
    "date_created": "2021-09-26T09:18:26.000",
    "date_modified": "2021-09-26T09:18:27.000",
    "request_status": "Pending",
    "responsible_agency": "Department of Sanitation",
    "final_address": "1434 Desire St",
    "address_councildis": "C",
    "status": "Assigned to Contractor",
    "contractor": "Metro Disposal",
    "rowid": "825975",
    "final_x": "3690495.2591",
    "final_y": "537105.85492",
    "longitude": "-90.03946746438807",
    "latitude": "29.970578648163116",
    "geocoded_column": {
      "latitude": "29.970578648163116",
      "longitude": "-90.03946746438807"
    }
  },
  {
    "service_request": "2021-825974",
    "request_type": "Trash/Recycling",
    "request_reason": "Request a Large Item Pick Up",
    "date_created": "2021-09-26T09:13:40.000",
    "date_modified": "2021-09-26T09:13:41.000",
    "request_status": "Pending",
    "responsible_agency": "Department of Sanitation",
    "final_address": "4645 Lynhuber Dr",
    "address_councildis": "D",
    "status": "Assigned to Contractor",
    "contractor": "Metro Disposal",
    "rowid": "825974",
    "final_x": "3698142.97501",
    "final_y": "553829.897559",
    "longitude": "-90.01470741653881",
    "latitude": "30.016323935266243",
    "geocoded_column": {
      "latitude": "30.016323935266243",
      "longitude": "-90.01470741653881"
    }
  },
  {
    "service_request": "2021-825973",
    "request_type": "Trash/Recycling",
    "request_reason": "Missed Trash Pick-Up",
    "date_created": "2021-09-26T09:13:24.000",
    "date_modified": "2021-09-26T09:13:24.000",
    "request_status": "Pending",
    "responsible_agency": "Department of Sanitation",
    "final_address": "329 Lowerline St",
    "address_councildis": "A",
    "status": "Assigned to Contractor",
    "contractor": "Richards Disposal",
    "rowid": "825973",
    "final_x": "3661536.41658",
    "final_y": "523552.803195",
    "longitude": "-90.13137236076453",
    "latitude": "29.93417947531416",
    "geocoded_column": {
      "latitude": "29.93417947531416",
      "longitude": "-90.13137236076453"
    }
  },
  {
    "service_request": "2021-825972",
    "request_type": "Trash/Recycling",
    "request_reason": "Missed Trash Pick-Up",
    "date_created": "2021-09-26T08:23:31.000",
    "date_modified": "2021-09-26T08:23:32.000",
    "request_status": "Pending",
    "responsible_agency": "Department of Sanitation",
    "final_address": "8015 Plum St",
    "address_councildis": "A",
    "status": "Assigned to Contractor",
    "contractor": "Richards Disposal",
    "rowid": "825972",
    "final_x": "3662458.64474",
    "final_y": "528448.2464",
    "longitude": "-90.1282983721216",
    "latitude": "29.947613754758624",
    "geocoded_column": {
      "latitude": "29.947613754758624",
      "longitude": "-90.1282983721216"
    }
  },
  {
    "service_request": "2021-825971",
    "request_type": "Safety & Permits",
    "request_reason": "Licenses & Permits",
    "date_created": "2021-09-26T08:17:56.000",
    "date_modified": "2021-09-26T08:17:56.000",
    "request_status": "Pending",
    "responsible_agency": "Safety and Permits",
    "final_address": "2544 Dumaine St",
    "address_councildis": "D",
    "status": "Pending",
    "rowid": "825971",
    "final_x": "3677652.67042",
    "final_y": "537080.595336",
    "longitude": "-90.08002675719123",
    "latitude": "29.9709016889274",
    "geocoded_column": {
      "latitude": "29.9709016889274",
      "longitude": "-90.08002675719123"
    }
  },
  {
    "service_request": "2021-825970",
    "request_type": "Safety & Permits",
    "request_reason": "Licenses & Permits",
    "date_created": "2021-09-26T08:15:13.000",
    "date_modified": "2021-09-26T08:15:13.000",
    "request_status": "Pending",
    "responsible_agency": "Safety and Permits",
    "final_address": "2544 Dumaine St",
    "address_councildis": "D",
    "status": "Pending",
    "rowid": "825970",
    "final_x": "3677652.67042",
    "final_y": "537080.595336",
    "longitude": "-90.08002675719123",
    "latitude": "29.9709016889274",
    "geocoded_column": {
      "latitude": "29.9709016889274",
      "longitude": "-90.08002675719123"
    }
  },
  {
    "service_request": "2021-825969",
    "request_type": "Safety & Permits",
    "request_reason": "Licenses & Permits",
    "date_created": "2021-09-26T08:12:04.000",
    "date_modified": "2021-09-26T08:12:04.000",
    "request_status": "Pending",
    "responsible_agency": "Safety and Permits",
    "final_address": "2544 Dumaine St",
    "address_councildis": "D",
    "status": "Pending",
    "rowid": "825969",
    "final_x": "3677652.67042",
    "final_y": "537080.595336",
    "longitude": "-90.08002675719123",
    "latitude": "29.9709016889274",
    "geocoded_column": {
      "latitude": "29.9709016889274",
      "longitude": "-90.08002675719123"
    }
  },
  {
    "service_request": "2021-825968",
    "request_type": "Trash/Recycling",
    "request_reason": "Missed Trash Pick-Up",
    "date_created": "2021-09-26T08:09:05.000",
    "date_modified": "2021-09-26T08:09:06.000",
    "request_status": "Pending",
    "responsible_agency": "Department of Sanitation",
    "final_address": "2018 Marais St",
    "address_councildis": "C",
    "status": "Assigned to Contractor",
    "contractor": "Metro Disposal",
    "rowid": "825968",
    "final_x": "3684368.6829",
    "final_y": "536588.017799",
    "longitude": "-90.0588340700118",
    "latitude": "29.96934357571803",
    "geocoded_column": {
      "latitude": "29.96934357571803",
      "longitude": "-90.0588340700118"
    }
  },
  {
    "service_request": "2021-825967",
    "request_type": "Trash/Recycling",
    "request_reason": "Missed Trash Pick-Up",
    "date_created": "2021-09-26T08:02:36.000",
    "date_modified": "2021-09-26T08:02:36.000",
    "request_status": "Pending",
    "responsible_agency": "Department of Sanitation",
    "final_address": "136 N Alexander St",
    "address_councildis": "A",
    "status": "Assigned to Contractor",
    "contractor": "Richards Disposal",
    "rowid": "825967",
    "final_x": "3670260.14977",
    "final_y": "539439.866442",
    "longitude": "-90.10329335801617",
    "latitude": "29.97760915139891",
    "geocoded_column": {
      "latitude": "29.97760915139891",
      "longitude": "-90.10329335801617"
    }
  },
  {
    "service_request": "2021-825966",
    "request_type": "Trash/Recycling",
    "request_reason": "Missed Trash Pick-Up",
    "date_created": "2021-09-26T07:53:23.000",
    "date_modified": "2021-09-26T07:53:24.000",
    "request_status": "Pending",
    "responsible_agency": "Department of Sanitation",
    "final_address": "6718 Lake Willow Dr",
    "address_councildis": "E",
    "status": "Assigned to Contractor",
    "contractor": "Metro Disposal",
    "rowid": "825966",
    "final_x": "3704093.68612",
    "final_y": "559481.657053",
    "longitude": "-89.99569743950792",
    "latitude": "30.03167444979784",
    "geocoded_column": {
      "latitude": "30.03167444979784",
      "longitude": "-89.99569743950792"
    }
  },
  {
    "service_request": "2021-825965",
    "request_type": "Trash/Recycling",
    "request_reason": "Missed Trash Pick-Up",
    "date_created": "2021-09-26T07:53:14.000",
    "date_modified": "2021-09-26T07:53:15.000",
    "request_status": "Pending",
    "responsible_agency": "Department of Sanitation",
    "final_address": "2326 Painters St",
    "address_councildis": "D",
    "status": "Assigned to Contractor",
    "contractor": "Metro Disposal",
    "rowid": "825965",
    "final_x": "3687106.33903",
    "final_y": "541156.053964",
    "longitude": "-90.05002678997948",
    "latitude": "29.981820056398615",
    "geocoded_column": {
      "latitude": "29.981820056398615",
      "longitude": "-90.05002678997948"
    }
  },
  {
    "service_request": "2021-825964",
    "request_type": "Trash/Recycling",
    "request_reason": "Missed Trash Pick-Up",
    "date_created": "2021-09-26T07:18:52.000",
    "date_modified": "2021-09-26T07:18:52.000",
    "request_status": "Pending",
    "responsible_agency": "Department of Sanitation",
    "final_address": "1821 Dumaine St",
    "address_councildis": "D",
    "status": "Assigned to Contractor",
    "contractor": "Richards Disposal",
    "rowid": "825964",
    "final_x": "3679796.40264",
    "final_y": "535551.686534",
    "longitude": "-90.0733096752989",
    "latitude": "29.966633066058975",
    "geocoded_column": {
      "latitude": "29.966633066058975",
      "longitude": "-90.0733096752989"
    }
  },
  {
    "service_request": "2021-825963",
    "request_type": "Trash/Recycling",
    "request_reason": "Request a Large Item Pick Up",
    "date_created": "2021-09-26T07:16:16.000",
    "date_modified": "2021-09-26T07:16:17.000",
    "request_status": "Pending",
    "responsible_agency": "Department of Sanitation",
    "final_address": "1706 Joliet St",
    "address_councildis": "A",
    "status": "Assigned to Contractor",
    "contractor": "Richards Disposal",
    "rowid": "825963",
    "final_x": "3662117.58855",
    "final_y": "530723.433346",
    "longitude": "-90.1292997401619",
    "latitude": "29.95387964548417",
    "geocoded_column": {
      "latitude": "29.95387964548417",
      "longitude": "-90.1292997401619"
    }
  },
  {
    "service_request": "2021-825962",
    "request_type": "Trash/Recycling",
    "request_reason": "Missed Trash Pick-Up",
    "date_created": "2021-09-26T06:58:27.000",
    "date_modified": "2021-09-26T06:58:28.000",
    "request_status": "Pending",
    "responsible_agency": "Department of Sanitation",
    "final_address": "4506 St Claude Ave",
    "address_councildis": "C",
    "status": "Assigned to Contractor",
    "contractor": "Metro Disposal",
    "rowid": "825962",
    "final_x": "3693370.41769",
    "final_y": "534863.163846",
    "longitude": "-90.03046794882333",
    "latitude": "29.964322458050418",
    "geocoded_column": {
      "latitude": "29.964322458050418",
      "longitude": "-90.03046794882333"
    }
  },
  {
    "service_request": "2021-825961",
    "request_type": "Traffic Signals/Signs/Striping/Streetlights",
    "request_reason": "Street Light Outage/Malfunction",
    "date_created": "2021-09-26T03:27:24.000",
    "date_modified": "2021-09-26T03:27:25.000",
    "request_status": "Pending",
    "responsible_agency": "Department of Public Works",
    "final_address": "40 Kings Canyon Dr",
    "address_councildis": "C",
    "status": "Pending",
    "contractor": "Royal Engineering",
    "rowid": "825961",
    "final_x": "3700298.37175",
    "final_y": "515832.156916",
    "longitude": "-90.00928462234275",
    "latitude": "29.911775405968513",
    "geocoded_column": {
      "latitude": "29.911775405968513",
      "longitude": "-90.00928462234275"
    }
  },
  {
    "service_request": "2021-825960",
    "request_type": "Traffic Signals/Signs/Striping/Streetlights",
    "request_reason": "Street Light Outage/Malfunction",
    "date_created": "2021-09-26T03:14:20.000",
    "date_modified": "2021-09-26T03:14:21.000",
    "request_status": "Pending",
    "responsible_agency": "Department of Public Works",
    "final_address": "5 Glacier Ct",
    "address_councildis": "C",
    "status": "Pending",
    "contractor": "Royal Engineering",
    "rowid": "825960",
    "final_x": "3700218.67133",
    "final_y": "516334.670708",
    "longitude": "-90.00951785162064",
    "latitude": "29.913159680446235",
    "geocoded_column": {
      "latitude": "29.913159680446235",
      "longitude": "-90.00951785162064"
    }
  },
  {
    "service_request": "2021-825959",
    "request_type": "Traffic Signals/Signs/Striping/Streetlights",
    "request_reason": "Street Light Outage/Malfunction",
    "date_created": "2021-09-26T03:05:45.000",
    "date_modified": "2021-09-26T03:05:45.000",
    "request_status": "Pending",
    "responsible_agency": "Department of Public Works",
    "final_address": "5 Yellowstone Dr",
    "address_councildis": "C",
    "status": "Pending",
    "contractor": "Royal Engineering",
    "rowid": "825959",
    "final_x": "3699444.09975",
    "final_y": "518012.039798",
    "longitude": "-90.01190156148522",
    "latitude": "29.917796459085903",
    "geocoded_column": {
      "latitude": "29.917796459085903",
      "longitude": "-90.01190156148522"
    }
  },
  {
    "service_request": "2021-825958",
    "request_type": "Traffic Signals/Signs/Striping/Streetlights",
    "request_reason": "Street Light Outage/Malfunction",
    "date_created": "2021-09-26T02:58:26.000",
    "date_modified": "2021-09-26T02:58:27.000",
    "request_status": "Pending",
    "responsible_agency": "Department of Public Works",
    "final_address": "2 Park Timbers Dr",
    "address_councildis": "C",
    "status": "Pending",
    "contractor": "Royal Engineering",
    "rowid": "825958",
    "final_x": "3699406.97348",
    "final_y": "518414.406966",
    "longitude": "-90.0120041022768",
    "latitude": "29.9189040089332",
    "geocoded_column": {
      "latitude": "29.9189040089332",
      "longitude": "-90.0120041022768"
    }
  },
  {
    "service_request": "2021-825957",
    "request_type": "COVID-19",
    "request_reason": "COVID-19 Business Non-Compliance",
    "date_created": "2021-09-26T01:31:02.000",
    "date_modified": "2021-09-26T01:31:03.000",
    "request_status": "Pending",
    "responsible_agency": "Safety and Permits",
    "final_address": "706 Bourbon St",
    "address_councildis": "C",
    "status": "Pending",
    "rowid": "825957",
    "final_x": "3682316.46696",
    "final_y": "532697.131396",
    "longitude": "-90.065451086906",
    "latitude": "29.95870757832309",
    "geocoded_column": {
      "latitude": "29.95870757832309",
      "longitude": "-90.065451086906"
    }
  },
  {
    "service_request": "2021-825956",
    "request_type": "COVID-19",
    "request_reason": "COVID-19 Business Non-Compliance",
    "date_created": "2021-09-26T01:20:09.000",
    "date_modified": "2021-09-26T01:20:10.000",
    "request_status": "Pending",
    "responsible_agency": "Safety and Permits",
    "final_address": "640 Bourbon St",
    "address_councildis": "C",
    "status": "Pending",
    "rowid": "825956",
    "final_x": "3682249.59644",
    "final_y": "532605.091844",
    "longitude": "-90.06566546190882",
    "latitude": "29.958456535312603",
    "geocoded_column": {
      "latitude": "29.958456535312603",
      "longitude": "-90.06566546190882"
    }
  },
  {
    "service_request": "2021-825955",
    "request_type": "Property Maintenance",
    "request_reason": "Property Maintenance",
    "date_created": "2021-09-26T01:14:29.000",
    "date_modified": "2021-09-26T01:14:29.000",
    "request_status": "Pending",
    "responsible_agency": "Department of Code Enforcement",
    "final_address": "2909 Baronne St",
    "address_councildis": "B",
    "status": "Pending",
    "rowid": "825955",
    "final_x": "3674986.64789",
    "final_y": "522836.456443",
    "longitude": "-90.08893494854145",
    "latitude": "29.931814950830415",
    "geocoded_column": {
      "latitude": "29.931814950830415",
      "longitude": "-90.08893494854145"
    }
  },
  {
    "service_request": "2021-825953",
    "request_type": "COVID-19",
    "request_reason": "COVID-19 Business Non-Compliance",
    "date_created": "2021-09-25T23:32:13.000",
    "date_modified": "2021-09-25T23:32:14.000",
    "request_status": "Pending",
    "responsible_agency": "Safety and Permits",
    "final_address": "417 S Rampart St",
    "address_councildis": "B",
    "status": "Pending",
    "rowid": "825953",
    "final_x": "3679370.46088",
    "final_y": "530005.730945",
    "longitude": "-90.07484715473582",
    "latitude": "29.951396438595722",
    "geocoded_column": {
      "latitude": "29.951396438595722",
      "longitude": "-90.07484715473582"
    }
  },
  {
    "service_request": "2021-825952",
    "request_type": "Traffic Signals/Signs/Striping/Streetlights",
    "request_reason": "Street Light Outage/Malfunction",
    "date_created": "2021-09-25T23:10:43.000",
    "date_modified": "2021-09-25T23:10:44.000",
    "request_status": "Pending",
    "responsible_agency": "Department of Public Works",
    "final_address": "1835 Painters St",
    "address_councildis": "D",
    "status": "Pending",
    "contractor": "Royal Engineering",
    "rowid": "825952",
    "final_x": "3687366.0198",
    "final_y": "539349.39169",
    "longitude": "-90.04927054367766",
    "latitude": "29.976844374133208",
    "geocoded_column": {
      "latitude": "29.976844374133208",
      "longitude": "-90.04927054367766"
    }
  },
  {
    "service_request": "2021-825951",
    "request_type": "Traffic Signals/Signs/Striping/Streetlights",
    "request_reason": "Traffic Sign Missing/Damaged",
    "date_created": "2021-09-25T22:21:51.000",
    "date_modified": "2021-09-25T22:21:51.000",
    "request_status": "Pending",
    "responsible_agency": "Department of Public Works",
    "final_address": "S SALCEDO ST & CLEVELAND AVE",
    "address_councildis": "B",
    "status": "Pending",
    "rowid": "825951",
    "final_x": "3673818.1",
    "final_y": "535737.48",
    "longitude": "-90.09218278449782",
    "latitude": "29.967323344944685",
    "geocoded_column": {
      "latitude": "29.967323344944685",
      "longitude": "-90.09218278449782"
    }
  },
  {
    "service_request": "2021-825950",
    "request_type": "Abandoned Vehicles",
    "request_reason": "Abandoned/Junk Vehicles",
    "date_created": "2021-09-25T22:11:50.000",
    "date_modified": "2021-09-25T22:11:50.000",
    "request_status": "Pending",
    "responsible_agency": "Department of Public Works",
    "final_address": "2902 Winston St",
    "address_councildis": "C",
    "status": "Pending",
    "rowid": "825950",
    "final_x": "3711231.75665",
    "final_y": "519206.010487",
    "longitude": "-89.97465012811467",
    "latitude": "29.920700405820348",
    "geocoded_column": {
      "latitude": "29.920700405820348",
      "longitude": "-89.97465012811467"
    }
  },
  {
    "service_request": "2021-825949",
    "request_type": "Abandoned Vehicles",
    "request_reason": "Abandoned/Junk Vehicles",
    "date_created": "2021-09-25T22:01:06.000",
    "date_modified": "2021-09-25T22:01:06.000",
    "request_status": "Pending",
    "responsible_agency": "Department of Public Works",
    "final_address": "2902 Winston St",
    "address_councildis": "C",
    "status": "Pending",
    "rowid": "825949",
    "final_x": "3711231.75665",
    "final_y": "519206.010487",
    "longitude": "-89.97465012811467",
    "latitude": "29.920700405820348",
    "geocoded_column": {
      "latitude": "29.920700405820348",
      "longitude": "-89.97465012811467"
    }
  },
  {
    "service_request": "2021-825948",
    "request_type": "Traffic Signals/Signs/Striping/Streetlights",
    "request_reason": "Street Light Knocked Down/Leaning",
    "date_created": "2021-09-25T21:58:47.000",
    "date_modified": "2021-09-25T21:58:48.000",
    "request_status": "Pending",
    "responsible_agency": "Department of Public Works",
    "final_address": "1511 L. B. Landry Ave",
    "address_councildis": "C",
    "status": "Pending",
    "contractor": "Royal Engineering",
    "rowid": "825948",
    "final_x": "3689943.28259",
    "final_y": "525894.124989",
    "longitude": "-90.04160982413035",
    "latitude": "29.939767398208858",
    "geocoded_column": {
      "latitude": "29.939767398208858",
      "longitude": "-90.04160982413035"
    }
  },
  {
    "service_request": "2021-825947",
    "request_type": "Trash/Recycling",
    "request_reason": "Illegal Dumping",
    "date_created": "2021-09-25T21:14:55.000",
    "date_modified": "2021-09-25T21:14:55.000",
    "request_status": "Pending",
    "responsible_agency": "Department of Sanitation",
    "final_address": "1015 Louisiana Ave",
    "address_councildis": "B",
    "status": "Pending",
    "rowid": "825947",
    "final_x": "3675199.70267",
    "final_y": "519448.536567",
    "longitude": "-90.08837856136961",
    "latitude": "29.922492902670886",
    "geocoded_column": {
      "latitude": "29.922492902670886",
      "longitude": "-90.08837856136961"
    }
  },
  {
    "service_request": "2021-825946",
    "request_type": "Traffic Signals/Signs/Striping/Streetlights",
    "request_reason": "Street Light Knocked Down/Leaning",
    "date_created": "2021-09-25T21:12:36.000",
    "date_modified": "2021-09-25T21:12:37.000",
    "request_status": "Pending",
    "responsible_agency": "Department of Public Works",
    "final_address": "6850 Milne Blvd",
    "address_councildis": "A",
    "status": "Pending",
    "contractor": "Royal Engineering",
    "rowid": "825946",
    "final_x": "3667457.61639",
    "final_y": "553082.594263",
    "longitude": "-90.11168535022493",
    "latitude": "30.015204385122942",
    "geocoded_column": {
      "latitude": "30.015204385122942",
      "longitude": "-90.11168535022493"
    }
  },
  {
    "service_request": "2021-825945",
    "request_type": "Trash/Recycling",
    "request_reason": "Missed Trash Pick-Up",
    "date_created": "2021-09-25T21:10:44.000",
    "date_modified": "2021-09-25T21:10:44.000",
    "request_status": "Pending",
    "responsible_agency": "Department of Sanitation",
    "final_address": "1130 Spain St",
    "address_councildis": "C",
    "status": "Assigned to Contractor",
    "contractor": "Metro Disposal",
    "rowid": "825945",
    "final_x": "3686072.01084",
    "final_y": "536724.173895",
    "longitude": "-90.05345003565473",
    "latitude": "29.969665753093143",
    "geocoded_column": {
      "latitude": "29.969665753093143",
      "longitude": "-90.05345003565473"
    }
  },
  {
    "service_request": "2021-825944",
    "request_type": "Trash/Recycling",
    "request_reason": "Missed Trash Pick-Up",
    "date_created": "2021-09-25T20:35:54.000",
    "date_modified": "2021-09-25T21:05:56.000",
    "request_status": "Pending",
    "responsible_agency": "Department of Sanitation",
    "final_address": "6970 Ridgefield Dr",
    "address_councildis": "E",
    "status": "Assigned to Contractor",
    "contractor": "Metro Disposal",
    "rowid": "825944",
    "final_x": "3719604.95468",
    "final_y": "569185.780518",
    "longitude": "-89.94631045283741",
    "latitude": "30.057849797451297",
    "geocoded_column": {
      "latitude": "30.057849797451297",
      "longitude": "-89.94631045283741"
    }
  },