[
  {
    "service_request": "2022-948976",
    "request_type": "Trash/Recycling",
    "request_reason": "MIssed Recycling Pick-Up",
    "date_created": "2022-12-02T23:49:54.000",
    "date_modified": "2022-12-02T23:49:55.000",
    "request_status": "Pending",
    "responsible_agency": "Department of Sanitation",
    "final_address": "7707 Benjamin St",
    "address_councildis": "A",
    "status": "Assigned to Contractor",
    "contractor": "Richards Disposal",
    "rowid": "948976",
    "final_x": "3660901.9527",
    "final_y": "525120.793213",
    "longitude": "-90.13332351107603",
    "latitude": "29.93850923866763",
    "geocoded_column": {
      "latitude": "29.93850923866763",
      "longitude": "-90.13332351107603"
    }
  },
  {
    "service_request": "2022-948975",
    "request_type": "Roads/Drainage",
    "request_reason": "Pothole",
    "date_created": "2022-12-02T23:34:01.000",
    "date_modified": "2022-12-02T23:34:01.000",
    "request_status": "Pending",
    "responsible_agency": "Department of Public Works",
    "final_address": "1426 Joliet St",
    "address_councildis": "A",
    "status": "Pending",
    "rowid": "948975",
    "final_x": "3661494.04442",
    "final_y": "530045.213313",
    "longitude": "-90.13129111225612",
    "latitude": "29.952032760056557",
    "geocoded_column": {
      "latitude": "29.952032760056557",
      "longitude": "-90.13129111225612"
    }
  },
  {
    "service_request": "2022-948974",
    "request_type": "Property Maintenance",
    "request_reason": "Property Maintenance",
    "date_created": "2022-12-02T22:24:04.000",
    "date_modified": "2022-12-02T22:24:04.000",
    "request_status": "Pending",
    "responsible_agency": "Department of Code Enforcement",
    "final_address": "2801 Third St",
    "address_councildis": "B",
    "status": "Pending",
    "rowid": "948974",
    "final_x": "3674121.31579",
    "final_y": "526475.126974",
    "longitude": "-90.09154222379554",
    "latitude": "29.941845920732504",
    "geocoded_column": {
      "latitude": "29.941845920732504",
      "longitude": "-90.09154222379554"
    }
  },
  {
    "service_request": "2022-948973",
    "request_type": "Trash/Recycling",
    "request_reason": "Request a Large Item Pick Up",
    "date_created": "2022-12-02T22:17:09.000",
    "date_modified": "2022-12-02T22:17:10.000",
    "request_status": "Pending",
    "responsible_agency": "Department of Sanitation",
    "final_address": "24 Versailles Blvd",
    "address_councildis": "A",
    "status": "Assigned to Contractor",
    "contractor": "Richards Disposal",
    "rowid": "948973",
    "final_x": "3667153.17639",
    "final_y": "529473.374721",
    "longitude": "-90.11344139000717",
    "latitude": "29.950295937144958",
    "geocoded_column": {
      "latitude": "29.950295937144958",
      "longitude": "-90.11344139000717"
    }
  },
  {
    "service_request": "2022-948972",
    "request_type": "Roads/Drainage",
    "request_reason": "Bicycle Hazardous Incident Reporting",
    "date_created": "2022-12-02T21:37:21.000",
    "date_modified": "2022-12-02T21:37:21.000",
    "request_status": "Pending",
    "responsible_agency": "Health Department",
    "final_address": "5415 Macarthur Blvd",
    "address_councildis": "C",
    "status": "Pending",
    "rowid": "948972",
    "final_x": "3704111.2234",
    "final_y": "519457.368247",
    "longitude": "-89.99711694449041",
    "latitude": "29.921621792105256",
    "geocoded_column": {
      "latitude": "29.921621792105256",
      "longitude": "-89.99711694449041"
    }
  },
  {
    "service_request": "2022-948971",
    "request_type": "Traffic Signals/Signs/Striping/Streetlights",
    "request_reason": "Street Light Outage/Malfunction",
    "date_created": "2022-12-02T21:33:57.000",
    "date_modified": "2022-12-02T21:33:58.000",
    "request_status": "Pending",
    "responsible_agency": "Department of Public Works",
    "final_address": "5 Bamboo Rd",
    "status": "Pending",
    "contractor": "Legacy Professional Services",
    "rowid": "948971",
    "final_x": "3663464.40608",
    "final_y": "539526.795786",
    "longitude": "-90.12475382996728",
    "latitude": "29.978047018691935",
    "geocoded_column": {
      "latitude": "29.978047018691935",
      "longitude": "-90.12475382996728"
    }
  },
  {
    "service_request": "2022-948970",
    "request_type": "Trash/Recycling",
    "request_reason": "Missed Trash Pick-Up",
    "date_created": "2022-12-02T21:13:58.000",
    "date_modified": "2022-12-02T21:13:59.000",
    "request_status": "Pending",
    "responsible_agency": "Department of Sanitation",
    "final_address": "1131 Orange St",
    "address_councildis": "B",
    "status": "Assigned to Contractor",
    "contractor": "Richards Disposal",
    "rowid": "948970",
    "final_x": "3679856.47944",
    "final_y": "523577.759035",
    "longitude": "-90.07353569564594",
    "latitude": "29.933706968638734",
    "geocoded_column": {
      "latitude": "29.933706968638734",
      "longitude": "-90.07353569564594"
    }
  },
  {
    "service_request": "2022-948969",
    "request_type": "Roads/Drainage",
    "request_reason": "Catch Basin - Clogged",
    "date_created": "2022-12-02T21:08:06.000",
    "date_modified": "2022-12-02T21:08:06.000",
    "request_status": "Pending",
    "responsible_agency": "Department of Public Works",
    "final_address": "57 Oriole St",
    "address_councildis": "D",
    "status": "Pending",
    "rowid": "948969",
    "final_x": "3675215.52046",
    "final_y": "556732.354842",
    "longitude": "-90.0870485640665",
    "latitude": "30.02501020288784",
    "geocoded_column": {
      "latitude": "30.02501020288784",
      "longitude": "-90.0870485640665"
    }
  },
  {
    "service_request": "2022-948968",
    "request_type": "Trash/Recycling",
    "request_reason": "MIssed Recycling Pick-Up",
    "date_created": "2022-12-02T20:47:54.000",
    "date_modified": "2022-12-02T20:47:54.000",
    "request_status": "Pending",
    "responsible_agency": "Department of Sanitation",
    "final_address": "8506 Apricot St",
    "address_councildis": "A",
    "status": "Assigned to Contractor",
    "contractor": "Richards Disposal",
    "rowid": "948968",
    "final_x": "3664686.92685",
    "final_y": "533611.932741",
    "longitude": "-90.12109029887758",
    "latitude": "29.961747590287853",
    "geocoded_column": {
      "latitude": "29.961747590287853",
      "longitude": "-90.12109029887758"
    }
  },
  {
    "service_request": "2022-948967",
    "request_type": "Traffic Signals/Signs/Striping/Streetlights",
    "request_reason": "Street Light Outage/Malfunction",
    "date_created": "2022-12-02T19:53:35.000",
    "date_modified": "2022-12-02T19:53:35.000",
    "request_status": "Pending",
    "responsible_agency": "Department of Public Works",
    "final_address": "5 Bamboo Rd",
    "status": "Pending",
    "contractor": "Legacy Professional Services",
    "rowid": "948967",
    "final_x": "3663464.40608",
    "final_y": "539526.795786",
    "longitude": "-90.12475382996728",
    "latitude": "29.978047018691935",
    "geocoded_column": {
      "latitude": "29.978047018691935",
      "longitude": "-90.12475382996728"
    }
  },
  {
    "service_request": "2022-948966",
    "request_type": "Trash/Recycling",
    "request_reason": "MIssed Recycling Pick-Up",
    "date_created": "2022-12-02T19:50:50.000",
    "date_modified": "2022-12-02T19:50:50.000",
    "request_status": "Pending",
    "responsible_agency": "Department of Sanitation",
    "final_address": "12 Fontainebleau Dr",
    "address_councildis": "A",
    "status": "Assigned to Contractor",
    "contractor": "Richards Disposal",
    "rowid": "948966",
    "final_x": "3665601.99751",
    "final_y": "531780.781571",
    "longitude": "-90.11826196111153",
    "latitude": "29.956685872991745",
    "geocoded_column": {
      "latitude": "29.956685872991745",
      "longitude": "-90.11826196111153"
    }
  },
  {
    "service_request": "2022-948965",
    "request_type": "Traffic Signals/Signs/Striping/Streetlights",
    "request_reason": "Street Light Outage/Malfunction",
    "date_created": "2022-12-02T19:49:20.000",
    "date_modified": "2022-12-02T19:49:21.000",
    "request_status": "Pending",
    "responsible_agency": "Department of Public Works",
    "final_address": "88 Maryland Dr",
    "address_councildis": "A",
    "status": "Pending",
    "contractor": "Legacy Professional Services",
    "rowid": "948965",
    "final_x": "3663644.47322",
    "final_y": "541860.096204",
    "longitude": "-90.12410734105084",
    "latitude": "29.98445759052315",
    "geocoded_column": {
      "latitude": "29.98445759052315",
      "longitude": "-90.12410734105084"
    }
  },
  {
    "service_request": "2022-948964",
    "request_type": "Traffic Signals/Signs/Striping/Streetlights",
    "request_reason": "Street Light Outage/Malfunction",
    "date_created": "2022-12-02T19:45:25.000",
    "date_modified": "2022-12-02T19:45:26.000",
    "request_status": "Pending",
    "responsible_agency": "Department of Public Works",
    "final_address": "67 Maryland Dr",
    "address_councildis": "A",
    "status": "Pending",
    "contractor": "Legacy Professional Services",
    "rowid": "948964",
    "final_x": "3663736.22746",
    "final_y": "541576.662924",
    "longitude": "-90.12382697859721",
    "latitude": "29.983675581381014",
    "geocoded_column": {
      "latitude": "29.983675581381014",
      "longitude": "-90.12382697859721"
    }
  },
  {
    "service_request": "2022-948963",
    "request_type": "Traffic Signals/Signs/Striping/Streetlights",
    "request_reason": "Street Light Outage/Malfunction",
    "date_created": "2022-12-02T19:43:56.000",
    "date_modified": "2022-12-02T19:43:57.000",
    "request_status": "Pending",
    "responsible_agency": "Department of Public Works",
    "final_address": "30 Maryland Dr",
    "address_councildis": "A",
    "status": "Pending",
    "contractor": "Legacy Professional Services",
    "rowid": "948963",
    "final_x": "3663592.18208",
    "final_y": "540979.190795",
    "longitude": "-90.12430186471813",
    "latitude": "29.98203691334969",
    "geocoded_column": {
      "latitude": "29.98203691334969",
      "longitude": "-90.12430186471813"
    }
  },
  {
    "service_request": "2022-948962",
    "request_type": "Trash/Recycling",
    "request_reason": "Order Recycling Cart",
    "date_created": "2022-12-02T19:43:50.000",
    "date_modified": "2022-12-02T19:43:50.000",
    "request_status": "Pending",
    "responsible_agency": "Department of Sanitation",
    "final_address": "5128 Music St",
    "address_councildis": "D",
    "status": "Pending",
    "rowid": "948962",
    "final_x": "3685455.57257",
    "final_y": "551679.441301",
    "longitude": "-90.0548698326398",
    "latitude": "30.010806328342294",
    "geocoded_column": {
      "latitude": "30.010806328342294",
      "longitude": "-90.0548698326398"
    }
  },
  {
    "service_request": "2022-948961",
    "request_type": "Traffic Signals/Signs/Striping/Streetlights",
    "request_reason": "Street Light Outage/Malfunction",
    "date_created": "2022-12-02T19:41:08.000",
    "date_modified": "2022-12-02T19:41:08.000",
    "request_status": "Pending",
    "responsible_agency": "Department of Public Works",
    "final_address": "400 Chartres St",
    "address_councildis": "C",
    "status": "Pending",
    "contractor": "Legacy Professional Services",
    "rowid": "948961",
    "final_x": "3682207.49794",
    "final_y": "531375.162242",
    "longitude": "-90.06584135886212",
    "latitude": "29.95507592785548",
    "geocoded_column": {
      "latitude": "29.95507592785548",
      "longitude": "-90.06584135886212"
    }
  },
  {
    "service_request": "2022-948960",
    "request_type": "Traffic Signals/Signs/Striping/Streetlights",
    "request_reason": "Street Light Outage/Malfunction",
    "date_created": "2022-12-02T19:39:49.000",
    "date_modified": "2022-12-02T19:39:50.000",
    "request_status": "Pending",
    "responsible_agency": "Department of Public Works",
    "final_address": "20 Maryland Dr",
    "address_councildis": "A",
    "status": "Pending",
    "contractor": "Legacy Professional Services",
    "rowid": "948960",
    "final_x": "3663580.32064",
    "final_y": "540743.645387",
    "longitude": "-90.12434717866776",
    "latitude": "29.98138958645688",
    "geocoded_column": {
      "latitude": "29.98138958645688",
      "longitude": "-90.12434717866776"
    }
  },
  {
    "service_request": "2022-948959",
    "request_type": "Trash/Recycling",
    "request_reason": "MIssed Recycling Pick-Up",
    "date_created": "2022-12-02T19:37:41.000",
    "date_modified": "2022-12-02T19:37:41.000",
    "request_status": "Pending",
    "responsible_agency": "Department of Sanitation",
    "final_address": "2831 Audubon St",
    "address_councildis": "B",
    "status": "Assigned to Contractor",
    "contractor": "Richards Disposal",
    "rowid": "948959",
    "final_x": "3667694.17434",
    "final_y": "531295.870018",
    "longitude": "-90.11167184375363",
    "latitude": "29.955291355719048",
    "geocoded_column": {
      "latitude": "29.955291355719048",
      "longitude": "-90.11167184375363"
    }
  },
  {
    "service_request": "2022-948958",
    "request_type": "Trash/Recycling",
    "request_reason": "Order Trash Cart",
    "date_created": "2022-12-02T18:56:15.000",
    "date_modified": "2022-12-02T18:56:15.000",
    "request_status": "Pending",
    "responsible_agency": "Department of Sanitation",
    "final_address": "1235 Frenchmen St",
    "address_councildis": "C",
    "status": "Assigned to Contractor",
    "contractor": "IV Waste",
    "rowid": "948958",
    "final_x": "3684563.73007",
    "final_y": "536928.665352",
    "longitude": "-90.0582061250775",
    "latitude": "29.9702742714496",
    "geocoded_column": {
      "latitude": "29.9702742714496",
      "longitude": "-90.0582061250775"
    }
  },
  {
    "service_request": "2022-948957",
    "request_type": "Trash/Recycling",
    "request_reason": "MIssed Recycling Pick-Up",
    "date_created": "2022-12-02T18:55:45.000",
    "date_modified": "2022-12-02T18:55:46.000",
    "request_status": "Pending",
    "responsible_agency": "Department of Sanitation",
    "final_address": "2528 Cambronne St",
    "address_councildis": "A",
    "status": "Assigned to Contractor",
    "contractor": "Richards Disposal",
    "rowid": "948957",
    "final_x": "3664457.78944",
    "final_y": "532781.833796",
    "longitude": "-90.12184159591777",
    "latitude": "29.959471753351487",
    "geocoded_column": {
      "latitude": "29.959471753351487",
      "longitude": "-90.12184159591777"
    }
  },
  {
    "service_request": "2022-948956",
    "request_type": "Traffic Signals/Signs/Striping/Streetlights",
    "request_reason": "Street Light Outage/Malfunction",
    "date_created": "2022-12-02T18:54:46.000",
    "date_modified": "2022-12-02T18:54:47.000",
    "request_status": "Pending",
    "responsible_agency": "Department of Public Works",
    "final_address": "11701 Morrison Rd",
    "address_councildis": "E",
    "status": "Pending",
    "contractor": "Legacy Professional Services",
    "rowid": "948956",
    "final_x": "3713176.1548",
    "final_y": "566535.184099",
    "longitude": "-89.96673083545386",
    "latitude": "30.050774146879714",
    "geocoded_column": {
      "latitude": "30.050774146879714",
      "longitude": "-89.96673083545386"
    }
  },
  {
    "service_request": "2022-948955",
    "request_type": "Trash/Recycling",
    "request_reason": "Missed Trash Pick-Up",
    "date_created": "2022-12-02T18:53:16.000",
    "date_modified": "2022-12-02T18:53:17.000",
    "request_status": "Pending",
    "responsible_agency": "Department of Sanitation",
    "final_address": "609 Eleonore St",
    "address_councildis": "A",
    "status": "Assigned to Contractor",
    "contractor": "Richards Disposal",
    "rowid": "948955",
    "final_x": "3665134.981",
    "final_y": "518484.693558",
    "longitude": "-90.12018116679658",
    "latitude": "29.920139485356092",
    "geocoded_column": {
      "latitude": "29.920139485356092",
      "longitude": "-90.12018116679658"
    }
  },
  {
    "service_request": "2022-948954",
    "request_type": "Property Maintenance",
    "request_reason": "Property Maintenance",
    "date_created": "2022-12-02T18:51:29.000",
    "date_modified": "2022-12-02T18:51:29.000",
    "request_status": "Pending",
    "responsible_agency": "Department of Code Enforcement",
    "final_address": "5851 Read Blvd",
    "address_councildis": "E",
    "status": "Pending",
    "rowid": "948954",
    "final_x": "3710972.66885",
    "final_y": "561102.245214",
    "longitude": "-89.97389895558436",
    "latitude": "30.03590782320124",
    "geocoded_column": {
      "latitude": "30.03590782320124",
      "longitude": "-89.97389895558436"
    }
  },
  {
    "service_request": "2022-948953",
    "request_type": "Trash/Recycling",
    "request_reason": "Order Recycling Cart",
    "date_created": "2022-12-02T18:47:55.000",
    "date_modified": "2022-12-02T18:47:55.000",
    "request_status": "Pending",
    "responsible_agency": "Department of Sanitation",
    "final_address": "5575 Milne St",
    "address_councildis": "A",
    "status": "Pending",
    "rowid": "948953",
    "final_x": "3666824.02714",
    "final_y": "544485.172495",
    "longitude": "-90.11397626879231",
    "latitude": "29.991583011861373",
    "geocoded_column": {
      "latitude": "29.991583011861373",
      "longitude": "-90.11397626879231"
    }
  },
  {
    "service_request": "2022-948952",
    "request_type": "Trash/Recycling",
    "request_reason": "MIssed Recycling Pick-Up",
    "date_created": "2022-12-02T18:15:14.000",
    "date_modified": "2022-12-02T18:15:14.000",
    "request_status": "Pending",
    "responsible_agency": "Department of Sanitation",
    "final_address": "8401 Apple St",
    "address_councildis": "A",
    "status": "Assigned to Contractor",
    "contractor": "Richards Disposal",
    "rowid": "948952",
    "final_x": "3664554.47917",
    "final_y": "532878.666052",
    "longitude": "-90.12153303731714",
    "latitude": "29.959735199086555",
    "geocoded_column": {
      "latitude": "29.959735199086555",
      "longitude": "-90.12153303731714"
    }
  },
  {
    "service_request": "2022-948951",
    "request_type": "Trash/Recycling",
    "request_reason": "Illegal Dumping",
    "date_created": "2022-12-02T18:12:20.000",
    "date_modified": "2022-12-02T18:12:20.000",
    "request_status": "Pending",
    "responsible_agency": "Department of Sanitation",
    "final_address": "1874 N Roman St",
    "address_councildis": "D",
    "status": "Pending",
    "rowid": "948951",
    "final_x": "3683540.45295",
    "final_y": "538746.979081",
    "longitude": "-90.06137399524636",
    "latitude": "29.97530527385337",
    "geocoded_column": {
      "latitude": "29.97530527385337",
      "longitude": "-90.06137399524636"
    }
  },
  {
    "service_request": "2022-948950",
    "request_type": "Trash/Recycling",
    "request_reason": "MIssed Recycling Pick-Up",
    "date_created": "2022-12-02T17:44:04.000",
    "date_modified": "2022-12-02T17:44:05.000",
    "request_status": "Pending",
    "responsible_agency": "Department of Sanitation",
    "final_address": "7466 Pitt St",
    "address_councildis": "A",
    "status": "Assigned to Contractor",
    "contractor": "Richards Disposal",
    "rowid": "948950",
    "final_x": "3660887.49626",
    "final_y": "523749.339259",
    "longitude": "-90.13341449355019",
    "latitude": "29.93473858886717",
    "geocoded_column": {
      "latitude": "29.93473858886717",
      "longitude": "-90.13341449355019"
    }
  },
  {
    "service_request": "2022-948948",
    "request_type": "Trash/Recycling",
    "request_reason": "Replace Trash Cart",
    "date_created": "2022-12-02T17:28:26.000",
    "date_modified": "2022-12-02T17:28:26.000",
    "request_status": "Pending",
    "responsible_agency": "Department of Sanitation",
    "final_address": "729 Antonine St",
    "address_councildis": "B",
    "status": "Assigned to Contractor",
    "contractor": "Richards Disposal",
    "rowid": "948948",
    "final_x": "3674316.2914",
    "final_y": "518029.313782",
    "longitude": "-90.09121570128211",
    "latitude": "29.918616857066482",
    "geocoded_column": {
      "latitude": "29.918616857066482",
      "longitude": "-90.09121570128211"
    }
  },
  {
    "service_request": "2022-948947",
    "request_type": "Trash/Recycling",
    "request_reason": "Missed Trash Pick-Up",
    "date_created": "2022-12-02T17:22:46.000",
    "date_modified": "2022-12-02T17:22:47.000",
    "request_status": "Pending",
    "responsible_agency": "Department of Sanitation",
    "final_address": "5419 Freret St",
    "address_councildis": "A",
    "status": "Assigned to Contractor",
    "contractor": "Richards Disposal",
    "rowid": "948947",
    "final_x": "3667761.82676",
    "final_y": "524116.028156",
    "longitude": "-90.11169993103742",
    "latitude": "29.93554713323735",
    "geocoded_column": {
      "latitude": "29.93554713323735",
      "longitude": "-90.11169993103742"
    }
  },
  {
    "service_request": "2022-948946",
    "request_type": "Trash/Recycling",
    "request_reason": "Missed Trash Pick-Up",
    "date_created": "2022-12-02T17:17:45.000",
    "date_modified": "2022-12-02T17:17:46.000",
    "request_status": "Pending",
    "responsible_agency": "Department of Sanitation",
    "final_address": "814 State St",
    "address_councildis": "A",
    "status": "Assigned to Contractor",
    "contractor": "Richards Disposal",
    "rowid": "948946",
    "final_x": "3664700.20839",
    "final_y": "519394.789175",
    "longitude": "-90.12152316049885",
    "latitude": "29.922654613644625",
    "geocoded_column": {
      "latitude": "29.922654613644625",
      "longitude": "-90.12152316049885"
    }
  },
  {
    "service_request": "2022-948945",
    "request_type": "Trash/Recycling",
    "request_reason": "Order Trash Cart",
    "date_created": "2022-12-02T17:00:57.000",
    "date_modified": "2022-12-02T17:00:57.000",
    "request_status": "Pending",
    "responsible_agency": "Department of Sanitation",
    "final_address": "1718 Laharpe St",
    "address_councildis": "D",
    "status": "Assigned to Contractor",
    "contractor": "IV Waste",
    "rowid": "948945",
    "final_x": "3681524.11804",
    "final_y": "537760.911752",
    "longitude": "-90.06777651082382",
    "latitude": "29.972655320732894",
    "geocoded_column": {
      "latitude": "29.972655320732894",
      "longitude": "-90.06777651082382"
    }
  },
  {
    "service_request": "2022-948944",
    "request_type": "Trash/Recycling",
    "request_reason": "Missed Trash Pick-Up",
    "date_created": "2022-12-02T16:59:53.000",
    "date_modified": "2022-12-02T16:59:54.000",
    "request_status": "Pending",
    "responsible_agency": "Department of Sanitation",
    "final_address": "4506 St Claude Ave",
    "address_councildis": "C",
    "status": "Assigned to Contractor",
    "contractor": "IV Waste",
    "rowid": "948944",
    "final_x": "3693370.41769",
    "final_y": "534863.163846",
    "longitude": "-90.03046794882333",
    "latitude": "29.964322458050418",
    "geocoded_column": {
      "latitude": "29.964322458050418",
      "longitude": "-90.03046794882333"
    }
  },
  {
    "service_request": "2022-948943",
    "request_type": "Trash/Recycling",
    "request_reason": "Request a Large Item Pick Up",
    "date_created": "2022-12-02T16:44:23.000",
    "date_modified": "2022-12-02T16:44:24.000",
    "request_status": "Pending",
    "responsible_agency": "Department of Sanitation",
    "final_address": "412 S Alexander St, New Orleans, Louisiana, 70119",
    "address_councildis": "A",
    "status": "Assigned to Contractor",
    "contractor": "Richards Disposal",
    "rowid": "948943",
    "final_x": "3669193.39585",
    "final_y": "538059.347977",
    "longitude": "-90.10670921491145",
    "latitude": "29.97384463502483",
    "geocoded_column": {
      "latitude": "29.97384463502483",
      "longitude": "-90.10670921491145"
    }
  },
  {
    "service_request": "2022-948942",
    "request_type": "Trash/Recycling",
    "request_reason": "Order Trash Cart",
    "date_created": "2022-12-02T16:42:46.000",
    "date_modified": "2022-12-02T16:42:46.000",
    "request_status": "Pending",
    "responsible_agency": "Department of Sanitation",
    "final_address": "3 W Barrington Dr",
    "address_councildis": "E",
    "status": "Assigned to Contractor",
    "contractor": "Waste Pro",
    "rowid": "948942",
    "final_x": "3714148.83781",
    "final_y": "565397.94653",
    "longitude": "-89.96369951582969",
    "latitude": "30.04761527291637",
    "geocoded_column": {
      "latitude": "30.04761527291637",
      "longitude": "-89.96369951582969"
    }
  },
  {
    "service_request": "2022-948941",
    "request_type": "Trash/Recycling",
    "request_reason": "MIssed Recycling Pick-Up",
    "date_created": "2022-12-02T16:38:12.000",
    "date_modified": "2022-12-02T16:38:12.000",
    "request_status": "Pending",
    "responsible_agency": "Department of Sanitation",
    "final_address": "8 Rosa Park",
    "address_councildis": "A",
    "status": "Assigned to Contractor",
    "contractor": "Richards Disposal",
    "rowid": "948941",
    "final_x": "3666047.54458",
    "final_y": "522668.591738",
    "longitude": "-90.11716045682009",
    "latitude": "29.93161728747805",
    "geocoded_column": {
      "latitude": "29.93161728747805",
      "longitude": "-90.11716045682009"
    }
  },
  {
    "service_request": "2022-948940",
    "request_type": "Trash/Recycling",
    "request_reason": "Order Recycling Cart",
    "date_created": "2022-12-02T16:36:20.000",
    "date_modified": "2022-12-02T16:36:22.000",
    "request_status": "Pending",
    "responsible_agency": "Department of Sanitation",
    "final_address": "2914 Hiawatha St",
    "address_councildis": "D",
    "status": "Pending",
    "rowid": "948940",
    "final_x": "3689279.49206",
    "final_y": "548070.572178",
    "longitude": "-90.0429170174524",
    "latitude": "30.000765391091907",
    "geocoded_column": {
      "latitude": "30.000765391091907",
      "longitude": "-90.0429170174524"
    }
  },
  {
    "service_request": "2022-948939",
    "request_type": "Trash/Recycling",
    "request_reason": "Replace Trash Cart",
    "date_created": "2022-12-02T16:35:59.000",
    "date_modified": "2022-12-02T16:36:00.000",
    "request_status": "Pending",
    "responsible_agency": "Department of Sanitation",
    "final_address": "6721 Bamberry St",
    "address_councildis": "E",
    "status": "Assigned to Contractor",
    "contractor": "Waste Pro",
    "rowid": "948939",
    "final_x": "3698314.60855",
    "final_y": "558904.096796",
    "longitude": "-90.01398053266317",
    "latitude": "30.03027061586761",
    "geocoded_column": {
      "latitude": "30.03027061586761",
      "longitude": "-90.01398053266317"
    }
  },
  {
    "service_request": "2022-948938",
    "request_type": "Trash/Recycling",
    "request_reason": "Order Recycling Cart",
    "date_created": "2022-12-02T16:35:43.000",
    "date_modified": "2022-12-02T16:35:44.000",
    "request_status": "Pending",
    "responsible_agency": "Department of Sanitation",
    "final_address": "228 Audubon St",
    "address_councildis": "A",
    "status": "Pending",
    "rowid": "948938",
    "final_x": "3661047.46426",
    "final_y": "521379.352121",
    "longitude": "-90.13298785379509",
    "latitude": "29.928217259947974",
    "geocoded_column": {
      "latitude": "29.928217259947974",
      "longitude": "-90.13298785379509"
    }
  },
  {
    "service_request": "2022-948937",
    "request_type": "Trash/Recycling",
    "request_reason": "Order Recycling Cart",
    "date_created": "2022-12-02T16:34:31.000",
    "date_modified": "2022-12-02T16:34:31.000",
    "request_status": "Pending",
    "responsible_agency": "Department of Sanitation",
    "final_address": "8240 Green St",
    "address_councildis": "A",
    "status": "Pending",
    "rowid": "948937",
    "final_x": "3662617.4313",
    "final_y": "530094.562369",
    "longitude": "-90.12774232720575",
    "latitude": "29.95213600174324",
    "geocoded_column": {
      "latitude": "29.95213600174324",
      "longitude": "-90.12774232720575"
    }
  },
  {
    "service_request": "2022-948936",
    "request_type": "Trash/Recycling",
    "request_reason": "Missed Trash Pick-Up",
    "date_created": "2022-12-02T16:34:26.000",
    "date_modified": "2022-12-02T16:34:27.000",
    "request_status": "Pending",
    "responsible_agency": "Department of Sanitation",
    "final_address": "519 Webster St",
    "address_councildis": "A",
    "status": "Assigned to Contractor",
    "contractor": "Richards Disposal",
    "rowid": "948936",
    "final_x": "3663845.41562",
    "final_y": "518562.842743",
    "longitude": "-90.12424912334815",
    "latitude": "29.920391850205526",
    "geocoded_column": {
      "latitude": "29.920391850205526",
      "longitude": "-90.12424912334815"
    }
  },
  {
    "service_request": "2022-948935",
    "request_type": "Trash/Recycling",
    "request_reason": "MIssed Recycling Pick-Up",
    "date_created": "2022-12-02T16:29:43.000",
    "date_modified": "2022-12-02T16:29:44.000",
    "request_status": "Pending",
    "responsible_agency": "Department of Sanitation",
    "final_address": "7903 Plum St",
    "address_councildis": "A",
    "status": "Assigned to Contractor",
    "contractor": "Richards Disposal",
    "rowid": "948935",
    "final_x": "3662757.28013",
    "final_y": "528177.268416",
    "longitude": "-90.1273644637923",
    "latitude": "29.946860013110612",
    "geocoded_column": {
      "latitude": "29.946860013110612",
      "longitude": "-90.1273644637923"
    }
  },
  {
    "service_request": "2022-948934",
    "request_type": "Trash/Recycling",
    "request_reason": "MIssed Recycling Pick-Up",
    "date_created": "2022-12-02T16:29:43.000",
    "date_modified": "2022-12-02T16:29:43.000",
    "request_status": "Pending",
    "responsible_agency": "Department of Sanitation",
    "final_address": "7903 Plum St",
    "address_councildis": "A",
    "status": "Assigned to Contractor",
    "contractor": "Richards Disposal",
    "rowid": "948934",
    "final_x": "3662757.28013",
    "final_y": "528177.268416",
    "longitude": "-90.1273644637923",
    "latitude": "29.946860013110612",
    "geocoded_column": {
      "latitude": "29.946860013110612",
      "longitude": "-90.1273644637923"
    }
  },
  {
    "service_request": "2022-948933",
    "request_type": "Trash/Recycling",
    "request_reason": "Missed Trash Pick-Up",
    "date_created": "2022-12-02T16:28:24.000",
    "date_modified": "2022-12-02T16:28:25.000",
    "request_status": "Pending",
    "responsible_agency": "Department of Sanitation",
    "final_address": "5903 Perrier St",
    "address_councildis": "A",
    "status": "Assigned to Contractor",
    "contractor": "Richards Disposal",
    "rowid": "948933",
    "final_x": "3665482.85453",
    "final_y": "520449.337208",
    "longitude": "-90.11901737154504",
    "latitude": "29.92553150681425",
    "geocoded_column": {
      "latitude": "29.92553150681425",
      "longitude": "-90.11901737154504"
    }
  },
  {
    "service_request": "2022-948932",
    "request_type": "Abandoned Vehicles",
    "request_reason": "Abandoned/Junk Vehicles",
    "date_created": "2022-12-02T16:23:22.000",
    "date_modified": "2022-12-02T16:23:22.000",
    "request_status": "Pending",
    "responsible_agency": "Department of Public Works",
    "final_address": "833 Henry Clay Ave",
    "address_councildis": "A",
    "status": "Pending",
    "rowid": "948932",
    "final_x": "3663948.2176",
    "final_y": "519822.926264",
    "longitude": "-90.12388264135492",
    "latitude": "29.923853703088422",
    "geocoded_column": {
      "latitude": "29.923853703088422",
      "longitude": "-90.12388264135492"
    }
  },
  {
    "service_request": "2022-948931",
    "request_type": "Trash/Recycling",
    "request_reason": "Repair Recycling Cart",
    "date_created": "2022-12-02T16:20:49.000",
    "date_modified": "2022-12-02T16:20:49.000",
    "request_status": "Pending",
    "responsible_agency": "Department of Sanitation",
    "final_address": "2 Stilt St",
    "address_councildis": "D",
    "status": "Pending",
    "rowid": "948931",
    "final_x": "3672453.96385",
    "final_y": "557367.958043",
    "longitude": "-90.09575296938816",
    "latitude": "30.02684018231564",
    "geocoded_column": {
      "latitude": "30.02684018231564",
      "longitude": "-90.09575296938816"
    }
  },
  {
    "service_request": "2022-948930",
    "request_type": "Abandoned Vehicles",
    "request_reason": "Abandoned/Junk Vehicles",
    "date_created": "2022-12-02T16:20:44.000",
    "date_modified": "2022-12-02T16:20:44.000",
    "request_status": "Pending",
    "responsible_agency": "Department of Public Works",
    "final_address": "1113 Touro St",
    "address_councildis": "C",
    "status": "Pending",
    "rowid": "948930",
    "final_x": "3684253.55273",
    "final_y": "536345.409863",
    "longitude": "-90.05920617906688",
    "latitude": "29.968680008629356",
    "geocoded_column": {
      "latitude": "29.968680008629356",
      "longitude": "-90.05920617906688"
    }
  },
  {
    "service_request": "2022-948929",
    "request_type": "Trash/Recycling",
    "request_reason": "Request a Large Item Pick Up",
    "date_created": "2022-12-02T16:05:07.000",
    "date_modified": "2022-12-02T16:05:07.000",
    "request_status": "Pending",
    "responsible_agency": "Department of Sanitation",
    "final_address": "3028 Fern St",
    "address_councildis": "B",
    "status": "Assigned to Contractor",
    "contractor": "Richards Disposal",
    "rowid": "948929",
    "final_x": "3666987.79085",
    "final_y": "532853.675524",
    "longitude": "-90.11385000072318",
    "latitude": "29.959595499568675",
    "geocoded_column": {
      "latitude": "29.959595499568675",
      "longitude": "-90.11385000072318"
    }
  },
  {
    "service_request": "2022-948928",
    "request_type": "Traffic Signals/Signs/Striping/Streetlights",
    "request_reason": "Street Light Outage/Malfunction",
    "date_created": "2022-12-02T16:01:15.000",
    "date_modified": "2022-12-02T16:01:15.000",
    "request_status": "Pending",
    "responsible_agency": "Department of Public Works",
    "final_address": "2325 Broadway St",
    "address_councildis": "A",
    "status": "Pending",
    "contractor": "Legacy Professional Services",
    "rowid": "948928",
    "final_x": "3666589.05793",
    "final_y": "530007.921345",
    "longitude": "-90.11520464384388",
    "latitude": "29.95178226833151",
    "geocoded_column": {
      "latitude": "29.95178226833151",
      "longitude": "-90.11520464384388"
    }
  },
  {
    "service_request": "2022-948927",
    "request_type": "Trash/Recycling",
    "request_reason": "Replace Recycling Cart",
    "date_created": "2022-12-02T16:00:45.000",
    "date_modified": "2022-12-02T16:00:45.000",
    "request_status": "Pending",
    "responsible_agency": "Department of Sanitation",
    "final_address": "1345 Rapides Dr, New Orleans, Louisiana, 70122",
    "address_councildis": "D",
    "status": "Pending",
    "rowid": "948927",
    "final_x": "3677375.17858",
    "final_y": "552768.073878",
    "longitude": "-90.0803613607864",
    "latitude": "30.01404509986987",
    "geocoded_column": {
      "latitude": "30.01404509986987",
      "longitude": "-90.0803613607864"
    }
  },
  {
    "service_request": "2022-948926",
    "request_type": "Abandoned Vehicles",
    "request_reason": "Abandoned/Junk Vehicles",
    "date_created": "2022-12-02T15:55:57.000",
    "date_modified": "2022-12-02T15:55:57.000",
    "request_status": "Pending",
    "responsible_agency": "Department of Public Works",
    "final_address": "1426 Esplanade Ave",
    "address_councildis": "C",
    "status": "Pending",
    "rowid": "948926",
    "final_x": "3681582.55221",
    "final_y": "536227.812295",
    "longitude": "-90.06764544744539",
    "latitude": "29.968438051428883",
    "geocoded_column": {
      "latitude": "29.968438051428883",
      "longitude": "-90.06764544744539"
    }
  },
  {
    "service_request": "2022-948925",
    "request_type": "Trash/Recycling",
    "request_reason": "Replace Trash Cart",
    "date_created": "2022-12-02T15:53:52.000",
    "date_modified": "2022-12-02T15:53:54.000",
    "request_status": "Pending",
    "responsible_agency": "Department of Sanitation",
    "final_address": "2001 St Claude Ave",
    "address_councildis": "C",
    "status": "Assigned to Contractor",
    "contractor": "IV Waste",
    "rowid": "948925",
    "final_x": "3684256.41276",
    "final_y": "536277.165191",
    "longitude": "-90.05919954345346",
    "latitude": "29.968492271981315",
    "geocoded_column": {
      "latitude": "29.968492271981315",
      "longitude": "-90.05919954345346"
    }
  },
  {
    "service_request": "2022-948924",
    "request_type": "Trash/Recycling",
    "request_reason": "MIssed Recycling Pick-Up",
    "date_created": "2022-12-02T15:50:48.000",
    "date_modified": "2022-12-02T15:50:48.000",
    "request_status": "Pending",
    "responsible_agency": "Department of Sanitation",
    "final_address": "18 Richmond Pl",
    "address_councildis": "A",
    "status": "Assigned to Contractor",
    "contractor": "Richards Disposal",
    "rowid": "948924",
    "final_x": "3666565.54554",
    "final_y": "524105.339644",
    "longitude": "-90.11547697427197",
    "latitude": "29.935552758662038",
    "geocoded_column": {
      "latitude": "29.935552758662038",
      "longitude": "-90.11547697427197"
    }
  },
  {
    "service_request": "2022-948923",
    "request_type": "Trash/Recycling",
    "request_reason": "Missed Trash Pick-Up",
    "date_created": "2022-12-02T15:49:57.000",
    "date_modified": "2022-12-02T15:49:58.000",
    "request_status": "Pending",
    "responsible_agency": "Department of Sanitation",
    "final_address": "18 Richmond Pl",
    "address_councildis": "A",
    "status": "Assigned to Contractor",
    "contractor": "Richards Disposal",
    "rowid": "948923",
    "final_x": "3666565.54554",
    "final_y": "524105.339644",
    "longitude": "-90.11547697427197",
    "latitude": "29.935552758662038",
    "geocoded_column": {
      "latitude": "29.935552758662038",
      "longitude": "-90.11547697427197"
    }
  },
  {
    "service_request": "2022-948921",
    "request_type": "Property Maintenance",
    "request_reason": "Property Maintenance",
    "date_created": "2022-12-02T15:27:58.000",
    "date_modified": "2022-12-02T15:27:58.000",
    "request_status": "Pending",
    "responsible_agency": "Department of Code Enforcement",
    "final_address": "1500 France St",
    "address_councildis": "D",
    "status": "Pending",
    "rowid": "948921",
    "final_x": "3692732.70953",
    "final_y": "536688.923463",
    "longitude": "-90.03241631226548",
    "latitude": "29.969362574782313",
    "geocoded_column": {
      "latitude": "29.969362574782313",
      "longitude": "-90.03241631226548"
    }
  },
  {
    "service_request": "2022-948920",
    "request_type": "Trash/Recycling",
    "request_reason": "Order Recycling Cart",
    "date_created": "2022-12-02T15:24:09.000",
    "date_modified": "2022-12-02T15:24:10.000",
    "request_status": "Pending",
    "responsible_agency": "Department of Sanitation",
    "final_address": "2413 Spain St",
    "address_councildis": "D",
    "status": "Pending",
    "rowid": "948920",
    "final_x": "3685778.71215",
    "final_y": "541312.078156",
    "longitude": "-90.05421455411593",
    "latitude": "29.98228988563046",
    "geocoded_column": {
      "latitude": "29.98228988563046",
      "longitude": "-90.05421455411593"
    }
  },
  {
    "service_request": "2022-948919",
    "request_type": "Trash/Recycling",
    "request_reason": "Order Recycling Cart",
    "date_created": "2022-12-02T15:23:44.000",
    "date_modified": "2022-12-02T15:23:44.000",
    "request_status": "Pending",
    "responsible_agency": "Department of Sanitation",
    "final_address": "8234 Belfast St",
    "address_councildis": "A",
    "status": "Pending",
    "rowid": "948919",
    "final_x": "3665094.86253",
    "final_y": "532766.752388",
    "longitude": "-90.11983036427749",
    "latitude": "29.959411747995222",
    "geocoded_column": {
      "latitude": "29.959411747995222",
      "longitude": "-90.11983036427749"
    }
  },
  {
    "service_request": "2022-948918",
    "request_type": "Trash/Recycling",
    "request_reason": "Order Trash Cart",
    "date_created": "2022-12-02T15:18:42.000",
    "date_modified": "2022-12-02T15:18:43.000",
    "request_status": "Pending",
    "responsible_agency": "Department of Sanitation",
    "final_address": "4707 Iberville St",
    "address_councildis": "A",
    "status": "Assigned to Contractor",
    "contractor": "Richards Disposal",
    "rowid": "948918",
    "final_x": "3669378.46394",
    "final_y": "540304.110155",
    "longitude": "-90.10604879368607",
    "latitude": "29.98001152461598",
    "geocoded_column": {
      "latitude": "29.98001152461598",
      "longitude": "-90.10604879368607"
    }
  },
  {
    "service_request": "2022-948917",
    "request_type": "Property Maintenance",
    "request_reason": "Property Maintenance",
    "date_created": "2022-12-02T15:15:55.000",
    "date_modified": "2022-12-02T15:15:55.000",
    "request_status": "Pending",
    "responsible_agency": "Department of Code Enforcement",
    "final_address": "7904 St Charles Ave",
    "address_councildis": "A",
    "status": "Pending",
    "rowid": "948917",
    "final_x": "3661026.29478",
    "final_y": "526321.54867",
    "longitude": "-90.13289123267742",
    "latitude": "29.941807354779325",
    "geocoded_column": {
      "latitude": "29.941807354779325",
      "longitude": "-90.13289123267742"
    }
  },
  {
    "service_request": "2022-948916",
    "request_type": "Trash/Recycling",
    "request_reason": "Missed Trash Pick-Up",
    "date_created": "2022-12-02T15:14:17.000",
    "date_modified": "2022-12-02T15:14:18.000",
    "request_status": "Pending",
    "responsible_agency": "Department of Sanitation",
    "final_address": "602 Arabella St",
    "address_councildis": "A",
    "status": "Assigned to Contractor",
    "contractor": "Richards Disposal",
    "rowid": "948916",
    "final_x": "3665655.17338",
    "final_y": "518325.633718",
    "longitude": "-90.11854448458213",
    "latitude": "29.919686966450165",
    "geocoded_column": {
      "latitude": "29.919686966450165",
      "longitude": "-90.11854448458213"
    }
  },
  {
    "service_request": "2022-948915",
    "request_type": "Trash/Recycling",
    "request_reason": "Missed Trash Pick-Up",
    "date_created": "2022-12-02T15:14:06.000",
    "date_modified": "2022-12-02T15:16:28.000",
    "request_status": "Pending",
    "responsible_agency": "Department of Sanitation",
    "final_address": "4512 N Robertson St, New Orleans, Louisiana, 70117",
    "address_councildis": "D",
    "status": "Assigned to Contractor",
    "contractor": "IV Waste",
    "rowid": "948915",
    "final_x": "3693811.04937",
    "final_y": "536349.077575",
    "longitude": "-90.029023062384",
    "latitude": "29.968394411602734",
    "geocoded_column": {
      "latitude": "29.968394411602734",
      "longitude": "-90.029023062384"
    }
  },
  {
    "service_request": "2022-948914",
    "request_type": "Trash/Recycling",
    "request_reason": "Missed Trash Pick-Up",
    "date_created": "2022-12-02T15:12:07.000",
    "date_modified": "2022-12-02T15:12:08.000",
    "request_status": "Pending",
    "responsible_agency": "Department of Sanitation",
    "final_address": "6120 Coliseum St",
    "address_councildis": "A",
    "status": "Assigned to Contractor",
    "contractor": "Richards Disposal",
    "rowid": "948914",
    "final_x": "3664298.97773",
    "final_y": "520357.785976",
    "longitude": "-90.12275757587184",
    "latitude": "29.92531421472985",
    "geocoded_column": {
      "latitude": "29.92531421472985",
      "longitude": "-90.12275757587184"
    }
  },
  {
    "service_request": "2022-948913",
    "request_type": "Trash/Recycling",
    "request_reason": "Order Recycling Cart",
    "date_created": "2022-12-02T15:04:39.000",
    "date_modified": "2022-12-02T15:04:39.000",
    "request_status": "Pending",
    "responsible_agency": "Department of Sanitation",
    "final_address": "5869 Louis Xiv St",
    "address_councildis": "A",
    "status": "Pending",
    "rowid": "948913",
    "final_x": "3668071.41159",
    "final_y": "546542.887569",
    "longitude": "-90.10996664341728",
    "latitude": "29.997204463071373",
    "geocoded_column": {
      "latitude": "29.997204463071373",
      "longitude": "-90.10996664341728"
    }
  },
  {
    "service_request": "2022-948912",
    "request_type": "Property Maintenance",
    "request_reason": "Property Maintenance",
    "date_created": "2022-12-02T14:55:36.000",
    "date_modified": "2022-12-02T14:55:36.000",
    "request_status": "Pending",
    "responsible_agency": "Department of Code Enforcement",
    "final_address": "1438 N Prieur St",
    "address_councildis": "D",
    "status": "Pending",
    "rowid": "948912",
    "final_x": "3680669.24751",
    "final_y": "537488.344968",
    "longitude": "-90.07048583433115",
    "latitude": "29.971931790286245",
    "geocoded_column": {
      "latitude": "29.971931790286245",
      "longitude": "-90.07048583433115"
    }
  },
  {
    "service_request": "2022-948911",
    "request_type": "Trash/Recycling",
    "request_reason": "Missed Trash Pick-Up",
    "date_created": "2022-12-02T14:51:37.000",
    "date_modified": "2022-12-02T14:51:38.000",
    "request_status": "Pending",
    "responsible_agency": "Department of Sanitation",
    "final_address": "2725 Pine St",
    "address_councildis": "B",
    "status": "Assigned to Contractor",
    "contractor": "Richards Disposal",
    "rowid": "948911",
    "final_x": "3667073.34305",
    "final_y": "531373.706371",
    "longitude": "-90.11362959225532",
    "latitude": "29.955523565992237",
    "geocoded_column": {
      "latitude": "29.955523565992237",
      "longitude": "-90.11362959225532"
    }
  },
  {
    "service_request": "2022-948910",
    "request_type": "Trash/Recycling",
    "request_reason": "Replace Trash Cart",
    "date_created": "2022-12-02T14:46:41.000",
    "date_modified": "2022-12-02T14:46:42.000",
    "request_status": "Pending",
    "responsible_agency": "Department of Sanitation",
    "final_address": "2100 St Roch Ave",
    "address_councildis": "D",
    "status": "Assigned to Contractor",
    "contractor": "IV Waste",
    "rowid": "948910",
    "final_x": "3686109.51823",
    "final_y": "540140.340747",
    "longitude": "-90.05321105559152",
    "latitude": "29.9790578630754",
    "geocoded_column": {
      "latitude": "29.9790578630754",
      "longitude": "-90.05321105559152"
    }
  },
  {
    "service_request": "2022-948909",
    "request_type": "Trash/Recycling",
    "request_reason": "Request a Large Item Pick Up",
    "date_created": "2022-12-02T14:43:42.000",
    "date_modified": "2022-12-02T14:43:43.000",
    "request_status": "Pending",
    "responsible_agency": "Department of Sanitation",
    "final_address": "3512 Palmyra St",
    "address_councildis": "B",
    "status": "Assigned to Contractor",
    "contractor": "Richards Disposal",
    "rowid": "948909",
    "final_x": "3672266.77076",
    "final_y": "536400.162375",
    "longitude": "-90.09705933513932",
    "latitude": "29.969191611745764",
    "geocoded_column": {
      "latitude": "29.969191611745764",
      "longitude": "-90.09705933513932"
    }
  },
  {
    "service_request": "2022-948908",
    "request_type": "Trash/Recycling",
    "request_reason": "Replace Trash Cart",
    "date_created": "2022-12-02T14:42:50.000",
    "date_modified": "2022-12-02T14:42:51.000",
    "request_status": "Pending",
    "responsible_agency": "Department of Sanitation",
    "final_address": "3512 Palmyra St",
    "address_councildis": "B",
    "status": "Assigned to Contractor",
    "contractor": "Richards Disposal",
    "rowid": "948908",
    "final_x": "3672266.77076",
    "final_y": "536400.162375",
    "longitude": "-90.09705933513932",
    "latitude": "29.969191611745764",
    "geocoded_column": {
      "latitude": "29.969191611745764",
      "longitude": "-90.09705933513932"
    }
  },
  {
    "service_request": "2022-948907",
    "request_type": "Trash/Recycling",
    "request_reason": "MIssed Recycling Pick-Up",
    "date_created": "2022-12-02T14:35:15.000",
    "date_modified": "2022-12-02T14:35:16.000",
    "request_status": "Pending",
    "responsible_agency": "Department of Sanitation",
    "final_address": "7224 Walmsley Ave",
    "address_councildis": "B",
    "status": "Assigned to Contractor",
    "contractor": "Richards Disposal",
    "rowid": "948907",
    "final_x": "3667133.42746",
    "final_y": "531347.688962",
    "longitude": "-90.11344074122005",
    "latitude": "29.955450267875644",
    "geocoded_column": {
      "latitude": "29.955450267875644",
      "longitude": "-90.11344074122005"
    }
  },
  {
    "service_request": "2022-948906",
    "request_type": "Trash/Recycling",
    "request_reason": "Missed Trash Pick-Up",
    "date_created": "2022-12-02T14:34:23.000",
    "date_modified": "2022-12-02T14:34:24.000",
    "request_status": "Pending",
    "responsible_agency": "Department of Sanitation",
    "final_address": "7224 Walmsley Ave",
    "address_councildis": "B",
    "status": "Assigned to Contractor",
    "contractor": "Richards Disposal",
    "rowid": "948906",
    "final_x": "3667133.42746",
    "final_y": "531347.688962",
    "longitude": "-90.11344074122005",
    "latitude": "29.955450267875644",
    "geocoded_column": {
      "latitude": "29.955450267875644",
      "longitude": "-90.11344074122005"
    }
  },
  {
    "service_request": "2022-948905",
    "request_type": "Trash/Recycling",
    "request_reason": "Missed Trash Pick-Up",
    "date_created": "2022-12-02T14:34:23.000",
    "date_modified": "2022-12-02T14:34:23.000",
    "request_status": "Pending",
    "responsible_agency": "Department of Sanitation",
    "final_address": "2105 Rousseau St, New Orleans, Louisiana, 70130",
    "address_councildis": "B",
    "status": "Assigned to Contractor",
    "contractor": "Richards Disposal",
    "rowid": "948905",
    "final_x": "3680460.66869",
    "final_y": "520517.322296",
    "longitude": "-90.07173467782835",
    "latitude": "29.925273493778985",
    "geocoded_column": {
      "latitude": "29.925273493778985",
      "longitude": "-90.07173467782835"
    }
  },
  {
    "service_request": "2022-948904",
    "request_type": "Trash/Recycling",
    "request_reason": "Request a Large Item Pick Up",
    "date_created": "2022-12-02T14:34:14.000",
    "date_modified": "2022-12-02T14:34:15.000",
    "request_status": "Pending",
    "responsible_agency": "Department of Sanitation",
    "final_address": "5646 Hawthorne Pl",
    "address_councildis": "A",
    "status": "Assigned to Contractor",
    "contractor": "IV Waste",
    "rowid": "948904",
    "final_x": "3667808.55405",
    "final_y": "545015.413839",
    "longitude": "-90.11084848265003",
    "latitude": "29.993012149294913",
    "geocoded_column": {
      "latitude": "29.993012149294913",
      "longitude": "-90.11084848265003"
    }
  },
  {
    "service_request": "2022-948903",
    "request_type": "Trash/Recycling",
    "request_reason": "MIssed Recycling Pick-Up",
    "date_created": "2022-12-02T14:33:39.000",
    "date_modified": "2022-12-02T14:33:40.000",
    "request_status": "Pending",
    "responsible_agency": "Department of Sanitation",
    "final_address": "1388 Camp St",
    "address_councildis": "B",
    "status": "Assigned to Contractor",
    "contractor": "Richards Disposal",
    "rowid": "948903",
    "final_x": "3680028.4708",
    "final_y": "524661.761788",
    "longitude": "-90.07295508536109",
    "latitude": "29.936682417573795",
    "geocoded_column": {
      "latitude": "29.936682417573795",
      "longitude": "-90.07295508536109"
    }
  },
  {
    "service_request": "2022-948902",
    "request_type": "Trash/Recycling",
    "request_reason": "Request a Large Item Pick Up",
    "date_created": "2022-12-02T14:32:39.000",
    "date_modified": "2022-12-02T14:32:40.000",
    "request_status": "Pending",
    "responsible_agency": "Department of Sanitation",
    "final_address": "2729 Short St",
    "address_councildis": "A",
    "status": "Assigned to Contractor",
    "contractor": "Richards Disposal",
    "rowid": "948902",
    "final_x": "3666116.99277",
    "final_y": "532196.167811",
    "longitude": "-90.11662183795845",
    "latitude": "29.957813022992926",
    "geocoded_column": {
      "latitude": "29.957813022992926",
      "longitude": "-90.11662183795845"
    }
  },
  {
    "service_request": "2022-948901",
    "request_type": "Trash/Recycling",
    "request_reason": "Request a Large Item Pick Up",
    "date_created": "2022-12-02T14:31:27.000",
    "date_modified": "2022-12-02T14:31:27.000",
    "request_status": "Pending",
    "responsible_agency": "Department of Sanitation",
    "final_address": "6930 Edgefield Dr",
    "address_councildis": "E",
    "status": "Assigned to Contractor",
    "contractor": "Waste Pro",
    "rowid": "948901",
    "final_x": "3719116.53132",
    "final_y": "568572.996773",
    "longitude": "-89.94787770150141",
    "latitude": "30.056181144109942",
    "geocoded_column": {
      "latitude": "30.056181144109942",
      "longitude": "-89.94787770150141"
    }
  },
  {
    "service_request": "2022-948900",
    "request_type": "Trash/Recycling",
    "request_reason": "Illegal Dumping",
    "date_created": "2022-12-02T14:26:11.000",
    "date_modified": "2022-12-02T14:26:11.000",
    "request_status": "Pending",
    "responsible_agency": "Department of Code Enforcement",
    "final_address": "PATTERSON ST & THAYER ST",
    "address_councildis": "C",
    "status": "Pending",
    "rowid": "948900",
    "final_x": "3689584.8",
    "final_y": "531221.38",
    "longitude": "-90.0425521375242",
    "latitude": "29.954426630818013",
    "geocoded_column": {
      "latitude": "29.954426630818013",
      "longitude": "-90.0425521375242"
    }
  },
  {
    "service_request": "2022-948899",
    "request_type": "Trash/Recycling",
    "request_reason": "Illegal Dumping",
    "date_created": "2022-12-02T14:23:36.000",
    "date_modified": "2022-12-02T14:23:37.000",
    "request_status": "Pending",
    "responsible_agency": "Department of Code Enforcement",
    "final_address": "LE BOEUF ST & PELICAN AVE",
    "address_councildis": "C",
    "status": "Pending",
    "rowid": "948899",
    "final_x": "3689881.4",
    "final_y": "530681.58",
    "longitude": "-90.04163480904984",
    "latitude": "29.952933176866093",
    "geocoded_column": {
      "latitude": "29.952933176866093",
      "longitude": "-90.04163480904984"
    }
  },
  {
    "service_request": "2022-948898",
    "request_type": "Roads/Drainage",
    "request_reason": "Alley Way",
    "date_created": "2022-12-02T14:23:00.000",
    "date_modified": "2022-12-02T14:23:00.000",
    "request_status": "Pending",
    "responsible_agency": "Department of Public Works",
    "final_address": "994 Bragg St",
    "address_councildis": "A",
    "status": "Pending",
    "rowid": "948898",
    "final_x": "3671035.48494",
    "final_y": "549791.543764",
    "longitude": "-90.10049281517682",
    "latitude": "30.006049784942746",
    "geocoded_column": {
      "latitude": "30.006049784942746",
      "longitude": "-90.10049281517682"
    }
  },
  {
    "service_request": "2022-948897",
    "request_type": "Trash/Recycling",
    "request_reason": "Illegal Dumping",
    "date_created": "2022-12-02T14:22:50.000",
    "date_modified": "2022-12-02T14:22:50.000",
    "request_status": "Pending",
    "responsible_agency": "Department of Sanitation",
    "final_address": "N IDLEWOOD CT & WRIGHT RD",
    "address_councildis": "E",
    "status": "Pending",
    "rowid": "948897",
    "final_x": "3715797.2",
    "final_y": "560025.18",
    "longitude": "-89.95869354869333",
    "latitude": "30.032788059693868",
    "geocoded_column": {
      "latitude": "30.032788059693868",
      "longitude": "-89.95869354869333"
    }
  },
  {
    "service_request": "2022-948896",
    "request_type": "Roads/Drainage",
    "request_reason": "Catch Basin - Clogged",
    "date_created": "2022-12-02T14:21:43.000",
    "date_modified": "2022-12-02T14:21:43.000",
    "request_status": "Pending",
    "responsible_agency": "Department of Public Works",
    "final_address": "1524 Leonidas St",
    "address_councildis": "A",
    "status": "Pending",
    "rowid": "948896",
    "final_x": "3661451.01754",
    "final_y": "530519.380674",
    "longitude": "-90.13141126685953",
    "latitude": "29.953337808838118",
    "geocoded_column": {
      "latitude": "29.953337808838118",
      "longitude": "-90.13141126685953"
    }
  },
  {
    "service_request": "2022-948895",
    "request_type": "Trash/Recycling",
    "request_reason": "Illegal Dumping",
    "date_created": "2022-12-02T14:19:55.000",
    "date_modified": "2022-12-02T14:19:56.000",
    "request_status": "Pending",
    "responsible_agency": "Department of Sanitation",
    "final_address": "1900 BLK Mirabeau Ave",
    "address_councildis": "D",
    "status": "Pending",
    "rowid": "948895",
    "final_x": "3682155.66616",
    "final_y": "550601.766366",
    "longitude": "-90.06533319570651",
    "latitude": "30.00794393660879",
    "geocoded_column": {
      "latitude": "30.00794393660879",
      "longitude": "-90.06533319570651"
    }
  },
  {
    "service_request": "2022-948894",
    "request_type": "Trash/Recycling",
    "request_reason": "Request a Large Item Pick Up",
    "date_created": "2022-12-02T14:15:07.000",
    "date_modified": "2022-12-02T14:15:08.000",
    "request_status": "Pending",
    "responsible_agency": "Department of Sanitation",
    "final_address": "219 Lavergne St",
    "address_councildis": "C",
    "status": "Assigned to Contractor",
    "contractor": "Richards Disposal",
    "rowid": "948894",
    "final_x": "3686647.75356",
    "final_y": "530851.490434",
    "longitude": "-90.05183921452476",
    "latitude": "29.953500208742785",
    "geocoded_column": {
      "latitude": "29.953500208742785",
      "longitude": "-90.05183921452476"
    }
  },
  {
    "service_request": "2022-948893",
    "request_type": "Abandoned Vehicles",
    "request_reason": "Abandoned/Junk Vehicles",
    "date_created": "2022-12-02T14:11:34.000",
    "date_modified": "2022-12-02T14:11:34.000",
    "request_status": "Pending",
    "responsible_agency": "Department of Public Works",
    "final_address": "1900 BLK Mirabeau Ave",
    "address_councildis": "D",
    "status": "Pending",
    "rowid": "948893",
    "final_x": "3682155.66616",
    "final_y": "550601.766366",
    "longitude": "-90.06533319570651",
    "latitude": "30.00794393660879",
    "geocoded_column": {
      "latitude": "30.00794393660879",
      "longitude": "-90.06533319570651"
    }
  },
  {
    "service_request": "2022-948892",
    "request_type": "Trash/Recycling",
    "request_reason": "Order Recycling Cart",
    "date_created": "2022-12-02T14:11:01.000",
    "date_modified": "2022-12-02T14:11:02.000",
    "request_status": "Pending",
    "responsible_agency": "Department of Sanitation",
    "final_address": "22 Heron St",
    "address_councildis": "D",
    "status": "Pending",
    "rowid": "948892",
    "final_x": "3675364.17787",
    "final_y": "555573.501721",
    "longitude": "-90.08661867134265",
    "latitude": "30.021819329563716",
    "geocoded_column": {
      "latitude": "30.021819329563716",
      "longitude": "-90.08661867134265"
    }
  },
  {
    "service_request": "2022-948891",
    "request_type": "Trash/Recycling",
    "request_reason": "Order Recycling Cart",
    "date_created": "2022-12-02T14:07:42.000",
    "date_modified": "2022-12-02T14:07:42.000",
    "request_status": "Pending",
    "responsible_agency": "Department of Sanitation",
    "final_address": "5405 West End Blvd",
    "address_councildis": "A",
    "status": "Pending",
    "rowid": "948891",
    "final_x": "3666304.29639",
    "final_y": "543491.74683",
    "longitude": "-90.11565133898686",
    "latitude": "29.98886662690304",
    "geocoded_column": {
      "latitude": "29.98886662690304",
      "longitude": "-90.11565133898686"
    }
  },
  {
    "service_request": "2022-948890",
    "request_type": "Trash/Recycling",
    "request_reason": "Missed Trash Pick-Up",
    "date_created": "2022-12-02T14:02:11.000",
    "date_modified": "2022-12-02T14:02:12.000",
    "request_status": "Pending",
    "responsible_agency": "Department of Sanitation",
    "final_address": "517 Second St",
    "address_councildis": "B",
    "status": "Assigned to Contractor",
    "contractor": "Richards Disposal",
    "rowid": "948890",
    "final_x": "3679011.86581",
    "final_y": "519604.147",
    "longitude": "-90.07633971322994",
    "latitude": "29.92280634124858",
    "geocoded_column": {
      "latitude": "29.92280634124858",
      "longitude": "-90.07633971322994"
    }
  },
  {
    "service_request": "2022-948889",
    "request_type": "Traffic Signals/Signs/Striping/Streetlights",
    "request_reason": "Street Light Outage/Malfunction",
    "date_created": "2022-12-02T13:59:50.000",
    "date_modified": "2022-12-02T13:59:51.000",
    "case_close_date": "2022-11-29T18:00:00.000",
    "request_status": "Pending",
    "responsible_agency": "Department of Public Works",
    "final_address": "4145 General Meyer Ave",
    "address_councildis": "C",
    "status": "Pending",
    "contractor": "Legacy Professional Services",
    "rowid": "948889",
    "final_x": "3699432.28631",
    "final_y": "524422.521148",
    "longitude": "-90.01170546455018",
    "latitude": "29.935423454084205",
    "geocoded_column": {
      "latitude": "29.935423454084205",
      "longitude": "-90.01170546455018"
    }
  },
  {
    "service_request": "2022-948888",
    "request_type": "Trash/Recycling",
    "request_reason": "Replace Recycling Cart",
    "date_created": "2022-12-02T13:56:52.000",
    "date_modified": "2022-12-02T13:56:52.000",
    "request_status": "Pending",
    "responsible_agency": "Department of Sanitation",
    "final_address": "5557 Woodlawn Pl",
    "address_councildis": "A",
    "status": "Pending",
    "rowid": "948888",
    "final_x": "3667542.86362",
    "final_y": "544498.077839",
    "longitude": "-90.11170517842685",
    "latitude": "29.991597443914134",
    "geocoded_column": {
      "latitude": "29.991597443914134",
      "longitude": "-90.11170517842685"
    }
  },
  {
    "service_request": "2022-948887",
    "request_type": "Traffic Signals/Signs/Striping/Streetlights",
    "request_reason": "Street Light Outage/Malfunction",
    "date_created": "2022-12-02T13:56:35.000",
    "date_modified": "2022-12-02T13:56:35.000",
    "request_status": "Pending",
    "responsible_agency": "Department of Public Works",
    "final_address": "2458 Benefit St",
    "address_councildis": "D",
    "status": "Pending",
    "contractor": "Legacy Professional Services",
    "rowid": "948887",
    "final_x": "3686407.86998",
    "final_y": "544526.387855",
    "longitude": "-90.0521138527654",
    "latitude": "29.991108767501682",
    "geocoded_column": {
      "latitude": "29.991108767501682",
      "longitude": "-90.0521138527654"
    }
  },
  {
    "service_request": "2022-948886",
    "request_type": "Trash/Recycling",
    "request_reason": "Request a Large Item Pick Up",
    "date_created": "2022-12-02T13:53:43.000",
    "date_modified": "2022-12-02T13:54:15.000",
    "request_status": "Pending",
    "responsible_agency": "Department of Sanitation",
    "final_address": "134 26Th St",
    "address_councildis": "A",
    "status": "Assigned to Contractor",
    "contractor": "IV Waste",
    "rowid": "948886",
    "final_x": "3665877.23821",
    "final_y": "549847.192596",
    "longitude": "-90.11678715432029",
    "latitude": "30.006354393813954",
    "geocoded_column": {
      "latitude": "30.006354393813954",
      "longitude": "-90.11678715432029"
    }
  },
  {
    "service_request": "2022-948885",
    "request_type": "Abandoned Vehicles",
    "request_reason": "Abandoned/Junk Vehicles",
    "date_created": "2022-12-02T13:53:03.000",
    "date_modified": "2022-12-02T13:53:03.000",
    "request_status": "Pending",
    "responsible_agency": "Department of Public Works",
    "final_address": "8315 Nelson St",
    "address_councildis": "A",
    "status": "Pending",
    "rowid": "948885",
    "final_x": "3664507.14458",
    "final_y": "532454.888196",
    "longitude": "-90.12169666029291",
    "latitude": "29.95857132475643",
    "geocoded_column": {
      "latitude": "29.95857132475643",
      "longitude": "-90.12169666029291"
    }
  },
  {
    "service_request": "2022-948884",
    "request_type": "Abandoned Vehicles",
    "request_reason": "Abandoned/Junk Vehicles",
    "date_created": "2022-12-02T13:49:34.000",
    "date_modified": "2022-12-02T13:49:34.000",
    "request_status": "Pending",
    "responsible_agency": "Department of Public Works",
    "final_address": "8312 Nelson St",
    "address_councildis": "A",
    "status": "Pending",
    "rowid": "948884",
    "final_x": "3664468.10957",
    "final_y": "532389.967107",
    "longitude": "-90.1218220906694",
    "latitude": "29.958393947851352",
    "geocoded_column": {
      "latitude": "29.958393947851352",
      "longitude": "-90.1218220906694"
    }
  },
  {
    "service_request": "2022-948883",
    "request_type": "Trash/Recycling",
    "request_reason": "Missed Trash Pick-Up",
    "date_created": "2022-12-02T13:49:22.000",
    "date_modified": "2022-12-02T13:49:23.000",
    "request_status": "Pending",
    "responsible_agency": "Department of Sanitation",
    "final_address": "620 Soraparu St",
    "address_councildis": "B",
    "status": "Assigned to Contractor",
    "contractor": "Richards Disposal",
    "rowid": "948883",
    "final_x": "3679239.42933",
    "final_y": "520277.98508",
    "longitude": "-90.0755980373529",
    "latitude": "29.924652310462665",
    "geocoded_column": {
      "latitude": "29.924652310462665",
      "longitude": "-90.0755980373529"
    }
  },
  {
    "service_request": "2022-948882",
    "request_type": "Trash/Recycling",
    "request_reason": "Missed Trash Pick-Up",
    "date_created": "2022-12-02T13:49:21.000",
    "date_modified": "2022-12-02T15:14:26.000",
    "case_close_date": "2022-12-02T09:14:26.000",
    "request_status": "Closed",
    "responsible_agency": "Department of Sanitation",
    "final_address": "235 New Orleans-Hammond Hwy",
    "address_councildis": "A",
    "status": "Assigned to Contractor",
    "contractor": "IV Waste",
    "contractor_action": "Completed",
    "rowid": "948882",
    "final_x": "3665975.53319",
    "final_y": "554730.181144",
    "longitude": "-90.11631276559784",
    "latitude": "30.019778034383453",
    "geocoded_column": {
      "latitude": "30.019778034383453",
      "longitude": "-90.11631276559784"
    }
  },
  {
    "service_request": "2022-948881",
    "request_type": "Trash/Recycling",
    "request_reason": "Order Trash Cart",
    "date_created": "2022-12-02T13:45:11.000",
    "date_modified": "2022-12-02T13:45:11.000",
    "request_status": "Pending",
    "responsible_agency": "Department of Sanitation",
    "final_address": "1326 Lamanche St",
    "address_councildis": "E",
    "status": "Assigned to Contractor",
    "contractor": "Waste Pro",
    "rowid": "948881",
    "final_x": "3698568.89149",
    "final_y": "534633.89671",
    "longitude": "-90.01406002288743",
    "latitude": "29.963528502856104",
    "geocoded_column": {
      "latitude": "29.963528502856104",
      "longitude": "-90.01406002288743"
    }
  },
  {
    "service_request": "2022-948880",
    "request_type": "Trash/Recycling",
    "request_reason": "Order Trash Cart",
    "date_created": "2022-12-02T13:45:01.000",
    "date_modified": "2022-12-02T13:45:01.000",
    "request_status": "Pending",
    "responsible_agency": "Department of Sanitation",
    "final_address": "1326 Lamanche St",
    "address_councildis": "E",
    "status": "Assigned to Contractor",
    "contractor": "Waste Pro",
    "rowid": "948880",
    "final_x": "3698568.89149",
    "final_y": "534633.89671",
    "longitude": "-90.01406002288743",
    "latitude": "29.963528502856104",
    "geocoded_column": {
      "latitude": "29.963528502856104",
      "longitude": "-90.01406002288743"
    }
  },
  {
    "service_request": "2022-948879",
    "request_type": "Trash/Recycling",
    "request_reason": "Order Trash Cart",
    "date_created": "2022-12-02T13:44:41.000",
    "date_modified": "2022-12-02T13:44:42.000",
    "request_status": "Pending",
    "responsible_agency": "Department of Sanitation",
    "final_address": "1326 Lamanche St",
    "address_councildis": "E",
    "status": "Assigned to Contractor",
    "contractor": "Waste Pro",
    "rowid": "948879",
    "final_x": "3698568.89149",
    "final_y": "534633.89671",
    "longitude": "-90.01406002288743",
    "latitude": "29.963528502856104",
    "geocoded_column": {
      "latitude": "29.963528502856104",
      "longitude": "-90.01406002288743"
    }
  },
  {
    "service_request": "2022-948878",
    "request_type": "Trash/Recycling",
    "request_reason": "Order Trash Cart",
    "date_created": "2022-12-02T13:42:33.000",
    "date_modified": "2022-12-02T13:42:34.000",
    "request_status": "Pending",
    "responsible_agency": "Department of Sanitation",
    "final_address": "4801 Viola St",
    "address_councildis": "E",
    "status": "Assigned to Contractor",
    "contractor": "Waste Pro",
    "rowid": "948878",
    "final_x": "3703991.9946",
    "final_y": "555597.442009",
    "longitude": "-89.99616202588005",
    "latitude": "30.020997628198874",
    "geocoded_column": {
      "latitude": "30.020997628198874",
      "longitude": "-89.99616202588005"
    }
  },
  {
    "service_request": "2022-948877",
    "request_type": "Trash/Recycling",
    "request_reason": "Missed Trash Pick-Up",
    "date_created": "2022-12-02T13:42:04.000",
    "date_modified": "2022-12-02T13:42:05.000",
    "request_status": "Pending",
    "responsible_agency": "Department of Sanitation",
    "final_address": "2215 Brainard St",
    "address_councildis": "B",
    "status": "Assigned to Contractor",
    "contractor": "Richards Disposal",
    "rowid": "948877",
    "final_x": "3677053.68072",
    "final_y": "524194.385532",
    "longitude": "-90.08236274592728",
    "latitude": "29.935486924311387",
    "geocoded_column": {
      "latitude": "29.935486924311387",
      "longitude": "-90.08236274592728"
    }
  },
  {
    "service_request": "2022-948876",
    "request_type": "Abandoned Vehicles",
    "request_reason": "Abandoned/Junk Vehicles",
    "date_created": "2022-12-02T13:40:32.000",
    "date_modified": "2022-12-02T13:40:33.000",
    "request_status": "Pending",
    "responsible_agency": "Department of Public Works",
    "final_address": "7831 Mullet St",
    "address_councildis": "E",
    "status": "Pending",
    "rowid": "948876",
    "final_x": "3698980.8986",
    "final_y": "560814.236446",
    "longitude": "-90.01180544867451",
    "latitude": "30.035501650603006",
    "geocoded_column": {
      "latitude": "30.035501650603006",
      "longitude": "-90.01180544867451"
    }
  },
  {
    "service_request": "2022-948875",
    "request_type": "Trash/Recycling",
    "request_reason": "Request a Large Item Pick Up",
    "date_created": "2022-12-02T13:36:29.000",
    "date_modified": "2022-12-02T13:36:30.000",
    "request_status": "Pending",
    "responsible_agency": "Department of Sanitation",
    "final_address": "609 Herald St",
    "address_councildis": "C",
    "status": "Assigned to Contractor",
    "contractor": "Richards Disposal",
    "rowid": "948875",
    "final_x": "3702252.58129",
    "final_y": "520624.634232",
    "longitude": "-90.00294105358168",
    "latitude": "29.924890837641115",
    "geocoded_column": {
      "latitude": "29.924890837641115",
      "longitude": "-90.00294105358168"
    }
  },
  {
    "service_request": "2022-948874",
    "request_type": "Trash/Recycling",
    "request_reason": "MIssed Recycling Pick-Up",
    "date_created": "2022-12-02T13:34:58.000",
    "date_modified": "2022-12-02T13:34:59.000",
    "request_status": "Pending",
    "responsible_agency": "Department of Sanitation",
    "final_address": "1100 BLK Terpsichore St",
    "address_councildis": "B",
    "status": "Assigned to Contractor",
    "contractor": "Richards Disposal",
    "rowid": "948874",
    "final_x": "3680173.14519",
    "final_y": "524578.305618",
    "longitude": "-90.07250124113298",
    "latitude": "29.936448564212586",
    "geocoded_column": {
      "latitude": "29.936448564212586",
      "longitude": "-90.07250124113298"
    }
  },
  {
    "service_request": "2022-948873",
    "request_type": "Trash/Recycling",
    "request_reason": "Request a Large Item Pick Up",
    "date_created": "2022-12-02T13:34:01.000",
    "date_modified": "2022-12-02T13:34:02.000",
    "request_status": "Pending",
    "responsible_agency": "Department of Sanitation",
    "final_address": "1635 Port St",
    "address_councildis": "D",
    "status": "Assigned to Contractor",
    "contractor": "IV Waste",
    "rowid": "948873",
    "final_x": "3687979.41993",
    "final_y": "538466.575561",
    "longitude": "-90.04736452959008",
    "latitude": "29.974398025696356",
    "geocoded_column": {
      "latitude": "29.974398025696356",
      "longitude": "-90.04736452959008"
    }
  },
  {
    "service_request": "2022-948872",
    "request_type": "Trash/Recycling",
    "request_reason": "Illegal Dumping",
    "date_created": "2022-12-02T13:34:00.000",
    "date_modified": "2022-12-02T13:34:00.000",
    "request_status": "Pending",
    "responsible_agency": "Department of Sanitation",
    "final_address": "3423 Milan St",
    "address_councildis": "B",
    "status": "Pending",
    "rowid": "948872",
    "final_x": "3670986.6891",
    "final_y": "527494.663167",
    "longitude": "-90.10140430949608",
    "latitude": "29.944742350307404",
    "geocoded_column": {
      "latitude": "29.944742350307404",
      "longitude": "-90.10140430949608"
    }
  },
  {
    "service_request": "2022-948871",
    "request_type": "Trash/Recycling",
    "request_reason": "MIssed Recycling Pick-Up",
    "date_created": "2022-12-02T13:30:35.000",
    "date_modified": "2022-12-02T13:30:36.000",
    "request_status": "Pending",
    "responsible_agency": "Department of Sanitation",
    "final_address": "206 Alonzo St",
    "address_councildis": "A",
    "status": "Assigned to Contractor",
    "contractor": "Richards Disposal",
    "rowid": "948871",
    "final_x": "3664465.55668",
    "final_y": "517139.068661",
    "longitude": "-90.12233911854405",
    "latitude": "29.916458907374718",
    "geocoded_column": {
      "latitude": "29.916458907374718",
      "longitude": "-90.12233911854405"
    }
  },
  {
    "service_request": "2022-948870",
    "request_type": "Trash/Recycling",
    "request_reason": "Request a Large Item Pick Up",
    "date_created": "2022-12-02T13:27:55.000",
    "date_modified": "2022-12-02T13:27:55.000",
    "request_status": "Pending",
    "responsible_agency": "Department of Sanitation",
    "final_address": "635 Eighth St",
    "address_councildis": "B",
    "status": "Assigned to Contractor",
    "contractor": "Richards Disposal",
    "rowid": "948870",
    "final_x": "3676996.9387",
    "final_y": "518943.305143",
    "longitude": "-90.08272281584532",
    "latitude": "29.921049864251078",
    "geocoded_column": {
      "latitude": "29.921049864251078",
      "longitude": "-90.08272281584532"
    }
  },
  {
    "service_request": "2022-948869",
    "request_type": "Abandoned Vehicles",
    "request_reason": "Abandoned/Junk Vehicles",
    "date_created": "2022-12-02T13:26:50.000",
    "date_modified": "2022-12-02T13:26:50.000",
    "request_status": "Pending",
    "responsible_agency": "Department of Public Works",
    "final_address": "MORRISON RD & READ BLVD",
    "address_councildis": "E",
    "status": "Pending",
    "rowid": "948869",
    "final_x": "3708986.9",
    "final_y": "563787.08",
    "longitude": "-89.9800740921111",
    "latitude": "30.043354679575092",
    "geocoded_column": {
      "latitude": "30.043354679575092",
      "longitude": "-89.9800740921111"
    }
  },
  {
    "service_request": "2022-948868",
    "request_type": "Abandoned Vehicles",
    "request_reason": "Abandoned/Junk Vehicles",
    "date_created": "2022-12-02T13:25:44.000",
    "date_modified": "2022-12-02T13:25:45.000",
    "request_status": "Pending",
    "responsible_agency": "Department of Public Works",
    "final_address": "Dumaine Street & Moss Street",
    "address_councildis": "A",
    "status": "Pending",
    "rowid": "948868",
    "final_x": "3674736.69345",
    "final_y": "539371.45409",
    "longitude": "-90.08915723922578",
    "latitude": "29.97728814692007",
    "geocoded_column": {
      "latitude": "29.97728814692007",
      "longitude": "-90.08915723922578"
    }
  },
  {
    "service_request": "2022-948867",
    "request_type": "Trash/Recycling",
    "request_reason": "Change Size of Trash Cart",
    "date_created": "2022-12-02T13:21:26.000",
    "date_modified": "2022-12-02T13:21:27.000",
    "request_status": "Pending",
    "responsible_agency": "Department of Sanitation",
    "final_address": "2424 St Claude Ave",
    "address_councildis": "C",
    "status": "Assigned to Contractor",
    "contractor": "IV Waste",
    "rowid": "948867",
    "final_x": "3686715.77417",
    "final_y": "536408.955655",
    "longitude": "-90.05142811583245",
    "latitude": "29.968779225176352",
    "geocoded_column": {
      "latitude": "29.968779225176352",
      "longitude": "-90.05142811583245"
    }
  },
  {
    "service_request": "2022-948866",
    "request_type": "Abandoned Vehicles",
    "request_reason": "Abandoned/Junk Vehicles",
    "date_created": "2022-12-02T13:19:06.000",
    "date_modified": "2022-12-02T13:19:06.000",
    "request_status": "Pending",
    "responsible_agency": "Department of Public Works",
    "final_address": "1137 Esplanade Ave",
    "address_councildis": "C",
    "status": "Pending",
    "rowid": "948866",
    "final_x": "3682803.91362",
    "final_y": "535457.53063",
    "longitude": "-90.06381528341335",
    "latitude": "29.966282890061382",
    "geocoded_column": {
      "latitude": "29.966282890061382",
      "longitude": "-90.06381528341335"
    }
  },
  {
    "service_request": "2022-948865",
    "request_type": "Trash/Recycling",
    "request_reason": "Request a Large Item Pick Up",
    "date_created": "2022-12-02T13:17:45.000",
    "date_modified": "2022-12-02T13:17:46.000",
    "request_status": "Pending",
    "responsible_agency": "Department of Sanitation",
    "final_address": "4728 Frenchmen St",
    "address_councildis": "D",
    "status": "Assigned to Contractor",
    "contractor": "IV Waste",
    "rowid": "948865",
    "final_x": "3683436.80956",
    "final_y": "550106.999444",
    "longitude": "-90.06130303678984",
    "latitude": "30.006544461869694",
    "geocoded_column": {
      "latitude": "30.006544461869694",
      "longitude": "-90.06130303678984"
    }
  },
  {
    "service_request": "2022-948864",
    "request_type": "Trash/Recycling",
    "request_reason": "Repair Trash Cart",
    "date_created": "2022-12-02T13:16:52.000",
    "date_modified": "2022-12-02T13:16:52.000",
    "request_status": "Pending",
    "responsible_agency": "Department of Sanitation",
    "final_address": "11408 Longview Dr",
    "address_councildis": "E",
    "status": "Assigned to Contractor",
    "contractor": "Waste Pro",
    "rowid": "948864",
    "final_x": "3719144.15839",
    "final_y": "559840.829597",
    "longitude": "-89.94812404456374",
    "latitude": "30.032170341112565",
    "geocoded_column": {
      "latitude": "30.032170341112565",
      "longitude": "-89.94812404456374"
    }
  },
  {
    "service_request": "2022-948863",
    "request_type": "Trash/Recycling",
    "request_reason": "Missed Trash Pick-Up",
    "date_created": "2022-12-02T13:15:46.000",
    "date_modified": "2022-12-02T13:15:47.000",
    "request_status": "Pending",
    "responsible_agency": "Department of Sanitation",
    "final_address": "2335 Alvar St",
    "address_councildis": "D",
    "status": "Assigned to Contractor",
    "contractor": "IV Waste",
    "rowid": "948863",
    "final_x": "3692744.69257",
    "final_y": "540217.522827",
    "longitude": "-90.03225193568782",
    "latitude": "29.979064592936606",
    "geocoded_column": {
      "latitude": "29.979064592936606",
      "longitude": "-90.03225193568782"
    }
  },
  {
    "service_request": "2022-948862",
    "request_type": "Traffic Signals/Signs/Striping/Streetlights",
    "request_reason": "Street Light Outage/Malfunction",
    "date_created": "2022-12-02T13:15:38.000",
    "date_modified": "2022-12-02T13:15:38.000",
    "request_status": "Pending",
    "responsible_agency": "Department of Public Works",
    "final_address": "3931 Louisiana Avenue Prkwy",
    "address_councildis": "B",
    "status": "Pending",
    "contractor": "Legacy Professional Services",
    "rowid": "948862",
    "final_x": "3671165.69748",
    "final_y": "529259.999553",
    "longitude": "-90.1007791700258",
    "latitude": "29.949591154267402",
    "geocoded_column": {
      "latitude": "29.949591154267402",
      "longitude": "-90.1007791700258"
    }
  },
  {
    "service_request": "2022-948861",
    "request_type": "Trash/Recycling",
    "request_reason": "Missed Trash Pick-Up",
    "date_created": "2022-12-02T13:14:05.000",
    "date_modified": "2022-12-02T13:14:06.000",
    "request_status": "Pending",
    "responsible_agency": "Department of Sanitation",
    "final_address": "6063 Laurel St",
    "address_councildis": "A",
    "status": "Assigned to Contractor",
    "contractor": "Richards Disposal",
    "rowid": "948861",
    "final_x": "3663895.60659",
    "final_y": "518424.095798",
    "longitude": "-90.12409531525878",
    "latitude": "29.92000888299222",
    "geocoded_column": {
      "latitude": "29.92000888299222",
      "longitude": "-90.12409531525878"
    }
  },
  {
    "service_request": "2022-948860",
    "request_type": "Trash/Recycling",
    "request_reason": "Missed Trash Pick-Up",
    "date_created": "2022-12-02T13:13:05.000",
    "date_modified": "2022-12-02T13:13:06.000",
    "request_status": "Pending",
    "responsible_agency": "Department of Sanitation",
    "final_address": "7811 Mill St",
    "address_councildis": "E",
    "status": "Assigned to Contractor",
    "contractor": "Waste Pro",
    "rowid": "948860",
    "final_x": "3696451.38755",
    "final_y": "559650.223773",
    "longitude": "-90.0198412664801",
    "latitude": "30.032381036937235",
    "geocoded_column": {
      "latitude": "30.032381036937235",
      "longitude": "-90.0198412664801"
    }
  },
  {
    "service_request": "2022-948859",
    "request_type": "Trash/Recycling",
    "request_reason": "Missed Trash Pick-Up",
    "date_created": "2022-12-02T13:12:58.000",
    "date_modified": "2022-12-02T15:09:12.000",
    "case_close_date": "2022-12-02T09:09:12.000",
    "request_status": "Closed",
    "responsible_agency": "Department of Sanitation",
    "final_address": "4060 Duplessis St",
    "address_councildis": "D",
    "status": "Assigned to Contractor",
    "contractor": "IV Waste",
    "contractor_action": "Completed",
    "rowid": "948859",
    "final_x": "3678450.53326",
    "final_y": "547161.941329",
    "longitude": "-90.077157964878",
    "latitude": "29.998597860592824",
    "geocoded_column": {
      "latitude": "29.998597860592824",
      "longitude": "-90.077157964878"
    }
  },
  {
    "service_request": "2022-948858",
    "request_type": "Trash/Recycling",
    "request_reason": "Missed Trash Pick-Up",
    "date_created": "2022-12-02T13:12:42.000",
    "date_modified": "2022-12-02T13:12:43.000",
    "request_status": "Pending",
    "responsible_agency": "Department of Sanitation",
    "final_address": "4742 Viola St",
    "address_councildis": "E",
    "status": "Assigned to Contractor",
    "contractor": "Waste Pro",
    "rowid": "948858",
    "final_x": "3703880.96343",
    "final_y": "555190.150297",
    "longitude": "-89.99652786389531",
    "latitude": "30.019881295061612",
    "geocoded_column": {
      "latitude": "30.019881295061612",
      "longitude": "-89.99652786389531"
    }
  },
  {
    "service_request": "2022-948857",
    "request_type": "Mosquito, Termite & Rodent Control",
    "request_reason": "Rodent Complaint (Rats)",
    "date_created": "2022-12-02T13:05:00.000",
    "date_modified": "2022-12-02T13:05:01.000",
    "request_status": "Pending",
    "responsible_agency": "Mosquito, Termite & Rodent Control Board",
    "final_address": "2203 Esplanade Ave",
    "address_councildis": "D",
    "status": "Pending",
    "rowid": "948857",
    "final_x": "3679582.64303",
    "final_y": "537986.188041",
    "longitude": "-90.07390022344131",
    "latitude": "29.973333571505414",
    "geocoded_column": {
      "latitude": "29.973333571505414",
      "longitude": "-90.07390022344131"
    }
  },
  {
    "service_request": "2022-948856",
    "request_type": "Trash/Recycling",
    "request_reason": "Order Recycling Cart",
    "date_created": "2022-12-02T13:00:35.000",
    "date_modified": "2022-12-02T13:00:35.000",
    "request_status": "Pending",
    "responsible_agency": "Department of Sanitation",
    "final_address": "4437 Iberville St",
    "address_councildis": "A",
    "status": "Pending",
    "rowid": "948856",
    "final_x": "3670040.00666",
    "final_y": "539744.892106",
    "longitude": "-90.10397831074602",
    "latitude": "29.978454364878385",
    "geocoded_column": {
      "latitude": "29.978454364878385",
      "longitude": "-90.10397831074602"
    }
  },
  {
    "service_request": "2022-948855",
    "request_type": "Trash/Recycling",
    "request_reason": "Missed Trash Pick-Up",
    "date_created": "2022-12-02T12:59:10.000",
    "date_modified": "2022-12-02T12:59:11.000",
    "request_status": "Pending",
    "responsible_agency": "Department of Sanitation",
    "final_address": "5773 W Louis Prima Dr",
    "address_councildis": "E",
    "status": "Assigned to Contractor",
    "contractor": "Waste Pro",
    "rowid": "948855",
    "final_x": "3715839.41477",
    "final_y": "562307.661087",
    "longitude": "-89.958473603501",
    "latitude": "30.039062571069454",
    "geocoded_column": {
      "latitude": "30.039062571069454",
      "longitude": "-89.958473603501"
    }
  },
  {
    "service_request": "2022-948854",
    "request_type": "Trash/Recycling",
    "request_reason": "Request a Large Item Pick Up",
    "date_created": "2022-12-02T12:57:45.000",
    "date_modified": "2022-12-02T12:57:46.000",
    "case_close_date": "2022-10-09T19:00:00.000",
    "request_status": "Pending",
    "responsible_agency": "Department of Sanitation",
    "final_address": "2844 Baronne St",
    "address_councildis": "B",
    "status": "Assigned to Contractor",
    "contractor": "Richards Disposal",
    "rowid": "948854",
    "final_x": "3675223.69589",
    "final_y": "522916.160187",
    "longitude": "-90.08818387876119",
    "latitude": "29.932027029403624",
    "geocoded_column": {
      "latitude": "29.932027029403624",
      "longitude": "-90.08818387876119"
    }
  },
  {
    "service_request": "2022-948853",
    "request_type": "Traffic Signals/Signs/Striping/Streetlights",
    "request_reason": "Street Light Outage/Malfunction",
    "date_created": "2022-12-02T12:57:13.000",
    "date_modified": "2022-12-02T12:57:14.000",
    "request_status": "Pending",
    "responsible_agency": "Department of Public Works",
    "final_address": "4933 Tynecastle Dr",
    "address_councildis": "E",
    "status": "Pending",
    "contractor": "Legacy Professional Services",
    "rowid": "948853",
    "final_x": "3718494.4197",
    "final_y": "558103.180059",
    "longitude": "-89.95024351735557",
    "latitude": "30.02741408541772",
    "geocoded_column": {
      "latitude": "30.02741408541772",
      "longitude": "-89.95024351735557"
    }
  },
  {
    "service_request": "2022-948851",
    "request_type": "Trash/Recycling",
    "request_reason": "Missed Trash Pick-Up",
    "date_created": "2022-12-02T12:57:00.000",
    "date_modified": "2022-12-02T12:57:01.000",
    "request_status": "Pending",
    "responsible_agency": "Department of Sanitation",
    "final_address": "2302 Octavia St",
    "address_councildis": "A",
    "status": "Assigned to Contractor",
    "contractor": "Richards Disposal",
    "rowid": "948851",
    "final_x": "3667452.7362",
    "final_y": "524199.774716",
    "longitude": "-90.1126729195556",
    "latitude": "29.93578646700658",
    "geocoded_column": {
      "latitude": "29.93578646700658",
      "longitude": "-90.1126729195556"
    }
  },
  {
    "service_request": "2022-948850",
    "request_type": "Trash/Recycling",
    "request_reason": "Order Trash Cart",
    "date_created": "2022-12-02T12:56:45.000",
    "date_modified": "2022-12-02T12:56:46.000",
    "request_status": "Pending",
    "responsible_agency": "Department of Sanitation",
    "final_address": "7580 Wave Dr",
    "address_councildis": "E",
    "status": "Assigned to Contractor",
    "contractor": "Waste Pro",
    "rowid": "948850",
    "final_x": "3715040.64459",
    "final_y": "568546.308837",
    "longitude": "-89.96076174647477",
    "latitude": "30.056242640177658",
    "geocoded_column": {
      "latitude": "30.056242640177658",
      "longitude": "-89.96076174647477"
    }
  },
  {
    "service_request": "2022-948849",
    "request_type": "Trash/Recycling",
    "request_reason": "MIssed Recycling Pick-Up",
    "date_created": "2022-12-02T12:55:27.000",
    "date_modified": "2022-12-02T12:55:27.000",
    "request_status": "Pending",
    "responsible_agency": "Department of Sanitation",
    "final_address": "2302 Octavia St",
    "address_councildis": "A",
    "status": "Assigned to Contractor",
    "contractor": "Richards Disposal",
    "rowid": "948849",
    "final_x": "3667452.7362",
    "final_y": "524199.774716",
    "longitude": "-90.1126729195556",
    "latitude": "29.93578646700658",
    "geocoded_column": {
      "latitude": "29.93578646700658",
      "longitude": "-90.1126729195556"
    }
  },
  {
    "service_request": "2022-948848",
    "request_type": "Trash/Recycling",
    "request_reason": "Missed Trash Pick-Up",
    "date_created": "2022-12-02T12:55:23.000",
    "date_modified": "2022-12-02T14:19:46.000",
    "case_close_date": "2022-12-02T08:19:46.000",
    "request_status": "Closed",
    "responsible_agency": "Department of Sanitation",
    "final_address": "7811 Mill St",
    "address_councildis": "E",
    "status": "Duplicate Request",
    "contractor": "Waste Pro",
    "rowid": "948848",
    "final_x": "3696451.38755",
    "final_y": "559650.223773",
    "longitude": "-90.0198412664801",
    "latitude": "30.032381036937235",
    "geocoded_column": {
      "latitude": "30.032381036937235",
      "longitude": "-90.0198412664801"
    }
  },
  {
    "service_request": "2022-948847",
    "request_type": "Trash/Recycling",
    "request_reason": "Order Recycling Cart",
    "date_created": "2022-12-02T12:46:41.000",
    "date_modified": "2022-12-02T12:46:42.000",
    "request_status": "Pending",
    "responsible_agency": "Department of Sanitation",
    "final_address": "5741 Wingate Dr",
    "address_councildis": "D",
    "status": "Pending",
    "rowid": "948847",
    "final_x": "3681354.57231",
    "final_y": "554182.15036",
    "longitude": "-90.06773915315894",
    "latitude": "30.01781304648646",
    "geocoded_column": {
      "latitude": "30.01781304648646",
      "longitude": "-90.06773915315894"
    }
  },
  {
    "service_request": "2022-948846",
    "request_type": "Trash/Recycling",
    "request_reason": "Repair Trash Cart",
    "date_created": "2022-12-02T12:46:19.000",
    "date_modified": "2022-12-02T12:46:19.000",
    "request_status": "Pending",
    "responsible_agency": "Department of Sanitation",
    "final_address": "643 Aurora Oaks Dr",
    "address_councildis": "C",
    "status": "Assigned to Contractor",
    "contractor": "Richards Disposal",
    "rowid": "948846",
    "final_x": "3701225.67965",
    "final_y": "520411.720888",
    "longitude": "-90.00619040727543",
    "latitude": "29.924338143567134",
    "geocoded_column": {
      "latitude": "29.924338143567134",
      "longitude": "-90.00619040727543"
    }
  },
  {
    "service_request": "2022-948845",
    "request_type": "Trash/Recycling",
    "request_reason": "Missed Trash Pick-Up",
    "date_created": "2022-12-02T12:44:18.000",
    "date_modified": "2022-12-02T12:44:19.000",
    "request_status": "Pending",
    "responsible_agency": "Department of Sanitation",
    "final_address": "7811 Mill St",
    "address_councildis": "E",
    "status": "Assigned to Contractor",
    "contractor": "Waste Pro",
    "rowid": "948845",
    "final_x": "3696451.38755",
    "final_y": "559650.223773",
    "longitude": "-90.0198412664801",
    "latitude": "30.032381036937235",
    "geocoded_column": {
      "latitude": "30.032381036937235",
      "longitude": "-90.0198412664801"
    }
  },
  {
    "service_request": "2022-948844",
    "request_type": "Trash/Recycling",
    "request_reason": "Repair Trash Cart",
    "date_created": "2022-12-02T12:42:41.000",
    "date_modified": "2022-12-02T12:42:42.000",
    "request_status": "Pending",
    "responsible_agency": "Department of Sanitation",
    "final_address": "10905 S Hardy St",
    "address_councildis": "E",
    "status": "Assigned to Contractor",
    "contractor": "Waste Pro",
    "rowid": "948844",
    "final_x": "3712735.99128",
    "final_y": "561556.346591",
    "longitude": "-89.96830949178808",
    "latitude": "30.03709877981924",
    "geocoded_column": {
      "latitude": "30.03709877981924",
      "longitude": "-89.96830949178808"
    }
  },
  {
    "service_request": "2022-948843",
    "request_type": "Trash/Recycling",
    "request_reason": "Start Trash Service",
    "date_created": "2022-12-02T12:40:16.000",
    "date_modified": "2022-12-02T12:40:16.000",
    "request_status": "Pending",
    "responsible_agency": "Department of Sanitation",
    "final_address": "629 S Claiborne Ave",
    "address_councildis": "B",
    "status": "Assigned to Contractor",
    "contractor": "Richards Disposal",
    "rowid": "948843",
    "final_x": "3676587.10645",
    "final_y": "530597.707266",
    "longitude": "-90.08361524543467",
    "latitude": "29.953107939133528",
    "geocoded_column": {
      "latitude": "29.953107939133528",
      "longitude": "-90.08361524543467"
    }
  },
  {
    "service_request": "2022-948842",
    "request_type": "Trash/Recycling",
    "request_reason": "Replace Trash Cart",
    "date_created": "2022-12-02T12:33:42.000",
    "date_modified": "2022-12-02T12:33:43.000",
    "request_status": "Pending",
    "responsible_agency": "Department of Sanitation",
    "final_address": "11101 N Parkwood Ct",
    "address_councildis": "E",
    "status": "Assigned to Contractor",
    "contractor": "Waste Pro",
    "rowid": "948842",
    "final_x": "3716127.63352",
    "final_y": "559007.929372",
    "longitude": "-89.95768795503048",
    "latitude": "30.029980124226192",
    "geocoded_column": {
      "latitude": "30.029980124226192",
      "longitude": "-89.95768795503048"
    }
  },
  {
    "service_request": "2022-948841",
    "request_type": "Traffic Signals/Signs/Striping/Streetlights",
    "request_reason": "Street Light Outage/Malfunction",
    "date_created": "2022-12-02T12:33:36.000",
    "date_modified": "2022-12-02T12:33:36.000",
    "request_status": "Pending",
    "responsible_agency": "Department of Public Works",
    "final_address": "3740 Mansfield Ave",
    "address_councildis": "C",
    "status": "Pending",
    "contractor": "Legacy Professional Services",
    "rowid": "948841",
    "final_x": "3708961.49707",
    "final_y": "517139.345077",
    "longitude": "-89.98189316502413",
    "latitude": "29.915091622159395",
    "geocoded_column": {
      "latitude": "29.915091622159395",
      "longitude": "-89.98189316502413"
    }
  },
  {
    "service_request": "2022-948840",
    "request_type": "Roads/Drainage",
    "request_reason": "Pothole",
    "date_created": "2022-12-02T12:32:33.000",
    "date_modified": "2022-12-02T12:32:33.000",
    "request_status": "Pending",
    "responsible_agency": "Department of Public Works",
    "final_address": "2215 Burgundy St",
    "address_councildis": "C",
    "status": "Pending",
    "rowid": "948840",
    "final_x": "3685271.22441",
    "final_y": "535634.688582",
    "longitude": "-90.05601734004672",
    "latitude": "29.966694617120556",
    "geocoded_column": {
      "latitude": "29.966694617120556",
      "longitude": "-90.05601734004672"
    }
  },
  {
    "service_request": "2022-948839",
    "request_type": "Roads/Drainage",
    "request_reason": "Pothole",
    "date_created": "2022-12-02T12:31:08.000",
    "date_modified": "2022-12-02T12:31:08.000",
    "request_status": "Pending",
    "responsible_agency": "Department of Public Works",
    "final_address": "2232 Burgundy St",
    "address_councildis": "C",
    "status": "Pending",
    "rowid": "948839",
    "final_x": "3685400.23433",
    "final_y": "535584.096262",
    "longitude": "-90.0556117098159",
    "latitude": "29.966551550792907",
    "geocoded_column": {
      "latitude": "29.966551550792907",
      "longitude": "-90.0556117098159"
    }
  },
  {
    "service_request": "2022-948838",
    "request_type": "Trash/Recycling",
    "request_reason": "Missed Trash Pick-Up",
    "date_created": "2022-12-02T12:28:53.000",
    "date_modified": "2022-12-02T12:28:54.000",
    "request_status": "Pending",
    "responsible_agency": "Department of Sanitation",
    "final_address": "1919 Gallier St",
    "address_councildis": "D",
    "status": "Assigned to Contractor",
    "contractor": "IV Waste",
    "rowid": "948838",
    "final_x": "3691301.21552",
    "final_y": "538799.922761",
    "longitude": "-90.03686163529375",
    "latitude": "29.97521168623134",
    "geocoded_column": {
      "latitude": "29.97521168623134",
      "longitude": "-90.03686163529375"
    }
  },
  {
    "service_request": "2022-948837",
    "request_type": "Trash/Recycling",
    "request_reason": "MIssed Recycling Pick-Up",
    "date_created": "2022-12-02T12:27:41.000",
    "date_modified": "2022-12-02T12:27:42.000",
    "request_status": "Pending",
    "responsible_agency": "Department of Sanitation",
    "final_address": "1317 Adams St",
    "address_councildis": "A",
    "status": "Assigned to Contractor",
    "contractor": "Richards Disposal",
    "rowid": "948837",
    "final_x": "3663426.74029",
    "final_y": "527729.243519",
    "longitude": "-90.12526563672293",
    "latitude": "29.945608697472736",
    "geocoded_column": {
      "latitude": "29.945608697472736",
      "longitude": "-90.12526563672293"
    }
  },