[
  {
    "service_request": "2025-1178957",
    "request_type": "Health Related Request",
    "request_reason": "Noise Ordinance Complaint",
    "date_created": "2025-03-26T22:59:25.000",
    "date_modified": "2025-03-26T22:59:27.000",
    "request_status": "Pending",
    "responsible_agency": "Health Department",
    "final_address": "2901 Conti St New Orleans, LA  70119 United States",
    "address_councildis": "B",
    "status": "Pending",
    "rowid": "1178957",
    "final_x": "3675312.07413",
    "final_y": "536638.524871",
    "longitude": "-90.08743384753795",
    "latitude": "29.96975633217312",
    "geocoded_column": {
      "latitude": "29.96975633217312",
      "longitude": "-90.08743384753795"
    }
  },
  {
    "service_request": "2025-1178956",
    "request_type": "Streetlights",
    "request_reason": "Streetlight Outage/Malfunction",
    "date_created": "2025-03-26T22:25:29.000",
    "date_modified": "2025-03-26T22:25:32.000",
    "request_status": "Pending",
    "responsible_agency": "Department of Public Works",
    "final_address": "1722 Jackson Ave",
    "address_councildis": "B",
    "status": "Pending",
    "contractor": "Legacy Professional Services",
    "rowid": "1178956",
    "final_x": "3677241.93698",
    "final_y": "524111.458812",
    "longitude": "-90.0817712788119",
    "latitude": "29.935253250327126",
    "geocoded_column": {
      "latitude": "29.935253250327126",
      "longitude": "-90.0817712788119"
    }
  },
  {
    "service_request": "2025-1178955",
    "request_type": "Trash/Recycling",
    "request_reason": "Illegal Dumping",
    "date_created": "2025-03-26T22:15:14.000",
    "date_modified": "2025-03-26T22:15:16.000",
    "request_status": "Pending",
    "responsible_agency": "Department of Sanitation",
    "final_address": "3081 Elmwood Park Dr",
    "address_councildis": "C",
    "status": "Pending",
    "rowid": "1178955",
    "final_x": "3694215.14493",
    "final_y": "518897.075767",
    "longitude": "-90.02837459162545",
    "latitude": "29.92039478679399",
    "geocoded_column": {
      "latitude": "29.92039478679399",
      "longitude": "-90.02837459162545"
    }
  },
  {
    "service_request": "2025-1178954",
    "request_type": "Parks & Parkways",
    "request_reason": "Request Tree Service (Right of Way/Public Property)",
    "date_created": "2025-03-26T21:55:32.000",
    "date_modified": "2025-03-26T21:55:34.000",
    "request_status": "Pending",
    "responsible_agency": "Department of Parks & Parkway",
    "final_address": "812 N Carrollton Ave",
    "address_councildis": "A",
    "status": "Pending",
    "rowid": "1178954",
    "final_x": "3672931.11272",
    "final_y": "540175.237387",
    "longitude": "-90.09483242996878",
    "latitude": "29.979552061317612",
    "geocoded_column": {
      "latitude": "29.979552061317612",
      "longitude": "-90.09483242996878"
    }
  },
  {
    "service_request": "2025-1178953",
    "request_type": "Trash/Recycling",
    "request_reason": "Damaged Caused By Contractor",
    "date_created": "2025-03-26T21:51:11.000",
    "date_modified": "2025-03-26T21:51:13.000",
    "request_status": "Pending",
    "responsible_agency": "Department of Sanitation",
    "final_address": "3418 Third St",
    "address_councildis": "B",
    "status": "Assigned to Contractor",
    "contractor": "IV Waste",
    "rowid": "1178953",
    "final_x": "3672801.54811",
    "final_y": "528312.663744",
    "longitude": "-90.09564634777988",
    "latitude": "29.94693780677625",
    "geocoded_column": {
      "latitude": "29.94693780677625",
      "longitude": "-90.09564634777988"
    }
  },
  {
    "service_request": "2025-1178952",
    "request_type": "Drainage",
    "request_reason": "Street Flooding",
    "date_created": "2025-03-26T21:50:30.000",
    "date_modified": "2025-03-26T21:50:33.000",
    "request_status": "Pending",
    "responsible_agency": "Sewerage & Water Board ",
    "final_address": "1621 Egania St",
    "address_councildis": "E",
    "status": "Pending",
    "rowid": "1178952",
    "final_x": "3697423.27939",
    "final_y": "536094.266567",
    "longitude": "-90.01762477058786",
    "latitude": "29.967580217726375",
    "geocoded_column": {
      "latitude": "29.967580217726375",
      "longitude": "-90.01762477058786"
    }
  },
  {
    "service_request": "2025-1178951",
    "request_type": "Streetlights",
    "request_reason": "Streetlight Outage/Malfunction",
    "date_created": "2025-03-26T21:46:33.000",
    "date_modified": "2025-03-26T21:46:35.000",
    "request_status": "Pending",
    "responsible_agency": "Department of Public Works",
    "final_address": "4100 Vendome Pl",
    "address_councildis": "B",
    "status": "Pending",
    "contractor": "Legacy Professional Services",
    "rowid": "1178951",
    "final_x": "3668740.99476",
    "final_y": "530462.336834",
    "longitude": "-90.10839449509521",
    "latitude": "29.952968682658483",
    "geocoded_column": {
      "latitude": "29.952968682658483",
      "longitude": "-90.10839449509521"
    }
  },
  {
    "service_request": "2025-1178950",
    "request_type": "Trash/Recycling",
    "request_reason": "Request a Large Item Pick Up",
    "date_created": "2025-03-26T21:30:01.000",
    "date_modified": "2025-03-26T21:30:04.000",
    "request_status": "Pending",
    "responsible_agency": "Department of Sanitation",
    "final_address": "2125 Toledano St",
    "address_councildis": "B",
    "status": "Assigned to Contractor",
    "contractor": "IV Waste",
    "rowid": "1178950",
    "final_x": "3673793.16065",
    "final_y": "523558.152379",
    "longitude": "-90.09267799513756",
    "latitude": "29.93383496640882",
    "geocoded_column": {
      "latitude": "29.93383496640882",
      "longitude": "-90.09267799513756"
    }
  },
  {
    "service_request": "2025-1178949",
    "request_type": "Trash/Recycling",
    "request_reason": "Missed Trash Pick-Up",
    "date_created": "2025-03-26T21:24:41.000",
    "date_modified": "2025-03-26T21:24:44.000",
    "request_status": "Pending",
    "responsible_agency": "Department of Sanitation",
    "final_address": "3313 Loyola Ave",
    "address_councildis": "B",
    "status": "Assigned to Contractor",
    "contractor": "IV Waste",
    "rowid": "1178949",
    "final_x": "3673588.69134",
    "final_y": "523652.079803",
    "longitude": "-90.09332028762059",
    "latitude": "29.934099322223492",
    "geocoded_column": {
      "latitude": "29.934099322223492",
      "longitude": "-90.09332028762059"
    }
  },
  {
    "service_request": "2025-1178948",
    "request_type": "Trash/Recycling",
    "request_reason": "Order Trash Cart",
    "date_created": "2025-03-26T20:27:56.000",
    "date_modified": "2025-03-26T20:27:58.000",
    "request_status": "Pending",
    "responsible_agency": "Department of Sanitation",
    "final_address": "5535 West End Blvd",
    "address_councildis": "A",
    "status": "Assigned to Contractor",
    "contractor": "IV Waste",
    "rowid": "1178948",
    "final_x": "3666353.20602",
    "final_y": "544582.194959",
    "longitude": "-90.11546023844582",
    "latitude": "29.991863558691673",
    "geocoded_column": {
      "latitude": "29.991863558691673",
      "longitude": "-90.11546023844582"
    }
  },
  {
    "service_request": "2025-1178947",
    "request_type": "Trash/Recycling",
    "request_reason": "Request a Large Item Pick Up",
    "date_created": "2025-03-26T20:26:33.000",
    "date_modified": "2025-03-26T20:26:34.000",
    "request_status": "Pending",
    "responsible_agency": "Department of Sanitation",
    "final_address": "225 S Telemachus St",
    "address_councildis": "A",
    "status": "Assigned to Contractor",
    "contractor": "IV Waste",
    "rowid": "1178947",
    "final_x": "3671923.04385",
    "final_y": "536927.305416",
    "longitude": "-90.09812690634303",
    "latitude": "29.97065127034987",
    "geocoded_column": {
      "latitude": "29.97065127034987",
      "longitude": "-90.09812690634303"
    }
  },
  {
    "service_request": "2025-1178946",
    "request_type": "Trash/Recycling",
    "request_reason": "Order Trash Cart",
    "date_created": "2025-03-26T20:25:23.000",
    "date_modified": "2025-03-26T20:25:25.000",
    "request_status": "Pending",
    "responsible_agency": "Department of Sanitation",
    "final_address": "5535 West End Blvd",
    "address_councildis": "A",
    "status": "Assigned to Contractor",
    "contractor": "IV Waste",
    "rowid": "1178946",
    "final_x": "3666353.20602",
    "final_y": "544582.194959",
    "longitude": "-90.11546023844582",
    "latitude": "29.991863558691673",
    "geocoded_column": {
      "latitude": "29.991863558691673",
      "longitude": "-90.11546023844582"
    }
  },
  {
    "service_request": "2025-1178945",
    "request_type": "General Services",
    "request_reason": "General Service Request",
    "date_created": "2025-03-26T20:22:16.000",
    "date_modified": "2025-03-26T20:22:18.000",
    "request_status": "Pending",
    "responsible_agency": "Orleans Parish Communication District",
    "final_address": "1215 Royal St",
    "address_councildis": "C",
    "status": "Pending",
    "rowid": "1178945",
    "final_x": "3683707.43388",
    "final_y": "534015.109637",
    "longitude": "-90.06101256668195",
    "latitude": "29.962289172820757",
    "geocoded_column": {
      "latitude": "29.962289172820757",
      "longitude": "-90.06101256668195"
    }
  },
  {
    "service_request": "2025-1178944",
    "request_type": "General Services",
    "request_reason": "General Service Request",
    "date_created": "2025-03-26T20:10:13.000",
    "date_modified": "2025-03-26T20:10:15.000",
    "request_status": "Pending",
    "responsible_agency": "Orleans Parish Communication District",
    "final_address": "3000 Peoples Ave",
    "address_councildis": "D",
    "status": "Pending",
    "rowid": "1178944",
    "final_x": "3688596.4351",
    "final_y": "544080.417678",
    "longitude": "-90.0452165413602",
    "latitude": "29.989815040371518",
    "geocoded_column": {
      "latitude": "29.989815040371518",
      "longitude": "-90.0452165413602"
    }
  },
  {
    "service_request": "2025-1178943",
    "request_type": "Streetlights",
    "request_reason": "Streetlight Outage/Malfunction",
    "date_created": "2025-03-26T20:02:07.000",
    "date_modified": "2025-03-26T20:02:08.000",
    "request_status": "Pending",
    "responsible_agency": "Department of Public Works",
    "final_address": "3624 Red Oak Ct",
    "address_councildis": "C",
    "status": "Pending",
    "contractor": "Legacy Professional Services",
    "rowid": "1178943",
    "final_x": "3703175.35543",
    "final_y": "513839.625266",
    "longitude": "-90.00027735428428",
    "latitude": "29.90620489853063",
    "geocoded_column": {
      "latitude": "29.90620489853063",
      "longitude": "-90.00027735428428"
    }
  },
  {
    "service_request": "2025-1178942",
    "request_type": "Streetlights",
    "request_reason": "Streetlight Outage/Malfunction",
    "date_created": "2025-03-26T19:58:46.000",
    "date_modified": "2025-03-26T19:58:48.000",
    "request_status": "Pending",
    "responsible_agency": "Department of Public Works",
    "final_address": "3600 Franklin Ave",
    "address_councildis": "D",
    "status": "Pending",
    "contractor": "Legacy Professional Services",
    "rowid": "1178942",
    "final_x": "3687083.07618",
    "final_y": "546087.477328",
    "longitude": "-90.04992580742538",
    "latitude": "29.995380426774606",
    "geocoded_column": {
      "latitude": "29.995380426774606",
      "longitude": "-90.04992580742538"
    }
  },
  {
    "service_request": "2025-1178941",
    "request_type": "Streetlights",
    "request_reason": "Streetlight Outage/Malfunction",
    "date_created": "2025-03-26T19:57:53.000",
    "date_modified": "2025-03-26T19:57:55.000",
    "request_status": "Pending",
    "responsible_agency": "Department of Public Works",
    "final_address": "829 Port St A",
    "address_councildis": "C",
    "status": "Pending",
    "contractor": "Legacy Professional Services",
    "rowid": "1178941",
    "final_x": "3687227.1565",
    "final_y": "535522.599814",
    "longitude": "-90.04984449779995",
    "latitude": "29.966326314698122",
    "geocoded_column": {
      "latitude": "29.966326314698122",
      "longitude": "-90.04984449779995"
    }
  },
  {
    "service_request": "2025-1178940",
    "request_type": "Trash/Recycling",
    "request_reason": "Request a Large Item Pick Up",
    "date_created": "2025-03-26T19:50:55.000",
    "date_modified": "2025-03-26T19:50:57.000",
    "request_status": "Pending",
    "responsible_agency": "Department of Sanitation",
    "final_address": "725 Jourdan Ave",
    "address_councildis": "E",
    "status": "Assigned to Contractor",
    "contractor": "Waste Pro",
    "rowid": "1178940",
    "final_x": "3694717.26006",
    "final_y": "533234.935876",
    "longitude": "-90.02627340230015",
    "latitude": "29.9598032283643",
    "geocoded_column": {
      "latitude": "29.9598032283643",
      "longitude": "-90.02627340230015"
    }
  },
  {
    "service_request": "2025-1178939",
    "request_type": "Abandoned Vehicles",
    "request_reason": "Abandoned/Junk Vehicles",
    "date_created": "2025-03-26T19:48:37.000",
    "date_modified": "2025-03-26T19:48:39.000",
    "request_status": "Pending",
    "responsible_agency": "Department of Public Works",
    "final_address": "1800 Burdette St",
    "address_councildis": "A",
    "status": "Pending",
    "rowid": "1178939",
    "final_x": "3664209.4882",
    "final_y": "529273.067585",
    "longitude": "-90.12274273645268",
    "latitude": "29.949831001538918",
    "geocoded_column": {
      "latitude": "29.949831001538918",
      "longitude": "-90.12274273645268"
    }
  },
  {
    "service_request": "2025-1178938",
    "request_type": "Trash/Recycling",
    "request_reason": "Replace Trash Cart",
    "date_created": "2025-03-26T19:26:09.000",
    "date_modified": "2025-03-26T19:26:11.000",
    "request_status": "Pending",
    "responsible_agency": "Department of Sanitation",
    "final_address": "523 Jefferson Ave",
    "address_councildis": "B",
    "status": "Assigned to Contractor",
    "contractor": "IV Waste",
    "rowid": "1178938",
    "final_x": "3666516.45089",
    "final_y": "517358.634357",
    "longitude": "-90.11585827725578",
    "latitude": "29.917002885500455",
    "geocoded_column": {
      "latitude": "29.917002885500455",
      "longitude": "-90.11585827725578"
    }
  },
  {
    "service_request": "2025-1178937",
    "request_type": "Trash/Recycling",
    "request_reason": "Missed Trash Pick-Up",
    "date_created": "2025-03-26T19:19:56.000",
    "date_modified": "2025-03-26T19:19:58.000",
    "request_status": "Pending",
    "responsible_agency": "Department of Sanitation",
    "final_address": "337 Lowerline St",
    "address_councildis": "A",
    "status": "Assigned to Contractor",
    "contractor": "IV Waste",
    "rowid": "1178937",
    "final_x": "3661601.82586",
    "final_y": "523658.171899",
    "longitude": "-90.13116237485306",
    "latitude": "29.93446731927352",
    "geocoded_column": {
      "latitude": "29.93446731927352",
      "longitude": "-90.13116237485306"
    }
  },
  {
    "service_request": "2025-1178936",
    "request_type": "Trash/Recycling",
    "request_reason": "Repair Recycling Cart",
    "date_created": "2025-03-26T18:49:48.000",
    "date_modified": "2025-03-26T18:49:50.000",
    "request_status": "Pending",
    "responsible_agency": "Department of Sanitation",
    "final_address": "1232 St Anthony St",
    "address_councildis": "C",
    "status": "Pending",
    "rowid": "1178936",
    "final_x": "3683465.65333",
    "final_y": "536447.341639",
    "longitude": "-90.0616908346696",
    "latitude": "29.968984352286782",
    "geocoded_column": {
      "latitude": "29.968984352286782",
      "longitude": "-90.0616908346696"
    }
  },
  {
    "service_request": "2025-1178935",
    "request_type": "Trash/Recycling",
    "request_reason": "Repair Trash Cart",
    "date_created": "2025-03-26T18:48:04.000",
    "date_modified": "2025-03-26T18:48:06.000",
    "request_status": "Pending",
    "responsible_agency": "Department of Sanitation",
    "final_address": "1232 St Anthony St",
    "address_councildis": "C",
    "status": "Assigned to Contractor",
    "contractor": "IV Waste",
    "rowid": "1178935",
    "final_x": "3683465.65333",
    "final_y": "536447.341639",
    "longitude": "-90.0616908346696",
    "latitude": "29.968984352286782",
    "geocoded_column": {
      "latitude": "29.968984352286782",
      "longitude": "-90.0616908346696"
    }
  },
  {
    "service_request": "2025-1178934",
    "request_type": "Roads and Streets",
    "request_reason": "Pothole",
    "date_created": "2025-03-26T18:24:26.000",
    "date_modified": "2025-03-26T18:24:27.000",
    "request_status": "Pending",
    "responsible_agency": "Department of Public Works",
    "final_address": "604 N Bernadotte St",
    "address_councildis": "A",
    "status": "Pending",
    "rowid": "1178934",
    "final_x": "3669967.81524",
    "final_y": "541529.642892",
    "longitude": "-90.10414584910123",
    "latitude": "29.98336395297401",
    "geocoded_column": {
      "latitude": "29.98336395297401",
      "longitude": "-90.10414584910123"
    }
  },
  {
    "service_request": "2025-1178933",
    "request_type": "Abandoned Vehicles",
    "request_reason": "Abandoned/Junk Vehicles",
    "date_created": "2025-03-26T18:16:45.000",
    "date_modified": "2025-03-26T18:16:47.000",
    "request_status": "Pending",
    "responsible_agency": "Department of Public Works",
    "final_address": "3642 General De Gaulle Dr",
    "address_councildis": "C",
    "status": "Pending",
    "rowid": "1178933",
    "final_x": "3697412.79722",
    "final_y": "520296.751864",
    "longitude": "-90.01823045669929",
    "latitude": "29.92414289770605",
    "geocoded_column": {
      "latitude": "29.92414289770605",
      "longitude": "-90.01823045669929"
    }
  },
  {
    "service_request": "2025-1178932",
    "request_type": "Trash/Recycling",
    "request_reason": "Repair Trash Cart",
    "date_created": "2025-03-26T18:10:32.000",
    "date_modified": "2025-03-26T18:10:35.000",
    "request_status": "Pending",
    "responsible_agency": "Department of Sanitation",
    "final_address": "3830 Red Cypress Dr",
    "address_councildis": "C",
    "status": "Assigned to Contractor",
    "contractor": "Richards Disposal",
    "rowid": "1178932",
    "final_x": "3703878.98961",
    "final_y": "512338.183473",
    "longitude": "-89.9981118633465",
    "latitude": "29.90205391614095",
    "geocoded_column": {
      "latitude": "29.90205391614095",
      "longitude": "-89.9981118633465"
    }
  },
  {
    "service_request": "2025-1178931",
    "request_type": "Trash/Recycling",
    "request_reason": "Request a Large Item Pick Up",
    "date_created": "2025-03-26T18:09:10.000",
    "date_modified": "2025-03-26T18:09:11.000",
    "request_status": "Pending",
    "responsible_agency": "Department of Sanitation",
    "final_address": "8319 Apricot St",
    "address_councildis": "A",
    "status": "Assigned to Contractor",
    "contractor": "IV Waste",
    "rowid": "1178931",
    "final_x": "3665196.26964",
    "final_y": "533242.9001",
    "longitude": "-90.11949421532715",
    "latitude": "29.960718044877456",
    "geocoded_column": {
      "latitude": "29.960718044877456",
      "longitude": "-90.11949421532715"
    }
  },
  {
    "service_request": "2025-1178930",
    "request_type": "Roads and Streets",
    "request_reason": "Street Subsidence (Sinking)",
    "date_created": "2025-03-26T18:08:53.000",
    "date_modified": "2025-03-26T18:08:55.000",
    "request_status": "Pending",
    "responsible_agency": "Department of Public Works",
    "final_address": "3164 Toulouse St",
    "address_councildis": "A",
    "status": "Pending",
    "rowid": "1178930",
    "final_x": "3674765.5707",
    "final_y": "537789.111432",
    "longitude": "-90.08912030135087",
    "latitude": "29.972936382261466",
    "geocoded_column": {
      "latitude": "29.972936382261466",
      "longitude": "-90.08912030135087"
    }
  },
  {
    "service_request": "2025-1178929",
    "request_type": "Roads and Streets",
    "request_reason": "Pothole",
    "date_created": "2025-03-26T18:06:07.000",
    "date_modified": "2025-03-26T18:06:09.000",
    "request_status": "Pending",
    "responsible_agency": "Department of Public Works",
    "final_address": "4931 S Miro St",
    "address_councildis": "B",
    "status": "Pending",
    "rowid": "1178929",
    "final_x": "3669025.15124",
    "final_y": "527744.528319",
    "longitude": "-90.10758905207172",
    "latitude": "29.945487240615094",
    "geocoded_column": {
      "latitude": "29.945487240615094",
      "longitude": "-90.10758905207172"
    }
  },
  {
    "service_request": "2025-1178928",
    "request_type": "Roads and Streets",
    "request_reason": "Road Shoulder Damage",
    "date_created": "2025-03-26T18:04:25.000",
    "date_modified": "2025-03-26T18:04:27.000",
    "request_status": "Pending",
    "responsible_agency": "Department of Public Works",
    "final_address": "2024 Bayou Rd",
    "address_councildis": "D",
    "status": "Pending",
    "rowid": "1178928",
    "final_x": "3680078.56725",
    "final_y": "537224.6002",
    "longitude": "-90.07236046305083",
    "latitude": "29.97122446991422",
    "geocoded_column": {
      "latitude": "29.97122446991422",
      "longitude": "-90.07236046305083"
    }
  },
  {
    "service_request": "2025-1178927",
    "request_type": "General Services",
    "request_reason": "General Service Request",
    "date_created": "2025-03-26T18:02:27.000",
    "date_modified": "2025-03-26T18:02:29.000",
    "request_status": "Pending",
    "responsible_agency": "Orleans Parish Communication District",
    "final_address": "3517 Frenchmen St",
    "address_councildis": "D",
    "status": "Pending",
    "rowid": "1178927",
    "final_x": "3683884.85628",
    "final_y": "545625.327312",
    "longitude": "-90.06004488023737",
    "latitude": "29.99420778899601",
    "geocoded_column": {
      "latitude": "29.99420778899601",
      "longitude": "-90.06004488023737"
    }
  },
  {
    "service_request": "2025-1178926",
    "request_type": "Roads and Streets",
    "request_reason": "Pothole",
    "date_created": "2025-03-26T17:59:15.000",
    "date_modified": "2025-03-26T17:59:17.000",
    "request_status": "Pending",
    "responsible_agency": "Department of Public Works",
    "final_address": "810 Euterpe St",
    "address_councildis": "B",
    "status": "Pending",
    "rowid": "1178926",
    "final_x": "3681586.19452",
    "final_y": "523799.476411",
    "longitude": "-90.06806734544229",
    "latitude": "29.93426421309192",
    "geocoded_column": {
      "latitude": "29.93426421309192",
      "longitude": "-90.06806734544229"
    }
  },
  {
    "service_request": "2025-1178925",
    "request_type": "Graffiti Removal",
    "request_reason": "Graffiti Removal",
    "date_created": "2025-03-26T17:53:07.000",
    "date_modified": "2025-03-26T17:53:09.000",
    "request_status": "Pending",
    "responsible_agency": "Department of Code Enforcement",
    "final_address": "100 BLK Elk Pl",
    "address_councildis": "B",
    "status": "Pending",
    "rowid": "1178925",
    "final_x": "3679421.25037",
    "final_y": "531312.589393",
    "longitude": "-90.07464145820387",
    "latitude": "29.95498832568428",
    "geocoded_column": {
      "latitude": "29.95498832568428",
      "longitude": "-90.07464145820387"
    }
  },
  {
    "service_request": "2025-1178924",
    "request_type": "Trash/Recycling",
    "request_reason": "Replace Trash Cart",
    "date_created": "2025-03-26T17:43:55.000",
    "date_modified": "2025-03-26T17:43:58.000",
    "request_status": "Pending",
    "responsible_agency": "Department of Sanitation",
    "final_address": "2453 Madrid St",
    "address_councildis": "D",
    "status": "Assigned to Contractor",
    "contractor": "IV Waste",
    "rowid": "1178924",
    "final_x": "3685461.44726",
    "final_y": "555533.309657",
    "longitude": "-90.0547154044085",
    "latitude": "30.021402870972672",
    "geocoded_column": {
      "latitude": "30.021402870972672",
      "longitude": "-90.0547154044085"
    }
  },
  {
    "service_request": "2025-1178923",
    "request_type": "Drainage",
    "request_reason": "Catch Basin Clogged",
    "date_created": "2025-03-26T17:43:03.000",
    "date_modified": "2025-03-26T17:43:04.000",
    "request_status": "Pending",
    "responsible_agency": "Sewerage & Water Board ",
    "final_address": "4500 Sierra Madre Dr",
    "address_councildis": "E",
    "status": "Pending",
    "rowid": "1178923",
    "final_x": "3713947.73343",
    "final_y": "555281.906201",
    "longitude": "-89.96471699372779",
    "latitude": "30.019806816015574",
    "geocoded_column": {
      "latitude": "30.019806816015574",
      "longitude": "-89.96471699372779"
    }
  },
  {
    "service_request": "2025-1178922",
    "request_type": "Trash/Recycling",
    "request_reason": "Start Trash Service",
    "date_created": "2025-03-26T17:40:44.000",
    "date_modified": "2025-03-26T17:40:45.000",
    "request_status": "Pending",
    "responsible_agency": "Department of Sanitation",
    "final_address": "2231 Dreux Ave",
    "address_councildis": "D",
    "status": "Assigned to Contractor",
    "contractor": "IV Waste",
    "rowid": "1178922",
    "final_x": "3684067.08207",
    "final_y": "552092.586774",
    "longitude": "-90.05924209663395",
    "latitude": "30.01198485229877",
    "geocoded_column": {
      "latitude": "30.01198485229877",
      "longitude": "-90.05924209663395"
    }
  },
  {
    "service_request": "2025-1178921",
    "request_type": "Trash/Recycling",
    "request_reason": "Order Trash Cart",
    "date_created": "2025-03-26T17:39:26.000",
    "date_modified": "2025-03-26T17:39:28.000",
    "request_status": "Pending",
    "responsible_agency": "Department of Sanitation",
    "final_address": "2231 Dreux Ave",
    "address_councildis": "D",
    "status": "Assigned to Contractor",
    "contractor": "IV Waste",
    "rowid": "1178921",
    "final_x": "3684067.08207",
    "final_y": "552092.586774",
    "longitude": "-90.05924209663395",
    "latitude": "30.01198485229877",
    "geocoded_column": {
      "latitude": "30.01198485229877",
      "longitude": "-90.05924209663395"
    }
  },
  {
    "service_request": "2025-1178920",
    "request_type": "Trash/Recycling",
    "request_reason": "Return Recycling Cart",
    "date_created": "2025-03-26T17:17:26.000",
    "date_modified": "2025-03-26T17:17:29.000",
    "request_status": "Pending",
    "responsible_agency": "Department of Sanitation",
    "final_address": "11288 Notaway Ln",
    "address_councildis": "E",
    "status": "Pending",
    "rowid": "1178920",
    "final_x": "3718347.8341",
    "final_y": "559704.001629",
    "longitude": "-89.95064566962142",
    "latitude": "30.031820565314764",
    "geocoded_column": {
      "latitude": "30.031820565314764",
      "longitude": "-89.95064566962142"
    }
  },
  {
    "service_request": "2025-1178919",
    "request_type": "Trash/Recycling",
    "request_reason": "Request a Large Item Pick Up",
    "date_created": "2025-03-26T17:06:25.000",
    "date_modified": "2025-03-26T17:06:26.000",
    "request_status": "Pending",
    "responsible_agency": "Department of Sanitation",
    "final_address": "3300 Chestnut St",
    "address_councildis": "B",
    "status": "Assigned to Contractor",
    "contractor": "IV Waste",
    "rowid": "1178919",
    "final_x": "3675090.84219",
    "final_y": "520428.677432",
    "longitude": "-90.08868858341386",
    "latitude": "29.925191226170174",
    "geocoded_column": {
      "latitude": "29.925191226170174",
      "longitude": "-90.08868858341386"
    }
  },
  {
    "service_request": "2025-1178918",
    "request_type": "Roads and Streets",
    "request_reason": "Debris in Driving Lanes",
    "date_created": "2025-03-26T17:02:34.000",
    "date_modified": "2025-03-26T17:02:38.000",
    "request_status": "Pending",
    "responsible_agency": "Department of Public Works",
    "final_address": "623 Commerce St",
    "address_councildis": "B",
    "status": "Pending",
    "rowid": "1178918",
    "final_x": "3681926.89404",
    "final_y": "528442.343744",
    "longitude": "-90.06682975997106",
    "latitude": "29.947020199366598",
    "geocoded_column": {
      "latitude": "29.947020199366598",
      "longitude": "-90.06682975997106"
    }
  },
  {
    "service_request": "2025-1178917",
    "request_type": "Trash/Recycling",
    "request_reason": "Return Recycling Cart",
    "date_created": "2025-03-26T16:43:17.000",
    "date_modified": "2025-03-26T16:43:19.000",
    "request_status": "Pending",
    "responsible_agency": "Department of Sanitation",
    "final_address": "4439 S Galvez St",
    "address_councildis": "B",
    "status": "Pending",
    "rowid": "1178917",
    "final_x": "3669834.80718",
    "final_y": "527558.100735",
    "longitude": "-90.10503900906916",
    "latitude": "29.94495078528489",
    "geocoded_column": {
      "latitude": "29.94495078528489",
      "longitude": "-90.10503900906916"
    }
  },
  {
    "service_request": "2025-1178916",
    "request_type": "Trash/Recycling",
    "request_reason": "Request a Large Item Pick Up",
    "date_created": "2025-03-26T16:41:05.000",
    "date_modified": "2025-03-26T16:41:08.000",
    "request_status": "Pending",
    "responsible_agency": "Department of Sanitation",
    "final_address": "5000 Law St",
    "address_councildis": "E",
    "status": "Assigned to Contractor",
    "contractor": "Waste Pro",
    "rowid": "1178916",
    "final_x": "3697578.06935",
    "final_y": "539838.037386",
    "longitude": "-90.01700012273224",
    "latitude": "29.9778693533781",
    "geocoded_column": {
      "latitude": "29.9778693533781",
      "longitude": "-90.01700012273224"
    }
  },
  {
    "service_request": "2025-1178915",
    "request_type": "Trash/Recycling",
    "request_reason": "Replace Trash Cart",
    "date_created": "2025-03-26T16:36:47.000",
    "date_modified": "2025-03-26T16:36:49.000",
    "request_status": "Pending",
    "responsible_agency": "Department of Sanitation",
    "final_address": "4719 Louisa Dr",
    "address_councildis": "D",
    "status": "Assigned to Contractor",
    "contractor": "IV Waste",
    "rowid": "1178915",
    "final_x": "3690962.19376",
    "final_y": "551066.792405",
    "longitude": "-90.03749421592853",
    "latitude": "30.008951683532665",
    "geocoded_column": {
      "latitude": "30.008951683532665",
      "longitude": "-90.03749421592853"
    }
  },
  {
    "service_request": "2025-1178914",
    "request_type": "Trash/Recycling",
    "request_reason": "Replace Trash Cart",
    "date_created": "2025-03-26T16:36:36.000",
    "date_modified": "2025-03-26T16:36:39.000",
    "request_status": "Pending",
    "responsible_agency": "Department of Sanitation",
    "final_address": "3621 Post Oak Ave",
    "address_councildis": "C",
    "status": "Assigned to Contractor",
    "contractor": "Richards Disposal",
    "rowid": "1178914",
    "final_x": "3703697.36842",
    "final_y": "514525.611379",
    "longitude": "-89.99860463235599",
    "latitude": "29.90807441751999",
    "geocoded_column": {
      "latitude": "29.90807441751999",
      "longitude": "-89.99860463235599"
    }
  },
  {
    "service_request": "2025-1178913",
    "request_type": "Roads and Streets",
    "request_reason": "Abandoned Service Cut",
    "date_created": "2025-03-26T16:31:13.000",
    "date_modified": "2025-03-26T16:31:15.000",
    "request_status": "Pending",
    "responsible_agency": "Department of Public Works",
    "final_address": "1511 Egania St",
    "address_councildis": "E",
    "status": "Pending",
    "rowid": "1178913",
    "final_x": "3697285.79824",
    "final_y": "535622.505734",
    "longitude": "-90.01807603775082",
    "latitude": "29.966287383803177",
    "geocoded_column": {
      "latitude": "29.966287383803177",
      "longitude": "-90.01807603775082"
    }
  },
  {
    "service_request": "2025-1178912",
    "request_type": "Trash/Recycling",
    "request_reason": "Request a Large Item Pick Up",
    "date_created": "2025-03-26T16:30:54.000",
    "date_modified": "2025-03-26T16:30:55.000",
    "request_status": "Pending",
    "responsible_agency": "Department of Sanitation",
    "final_address": "1237 Music St",
    "address_councildis": "C",
    "status": "Assigned to Contractor",
    "contractor": "IV Waste",
    "rowid": "1178912",
    "final_x": "3686841.67196",
    "final_y": "537094.689352",
    "longitude": "-90.05100628855193",
    "latitude": "29.97066088001295",
    "geocoded_column": {
      "latitude": "29.97066088001295",
      "longitude": "-90.05100628855193"
    }
  },
  {
    "service_request": "2025-1178911",
    "request_type": "Drainage",
    "request_reason": "Street Flooding",
    "date_created": "2025-03-26T16:27:25.000",
    "date_modified": "2025-03-26T16:28:48.000",
    "request_status": "Pending",
    "responsible_agency": "Sewerage & Water Board ",
    "final_address": "3560 White Oak Ave",
    "address_councildis": "C",
    "status": "Pending",
    "rowid": "1178911",
    "final_x": "3703534.68458",
    "final_y": "514451.687667",
    "longitude": "-89.99912079815307",
    "latitude": "29.907876362177888",
    "geocoded_column": {
      "latitude": "29.907876362177888",
      "longitude": "-89.99912079815307"
    }
  },
  {
    "service_request": "2025-1178910",
    "request_type": "Abandoned Vehicles",
    "request_reason": "Abandoned/Junk Vehicles",
    "date_created": "2025-03-26T16:26:12.000",
    "date_modified": "2025-03-26T16:26:14.000",
    "request_status": "Pending",
    "responsible_agency": "Department of Public Works",
    "final_address": "7727 Oak St",
    "address_councildis": "A",
    "status": "Pending",
    "rowid": "1178910",
    "final_x": "3662912.46189",
    "final_y": "527561.567103",
    "longitude": "-90.12689496377165",
    "latitude": "29.945162539893953",
    "geocoded_column": {
      "latitude": "29.945162539893953",
      "longitude": "-90.12689496377165"
    }
  },
  {
    "service_request": "2025-1178909",
    "request_type": "Trash/Recycling",
    "request_reason": "Repair Trash Cart",
    "date_created": "2025-03-26T16:24:03.000",
    "date_modified": "2025-03-26T16:24:05.000",
    "request_status": "Pending",
    "responsible_agency": "Department of Sanitation",
    "final_address": "3610 Post Oak Ave",
    "address_councildis": "C",
    "status": "Assigned to Contractor",
    "contractor": "Richards Disposal",
    "rowid": "1178909",
    "final_x": "3703722.91543",
    "final_y": "514650.837939",
    "longitude": "-89.99851939889142",
    "latitude": "29.908417929574824",
    "geocoded_column": {
      "latitude": "29.908417929574824",
      "longitude": "-89.99851939889142"
    }
  },
  {
    "service_request": "2025-1178908",
    "request_type": "Roads and Streets",
    "request_reason": "Abandoned Service Cut",
    "date_created": "2025-03-26T16:21:44.000",
    "date_modified": "2025-03-26T16:21:46.000",
    "request_status": "Pending",
    "responsible_agency": "Department of Public Works",
    "final_address": "2 Maryland Dr",
    "address_councildis": "A",
    "status": "Pending",
    "rowid": "1178908",
    "final_x": "3663535.7952",
    "final_y": "540110.187467",
    "longitude": "-90.12450891842447",
    "latitude": "29.9796490805904",
    "geocoded_column": {
      "latitude": "29.9796490805904",
      "longitude": "-90.12450891842447"
    }
  },
  {
    "service_request": "2025-1178907",
    "request_type": "Abandoned Vehicles",
    "request_reason": "Abandoned/Junk Vehicles",
    "date_created": "2025-03-26T16:20:54.000",
    "date_modified": "2025-03-26T16:20:56.000",
    "request_status": "Pending",
    "responsible_agency": "Department of Public Works",
    "final_address": "2001 Marengo St",
    "address_councildis": "B",
    "status": "Pending",
    "rowid": "1178907",
    "final_x": "3671868.31207",
    "final_y": "522455.364602",
    "longitude": "-90.09879217782198",
    "latitude": "29.930859821902562",
    "geocoded_column": {
      "latitude": "29.930859821902562",
      "longitude": "-90.09879217782198"
    }
  },
  {
    "service_request": "2025-1178906",
    "request_type": "Trash/Recycling",
    "request_reason": "Request a Large Item Pick Up",
    "date_created": "2025-03-26T16:17:04.000",
    "date_modified": "2025-03-26T16:17:06.000",
    "request_status": "Pending",
    "responsible_agency": "Department of Sanitation",
    "final_address": "3142 N Robertson St",
    "address_councildis": "C",
    "status": "Assigned to Contractor",
    "contractor": "IV Waste",
    "rowid": "1178906",
    "final_x": "3689702.2175",
    "final_y": "537358.63828",
    "longitude": "-90.04196297754606",
    "latitude": "29.971298312476595",
    "geocoded_column": {
      "latitude": "29.971298312476595",
      "longitude": "-90.04196297754606"
    }
  },
  {
    "service_request": "2025-1178905",
    "request_type": "Trash/Recycling",
    "request_reason": "Order Trash Cart",
    "date_created": "2025-03-26T16:15:33.000",
    "date_modified": "2025-03-26T16:15:35.000",
    "request_status": "Pending",
    "responsible_agency": "Department of Sanitation",
    "final_address": "1527 Lafreniere St",
    "address_councildis": "D",
    "status": "Assigned to Contractor",
    "contractor": "IV Waste",
    "rowid": "1178905",
    "final_x": "3679145.4221",
    "final_y": "545130.207567",
    "longitude": "-90.07503328980884",
    "latitude": "29.992990345308836",
    "geocoded_column": {
      "latitude": "29.992990345308836",
      "longitude": "-90.07503328980884"
    }
  },
  {
    "service_request": "2025-1178904",
    "request_type": "Trash/Recycling",
    "request_reason": "Order Trash Cart",
    "date_created": "2025-03-26T16:14:39.000",
    "date_modified": "2025-03-26T16:14:41.000",
    "request_status": "Pending",
    "responsible_agency": "Department of Sanitation",
    "final_address": "1525 Lafreniere St",
    "address_councildis": "D",
    "status": "Assigned to Contractor",
    "contractor": "IV Waste",
    "rowid": "1178904",
    "final_x": "3679133.93679",
    "final_y": "545128.611599",
    "longitude": "-90.07506962527395",
    "latitude": "29.99298630375435",
    "geocoded_column": {
      "latitude": "29.99298630375435",
      "longitude": "-90.07506962527395"
    }
  },
  {
    "service_request": "2025-1178903",
    "request_type": "Parks & Parkways",
    "request_reason": "Request Tree Service (Right of Way/Public Property)",
    "date_created": "2025-03-26T16:13:56.000",
    "date_modified": "2025-03-26T16:13:58.000",
    "request_status": "Pending",
    "responsible_agency": "Department of Parks & Parkway",
    "final_address": "3925 Franklin Ave",
    "address_councildis": "D",
    "status": "Pending",
    "rowid": "1178903",
    "final_x": "3687110.03561",
    "final_y": "547444.679761",
    "longitude": "-90.049792620576",
    "latitude": "29.999111413816934",
    "geocoded_column": {
      "latitude": "29.999111413816934",
      "longitude": "-90.049792620576"
    }
  },
  {
    "service_request": "2025-1178902",
    "request_type": "Trash/Recycling",
    "request_reason": "Illegal Dumping",
    "date_created": "2025-03-26T16:12:05.000",
    "date_modified": "2025-03-26T16:12:08.000",
    "request_status": "Pending",
    "responsible_agency": "Department of Sanitation",
    "final_address": "3606 N Miro St",
    "address_councildis": "D",
    "status": "Pending",
    "rowid": "1178902",
    "final_x": "3691835.62006",
    "final_y": "539650.974154",
    "longitude": "-90.03514339917419",
    "latitude": "29.977535137784113",
    "geocoded_column": {
      "latitude": "29.977535137784113",
      "longitude": "-90.03514339917419"
    }
  },
  {
    "service_request": "2025-1178901",
    "request_type": "Trash/Recycling",
    "request_reason": "Request a Large Item Pick Up",
    "date_created": "2025-03-26T16:08:36.000",
    "date_modified": "2025-03-26T19:28:38.000",
    "case_close_date": "2025-03-26T14:28:38.000",
    "request_status": "Closed",
    "responsible_agency": "Department of Sanitation",
    "final_address": "4409 Skyview Dr",
    "address_councildis": "D",
    "status": "Duplicate Request",
    "contractor": "Waste Pro",
    "contractor_action": "Duplicate",
    "rowid": "1178901",
    "final_x": "3696898.62589",
    "final_y": "552607.031318",
    "longitude": "-90.01868332725606",
    "latitude": "30.013000829117143",
    "geocoded_column": {
      "latitude": "30.013000829117143",
      "longitude": "-90.01868332725606"
    }
  },
  {
    "service_request": "2025-1178900",
    "request_type": "Drainage",
    "request_reason": "Ditch and Culvert Maintenance",
    "date_created": "2025-03-26T16:06:04.000",
    "date_modified": "2025-03-26T16:06:05.000",
    "request_status": "Pending",
    "responsible_agency": "Department of Public Works",
    "final_address": "611 Canal St",
    "address_councildis": "C",
    "status": "Pending",
    "rowid": "1178900",
    "final_x": "3681445.09308",
    "final_y": "530586.684866",
    "longitude": "-90.06827623465406",
    "latitude": "29.952931049140837",
    "geocoded_column": {
      "latitude": "29.952931049140837",
      "longitude": "-90.06827623465406"
    }
  },
  {
    "service_request": "2025-1178899",
    "request_type": "Roads and Streets",
    "request_reason": "Pothole",
    "date_created": "2025-03-26T16:05:21.000",
    "date_modified": "2025-03-26T16:05:22.000",
    "request_status": "Pending",
    "responsible_agency": "Department of Public Works",
    "final_address": "13319 Curran Rd",
    "address_councildis": "E",
    "status": "Pending",
    "rowid": "1178899",
    "final_x": "3716276.47096",
    "final_y": "570403.264999",
    "longitude": "-89.95678504138814",
    "latitude": "30.061307739513126",
    "geocoded_column": {
      "latitude": "30.061307739513126",
      "longitude": "-89.95678504138814"
    }
  },
  {
    "service_request": "2025-1178898",
    "request_type": "Trash/Recycling",
    "request_reason": "Request a Large Item Pick Up",
    "date_created": "2025-03-26T15:56:35.000",
    "date_modified": "2025-03-26T15:56:37.000",
    "request_status": "Pending",
    "responsible_agency": "Department of Sanitation",
    "final_address": "4341 Alba Rd",
    "address_councildis": "E",
    "status": "Assigned to Contractor",
    "contractor": "Waste Pro",
    "rowid": "1178898",
    "final_x": "3761691.69321",
    "final_y": "572743.674025",
    "longitude": "-89.81313368679389",
    "latitude": "30.06616440488415",
    "geocoded_column": {
      "latitude": "30.06616440488415",
      "longitude": "-89.81313368679389"
    }
  },
  {
    "service_request": "2025-1178896",
    "request_type": "Drainage",
    "request_reason": "Catch Basin Clogged",
    "date_created": "2025-03-26T15:55:37.000",
    "date_modified": "2025-03-26T15:55:40.000",
    "request_status": "Pending",
    "responsible_agency": "Sewerage & Water Board ",
    "final_address": "4341 Alba Rd",
    "address_councildis": "E",
    "status": "Pending",
    "rowid": "1178896",
    "final_x": "3761691.69321",
    "final_y": "572743.674025",
    "longitude": "-89.81313368679389",
    "latitude": "30.06616440488415",
    "geocoded_column": {
      "latitude": "30.06616440488415",
      "longitude": "-89.81313368679389"
    }
  },
  {
    "service_request": "2025-1178895",
    "request_type": "Trash/Recycling",
    "request_reason": "Return Trash Cart",
    "date_created": "2025-03-26T15:47:44.000",
    "date_modified": "2025-03-26T15:47:45.000",
    "request_status": "Pending",
    "responsible_agency": "Department of Sanitation",
    "final_address": "1612 S Rampart St",
    "address_councildis": "B",
    "status": "Assigned to Contractor",
    "contractor": "IV Waste",
    "rowid": "1178895",
    "final_x": "3677564.94082",
    "final_y": "526046.188286",
    "longitude": "-90.08068478248961",
    "latitude": "29.940563414522526",
    "geocoded_column": {
      "latitude": "29.940563414522526",
      "longitude": "-90.08068478248961"
    }
  },
  {
    "service_request": "2025-1178894",
    "request_type": "Trash/Recycling",
    "request_reason": "Illegal Dumping",
    "date_created": "2025-03-26T15:47:04.000",
    "date_modified": "2025-03-26T15:47:06.000",
    "request_status": "Pending",
    "responsible_agency": "Department of Sanitation",
    "final_address": "LAPEYROUSE ST & N ROMAN ST",
    "address_councildis": "D",
    "status": "Pending",
    "rowid": "1178894",
    "final_x": "3681601.5",
    "final_y": "538211.88",
    "longitude": "-90.06751639095073",
    "latitude": "29.973892977060967",
    "geocoded_column": {
      "latitude": "29.973892977060967",
      "longitude": "-90.06751639095073"
    }
  },
  {
    "service_request": "2025-1178893",
    "request_type": "Street and Traffic Signs",
    "request_reason": "Stop Sign Missing or Damaged",
    "date_created": "2025-03-26T15:43:30.000",
    "date_modified": "2025-03-26T15:43:34.000",
    "request_status": "Pending",
    "responsible_agency": "Department of Public Works",
    "final_address": "FELICITY ST & WILLOW ST",
    "address_councildis": "B",
    "status": "Pending",
    "rowid": "1178893",
    "final_x": "3675288.9",
    "final_y": "527781.68",
    "longitude": "-90.08781107398946",
    "latitude": "29.945403666400605",
    "geocoded_column": {
      "latitude": "29.945403666400605",
      "longitude": "-90.08781107398946"
    }
  },
  {
    "service_request": "2025-1178892",
    "request_type": "Trash/Recycling",
    "request_reason": "Replace Trash Cart",
    "date_created": "2025-03-26T15:42:14.000",
    "date_modified": "2025-03-26T15:42:16.000",
    "request_status": "Pending",
    "responsible_agency": "Department of Sanitation",
    "final_address": "6443 Congress Dr",
    "address_councildis": "D",
    "status": "Assigned to Contractor",
    "contractor": "IV Waste",
    "rowid": "1178892",
    "final_x": "3690677.068",
    "final_y": "557328.864027",
    "longitude": "-90.03817139865092",
    "latitude": "30.026178912399683",
    "geocoded_column": {
      "latitude": "30.026178912399683",
      "longitude": "-90.03817139865092"
    }
  },
  {
    "service_request": "2025-1178891",
    "request_type": "Health Related Request",
    "request_reason": "Homeless Encampment Complaint",
    "date_created": "2025-03-26T15:40:59.000",
    "date_modified": "2025-03-26T15:57:42.000",
    "request_status": "Pending",
    "responsible_agency": "Health Department",
    "final_address": "1539 Delachaise St",
    "address_councildis": "B",
    "status": "Pending",
    "rowid": "1178891",
    "final_x": "3673979.10638",
    "final_y": "521150.204857",
    "longitude": "-90.09217331355032",
    "latitude": "29.927208352510544",
    "geocoded_column": {
      "latitude": "29.927208352510544",
      "longitude": "-90.09217331355032"
    }
  },
  {
    "service_request": "2025-1178890",
    "request_type": "Trash/Recycling",
    "request_reason": "Replace Trash Cart",
    "date_created": "2025-03-26T15:39:10.000",
    "date_modified": "2025-03-26T15:39:11.000",
    "request_status": "Pending",
    "responsible_agency": "Department of Sanitation",
    "final_address": "6443 Congress Dr",
    "address_councildis": "D",
    "status": "Assigned to Contractor",
    "contractor": "IV Waste",
    "rowid": "1178890",
    "final_x": "3690677.068",
    "final_y": "557328.864027",
    "longitude": "-90.03817139865092",
    "latitude": "30.026178912399683",
    "geocoded_column": {
      "latitude": "30.026178912399683",
      "longitude": "-90.03817139865092"
    }
  },
  {
    "service_request": "2025-1178889",
    "request_type": "Trash/Recycling",
    "request_reason": "Replace Trash Cart",
    "date_created": "2025-03-26T15:35:20.000",
    "date_modified": "2025-03-26T15:35:22.000",
    "request_status": "Pending",
    "responsible_agency": "Department of Sanitation",
    "final_address": "8910 Apple St",
    "address_councildis": "A",
    "status": "Assigned to Contractor",
    "contractor": "IV Waste",
    "rowid": "1178889",
    "final_x": "3663167.12551",
    "final_y": "534048.003461",
    "longitude": "-90.12587509677661",
    "latitude": "29.962990765941534",
    "geocoded_column": {
      "latitude": "29.962990765941534",
      "longitude": "-90.12587509677661"
    }
  },
  {
    "service_request": "2025-1178888",
    "request_type": "Abandoned Vehicles",
    "request_reason": "Abandoned/Junk Vehicles",
    "date_created": "2025-03-26T15:31:02.000",
    "date_modified": "2025-03-26T15:31:04.000",
    "request_status": "Pending",
    "responsible_agency": "Department of Public Works",
    "final_address": "LOUISIANA AVE & S SARATOGA ST",
    "address_councildis": "B",
    "status": "Pending",
    "rowid": "1178888",
    "final_x": "3673466.8",
    "final_y": "523186.48",
    "longitude": "-90.09372099646559",
    "latitude": "29.932822700214924",
    "geocoded_column": {
      "latitude": "29.932822700214924",
      "longitude": "-90.09372099646559"
    }
  },
  {
    "service_request": "2025-1178887",
    "request_type": "Parks & Parkways",
    "request_reason": "Request Tree Service (Right of Way/Public Property)",
    "date_created": "2025-03-26T15:30:01.000",
    "date_modified": "2025-03-26T15:30:03.000",
    "request_status": "Pending",
    "responsible_agency": "Department of Parks & Parkway",
    "final_address": "6061 General Diaz St",
    "address_councildis": "A",
    "status": "Pending",
    "rowid": "1178887",
    "final_x": "3669640.40858",
    "final_y": "547654.93941",
    "longitude": "-90.10497257102575",
    "latitude": "30.00021606601047",
    "geocoded_column": {
      "latitude": "30.00021606601047",
      "longitude": "-90.10497257102575"
    }
  },
  {
    "service_request": "2025-1178886",
    "request_type": "Trash/Recycling",
    "request_reason": "Request a Large Item Pick Up",
    "date_created": "2025-03-26T15:29:02.000",
    "date_modified": "2025-03-26T15:29:03.000",
    "request_status": "Pending",
    "responsible_agency": "Department of Sanitation",
    "final_address": "5230 Wilton Dr",
    "address_councildis": "D",
    "status": "Assigned to Contractor",
    "contractor": "IV Waste",
    "rowid": "1178886",
    "final_x": "3681871.32424",
    "final_y": "551866.85679",
    "longitude": "-90.06618731724014",
    "latitude": "30.011431126917795",
    "geocoded_column": {
      "latitude": "30.011431126917795",
      "longitude": "-90.06618731724014"
    }
  },
  {
    "service_request": "2025-1178885",
    "request_type": "Trash/Recycling",
    "request_reason": "Request a Large Item Pick Up",
    "date_created": "2025-03-26T15:28:07.000",
    "date_modified": "2025-03-26T15:28:09.000",
    "request_status": "Pending",
    "responsible_agency": "Department of Sanitation",
    "final_address": "4290 Trieste St",
    "address_councildis": "E",
    "status": "Assigned to Contractor",
    "contractor": "Waste Pro",
    "rowid": "1178885",
    "final_x": "3760077.41148",
    "final_y": "573309.170858",
    "longitude": "-89.8182128912764",
    "latitude": "30.067778050141754",
    "geocoded_column": {
      "latitude": "30.067778050141754",
      "longitude": "-89.8182128912764"
    }
  },
  {
    "service_request": "2025-1178884",
    "request_type": "General Services",
    "request_reason": "General Service Request",
    "date_created": "2025-03-26T15:27:25.000",
    "date_modified": "2025-03-26T16:05:40.000",
    "case_close_date": "2025-03-26T11:05:40.000",
    "request_status": "Closed",
    "responsible_agency": "Orleans Parish Communication District",
    "final_address": "6964 Colbert St",
    "address_councildis": "A",
    "status": "Referred to External Agency",
    "rowid": "1178884",
    "final_x": "3667915.27092",
    "final_y": "553940.186008",
    "longitude": "-90.110210448589",
    "latitude": "30.017549035544498",
    "geocoded_column": {
      "latitude": "30.017549035544498",
      "longitude": "-90.110210448589"
    }
  },
  {
    "service_request": "2025-1178883",
    "request_type": "Abandoned Vehicles",
    "request_reason": "Abandoned/Junk Vehicles",
    "date_created": "2025-03-26T15:26:26.000",
    "date_modified": "2025-03-26T15:26:27.000",
    "request_status": "Pending",
    "responsible_agency": "Department of Public Works",
    "final_address": "1121 Antonine St",
    "address_councildis": "B",
    "status": "Pending",
    "rowid": "1178883",
    "final_x": "3673853.00584",
    "final_y": "519401.796663",
    "longitude": "-90.09263114357188",
    "latitude": "29.922404547079868",
    "geocoded_column": {
      "latitude": "29.922404547079868",
      "longitude": "-90.09263114357188"
    }
  },
  {
    "service_request": "2025-1178882",
    "request_type": "Trash/Recycling",
    "request_reason": "Replace Trash Cart",
    "date_created": "2025-03-26T15:25:33.000",
    "date_modified": "2025-03-26T15:25:35.000",
    "request_status": "Pending",
    "responsible_agency": "Department of Sanitation",
    "final_address": "2311 St Charles Ave",
    "address_councildis": "B",
    "status": "Assigned to Contractor",
    "contractor": "IV Waste",
    "rowid": "1178882",
    "final_x": "3677020.30766",
    "final_y": "523342.090683",
    "longitude": "-90.08249747752873",
    "latitude": "29.933144394342175",
    "geocoded_column": {
      "latitude": "29.933144394342175",
      "longitude": "-90.08249747752873"
    }
  },
  {
    "service_request": "2025-1178881",
    "request_type": "Trash/Recycling",
    "request_reason": "Repair Trash Cart",
    "date_created": "2025-03-26T15:25:16.000",
    "date_modified": "2025-03-26T15:25:18.000",
    "request_status": "Pending",
    "responsible_agency": "Department of Sanitation",
    "final_address": "7350 Beauvoir Ct",
    "address_councildis": "E",
    "status": "Assigned to Contractor",
    "contractor": "Waste Pro",
    "rowid": "1178881",
    "final_x": "3715938.49912",
    "final_y": "567981.067621",
    "longitude": "-89.95794525861535",
    "latitude": "30.054658856484455",
    "geocoded_column": {
      "latitude": "30.054658856484455",
      "longitude": "-89.95794525861535"
    }
  },
  {
    "service_request": "2025-1178880",
    "request_type": "Abandoned Vehicles",
    "request_reason": "Abandoned/Junk Vehicles",
    "date_created": "2025-03-26T15:22:13.000",
    "date_modified": "2025-03-26T15:22:14.000",
    "request_status": "Pending",
    "responsible_agency": "Department of Public Works",
    "final_address": "4651 Lancelot Dr",
    "address_councildis": "E",
    "status": "Pending",
    "rowid": "1178880",
    "final_x": "3707588.28868",
    "final_y": "554835.752216",
    "longitude": "-89.9848271908164",
    "latitude": "30.018787390169486",
    "geocoded_column": {
      "latitude": "30.018787390169486",
      "longitude": "-89.9848271908164"
    }
  },
  {
    "service_request": "2025-1178879",
    "request_type": "Trash/Recycling",
    "request_reason": "Order Trash Cart",
    "date_created": "2025-03-26T15:21:52.000",
    "date_modified": "2025-03-26T15:21:54.000",
    "request_status": "Pending",
    "responsible_agency": "Department of Sanitation",
    "final_address": "1915 Martin Luther King, Jr. Blvd",
    "address_councildis": "B",
    "status": "Assigned to Contractor",
    "contractor": "IV Waste",
    "rowid": "1178879",
    "final_x": "3677947.1908",
    "final_y": "526406.231614",
    "longitude": "-90.07946551597472",
    "latitude": "29.94154191874119",
    "geocoded_column": {
      "latitude": "29.94154191874119",
      "longitude": "-90.07946551597472"
    }
  },
  {
    "service_request": "2025-1178878",
    "request_type": "Street and Traffic Signs",
    "request_reason": "Additional Signage Request",
    "date_created": "2025-03-26T15:21:25.000",
    "date_modified": "2025-03-26T15:21:27.000",
    "request_status": "Pending",
    "responsible_agency": "Department of Public Works",
    "final_address": "600 BLK Florida Blvd",
    "address_councildis": "A",
    "status": "Pending",
    "rowid": "1178878",
    "final_x": "3668074.82753",
    "final_y": "545445.151351",
    "longitude": "-90.10999287506974",
    "latitude": "29.99418596593573",
    "geocoded_column": {
      "latitude": "29.99418596593573",
      "longitude": "-90.10999287506974"
    }
  },
  {
    "service_request": "2025-1178877",
    "request_type": "Abandoned Vehicles",
    "request_reason": "Abandoned/Junk Vehicles",
    "date_created": "2025-03-26T15:17:04.000",
    "date_modified": "2025-03-26T15:17:06.000",
    "request_status": "Pending",
    "responsible_agency": "Department of Public Works",
    "final_address": "5309 Spain St",
    "address_councildis": "D",
    "status": "Pending",
    "rowid": "1178877",
    "final_x": "3684871.991",
    "final_y": "552668.232662",
    "longitude": "-90.05667878555364",
    "latitude": "30.013543034412653",
    "geocoded_column": {
      "latitude": "30.013543034412653",
      "longitude": "-90.05667878555364"
    }
  },
  {
    "service_request": "2025-1178876",
    "request_type": "Mosquito, Termite & Rodent Control",
    "request_reason": "Rodent Complaint (Rats)",
    "date_created": "2025-03-26T15:15:40.000",
    "date_modified": "2025-03-26T15:15:42.000",
    "request_status": "Pending",
    "responsible_agency": "Mosquito, Termite & Rodent Control Board",
    "final_address": "2524 St Thomas St",
    "address_councildis": "B",
    "status": "Pending",
    "rowid": "1178876",
    "final_x": "3678671.40603",
    "final_y": "519663.211",
    "longitude": "-90.07741236722671",
    "latitude": "29.922979013342065",
    "geocoded_column": {
      "latitude": "29.922979013342065",
      "longitude": "-90.07741236722671"
    }
  },
  {
    "service_request": "2025-1178875",
    "request_type": "Trash/Recycling",
    "request_reason": "Order Trash Cart",
    "date_created": "2025-03-26T15:14:08.000",
    "date_modified": "2025-03-26T15:14:10.000",
    "request_status": "Pending",
    "responsible_agency": "Department of Sanitation",
    "final_address": "3824 Louisiana Avenue Prkwy",
    "address_councildis": "B",
    "status": "Assigned to Contractor",
    "contractor": "IV Waste",
    "rowid": "1178875",
    "final_x": "3671187.29563",
    "final_y": "528921.23264",
    "longitude": "-90.10072248113252",
    "latitude": "29.948659017581736",
    "geocoded_column": {
      "latitude": "29.948659017581736",
      "longitude": "-90.10072248113252"
    }
  },
  {
    "service_request": "2025-1178874",
    "request_type": "Trash/Recycling",
    "request_reason": "Replace Trash Cart",
    "date_created": "2025-03-26T15:12:40.000",
    "date_modified": "2025-03-26T15:13:09.000",
    "request_status": "Pending",
    "responsible_agency": "Department of Sanitation",
    "final_address": "11299 Midpoint Dr",
    "address_councildis": "E",
    "status": "Assigned to Contractor",
    "contractor": "Waste Pro",
    "rowid": "1178874",
    "final_x": "3718522.94738",
    "final_y": "559684.433053",
    "longitude": "-89.95009305512761",
    "latitude": "30.031760948250856",
    "geocoded_column": {
      "latitude": "30.031760948250856",
      "longitude": "-89.95009305512761"
    }
  },
  {
    "service_request": "2025-1178873",
    "request_type": "Abandoned Vehicles",
    "request_reason": "Abandoned/Junk Vehicles",
    "date_created": "2025-03-26T15:11:35.000",
    "date_modified": "2025-03-26T15:11:36.000",
    "request_status": "Pending",
    "responsible_agency": "Department of Public Works",
    "final_address": "4651 Lancelot Dr",
    "address_councildis": "E",
    "status": "Pending",
    "rowid": "1178873",
    "final_x": "3707588.28868",
    "final_y": "554835.752216",
    "longitude": "-89.9848271908164",
    "latitude": "30.018787390169486",
    "geocoded_column": {
      "latitude": "30.018787390169486",
      "longitude": "-89.9848271908164"
    }
  },
  {
    "service_request": "2025-1178872",
    "request_type": "Trash/Recycling",
    "request_reason": "Request a Large Item Pick Up",
    "date_created": "2025-03-26T15:11:29.000",
    "date_modified": "2025-03-26T15:11:31.000",
    "request_status": "Pending",
    "responsible_agency": "Department of Sanitation",
    "final_address": "5222 Annunciation St",
    "address_councildis": "B",
    "status": "Assigned to Contractor",
    "contractor": "IV Waste",
    "rowid": "1178872",
    "final_x": "3667812.88884",
    "final_y": "517527.868022",
    "longitude": "-90.11176046276528",
    "latitude": "29.91743028482488",
    "geocoded_column": {
      "latitude": "29.91743028482488",
      "longitude": "-90.11176046276528"
    }
  },
  {
    "service_request": "2025-1178871",
    "request_type": "Trash/Recycling",
    "request_reason": "Replace Trash Cart",
    "date_created": "2025-03-26T15:07:15.000",
    "date_modified": "2025-03-26T15:07:18.000",
    "request_status": "Pending",
    "responsible_agency": "Department of Sanitation",
    "final_address": "2123 Laurel St",
    "address_councildis": "B",
    "status": "Assigned to Contractor",
    "contractor": "IV Waste",
    "rowid": "1178871",
    "final_x": "3679372.62331",
    "final_y": "521703.954106",
    "longitude": "-90.07512816152257",
    "latitude": "29.928569238862977",
    "geocoded_column": {
      "latitude": "29.928569238862977",
      "longitude": "-90.07512816152257"
    }
  },
  {
    "service_request": "2025-1178870",
    "request_type": "Trash/Recycling",
    "request_reason": "Request a Large Item Pick Up",
    "date_created": "2025-03-26T15:05:51.000",
    "date_modified": "2025-03-26T15:05:53.000",
    "request_status": "Pending",
    "responsible_agency": "Department of Sanitation",
    "final_address": "5734 St Bernard Ave",
    "address_councildis": "D",
    "status": "Assigned to Contractor",
    "contractor": "IV Waste",
    "rowid": "1178870",
    "final_x": "3676753.80353",
    "final_y": "553601.171799",
    "longitude": "-90.08229585448998",
    "latitude": "30.016354488013192",
    "geocoded_column": {
      "latitude": "30.016354488013192",
      "longitude": "-90.08229585448998"
    }
  },
  {
    "service_request": "2025-1178869",
    "request_type": "Trash/Recycling",
    "request_reason": "Request a Large Item Pick Up",
    "date_created": "2025-03-26T15:04:06.000",
    "date_modified": "2025-03-26T15:04:08.000",
    "request_status": "Pending",
    "responsible_agency": "Department of Sanitation",
    "final_address": "7733 Dogwood Dr",
    "address_councildis": "E",
    "status": "Assigned to Contractor",
    "contractor": "Waste Pro",
    "rowid": "1178869",
    "final_x": "3701189.50801",
    "final_y": "561475.559775",
    "longitude": "-90.00480167669622",
    "latitude": "30.037249807357217",
    "geocoded_column": {
      "latitude": "30.037249807357217",
      "longitude": "-90.00480167669622"
    }
  },
  {
    "service_request": "2025-1178868",
    "request_type": "Trash/Recycling",
    "request_reason": "Replace Trash Cart",
    "date_created": "2025-03-26T15:03:51.000",
    "date_modified": "2025-03-26T15:03:53.000",
    "request_status": "Pending",
    "responsible_agency": "Department of Sanitation",
    "final_address": "2125 Laurel St",
    "address_councildis": "B",
    "status": "Assigned to Contractor",
    "contractor": "IV Waste",
    "rowid": "1178868",
    "final_x": "3679418.74837",
    "final_y": "521645.309817",
    "longitude": "-90.07498458753888",
    "latitude": "29.928406593521494",
    "geocoded_column": {
      "latitude": "29.928406593521494",
      "longitude": "-90.07498458753888"
    }
  },
  {
    "service_request": "2025-1178867",
    "request_type": "Drainage",
    "request_reason": "Catch Basin Clogged",
    "date_created": "2025-03-26T15:03:29.000",
    "date_modified": "2025-03-26T15:03:31.000",
    "request_status": "Pending",
    "responsible_agency": "Sewerage & Water Board ",
    "final_address": "1760 N Rampart St",
    "address_councildis": "C",
    "status": "Pending",
    "rowid": "1178867",
    "final_x": "3683509.39151",
    "final_y": "535788.860679",
    "longitude": "-90.06157578722058",
    "latitude": "29.96717242249344",
    "geocoded_column": {
      "latitude": "29.96717242249344",
      "longitude": "-90.06157578722058"
    }
  },
  {
    "service_request": "2025-1178866",
    "request_type": "Abandoned Vehicles",
    "request_reason": "Abandoned/Junk Vehicles",
    "date_created": "2025-03-26T15:03:11.000",
    "date_modified": "2025-03-26T15:03:13.000",
    "request_status": "Pending",
    "responsible_agency": "Department of Public Works",
    "final_address": "2033 Milan St",
    "address_councildis": "B",
    "status": "Pending",
    "rowid": "1178866",
    "final_x": "3671459.35835",
    "final_y": "522667.64729",
    "longitude": "-90.10007597796412",
    "latitude": "29.931455640038727",
    "geocoded_column": {
      "latitude": "29.931455640038727",
      "longitude": "-90.10007597796412"
    }
  },
  {
    "service_request": "2025-1178865",
    "request_type": "Trash/Recycling",
    "request_reason": "Missed Trash Pick-Up",
    "date_created": "2025-03-26T15:02:28.000",
    "date_modified": "2025-03-26T15:02:30.000",
    "request_status": "Pending",
    "responsible_agency": "Department of Sanitation",
    "final_address": "409 Elmira Ave",
    "address_councildis": "C",
    "status": "Assigned to Contractor",
    "contractor": "Richards Disposal",
    "rowid": "1178865",
    "final_x": "3688176.04982",
    "final_y": "530228.045121",
    "longitude": "-90.04703561382718",
    "latitude": "29.95173886187986",
    "geocoded_column": {
      "latitude": "29.95173886187986",
      "longitude": "-90.04703561382718"
    }
  },
  {
    "service_request": "2025-1178864",
    "request_type": "Trash/Recycling",
    "request_reason": "Order Recycling Cart",
    "date_created": "2025-03-26T15:02:04.000",
    "date_modified": "2025-03-26T15:02:06.000",
    "request_status": "Pending",
    "responsible_agency": "Department of Sanitation",
    "final_address": "1845 E Homestead Dr",
    "address_councildis": "C",
    "status": "Pending",
    "rowid": "1178864",
    "final_x": "3697104.85085",
    "final_y": "525040.397629",
    "longitude": "-90.0190307748786",
    "latitude": "29.937196010554366",
    "geocoded_column": {
      "latitude": "29.937196010554366",
      "longitude": "-90.0190307748786"
    }
  },
  {
    "service_request": "2025-1178863",
    "request_type": "Trash/Recycling",
    "request_reason": "Request a Large Item Pick Up",
    "date_created": "2025-03-26T15:01:04.000",
    "date_modified": "2025-03-26T15:01:07.000",
    "request_status": "Pending",
    "responsible_agency": "Department of Sanitation",
    "final_address": "2137 Hope St",
    "address_councildis": "D",
    "status": "Assigned to Contractor",
    "contractor": "IV Waste",
    "rowid": "1178863",
    "final_x": "3683802.08668",
    "final_y": "542194.569741",
    "longitude": "-90.06042672869755",
    "latitude": "29.98477695074294",
    "geocoded_column": {
      "latitude": "29.98477695074294",
      "longitude": "-90.06042672869755"
    }
  },
  {
    "service_request": "2025-1178862",
    "request_type": "Abandoned Vehicles",
    "request_reason": "Abandoned/Junk Vehicles",
    "date_created": "2025-03-26T14:53:51.000",
    "date_modified": "2025-03-26T14:53:53.000",
    "request_status": "Pending",
    "responsible_agency": "Department of Public Works",
    "final_address": "LOUISA ST & ALJA MEYERS PL",
    "address_councildis": "D",
    "status": "Pending",
    "rowid": "1178862",
    "final_x": "3691947.54",
    "final_y": "545288.29",
    "longitude": "-90.0345881154641",
    "latitude": "29.99303224134298",
    "geocoded_column": {
      "latitude": "29.99303224134298",
      "longitude": "-90.0345881154641"
    }
  },
  {
    "service_request": "2025-1178861",
    "request_type": "Trash/Recycling",
    "request_reason": "Request a Large Item Pick Up",
    "date_created": "2025-03-26T14:51:44.000",
    "date_modified": "2025-03-26T14:51:46.000",
    "request_status": "Pending",
    "responsible_agency": "Department of Sanitation",
    "final_address": "7601 Tricia Ct",
    "address_councildis": "E",
    "status": "Assigned to Contractor",
    "contractor": "Waste Pro",
    "rowid": "1178861",
    "final_x": "3717934.97157",
    "final_y": "570921.410663",
    "longitude": "-89.95152284824184",
    "latitude": "30.062677535938516",
    "geocoded_column": {
      "latitude": "30.062677535938516",
      "longitude": "-89.95152284824184"
    }
  },
  {
    "service_request": "2025-1178860",
    "request_type": "Trash/Recycling",
    "request_reason": "Request a Large Item Pick Up",
    "date_created": "2025-03-26T14:48:41.000",
    "date_modified": "2025-03-26T14:48:43.000",
    "request_status": "Pending",
    "responsible_agency": "Department of Sanitation",
    "final_address": "812 Foucher St",
    "address_councildis": "B",
    "status": "Assigned to Contractor",
    "contractor": "IV Waste",
    "rowid": "1178860",
    "final_x": "3674440.4763",
    "final_y": "518368.772598",
    "longitude": "-90.09081209537266",
    "latitude": "29.919546558059444",
    "geocoded_column": {
      "latitude": "29.919546558059444",
      "longitude": "-90.09081209537266"
    }
  },
  {
    "service_request": "2025-1178859",
    "request_type": "Trash/Recycling",
    "request_reason": "Request a Large Item Pick Up",
    "date_created": "2025-03-26T14:47:10.000",
    "date_modified": "2025-03-26T14:47:11.000",
    "request_status": "Pending",
    "responsible_agency": "Department of Sanitation",
    "final_address": "912 Second St",
    "address_councildis": "B",
    "status": "Assigned to Contractor",
    "contractor": "IV Waste",
    "rowid": "1178859",
    "final_x": "3678121.66414",
    "final_y": "520792.221241",
    "longitude": "-90.07910867980695",
    "latitude": "29.926099981658982",
    "geocoded_column": {
      "latitude": "29.926099981658982",
      "longitude": "-90.07910867980695"
    }
  },
  {
    "service_request": "2025-1178858",
    "request_type": "Trash/Recycling",
    "request_reason": "Repair Trash Cart",
    "date_created": "2025-03-26T14:44:48.000",
    "date_modified": "2025-03-26T14:44:49.000",
    "request_status": "Pending",
    "responsible_agency": "Department of Sanitation",
    "final_address": "2738 Valence St",
    "address_councildis": "B",
    "status": "Assigned to Contractor",
    "contractor": "IV Waste",
    "rowid": "1178858",
    "final_x": "3669280.44538",
    "final_y": "524935.871485",
    "longitude": "-90.1068779209339",
    "latitude": "29.937756831980487",
    "geocoded_column": {
      "latitude": "29.937756831980487",
      "longitude": "-90.1068779209339"
    }
  },
  {
    "service_request": "2025-1178857",
    "request_type": "Drainage",
    "request_reason": "Catch Basin Clogged",
    "date_created": "2025-03-26T14:43:01.000",
    "date_modified": "2025-03-26T14:43:03.000",
    "request_status": "Pending",
    "responsible_agency": "Sewerage & Water Board ",
    "final_address": "2614 Painters St",
    "address_councildis": "D",
    "status": "Pending",
    "rowid": "1178857",
    "final_x": "3687066.76476",
    "final_y": "542164.471565",
    "longitude": "-90.05011611475177",
    "latitude": "29.984594065737426",
    "geocoded_column": {
      "latitude": "29.984594065737426",
      "longitude": "-90.05011611475177"
    }
  },
  {
    "service_request": "2025-1178856",
    "request_type": "Abandoned Vehicles",
    "request_reason": "Abandoned/Junk Vehicles",
    "date_created": "2025-03-26T14:42:44.000",
    "date_modified": "2025-03-26T14:42:45.000",
    "request_status": "Pending",
    "responsible_agency": "Department of Public Works",
    "final_address": "511 Dufossat St",
    "address_councildis": "B",
    "status": "Pending",
    "rowid": "1178856",
    "final_x": "3668042.87892",
    "final_y": "517316.469109",
    "longitude": "-90.11104162928059",
    "latitude": "29.91684226021207",
    "geocoded_column": {
      "latitude": "29.91684226021207",
      "longitude": "-90.11104162928059"
    }
  },
  {
    "service_request": "2025-1178854",
    "request_type": "Healthy Homes",
    "request_reason": "Healthy Homes",
    "date_created": "2025-03-26T14:40:45.000",
    "date_modified": "2025-03-26T14:40:47.000",
    "request_status": "Pending",
    "responsible_agency": "Department of Code Enforcement",
    "final_address": "925 Fats Domino Ave",
    "address_councildis": "E",
    "status": "Pending",
    "rowid": "1178854",
    "final_x": "3697923.77552",
    "final_y": "533171.86842",
    "longitude": "-90.01615029209783",
    "latitude": "29.95952885228087",
    "geocoded_column": {
      "latitude": "29.95952885228087",
      "longitude": "-90.01615029209783"
    }
  },
  {
    "service_request": "2025-1178853",
    "request_type": "Trash/Recycling",
    "request_reason": "Request a Large Item Pick Up",
    "date_created": "2025-03-26T14:37:45.000",
    "date_modified": "2025-03-26T14:37:48.000",
    "request_status": "Pending",
    "responsible_agency": "Department of Sanitation",
    "final_address": "2030 Burgundy St",
    "address_councildis": "C",
    "status": "Assigned to Contractor",
    "contractor": "IV Waste",
    "rowid": "1178853",
    "final_x": "3684554.94524",
    "final_y": "535514.623814",
    "longitude": "-90.05828356108412",
    "latitude": "29.966386416183127",
    "geocoded_column": {
      "latitude": "29.966386416183127",
      "longitude": "-90.05828356108412"
    }
  },
  {
    "service_request": "2025-1178852",
    "request_type": "Roads and Streets",
    "request_reason": "Debris in Driving Lanes",
    "date_created": "2025-03-26T14:34:41.000",
    "date_modified": "2025-03-26T14:34:43.000",
    "request_status": "Pending",
    "responsible_agency": "Department of Public Works",
    "final_address": "2811 Dauphine St",
    "address_councildis": "C",
    "status": "Pending",
    "rowid": "1178852",
    "final_x": "3687546.95414",
    "final_y": "535173.010438",
    "longitude": "-90.04884696077241",
    "latitude": "29.965355212093442",
    "geocoded_column": {
      "latitude": "29.965355212093442",
      "longitude": "-90.04884696077241"
    }
  },
  {
    "service_request": "2025-1178851",
    "request_type": "Trash/Recycling",
    "request_reason": "Request a Large Item Pick Up",
    "date_created": "2025-03-26T14:33:10.000",
    "date_modified": "2025-03-26T14:33:12.000",
    "request_status": "Pending",
    "responsible_agency": "Department of Sanitation",
    "final_address": "4346 Wellington Ave",
    "address_councildis": "D",
    "status": "Assigned to Contractor",
    "contractor": "IV Waste",
    "rowid": "1178851",
    "final_x": "3677154.53723",
    "final_y": "548412.33909",
    "longitude": "-90.08120886040687",
    "latitude": "30.00207501544259",
    "geocoded_column": {
      "latitude": "30.00207501544259",
      "longitude": "-90.08120886040687"
    }
  },
  {
    "service_request": "2025-1178850",
    "request_type": "Roads and Streets",
    "request_reason": "Street Subsidence (Sinking)",
    "date_created": "2025-03-26T14:33:05.000",
    "date_modified": "2025-03-26T14:33:06.000",
    "request_status": "Pending",
    "responsible_agency": "Department of Public Works",
    "final_address": "8801 Colapissa St",
    "address_councildis": "A",
    "status": "Pending",
    "rowid": "1178850",
    "final_x": "3664706.46151",
    "final_y": "535120.409862",
    "longitude": "-90.12097821082436",
    "latitude": "29.96589483849363",
    "geocoded_column": {
      "latitude": "29.96589483849363",
      "longitude": "-90.12097821082436"
    }
  },
  {
    "service_request": "2025-1178849",
    "request_type": "Parks & Parkways",
    "request_reason": "Request Tree Service (Right of Way/Public Property)",
    "date_created": "2025-03-26T14:29:20.000",
    "date_modified": "2025-03-26T14:29:21.000",
    "request_status": "Pending",
    "responsible_agency": "Department of Parks & Parkway",
    "final_address": "4600 Stephen Girard Ave",
    "address_councildis": "D",
    "status": "Pending",
    "rowid": "1178849",
    "final_x": "3691162.41852",
    "final_y": "550353.79394",
    "longitude": "-90.0368871284233",
    "latitude": "30.00698497284341",
    "geocoded_column": {
      "latitude": "30.00698497284341",
      "longitude": "-90.0368871284233"
    }
  },
  {
    "service_request": "2025-1178848",
    "request_type": "Property Maintenance",
    "request_reason": "Property Maintenance",
    "date_created": "2025-03-26T14:28:03.000",
    "date_modified": "2025-03-26T14:28:05.000",
    "request_status": "Pending",
    "responsible_agency": "Department of Code Enforcement",
    "final_address": "5022 Chartres St",
    "address_councildis": "E",
    "status": "Pending",
    "rowid": "1178848",
    "final_x": "3695641.45482",
    "final_y": "532348.995651",
    "longitude": "-90.02338699953044",
    "latitude": "29.957338184831247",
    "geocoded_column": {
      "latitude": "29.957338184831247",
      "longitude": "-90.02338699953044"
    }
  },
  {
    "service_request": "2025-1178847",
    "request_type": "Trash/Recycling",
    "request_reason": "Illegal Dumping",
    "date_created": "2025-03-26T14:27:24.000",
    "date_modified": "2025-03-26T14:27:26.000",
    "request_status": "Pending",
    "responsible_agency": "Department of Sanitation",
    "final_address": "2737 Cupid St",
    "address_councildis": "C",
    "status": "Pending",
    "rowid": "1178847",
    "final_x": "3700263.57892",
    "final_y": "520655.041017",
    "longitude": "-90.00921853111788",
    "latitude": "29.925037795620717",
    "geocoded_column": {
      "latitude": "29.925037795620717",
      "longitude": "-90.00921853111788"
    }
  },
  {
    "service_request": "2025-1178846",
    "request_type": "Parks & Parkways",
    "request_reason": "Request Tree Service (Right of Way/Public Property)",
    "date_created": "2025-03-26T14:26:51.000",
    "date_modified": "2025-03-26T14:26:53.000",
    "request_status": "Pending",
    "responsible_agency": "Department of Parks & Parkway",
    "final_address": "6201 Fontainebleau Dr",
    "address_councildis": "B",
    "status": "Pending",
    "rowid": "1178846",
    "final_x": "3668092.35271",
    "final_y": "530066.060161",
    "longitude": "-90.11045598198213",
    "latitude": "29.951898102098877",
    "geocoded_column": {
      "latitude": "29.951898102098877",
      "longitude": "-90.11045598198213"
    }
  },
  {
    "service_request": "2025-1178845",
    "request_type": "Trash/Recycling",
    "request_reason": "Request a Large Item Pick Up",
    "date_created": "2025-03-26T14:19:54.000",
    "date_modified": "2025-03-26T14:19:56.000",
    "request_status": "Pending",
    "responsible_agency": "Department of Sanitation",
    "final_address": "1813 Aubry St",
    "address_councildis": "D",
    "status": "Assigned to Contractor",
    "contractor": "IV Waste",
    "rowid": "1178845",
    "final_x": "3682191.86556",
    "final_y": "539204.493706",
    "longitude": "-90.06561720375733",
    "latitude": "29.976604374007962",
    "geocoded_column": {
      "latitude": "29.976604374007962",
      "longitude": "-90.06561720375733"
    }
  },
  {
    "service_request": "2025-1178844",
    "request_type": "Trash/Recycling",
    "request_reason": "Request a Large Item Pick Up",
    "date_created": "2025-03-26T14:19:46.000",
    "date_modified": "2025-03-26T14:19:49.000",
    "request_status": "Pending",
    "responsible_agency": "Department of Sanitation",
    "final_address": "5003 St Claude Ave",
    "address_councildis": "E",
    "status": "Assigned to Contractor",
    "contractor": "Waste Pro",
    "rowid": "1178844",
    "final_x": "3696036.356",
    "final_y": "534362.250309",
    "longitude": "-90.02206727690286",
    "latitude": "29.96286150451192",
    "geocoded_column": {
      "latitude": "29.96286150451192",
      "longitude": "-90.02206727690286"
    }
  },
  {
    "service_request": "2025-1178843",
    "request_type": "Traffic Signals",
    "request_reason": "Traffic Signal Malfunctioning or Damaged",
    "date_created": "2025-03-26T14:19:46.000",
    "date_modified": "2025-03-26T14:19:49.000",
    "request_status": "Pending",
    "responsible_agency": "Department of Public Works",
    "final_address": "6600 BLK Chef Menteur Hwy",
    "address_councildis": "E",
    "status": "Pending",
    "rowid": "1178843",
    "final_x": "3699228.06739",
    "final_y": "551918.483877",
    "longitude": "-90.0113486931461",
    "latitude": "30.011033890337334",
    "geocoded_column": {
      "latitude": "30.011033890337334",
      "longitude": "-90.0113486931461"
    }
  },
  {
    "service_request": "2025-1178842",
    "request_type": "Parks & Parkways",
    "request_reason": "Request Grass Cutting Service (City Owned Property)",
    "date_created": "2025-03-26T14:19:27.000",
    "date_modified": "2025-03-26T14:19:30.000",
    "request_status": "Pending",
    "responsible_agency": "Department of Parks & Parkway",
    "final_address": "7700 Berg Rd",
    "address_councildis": "E",
    "status": "Pending",
    "rowid": "1178842",
    "final_x": "3711700.39582",
    "final_y": "567021.086692",
    "longitude": "-89.97137690207978",
    "latitude": "30.05215849464439",
    "geocoded_column": {
      "latitude": "30.05215849464439",
      "longitude": "-89.97137690207978"
    }
  },
  {
    "service_request": "2025-1178841",
    "request_type": "Trash/Recycling",
    "request_reason": "Illegal Dumping",
    "date_created": "2025-03-26T14:17:35.000",
    "date_modified": "2025-03-26T14:19:06.000",
    "request_status": "Pending",
    "responsible_agency": "Department of Sanitation",
    "final_address": "1343 Mandeville St",
    "address_councildis": "C",
    "status": "Pending",
    "rowid": "1178841",
    "final_x": "3685724.65615",
    "final_y": "537445.552008",
    "longitude": "-90.05452158476533",
    "latitude": "29.971659955257234",
    "geocoded_column": {
      "latitude": "29.971659955257234",
      "longitude": "-90.05452158476533"
    }
  },
  {
    "service_request": "2025-1178840",
    "request_type": "Trash/Recycling",
    "request_reason": "Request a Large Item Pick Up",
    "date_created": "2025-03-26T14:17:09.000",
    "date_modified": "2025-03-26T14:17:12.000",
    "request_status": "Pending",
    "responsible_agency": "Department of Sanitation",
    "final_address": "2600 Jefferson Ave",
    "address_councildis": "A",
    "status": "Assigned to Contractor",
    "contractor": "IV Waste",
    "rowid": "1178840",
    "final_x": "3668040.69351",
    "final_y": "525022.496957",
    "longitude": "-90.11078901030767",
    "latitude": "29.93803145339935",
    "geocoded_column": {
      "latitude": "29.93803145339935",
      "longitude": "-90.11078901030767"
    }
  },
  {
    "service_request": "2025-1178839",
    "request_type": "Streetlights",
    "request_reason": "Streetlight Outage/Malfunction",
    "date_created": "2025-03-26T14:13:43.000",
    "date_modified": "2025-03-26T14:13:46.000",
    "request_status": "Pending",
    "responsible_agency": "Department of Public Works",
    "final_address": "2325 Bienville Ave",
    "address_councildis": "B",
    "status": "Pending",
    "contractor": "Legacy Professional Services",
    "rowid": "1178839",
    "final_x": "3677025.40603",
    "final_y": "534895.64487",
    "longitude": "-90.08208309079829",
    "latitude": "29.964912668762462",
    "geocoded_column": {
      "latitude": "29.964912668762462",
      "longitude": "-90.08208309079829"
    }
  },
  {
    "service_request": "2025-1178838",
    "request_type": "Parks & Parkways",
    "request_reason": "Request Tree Service (Right of Way/Public Property)",
    "date_created": "2025-03-26T14:12:33.000",
    "date_modified": "2025-03-26T14:12:35.000",
    "request_status": "Pending",
    "responsible_agency": "Department of Parks & Parkway",
    "final_address": "3100 BLK Johnny Jackson Jr Blvd",
    "address_councildis": "D",
    "status": "Pending",
    "rowid": "1178838",
    "final_x": "3691615.17316",
    "final_y": "543965.281936",
    "longitude": "-90.03568532943528",
    "latitude": "29.989404802193626",
    "geocoded_column": {
      "latitude": "29.989404802193626",
      "longitude": "-90.03568532943528"
    }
  },
  {
    "service_request": "2025-1178837",
    "request_type": "Trash/Recycling",
    "request_reason": "Request a Large Item Pick Up",
    "date_created": "2025-03-26T14:12:28.000",
    "date_modified": "2025-03-26T14:12:30.000",
    "request_status": "Pending",
    "responsible_agency": "Department of Sanitation",
    "final_address": "938 Royal St",
    "address_councildis": "C",
    "status": "Assigned to Contractor",
    "contractor": "IV Waste",
    "rowid": "1178837",
    "final_x": "3683208.30997",
    "final_y": "533278.588036",
    "longitude": "-90.0626145186917",
    "latitude": "29.960279220533877",
    "geocoded_column": {
      "latitude": "29.960279220533877",
      "longitude": "-90.0626145186917"
    }
  },
  {
    "service_request": "2025-1178836",
    "request_type": "Property Maintenance",
    "request_reason": "Property Maintenance",
    "date_created": "2025-03-26T14:11:28.000",
    "date_modified": "2025-03-26T14:11:30.000",
    "request_status": "Pending",
    "responsible_agency": "Department of Code Enforcement",
    "final_address": "1517 General Ogden St",
    "address_councildis": "A",
    "status": "Pending",
    "rowid": "1178836",
    "final_x": "3660716.50541",
    "final_y": "531151.92781",
    "longitude": "-90.13370964352679",
    "latitude": "29.955098274705538",
    "geocoded_column": {
      "latitude": "29.955098274705538",
      "longitude": "-90.13370964352679"
    }
  },
  {
    "service_request": "2025-1178835",
    "request_type": "Abandoned Vehicles",
    "request_reason": "Abandoned/Junk Vehicles",
    "date_created": "2025-03-26T14:10:37.000",
    "date_modified": "2025-03-26T14:10:38.000",
    "request_status": "Pending",
    "responsible_agency": "Department of Public Works",
    "final_address": "1800 BLK Benton St",
    "address_councildis": "E",
    "status": "Pending",
    "rowid": "1178835",
    "final_x": "3699897.43842",
    "final_y": "536245.759973",
    "longitude": "-90.00980584528227",
    "latitude": "29.96791842199217",
    "geocoded_column": {
      "latitude": "29.96791842199217",
      "longitude": "-90.00980584528227"
    }
  },
  {
    "service_request": "2025-1178834",
    "request_type": "Trash/Recycling",
    "request_reason": "Order Trash Cart",
    "date_created": "2025-03-26T14:10:21.000",
    "date_modified": "2025-03-26T14:10:23.000",
    "request_status": "Pending",
    "responsible_agency": "Department of Sanitation",
    "final_address": "3213 Deers St",
    "address_councildis": "D",
    "status": "Assigned to Contractor",
    "contractor": "IV Waste",
    "rowid": "1178834",
    "final_x": "3688016.69519",
    "final_y": "544890.411215",
    "longitude": "-90.04701905395353",
    "latitude": "29.992060139448338",
    "geocoded_column": {
      "latitude": "29.992060139448338",
      "longitude": "-90.04701905395353"
    }
  },
  {
    "service_request": "2025-1178833",
    "request_type": "Trash/Recycling",
    "request_reason": "Replace Recycling Cart",
    "date_created": "2025-03-26T14:07:26.000",
    "date_modified": "2025-03-26T14:07:28.000",
    "request_status": "Pending",
    "responsible_agency": "Department of Sanitation",
    "final_address": "2729 Danbury Dr",
    "address_councildis": "C",
    "status": "Pending",
    "rowid": "1178833",
    "final_x": "3703595.20081",
    "final_y": "520715.602297",
    "longitude": "-89.99869953189645",
    "latitude": "29.925098036398424",
    "geocoded_column": {
      "latitude": "29.925098036398424",
      "longitude": "-89.99869953189645"
    }
  },
  {
    "service_request": "2025-1178832",
    "request_type": "Trash/Recycling",
    "request_reason": "Replace Recycling Cart",
    "date_created": "2025-03-26T14:04:48.000",
    "date_modified": "2025-03-26T14:04:49.000",
    "request_status": "Pending",
    "responsible_agency": "Department of Sanitation",
    "final_address": "831 N Hennessey St",
    "address_councildis": "A",
    "status": "Pending",
    "rowid": "1178832",
    "final_x": "3671968.68225",
    "final_y": "541231.403596",
    "longitude": "-90.09783621006507",
    "latitude": "29.98248472640506",
    "geocoded_column": {
      "latitude": "29.98248472640506",
      "longitude": "-90.09783621006507"
    }
  },
  {
    "service_request": "2025-1178831",
    "request_type": "Trash/Recycling",
    "request_reason": "Request a Large Item Pick Up",
    "date_created": "2025-03-26T14:04:22.000",
    "date_modified": "2025-03-26T14:04:24.000",
    "request_status": "Pending",
    "responsible_agency": "Department of Sanitation",
    "final_address": "521 Wagner St",
    "address_councildis": "C",
    "status": "Assigned to Contractor",
    "contractor": "Richards Disposal",
    "rowid": "1178831",
    "final_x": "3690535.29379",
    "final_y": "529600.804737",
    "longitude": "-90.03960863856207",
    "latitude": "29.949941133169585",
    "geocoded_column": {
      "latitude": "29.949941133169585",
      "longitude": "-90.03960863856207"
    }
  },
  {
    "service_request": "2025-1178830",
    "request_type": "Streetlights",
    "request_reason": "Streetlight Outage/Malfunction",
    "date_created": "2025-03-26T14:04:20.000",
    "date_modified": "2025-03-26T14:04:21.000",
    "request_status": "Pending",
    "responsible_agency": "Department of Public Works",
    "final_address": "420 20Th St",
    "address_councildis": "A",
    "status": "Pending",
    "contractor": "Legacy Professional Services",
    "rowid": "1178830",
    "final_x": "3664608.8672",
    "final_y": "549013.810323",
    "longitude": "-90.12082213337908",
    "latitude": "30.004099847151288",
    "geocoded_column": {
      "latitude": "30.004099847151288",
      "longitude": "-90.12082213337908"
    }
  },
  {
    "service_request": "2025-1178829",
    "request_type": "Healthy Homes",
    "request_reason": "Healthy Homes",
    "date_created": "2025-03-26T14:02:54.000",
    "date_modified": "2025-03-26T14:02:56.000",
    "request_status": "Pending",
    "responsible_agency": "Department of Code Enforcement",
    "final_address": "5802 Mckenna St",
    "address_councildis": "A",
    "status": "Pending",
    "rowid": "1178829",
    "final_x": "3668263.82381",
    "final_y": "529071.196224",
    "longitude": "-90.10994809474933",
    "latitude": "29.949157517903135",
    "geocoded_column": {
      "latitude": "29.949157517903135",
      "longitude": "-90.10994809474933"
    }
  },
  {
    "service_request": "2025-1178828",
    "request_type": "Trash/Recycling",
    "request_reason": "Request a Large Item Pick Up",
    "date_created": "2025-03-26T14:01:35.000",
    "date_modified": "2025-03-26T14:01:38.000",
    "request_status": "Pending",
    "responsible_agency": "Department of Sanitation",
    "final_address": "5441 Urquhart St",
    "address_councildis": "E",
    "status": "Assigned to Contractor",
    "contractor": "Waste Pro",
    "rowid": "1178828",
    "final_x": "3697705.59242",
    "final_y": "534643.904646",
    "longitude": "-90.01678585117743",
    "latitude": "29.963583323530717",
    "geocoded_column": {
      "latitude": "29.963583323530717",
      "longitude": "-90.01678585117743"
    }
  },
  {
    "service_request": "2025-1178827",
    "request_type": "Street and Traffic Signs",
    "request_reason": "Stop Sign Missing or Damaged",
    "date_created": "2025-03-26T14:01:33.000",
    "date_modified": "2025-03-26T14:01:35.000",
    "request_status": "Pending",
    "responsible_agency": "Department of Public Works",
    "final_address": "1200 Milan St",
    "address_councildis": "B",
    "status": "Pending",
    "rowid": "1178827",
    "final_x": "3671641.98267",
    "final_y": "519925.437368",
    "longitude": "-90.09959266288428",
    "latitude": "29.92391003598622",
    "geocoded_column": {
      "latitude": "29.92391003598622",
      "longitude": "-90.09959266288428"
    }
  },
  {
    "service_request": "2025-1178826",
    "request_type": "Trash/Recycling",
    "request_reason": "Illegal Dumping",
    "date_created": "2025-03-26T13:59:56.000",
    "date_modified": "2025-03-26T13:59:58.000",
    "request_status": "Pending",
    "responsible_agency": "Department of Sanitation",
    "final_address": "5701 Wingate Dr",
    "address_councildis": "D",
    "status": "Pending",
    "rowid": "1178826",
    "final_x": "3681364.0838",
    "final_y": "553719.503383",
    "longitude": "-90.06772524631661",
    "latitude": "30.01654064693117",
    "geocoded_column": {
      "latitude": "30.01654064693117",
      "longitude": "-90.06772524631661"
    }
  },
  {
    "service_request": "2025-1178825",
    "request_type": "Abandoned Vehicles",
    "request_reason": "Abandoned/Junk Vehicles",
    "date_created": "2025-03-26T13:55:20.000",
    "date_modified": "2025-03-26T13:57:04.000",
    "request_status": "Pending",
    "responsible_agency": "Department of Public Works",
    "final_address": "2923 Powhatan St",
    "address_councildis": "D",
    "status": "Pending",
    "rowid": "1178825",
    "final_x": "3689331.71311",
    "final_y": "547867.893778",
    "longitude": "-90.04275925935633",
    "latitude": "30.0002064820578",
    "geocoded_column": {
      "latitude": "30.0002064820578",
      "longitude": "-90.04275925935633"
    }
  },
  {
    "service_request": "2025-1178824",
    "request_type": "Roads and Streets",
    "request_reason": "Street Subsidence (Sinking)",
    "date_created": "2025-03-26T13:53:11.000",
    "date_modified": "2025-03-26T13:53:13.000",
    "request_status": "Pending",
    "responsible_agency": "Department of Public Works",
    "final_address": "7900 Hickman St",
    "address_councildis": "E",
    "status": "Pending",
    "rowid": "1178824",
    "final_x": "3705663.61406",
    "final_y": "564034.321057",
    "longitude": "-89.9905678354305",
    "latitude": "30.044141994273073",
    "geocoded_column": {
      "latitude": "30.044141994273073",
      "longitude": "-89.9905678354305"
    }
  },
  {
    "service_request": "2025-1178823",
    "request_type": "Trash/Recycling",
    "request_reason": "Order Second Trash Cart",
    "date_created": "2025-03-26T13:49:54.000",
    "date_modified": "2025-03-26T13:50:17.000",
    "request_status": "Pending",
    "responsible_agency": "Department of Sanitation",
    "final_address": "11231 N Idlewood Ct",
    "address_councildis": "E",
    "status": "Assigned to Contractor",
    "contractor": "Waste Pro",
    "rowid": "1178823",
    "final_x": "3716124.66642",
    "final_y": "560350.870813",
    "longitude": "-89.95764638170903",
    "latitude": "30.03367277253717",
    "geocoded_column": {
      "latitude": "30.03367277253717",
      "longitude": "-89.95764638170903"
    }
  },
  {
    "service_request": "2025-1178822",
    "request_type": "Trash/Recycling",
    "request_reason": "Request a Large Item Pick Up",
    "date_created": "2025-03-26T13:48:45.000",
    "date_modified": "2025-03-26T13:48:48.000",
    "request_status": "Pending",
    "responsible_agency": "Department of Sanitation",
    "final_address": "7354 Means Ave",
    "address_councildis": "E",
    "status": "Assigned to Contractor",
    "contractor": "Waste Pro",
    "rowid": "1178822",
    "final_x": "3708445.92907",
    "final_y": "563966.755681",
    "longitude": "-89.98177707503667",
    "latitude": "30.04386627204719",
    "geocoded_column": {
      "latitude": "30.04386627204719",
      "longitude": "-89.98177707503667"
    }
  },
  {
    "service_request": "2025-1178821",
    "request_type": "Abandoned Vehicles",
    "request_reason": "Abandoned/Junk Vehicles",
    "date_created": "2025-03-26T13:32:05.000",
    "date_modified": "2025-03-26T13:32:07.000",
    "request_status": "Pending",
    "responsible_agency": "Department of Public Works",
    "final_address": "3400 S Carrollton Ave",
    "address_councildis": "A",
    "status": "Pending",
    "rowid": "1178821",
    "final_x": "3667298.00058",
    "final_y": "534308.819461",
    "longitude": "-90.11282148178981",
    "latitude": "29.963587583974842",
    "geocoded_column": {
      "latitude": "29.963587583974842",
      "longitude": "-90.11282148178981"
    }
  },
  {
    "service_request": "2025-1178820",
    "request_type": "Roads and Streets",
    "request_reason": "Abandoned Service Cut",
    "date_created": "2025-03-26T13:31:04.000",
    "date_modified": "2025-03-26T13:31:06.000",
    "request_status": "Pending",
    "responsible_agency": "Department of Public Works",
    "final_address": "2123 Easter Ln",
    "address_councildis": "C",
    "status": "Pending",
    "rowid": "1178820",
    "final_x": "3699402.55543",
    "final_y": "523512.954811",
    "longitude": "-90.01183244157635",
    "latitude": "29.93292340462186",
    "geocoded_column": {
      "latitude": "29.93292340462186",
      "longitude": "-90.01183244157635"
    }
  },
  {
    "service_request": "2025-1178819",
    "request_type": "Trash/Recycling",
    "request_reason": "Request a Large Item Pick Up",
    "date_created": "2025-03-26T13:30:46.000",
    "date_modified": "2025-03-26T13:30:49.000",
    "request_status": "Pending",
    "responsible_agency": "Department of Sanitation",
    "final_address": "7157 Parkside Ct",
    "address_councildis": "E",
    "status": "Assigned to Contractor",
    "contractor": "Waste Pro",
    "rowid": "1178819",
    "final_x": "3704500.85066",
    "final_y": "560387.324574",
    "longitude": "-89.99437734560306",
    "latitude": "30.034151605546306",
    "geocoded_column": {
      "latitude": "30.034151605546306",
      "longitude": "-89.99437734560306"
    }
  },
  {
    "service_request": "2025-1178818",
    "request_type": "Trash/Recycling",
    "request_reason": "Replace Trash Cart",
    "date_created": "2025-03-26T13:29:36.000",
    "date_modified": "2025-03-26T13:29:38.000",
    "request_status": "Pending",
    "responsible_agency": "Department of Sanitation",
    "final_address": "2259 N Derbigny St",
    "address_councildis": "D",
    "status": "Assigned to Contractor",
    "contractor": "IV Waste",
    "rowid": "1178818",
    "final_x": "3685427.57794",
    "final_y": "538589.193865",
    "longitude": "-90.0554195199681",
    "latitude": "29.974813684093245",
    "geocoded_column": {
      "latitude": "29.974813684093245",
      "longitude": "-90.0554195199681"
    }
  },
  {
    "service_request": "2025-1178817",
    "request_type": "Trash/Recycling",
    "request_reason": "Request a Large Item Pick Up",
    "date_created": "2025-03-26T13:28:44.000",
    "date_modified": "2025-03-26T13:28:46.000",
    "request_status": "Pending",
    "responsible_agency": "Department of Sanitation",
    "final_address": "4625 Wilson Ave",
    "address_councildis": "E",
    "status": "Assigned to Contractor",
    "contractor": "Waste Pro",
    "rowid": "1178817",
    "final_x": "3703123.77226",
    "final_y": "554335.048088",
    "longitude": "-89.99895179080428",
    "latitude": "30.01755436006393",
    "geocoded_column": {
      "latitude": "30.01755436006393",
      "longitude": "-89.99895179080428"
    }
  },