[
  {
    "service_request": "2026-1249234",
    "request_type": "Trash/Recycling",
    "request_reason": "MIssed Recycling Pick-Up",
    "date_created": "2026-01-04T23:59:44.000",
    "date_modified": "2026-01-04T23:59:46.000",
    "request_status": "Pending",
    "responsible_agency": "Department of Sanitation",
    "final_address": "1321 Coliseum St",
    "address_councildis": "B",
    "status": "Assigned to Contractor",
    "contractor": "IV Waste",
    "rowid": "1249234",
    "final_x": "3679997.78875",
    "final_y": "525164.816509",
    "longitude": "-90.07303448185685",
    "latitude": "29.938066579485774",
    "geocoded_column": {
      "latitude": "29.938066579485774",
      "longitude": "-90.07303448185685"
    }
  },
  {
    "service_request": "2026-1249233",
    "request_type": "Parks & Parkways",
    "request_reason": "Request Tree Service (Right of Way/Public Property)",
    "date_created": "2026-01-04T23:53:20.000",
    "date_modified": "2026-01-04T23:53:22.000",
    "request_status": "Pending",
    "responsible_agency": "Department of Parks & Parkway",
    "final_address": "344 Lakeshore Prkwy",
    "address_councildis": "D",
    "status": "Pending",
    "rowid": "1249233",
    "final_x": "3667714.43879",
    "final_y": "556867.000218",
    "longitude": "-90.11074633112715",
    "latitude": "30.025602628990328",
    "geocoded_column": {
      "latitude": "30.025602628990328",
      "longitude": "-90.11074633112715"
    }
  },
  {
    "service_request": "2026-1249232",
    "request_type": "Christmas Tree Recycle Pick Up",
    "request_reason": "Christmas Tree Recycle Pick Up",
    "date_created": "2026-01-04T23:46:06.000",
    "date_modified": "2026-01-04T23:46:08.000",
    "request_status": "Pending",
    "responsible_agency": "Office of Resilience and Sustainability",
    "final_address": "2421 St Ann St",
    "address_councildis": "D",
    "status": "Pending",
    "contractor": "Glass Half Full",
    "rowid": "1249232",
    "final_x": "3677889.76053",
    "final_y": "536557.202439",
    "longitude": "-90.0792960863288",
    "latitude": "29.96945540463584",
    "geocoded_column": {
      "latitude": "29.96945540463584",
      "longitude": "-90.0792960863288"
    }
  },
  {
    "service_request": "2026-1249231",
    "request_type": "Trash/Recycling",
    "request_reason": "Order Second Trash Cart",
    "date_created": "2026-01-04T23:18:07.000",
    "date_modified": "2026-01-04T23:18:10.000",
    "request_status": "Pending",
    "responsible_agency": "Department of Sanitation",
    "final_address": "3647 Forest Park Ln",
    "address_councildis": "C",
    "status": "Assigned to Contractor",
    "contractor": "Richards Disposal",
    "rowid": "1249231",
    "final_x": "3702953.34308",
    "final_y": "510985.678384",
    "longitude": "-90.00108276413081",
    "latitude": "29.89836461024811",
    "geocoded_column": {
      "latitude": "29.89836461024811",
      "longitude": "-90.00108276413081"
    }
  },
  {
    "service_request": "2026-1249230",
    "request_type": "Trash/Recycling",
    "request_reason": "Order Second Trash Cart",
    "date_created": "2026-01-04T22:36:55.000",
    "date_modified": "2026-01-04T22:36:57.000",
    "request_status": "Pending",
    "responsible_agency": "Department of Sanitation",
    "final_address": "5404 Milne St",
    "address_councildis": "A",
    "status": "Assigned to Contractor",
    "contractor": "IV Waste",
    "rowid": "1249230",
    "final_x": "3666578.67463",
    "final_y": "543514.945678",
    "longitude": "-90.11478387895495",
    "latitude": "29.988922395522934",
    "geocoded_column": {
      "latitude": "29.988922395522934",
      "longitude": "-90.11478387895495"
    }
  },
  {
    "service_request": "2026-1249229",
    "request_type": "Trash/Recycling",
    "request_reason": "Repair Recycling Cart",
    "date_created": "2026-01-04T22:18:57.000",
    "date_modified": "2026-01-04T22:18:59.000",
    "request_status": "Pending",
    "responsible_agency": "Department of Sanitation",
    "final_address": "2546 Bienville Ave",
    "address_councildis": "B",
    "status": "Pending",
    "rowid": "1249229",
    "final_x": "3676266.63835",
    "final_y": "535303.762502",
    "longitude": "-90.08446518719452",
    "latitude": "29.966057615083372",
    "geocoded_column": {
      "latitude": "29.966057615083372",
      "longitude": "-90.08446518719452"
    }
  },
  {
    "service_request": "2026-1249228",
    "request_type": "Abandoned Vehicles",
    "request_reason": "Abandoned/Junk Vehicles",
    "date_created": "2026-01-04T22:03:34.000",
    "date_modified": "2026-01-04T22:03:35.000",
    "request_status": "Pending",
    "responsible_agency": "Department of Public Works",
    "final_address": "7241 Lake Willow Dr",
    "address_councildis": "E",
    "status": "Pending",
    "rowid": "1249228",
    "final_x": "3702387.20247",
    "final_y": "560127.804893",
    "longitude": "-90.00106623718467",
    "latitude": "30.033505770397586",
    "geocoded_column": {
      "latitude": "30.033505770397586",
      "longitude": "-90.00106623718467"
    }
  },
  {
    "service_request": "2026-1249227",
    "request_type": "Streetlights",
    "request_reason": "Streetlight Outage/Malfunction",
    "date_created": "2026-01-04T21:35:54.000",
    "date_modified": "2026-01-04T21:35:57.000",
    "request_status": "Pending",
    "responsible_agency": "Department of Public Works",
    "final_address": "4123 DHemecourt St",
    "address_councildis": "A",
    "status": "Pending",
    "rowid": "1249227",
    "final_x": "3669605.25012",
    "final_y": "537030.870728",
    "longitude": "-90.10544329204224",
    "latitude": "29.971004538618622",
    "geocoded_column": {
      "latitude": "29.971004538618622",
      "longitude": "-90.10544329204224"
    }
  },
  {
    "service_request": "2026-1249226",
    "request_type": "Streetlights",
    "request_reason": "Streetlight Outage/Malfunction",
    "date_created": "2026-01-04T21:27:09.000",
    "date_modified": "2026-01-04T21:27:11.000",
    "request_status": "Pending",
    "responsible_agency": "Department of Public Works",
    "final_address": "6580 Catina St",
    "address_councildis": "A",
    "status": "Pending",
    "rowid": "1249226",
    "final_x": "3666954.72007",
    "final_y": "551519.043285",
    "longitude": "-90.11332687066255",
    "latitude": "30.010919901174645",
    "geocoded_column": {
      "latitude": "30.010919901174645",
      "longitude": "-90.11332687066255"
    }
  },
  {
    "service_request": "2026-1249225",
    "request_type": "Trash/Recycling",
    "request_reason": "Request a Large Item Pick Up",
    "date_created": "2026-01-04T21:22:39.000",
    "date_modified": "2026-01-04T21:22:41.000",
    "request_status": "Pending",
    "responsible_agency": "Department of Sanitation",
    "final_address": "0 BLK Chatham Dr",
    "address_councildis": "D",
    "status": "Assigned to Contractor",
    "contractor": "IV Waste",
    "rowid": "1249225",
    "final_x": "3679840.64258",
    "final_y": "551512.611001",
    "longitude": "-90.07261538765654",
    "latitude": "30.010518669910642",
    "geocoded_column": {
      "latitude": "30.010518669910642",
      "longitude": "-90.07261538765654"
    }
  },
  {
    "service_request": "2026-1249224",
    "request_type": "Trash/Recycling",
    "request_reason": "Repair Trash Cart",
    "date_created": "2026-01-04T21:16:13.000",
    "date_modified": "2026-01-04T21:16:18.000",
    "request_status": "Pending",
    "responsible_agency": "Department of Sanitation",
    "final_address": "2800 BLK Saint Thomas St",
    "address_councildis": "B",
    "status": "Assigned to Contractor",
    "contractor": "IV Waste",
    "rowid": "1249224",
    "final_x": "3677815.18502",
    "final_y": "519207.215638",
    "longitude": "-90.08013086802488",
    "latitude": "29.921750951065523",
    "geocoded_column": {
      "latitude": "29.921750951065523",
      "longitude": "-90.08013086802488"
    }
  },
  {
    "service_request": "2026-1249223",
    "request_type": "Trash/Recycling",
    "request_reason": "Repair Trash Cart",
    "date_created": "2026-01-04T21:16:12.000",
    "date_modified": "2026-01-04T21:16:17.000",
    "request_status": "Pending",
    "responsible_agency": "Department of Sanitation",
    "final_address": "2800 BLK Saint Thomas St",
    "address_councildis": "B",
    "status": "Assigned to Contractor",
    "contractor": "IV Waste",
    "rowid": "1249223",
    "final_x": "3677815.18502",
    "final_y": "519207.215638",
    "longitude": "-90.08013086802488",
    "latitude": "29.921750951065523",
    "geocoded_column": {
      "latitude": "29.921750951065523",
      "longitude": "-90.08013086802488"
    }
  },
  {
    "service_request": "2026-1249220",
    "request_type": "Trash/Recycling",
    "request_reason": "Repair Trash Cart",
    "date_created": "2026-01-04T21:16:12.000",
    "date_modified": "2026-01-04T21:16:17.000",
    "request_status": "Pending",
    "responsible_agency": "Department of Sanitation",
    "final_address": "2800 BLK Saint Thomas St",
    "address_councildis": "B",
    "status": "Assigned to Contractor",
    "contractor": "IV Waste",
    "rowid": "1249220",
    "final_x": "3677815.18502",
    "final_y": "519207.215638",
    "longitude": "-90.08013086802488",
    "latitude": "29.921750951065523",
    "geocoded_column": {
      "latitude": "29.921750951065523",
      "longitude": "-90.08013086802488"
    }
  },
  {
    "service_request": "2026-1249221",
    "request_type": "Trash/Recycling",
    "request_reason": "Repair Trash Cart",
    "date_created": "2026-01-04T21:16:12.000",
    "date_modified": "2026-01-04T21:16:17.000",
    "request_status": "Pending",
    "responsible_agency": "Department of Sanitation",
    "final_address": "2800 BLK Saint Thomas St",
    "address_councildis": "B",
    "status": "Assigned to Contractor",
    "contractor": "IV Waste",
    "rowid": "1249221",
    "final_x": "3677815.18502",
    "final_y": "519207.215638",
    "longitude": "-90.08013086802488",
    "latitude": "29.921750951065523",
    "geocoded_column": {
      "latitude": "29.921750951065523",
      "longitude": "-90.08013086802488"
    }
  },
  {
    "service_request": "2026-1249222",
    "request_type": "Trash/Recycling",
    "request_reason": "Repair Trash Cart",
    "date_created": "2026-01-04T21:16:12.000",
    "date_modified": "2026-01-04T21:16:21.000",
    "request_status": "Pending",
    "responsible_agency": "Department of Sanitation",
    "final_address": "2800 BLK Saint Thomas St",
    "address_councildis": "B",
    "status": "Assigned to Contractor",
    "contractor": "IV Waste",
    "rowid": "1249222",
    "final_x": "3677815.18502",
    "final_y": "519207.215638",
    "longitude": "-90.08013086802488",
    "latitude": "29.921750951065523",
    "geocoded_column": {
      "latitude": "29.921750951065523",
      "longitude": "-90.08013086802488"
    }
  },
  {
    "service_request": "2026-1249219",
    "request_type": "Trash/Recycling",
    "request_reason": "Order Recycling Cart",
    "date_created": "2026-01-04T21:13:17.000",
    "date_modified": "2026-01-04T21:13:21.000",
    "request_status": "Pending",
    "responsible_agency": "Department of Sanitation",
    "final_address": "125 S Scott St",
    "address_councildis": "A",
    "status": "Pending",
    "rowid": "1249219",
    "final_x": "3671552.08532",
    "final_y": "537653.711496",
    "longitude": "-90.09927373338171",
    "latitude": "29.97265963255468",
    "geocoded_column": {
      "latitude": "29.97265963255468",
      "longitude": "-90.09927373338171"
    }
  },
  {
    "service_request": "2026-1249218",
    "request_type": "Roads and Streets",
    "request_reason": "Pothole",
    "date_created": "2026-01-04T20:59:46.000",
    "date_modified": "2026-01-04T20:59:49.000",
    "request_status": "Pending",
    "responsible_agency": "Department of Public Works",
    "final_address": "11421 Tanner S Davis Dr",
    "address_councildis": "E",
    "status": "Pending",
    "rowid": "1249218",
    "final_x": "3718245.6837",
    "final_y": "561223.653278",
    "longitude": "-89.95091052995795",
    "latitude": "30.036002382440053",
    "geocoded_column": {
      "latitude": "30.036002382440053",
      "longitude": "-89.95091052995795"
    }
  },
  {
    "service_request": "2026-1249217",
    "request_type": "Trash/Recycling",
    "request_reason": "Replace Trash Cart",
    "date_created": "2026-01-04T20:33:05.000",
    "date_modified": "2026-01-04T20:33:07.000",
    "request_status": "Pending",
    "responsible_agency": "Department of Sanitation",
    "final_address": "712 Deslonde St",
    "address_councildis": "E",
    "status": "Assigned to Contractor",
    "contractor": "Waste Pro",
    "rowid": "1249217",
    "final_x": "3694965.02448",
    "final_y": "533079.375556",
    "longitude": "-90.0254966282349",
    "latitude": "29.95936771872084",
    "geocoded_column": {
      "latitude": "29.95936771872084",
      "longitude": "-90.0254966282349"
    }
  },
  {
    "service_request": "2026-1249216",
    "request_type": "Trash/Recycling",
    "request_reason": "Request a Large Item Pick Up",
    "date_created": "2026-01-04T20:27:36.000",
    "date_modified": "2026-01-04T20:27:38.000",
    "request_status": "Pending",
    "responsible_agency": "Department of Sanitation",
    "final_address": "4957 Corinne St",
    "address_councildis": "E",
    "status": "Assigned to Contractor",
    "contractor": "Waste Pro",
    "rowid": "1249216",
    "final_x": "3715009.80434",
    "final_y": "557851.752987",
    "longitude": "-89.96126400177687",
    "latitude": "30.026837952926996",
    "geocoded_column": {
      "latitude": "30.026837952926996",
      "longitude": "-89.96126400177687"
    }
  },
  {
    "service_request": "2026-1249215",
    "request_type": "Trash/Recycling",
    "request_reason": "Order Trash Cart",
    "date_created": "2026-01-04T20:25:28.000",
    "date_modified": "2026-01-04T20:25:30.000",
    "request_status": "Pending",
    "responsible_agency": "Department of Sanitation",
    "final_address": "3610 Rue Michelle",
    "address_councildis": "C",
    "status": "Assigned to Contractor",
    "contractor": "Richards Disposal",
    "rowid": "1249215",
    "final_x": "3703662.7745",
    "final_y": "517321.582709",
    "longitude": "-89.99861102389069",
    "latitude": "29.91576348980939",
    "geocoded_column": {
      "latitude": "29.91576348980939",
      "longitude": "-89.99861102389069"
    }
  },
  {
    "service_request": "2026-1249214",
    "request_type": "Trash/Recycling",
    "request_reason": "Return Recycling Cart",
    "date_created": "2026-01-04T20:00:51.000",
    "date_modified": "2026-01-04T20:00:53.000",
    "request_status": "Pending",
    "responsible_agency": "Department of Sanitation",
    "final_address": "7630 Morrison Rd",
    "address_councildis": "E",
    "status": "Pending",
    "rowid": "1249214",
    "final_x": "3701562.09137",
    "final_y": "559731.804189",
    "longitude": "-90.00368818241772",
    "latitude": "30.03244327518063",
    "geocoded_column": {
      "latitude": "30.03244327518063",
      "longitude": "-90.00368818241772"
    }
  },
  {
    "service_request": "2026-1249213",
    "request_type": "Abandoned Vehicles",
    "request_reason": "Abandoned/Junk Vehicles",
    "date_created": "2026-01-04T19:59:44.000",
    "date_modified": "2026-01-04T19:59:46.000",
    "request_status": "Pending",
    "responsible_agency": "Department of Public Works",
    "final_address": "0 BLK Acadiana Pl",
    "address_councildis": "E",
    "status": "Pending",
    "rowid": "1249213",
    "final_x": "3725131.4083",
    "final_y": "564393.680055",
    "longitude": "-89.92902788187175",
    "latitude": "30.04448842646984",
    "geocoded_column": {
      "latitude": "30.04448842646984",
      "longitude": "-89.92902788187175"
    }
  },
  {
    "service_request": "2026-1249212",
    "request_type": "Trash/Recycling",
    "request_reason": "Request a Large Item Pick Up",
    "date_created": "2026-01-04T19:36:37.000",
    "date_modified": "2026-01-04T19:36:40.000",
    "request_status": "Pending",
    "responsible_agency": "Department of Sanitation",
    "final_address": "6938 Canal Blvd",
    "address_councildis": "A",
    "status": "Assigned to Contractor",
    "contractor": "IV Waste",
    "rowid": "1249212",
    "final_x": "3668931.30426",
    "final_y": "553647.147479",
    "longitude": "-90.10701008434211",
    "latitude": "30.016713422646617",
    "geocoded_column": {
      "latitude": "30.016713422646617",
      "longitude": "-90.10701008434211"
    }
  },
  {
    "service_request": "2026-1249211",
    "request_type": "Abandoned Vehicles",
    "request_reason": "Abandoned/Junk Vehicles",
    "date_created": "2026-01-04T19:01:43.000",
    "date_modified": "2026-01-04T19:01:48.000",
    "request_status": "Pending",
    "responsible_agency": "Department of Public Works",
    "final_address": "3205 Fern St",
    "address_councildis": "B",
    "status": "Pending",
    "rowid": "1249211",
    "final_x": "3667414.85607",
    "final_y": "533165.459268",
    "longitude": "-90.11249093253848",
    "latitude": "29.960440297731015",
    "geocoded_column": {
      "latitude": "29.960440297731015",
      "longitude": "-90.11249093253848"
    }
  },
  {
    "service_request": "2026-1249210",
    "request_type": "Trash/Recycling",
    "request_reason": "Repair Trash Cart",
    "date_created": "2026-01-04T18:56:20.000",
    "date_modified": "2026-01-04T18:56:21.000",
    "request_status": "Pending",
    "responsible_agency": "Department of Sanitation",
    "final_address": "416 S Scott St Apt 202",
    "address_councildis": "B",
    "status": "Assigned to Contractor",
    "contractor": "IV Waste",
    "rowid": "1249210",
    "final_x": "3670968.14087",
    "final_y": "536667.495943",
    "longitude": "-90.1011514348936",
    "latitude": "29.96996515145334",
    "geocoded_column": {
      "latitude": "29.96996515145334",
      "longitude": "-90.1011514348936"
    }
  },
  {
    "service_request": "2026-1249209",
    "request_type": "Trash/Recycling",
    "request_reason": "Request a Large Item Pick Up",
    "date_created": "2026-01-04T18:52:32.000",
    "date_modified": "2026-01-04T18:52:34.000",
    "request_status": "Pending",
    "responsible_agency": "Department of Sanitation",
    "final_address": "4343 Vixen St",
    "address_councildis": "C",
    "status": "Assigned to Contractor",
    "contractor": "Richards Disposal",
    "rowid": "1249209",
    "final_x": "3699682.9354",
    "final_y": "520645.711545",
    "longitude": "-90.01105176306572",
    "latitude": "29.925030579793187",
    "geocoded_column": {
      "latitude": "29.925030579793187",
      "longitude": "-90.01105176306572"
    }
  },
  {
    "service_request": "2026-1249208",
    "request_type": "Trash/Recycling",
    "request_reason": "Order Second Trash Cart",
    "date_created": "2026-01-04T18:46:34.000",
    "date_modified": "2026-01-04T18:46:36.000",
    "request_status": "Pending",
    "responsible_agency": "Department of Sanitation",
    "final_address": "3601 Napoleon Ave",
    "address_councildis": "B",
    "status": "Assigned to Contractor",
    "contractor": "IV Waste",
    "rowid": "1249208",
    "final_x": "3670249.46401",
    "final_y": "527875.626175",
    "longitude": "-90.10371904872947",
    "latitude": "29.945811648079765",
    "geocoded_column": {
      "latitude": "29.945811648079765",
      "longitude": "-90.10371904872947"
    }
  },
  {
    "service_request": "2026-1249207",
    "request_type": "Trash/Recycling",
    "request_reason": "Replace Trash Cart",
    "date_created": "2026-01-04T18:44:25.000",
    "date_modified": "2026-01-04T18:44:26.000",
    "request_status": "Pending",
    "responsible_agency": "Department of Sanitation",
    "final_address": "3400 Plymouth Pl",
    "address_councildis": "C",
    "status": "Assigned to Contractor",
    "contractor": "Richards Disposal",
    "rowid": "1249207",
    "final_x": "3702856.89886",
    "final_y": "518654.746423",
    "longitude": "-90.00110573300731",
    "latitude": "29.91945501911085",
    "geocoded_column": {
      "latitude": "29.91945501911085",
      "longitude": "-90.00110573300731"
    }
  },
  {
    "service_request": "2026-1249206",
    "request_type": "Trash/Recycling",
    "request_reason": "Request a Large Item Pick Up",
    "date_created": "2026-01-04T18:43:29.000",
    "date_modified": "2026-01-04T18:43:32.000",
    "request_status": "Pending",
    "responsible_agency": "Department of Sanitation",
    "final_address": "1508 Calhoun St",
    "address_councildis": "A",
    "status": "Assigned to Contractor",
    "contractor": "IV Waste",
    "rowid": "1249206",
    "final_x": "3664522.46375",
    "final_y": "522349.840698",
    "longitude": "-90.12198561980428",
    "latitude": "29.930785243540996",
    "geocoded_column": {
      "latitude": "29.930785243540996",
      "longitude": "-90.12198561980428"
    }
  },
  {
    "service_request": "2026-1249205",
    "request_type": "Trash/Recycling",
    "request_reason": "Illegal Dumping",
    "date_created": "2026-01-04T18:30:46.000",
    "date_modified": "2026-01-04T18:30:49.000",
    "request_status": "Pending",
    "responsible_agency": "Department of Sanitation",
    "final_address": "2714 Metropolitan St",
    "address_councildis": "D",
    "status": "Pending",
    "rowid": "1249205",
    "final_x": "3690874.3199",
    "final_y": "542423.513293",
    "longitude": "-90.03808051427238",
    "latitude": "29.985188541795186",
    "geocoded_column": {
      "latitude": "29.985188541795186",
      "longitude": "-90.03808051427238"
    }
  },
  {
    "service_request": "2026-1249204",
    "request_type": "Streetlights",
    "request_reason": "Streetlight Outage/Malfunction",
    "date_created": "2026-01-04T18:24:01.000",
    "date_modified": "2026-01-04T18:24:04.000",
    "request_status": "Pending",
    "responsible_agency": "Department of Public Works",
    "final_address": "1881 Gentilly Blvd",
    "address_councildis": "A",
    "status": "Pending",
    "rowid": "1249204",
    "final_x": "3678818.53691",
    "final_y": "542911.118925",
    "longitude": "-90.07614277265958",
    "latitude": "29.986898495738025",
    "geocoded_column": {
      "latitude": "29.986898495738025",
      "longitude": "-90.07614277265958"
    }
  },
  {
    "service_request": "2026-1249203",
    "request_type": "Traffic Safety",
    "request_reason": "Request for Traffic Calming due to Speeding",
    "date_created": "2026-01-04T18:19:27.000",
    "date_modified": "2026-01-04T18:19:29.000",
    "request_status": "Pending",
    "responsible_agency": "Department of Public Works",
    "final_address": "0 BLK Allard Blvd",
    "address_councildis": "A",
    "status": "Pending",
    "rowid": "1249203",
    "final_x": "3672889.12367",
    "final_y": "541158.059532",
    "longitude": "-90.09493149945968",
    "latitude": "29.982255733983415",
    "geocoded_column": {
      "latitude": "29.982255733983415",
      "longitude": "-90.09493149945968"
    }
  },
  {
    "service_request": "2026-1249202",
    "request_type": "Christmas Tree Recycle Pick Up",
    "request_reason": "Christmas Tree Recycle Pick Up",
    "date_created": "2026-01-04T18:08:57.000",
    "date_modified": "2026-01-04T18:08:59.000",
    "request_status": "Pending",
    "responsible_agency": "Office of Resilience and Sustainability",
    "final_address": "2824 Baronne St",
    "address_councildis": "B",
    "status": "Pending",
    "contractor": "Glass Half Full",
    "rowid": "1249202",
    "final_x": "3675349.40712",
    "final_y": "523000.205691",
    "longitude": "-90.08778413672246",
    "latitude": "29.932254370372988",
    "geocoded_column": {
      "latitude": "29.932254370372988",
      "longitude": "-90.08778413672246"
    }
  },
  {
    "service_request": "2026-1249201",
    "request_type": "Trash/Recycling",
    "request_reason": "Request a Large Item Pick Up",
    "date_created": "2026-01-04T18:03:36.000",
    "date_modified": "2026-01-04T18:03:38.000",
    "request_status": "Pending",
    "responsible_agency": "Department of Sanitation",
    "final_address": "6041 Oxford Pl",
    "address_councildis": "C",
    "status": "Assigned to Contractor",
    "contractor": "Richards Disposal",
    "rowid": "1249201",
    "final_x": "3706387.87236",
    "final_y": "519713.85932",
    "longitude": "-89.98992111497537",
    "latitude": "29.92225385593534",
    "geocoded_column": {
      "latitude": "29.92225385593534",
      "longitude": "-89.98992111497537"
    }
  },
  {
    "service_request": "2026-1249200",
    "request_type": "Streetlights",
    "request_reason": "Streetlight Outage/Malfunction",
    "date_created": "2026-01-04T17:52:40.000",
    "date_modified": "2026-01-04T17:52:42.000",
    "request_status": "Pending",
    "responsible_agency": "Department of Public Works",
    "final_address": "3620 Rue Andree",
    "address_councildis": "C",
    "status": "Pending",
    "rowid": "1249200",
    "final_x": "3705061.49175",
    "final_y": "517002.468341",
    "longitude": "-89.9942079433446",
    "latitude": "29.91484116125602",
    "geocoded_column": {
      "latitude": "29.91484116125602",
      "longitude": "-89.9942079433446"
    }
  },
  {
    "service_request": "2026-1249199",
    "request_type": "Property Maintenance",
    "request_reason": "Property Maintenance",
    "date_created": "2026-01-04T17:46:20.000",
    "date_modified": "2026-01-04T17:46:22.000",
    "request_status": "Pending",
    "responsible_agency": "Department of Code Enforcement",
    "final_address": "4226 S Carrollton Ave",
    "address_councildis": "A",
    "status": "Pending",
    "rowid": "1249199",
    "final_x": "3669756.03143",
    "final_y": "536693.104135",
    "longitude": "-90.10497853889444",
    "latitude": "29.970071350013242",
    "geocoded_column": {
      "latitude": "29.970071350013242",
      "longitude": "-90.10497853889444"
    }
  },
  {
    "service_request": "2026-1249198",
    "request_type": "Property Maintenance",
    "request_reason": "Property Maintenance",
    "date_created": "2026-01-04T17:31:49.000",
    "date_modified": "2026-01-04T17:31:50.000",
    "request_status": "Pending",
    "responsible_agency": "Department of Code Enforcement",
    "final_address": "4230 S Carrollton Ave",
    "address_councildis": "A",
    "status": "Pending",
    "rowid": "1249198",
    "final_x": "3669779.35687",
    "final_y": "536714.311111",
    "longitude": "-90.10490415657655",
    "latitude": "29.970128974513536",
    "geocoded_column": {
      "latitude": "29.970128974513536",
      "longitude": "-90.10490415657655"
    }
  },
  {
    "service_request": "2026-1249197",
    "request_type": "Trash/Recycling",
    "request_reason": "Request a Large Item Pick Up",
    "date_created": "2026-01-04T17:31:24.000",
    "date_modified": "2026-01-04T17:31:26.000",
    "request_status": "Pending",
    "responsible_agency": "Department of Sanitation",
    "final_address": "5442 Hawthorne Pl",
    "address_councildis": "A",
    "status": "Assigned to Contractor",
    "contractor": "IV Waste",
    "rowid": "1249197",
    "final_x": "3667643.77543",
    "final_y": "543400.966222",
    "longitude": "-90.11142337495292",
    "latitude": "29.98857780293107",
    "geocoded_column": {
      "latitude": "29.98857780293107",
      "longitude": "-90.11142337495292"
    }
  },
  {
    "service_request": "2026-1249196",
    "request_type": "Trash/Recycling",
    "request_reason": "Illegal Dumping",
    "date_created": "2026-01-04T17:24:06.000",
    "date_modified": "2026-01-04T17:24:08.000",
    "request_status": "Pending",
    "responsible_agency": "Department of Sanitation",
    "final_address": "1 Almonaster Ave",
    "address_councildis": "D",
    "status": "Pending",
    "rowid": "1249196",
    "final_x": "3688053.015",
    "final_y": "540761.172875",
    "longitude": "-90.04705074841057",
    "latitude": "29.98070508640901",
    "geocoded_column": {
      "latitude": "29.98070508640901",
      "longitude": "-90.04705074841057"
    }
  },
  {
    "service_request": "2026-1249195",
    "request_type": "Property Maintenance",
    "request_reason": "Property Maintenance",
    "date_created": "2026-01-04T17:18:28.000",
    "date_modified": "2026-01-04T17:18:32.000",
    "request_status": "Pending",
    "responsible_agency": "Department of Code Enforcement",
    "final_address": "4218 S Carrollton Ave",
    "address_councildis": "A",
    "status": "Pending",
    "rowid": "1249195",
    "final_x": "3669710.16974",
    "final_y": "536641.893447",
    "longitude": "-90.10512510870625",
    "latitude": "29.96993188954803",
    "geocoded_column": {
      "latitude": "29.96993188954803",
      "longitude": "-90.10512510870625"
    }
  },
  {
    "service_request": "2026-1249194",
    "request_type": "Trash/Recycling",
    "request_reason": "Replace Trash Cart",
    "date_created": "2026-01-04T17:14:23.000",
    "date_modified": "2026-01-04T17:14:30.000",
    "request_status": "Pending",
    "responsible_agency": "Department of Sanitation",
    "final_address": "1743 Spain St",
    "address_councildis": "D",
    "status": "Assigned to Contractor",
    "contractor": "IV Waste",
    "rowid": "1249194",
    "final_x": "3685971.2445",
    "final_y": "538934.472522",
    "longitude": "-90.05369030978102",
    "latitude": "29.97574639613739",
    "geocoded_column": {
      "latitude": "29.97574639613739",
      "longitude": "-90.05369030978102"
    }
  },
  {
    "service_request": "2026-1249192",
    "request_type": "Trash/Recycling",
    "request_reason": "Replace Trash Cart",
    "date_created": "2026-01-04T17:14:23.000",
    "date_modified": "2026-01-04T17:14:32.000",
    "request_status": "Pending",
    "responsible_agency": "Department of Sanitation",
    "final_address": "1743 Spain St",
    "address_councildis": "D",
    "status": "Assigned to Contractor",
    "contractor": "IV Waste",
    "rowid": "1249192",
    "final_x": "3685971.2445",
    "final_y": "538934.472522",
    "longitude": "-90.05369030978102",
    "latitude": "29.97574639613739",
    "geocoded_column": {
      "latitude": "29.97574639613739",
      "longitude": "-90.05369030978102"
    }
  },
  {
    "service_request": "2026-1249193",
    "request_type": "Trash/Recycling",
    "request_reason": "Replace Trash Cart",
    "date_created": "2026-01-04T17:14:23.000",
    "date_modified": "2026-01-04T17:14:30.000",
    "request_status": "Pending",
    "responsible_agency": "Department of Sanitation",
    "final_address": "1743 Spain St",
    "address_councildis": "D",
    "status": "Assigned to Contractor",
    "contractor": "IV Waste",
    "rowid": "1249193",
    "final_x": "3685971.2445",
    "final_y": "538934.472522",
    "longitude": "-90.05369030978102",
    "latitude": "29.97574639613739",
    "geocoded_column": {
      "latitude": "29.97574639613739",
      "longitude": "-90.05369030978102"
    }
  },
  {
    "service_request": "2026-1249191",
    "request_type": "Trash/Recycling",
    "request_reason": "Replace Trash Cart",
    "date_created": "2026-01-04T17:14:22.000",
    "date_modified": "2026-01-04T17:14:30.000",
    "request_status": "Pending",
    "responsible_agency": "Department of Sanitation",
    "final_address": "1743 Spain St",
    "address_councildis": "D",
    "status": "Assigned to Contractor",
    "contractor": "IV Waste",
    "rowid": "1249191",
    "final_x": "3685971.2445",
    "final_y": "538934.472522",
    "longitude": "-90.05369030978102",
    "latitude": "29.97574639613739",
    "geocoded_column": {
      "latitude": "29.97574639613739",
      "longitude": "-90.05369030978102"
    }
  },
  {
    "service_request": "2026-1249190",
    "request_type": "Trash/Recycling",
    "request_reason": "Replace Trash Cart",
    "date_created": "2026-01-04T17:14:22.000",
    "date_modified": "2026-01-04T17:14:32.000",
    "request_status": "Pending",
    "responsible_agency": "Department of Sanitation",
    "final_address": "1743 Spain St",
    "address_councildis": "D",
    "status": "Assigned to Contractor",
    "contractor": "IV Waste",
    "rowid": "1249190",
    "final_x": "3685971.2445",
    "final_y": "538934.472522",
    "longitude": "-90.05369030978102",
    "latitude": "29.97574639613739",
    "geocoded_column": {
      "latitude": "29.97574639613739",
      "longitude": "-90.05369030978102"
    }
  },
  {
    "service_request": "2026-1249189",
    "request_type": "Trash/Recycling",
    "request_reason": "Request a Large Item Pick Up",
    "date_created": "2026-01-04T17:07:34.000",
    "date_modified": "2026-01-04T17:07:35.000",
    "request_status": "Pending",
    "responsible_agency": "Department of Sanitation",
    "final_address": "749 S Genois St",
    "address_councildis": "B",
    "status": "Assigned to Contractor",
    "contractor": "IV Waste",
    "rowid": "1249189",
    "final_x": "3670881.31438",
    "final_y": "535010.131846",
    "longitude": "-90.10148191227124",
    "latitude": "29.96541052252787",
    "geocoded_column": {
      "latitude": "29.96541052252787",
      "longitude": "-90.10148191227124"
    }
  },
  {
    "service_request": "2026-1249188",
    "request_type": "Christmas Tree Recycle Pick Up",
    "request_reason": "Christmas Tree Recycle Pick Up",
    "date_created": "2026-01-04T17:06:28.000",
    "date_modified": "2026-01-04T17:06:30.000",
    "request_status": "Pending",
    "responsible_agency": "Office of Resilience and Sustainability",
    "final_address": "2555 Peace Ct",
    "address_councildis": "D",
    "status": "Pending",
    "contractor": "Glass Half Full",
    "rowid": "1249188",
    "final_x": "3686325.62268",
    "final_y": "541070.374412",
    "longitude": "-90.05249568116287",
    "latitude": "29.981608487173705",
    "geocoded_column": {
      "latitude": "29.981608487173705",
      "longitude": "-90.05249568116287"
    }
  },
  {
    "service_request": "2026-1249187",
    "request_type": "Trash/Recycling",
    "request_reason": "Replace Trash Cart",
    "date_created": "2026-01-04T17:02:48.000",
    "date_modified": "2026-01-04T17:02:50.000",
    "request_status": "Pending",
    "responsible_agency": "Department of Sanitation",
    "final_address": "2401 Constance St",
    "address_councildis": "B",
    "status": "Assigned to Contractor",
    "contractor": "IV Waste",
    "rowid": "1249187",
    "final_x": "3678232.35086",
    "final_y": "521204.859449",
    "longitude": "-90.07874501179494",
    "latitude": "29.927231270478657",
    "geocoded_column": {
      "latitude": "29.927231270478657",
      "longitude": "-90.07874501179494"
    }
  },
  {
    "service_request": "2026-1249186",
    "request_type": "Trash/Recycling",
    "request_reason": "Repair Trash Cart",
    "date_created": "2026-01-04T17:02:14.000",
    "date_modified": "2026-01-04T17:02:29.000",
    "request_status": "Pending",
    "responsible_agency": "Department of Sanitation",
    "final_address": "4416 Perrier St",
    "address_councildis": "B",
    "status": "Assigned to Contractor",
    "contractor": "IV Waste",
    "rowid": "1249186",
    "final_x": "3670709.55137",
    "final_y": "519979.33324",
    "longitude": "-90.10253419361912",
    "latitude": "29.924085805200754",
    "geocoded_column": {
      "latitude": "29.924085805200754",
      "longitude": "-90.10253419361912"
    }
  },
  {
    "service_request": "2026-1249185",
    "request_type": "Roads and Streets",
    "request_reason": "Street Subsidence (Sinking)",
    "date_created": "2026-01-04T16:55:45.000",
    "date_modified": "2026-01-04T16:55:47.000",
    "request_status": "Pending",
    "responsible_agency": "Sewerage & Water Board",
    "final_address": "1538 Music St",
    "address_councildis": "C",
    "status": "Pending",
    "rowid": "1249185",
    "final_x": "3686671.41628",
    "final_y": "538245.887497",
    "longitude": "-90.05150330418006",
    "latitude": "29.973831509993293",
    "geocoded_column": {
      "latitude": "29.973831509993293",
      "longitude": "-90.05150330418006"
    }
  },
  {
    "service_request": "2026-1249184",
    "request_type": "Trash/Recycling",
    "request_reason": "Repair Trash Cart",
    "date_created": "2026-01-04T16:51:34.000",
    "date_modified": "2026-01-04T16:51:35.000",
    "request_status": "Pending",
    "responsible_agency": "Department of Sanitation",
    "final_address": "3300 State Street Dr",
    "address_councildis": "A",
    "status": "Assigned to Contractor",
    "contractor": "IV Waste",
    "rowid": "1249184",
    "final_x": "3667609.92993",
    "final_y": "528355.730944",
    "longitude": "-90.11203681020542",
    "latitude": "29.947209401332415",
    "geocoded_column": {
      "latitude": "29.947209401332415",
      "longitude": "-90.11203681020542"
    }
  },
  {
    "service_request": "2026-1249183",
    "request_type": "Property Maintenance",
    "request_reason": "Property Maintenance",
    "date_created": "2026-01-04T16:43:19.000",
    "date_modified": "2026-01-04T16:43:21.000",
    "request_status": "Pending",
    "responsible_agency": "Department of Code Enforcement",
    "final_address": "4206 S Carrollton Ave",
    "address_councildis": "A",
    "status": "Pending",
    "rowid": "1249183",
    "final_x": "3669644.22906",
    "final_y": "536567.155271",
    "longitude": "-90.10533588588916",
    "latitude": "29.969728327908687",
    "geocoded_column": {
      "latitude": "29.969728327908687",
      "longitude": "-90.10533588588916"
    }
  },
  {
    "service_request": "2026-1249182",
    "request_type": "Abandoned Vehicles",
    "request_reason": "Abandoned/Junk Vehicles",
    "date_created": "2026-01-04T16:41:26.000",
    "date_modified": "2026-01-04T16:41:28.000",
    "request_status": "Pending",
    "responsible_agency": "Department of Public Works",
    "final_address": "2518 Burgundy St",
    "address_councildis": "C",
    "status": "Pending",
    "rowid": "1249182",
    "final_x": "3686725.2943",
    "final_y": "535693.927367",
    "longitude": "-90.05142331327858",
    "latitude": "29.966812853542237",
    "geocoded_column": {
      "latitude": "29.966812853542237",
      "longitude": "-90.05142331327858"
    }
  },
  {
    "service_request": "2026-1249181",
    "request_type": "Trash/Recycling",
    "request_reason": "Request a Large Item Pick Up",
    "date_created": "2026-01-04T16:36:38.000",
    "date_modified": "2026-01-04T16:36:40.000",
    "request_status": "Pending",
    "responsible_agency": "Department of Sanitation",
    "final_address": "5917 Colbert St",
    "address_councildis": "A",
    "status": "Assigned to Contractor",
    "contractor": "IV Waste",
    "rowid": "1249181",
    "final_x": "3667422.65581",
    "final_y": "546921.397009",
    "longitude": "-90.11200329956877",
    "latitude": "29.998264263146066",
    "geocoded_column": {
      "latitude": "29.998264263146066",
      "longitude": "-90.11200329956877"
    }
  },
  {
    "service_request": "2026-1249180",
    "request_type": "Trash/Recycling",
    "request_reason": "Damaged Caused By Contractor",
    "date_created": "2026-01-04T16:32:01.000",
    "date_modified": "2026-01-04T16:32:02.000",
    "request_status": "Pending",
    "responsible_agency": "Department of Sanitation",
    "final_address": "2120 Comet St",
    "address_councildis": "C",
    "status": "Assigned to Contractor",
    "contractor": "Richards Disposal",
    "rowid": "1249180",
    "final_x": "3700275.0385",
    "final_y": "523242.632187",
    "longitude": "-90.00908795780097",
    "latitude": "29.93215241410604",
    "geocoded_column": {
      "latitude": "29.93215241410604",
      "longitude": "-90.00908795780097"
    }
  },
  {
    "service_request": "2026-1249179",
    "request_type": "Trash/Recycling",
    "request_reason": "Repair Trash Cart",
    "date_created": "2026-01-04T16:30:48.000",
    "date_modified": "2026-01-04T16:30:49.000",
    "request_status": "Pending",
    "responsible_agency": "Department of Sanitation",
    "final_address": "309 S Dupre St",
    "address_councildis": "B",
    "status": "Assigned to Contractor",
    "contractor": "IV Waste",
    "rowid": "1249179",
    "final_x": "3673984.27867",
    "final_y": "534931.065158",
    "longitude": "-90.09168558513454",
    "latitude": "29.96510102542562",
    "geocoded_column": {
      "latitude": "29.96510102542562",
      "longitude": "-90.09168558513454"
    }
  },
  {
    "service_request": "2026-1249178",
    "request_type": "Trash/Recycling",
    "request_reason": "Request a Large Item Pick Up",
    "date_created": "2026-01-04T16:28:29.000",
    "date_modified": "2026-01-04T16:28:30.000",
    "request_status": "Pending",
    "responsible_agency": "Department of Sanitation",
    "final_address": "215 Vallette St",
    "address_councildis": "C",
    "status": "Assigned to Contractor",
    "contractor": "Richards Disposal",
    "rowid": "1249178",
    "final_x": "3687544.67606",
    "final_y": "531054.38765",
    "longitude": "-90.04899993913017",
    "latitude": "29.954030493858085",
    "geocoded_column": {
      "latitude": "29.954030493858085",
      "longitude": "-90.04899993913017"
    }
  },
  {
    "service_request": "2026-1249175",
    "request_type": "Christmas Tree Recycle Pick Up",
    "request_reason": "Christmas Tree Recycle Pick Up",
    "date_created": "2026-01-04T16:15:32.000",
    "date_modified": "2026-01-04T16:15:37.000",
    "request_status": "Pending",
    "responsible_agency": "Office of Resilience and Sustainability",
    "final_address": "2306 Barracks St",
    "address_councildis": "D",
    "status": "Pending",
    "contractor": "Glass Half Full",
    "rowid": "1249175",
    "final_x": "3679335.20789",
    "final_y": "537665.150344",
    "longitude": "-90.07469281130626",
    "latitude": "29.972458304068184",
    "geocoded_column": {
      "latitude": "29.972458304068184",
      "longitude": "-90.07469281130626"
    }
  },
  {
    "service_request": "2026-1249176",
    "request_type": "Christmas Tree Recycle Pick Up",
    "request_reason": "Christmas Tree Recycle Pick Up",
    "date_created": "2026-01-04T16:15:32.000",
    "date_modified": "2026-01-04T16:15:37.000",
    "request_status": "Pending",
    "responsible_agency": "Office of Resilience and Sustainability",
    "final_address": "2306 Barracks St",
    "address_councildis": "D",
    "status": "Pending",
    "contractor": "Glass Half Full",
    "rowid": "1249176",
    "final_x": "3679335.20789",
    "final_y": "537665.150344",
    "longitude": "-90.07469281130626",
    "latitude": "29.972458304068184",
    "geocoded_column": {
      "latitude": "29.972458304068184",
      "longitude": "-90.07469281130626"
    }
  },
  {
    "service_request": "2026-1249174",
    "request_type": "Christmas Tree Recycle Pick Up",
    "request_reason": "Christmas Tree Recycle Pick Up",
    "date_created": "2026-01-04T16:15:32.000",
    "date_modified": "2026-01-04T16:15:36.000",
    "request_status": "Pending",
    "responsible_agency": "Office of Resilience and Sustainability",
    "final_address": "2306 Barracks St",
    "address_councildis": "D",
    "status": "Pending",
    "contractor": "Glass Half Full",
    "rowid": "1249174",
    "final_x": "3679335.20789",
    "final_y": "537665.150344",
    "longitude": "-90.07469281130626",
    "latitude": "29.972458304068184",
    "geocoded_column": {
      "latitude": "29.972458304068184",
      "longitude": "-90.07469281130626"
    }
  },
  {
    "service_request": "2026-1249173",
    "request_type": "Trash/Recycling",
    "request_reason": "Request a Large Item Pick Up",
    "date_created": "2026-01-04T15:59:08.000",
    "date_modified": "2026-01-04T15:59:09.000",
    "request_status": "Pending",
    "responsible_agency": "Department of Sanitation",
    "final_address": "2639 Ramsey Dr",
    "address_councildis": "C",
    "status": "Assigned to Contractor",
    "contractor": "Richards Disposal",
    "rowid": "1249173",
    "final_x": "3703070.1875",
    "final_y": "521197.011705",
    "longitude": "-90.00033913913825",
    "latitude": "29.926438549651902",
    "geocoded_column": {
      "latitude": "29.926438549651902",
      "longitude": "-90.00033913913825"
    }
  },
  {
    "service_request": "2026-1249172",
    "request_type": "Traffic Signals",
    "request_reason": "Traffic Signal Malfunctioning or Damaged",
    "date_created": "2026-01-04T15:55:39.000",
    "date_modified": "2026-01-04T15:55:41.000",
    "request_status": "Pending",
    "responsible_agency": "Department of Public Works",
    "final_address": "6000 Bullard Ave",
    "address_councildis": "E",
    "status": "Pending",
    "rowid": "1249172",
    "final_x": "3714876.25311",
    "final_y": "563881.658913",
    "longitude": "-89.96145788051206",
    "latitude": "30.043422170200817",
    "geocoded_column": {
      "latitude": "30.043422170200817",
      "longitude": "-89.96145788051206"
    }
  },
  {
    "service_request": "2026-1249171",
    "request_type": "Trash/Recycling",
    "request_reason": "Request a Large Item Pick Up",
    "date_created": "2026-01-04T15:54:23.000",
    "date_modified": "2026-01-04T15:54:25.000",
    "request_status": "Pending",
    "responsible_agency": "Department of Sanitation",
    "final_address": "4556 Duplessis St",
    "address_councildis": "D",
    "status": "Assigned to Contractor",
    "contractor": "IV Waste",
    "rowid": "1249171",
    "final_x": "3678111.57557",
    "final_y": "549438.022291",
    "longitude": "-90.0781499712493",
    "latitude": "30.004866488739637",
    "geocoded_column": {
      "latitude": "30.004866488739637",
      "longitude": "-90.0781499712493"
    }
  },
  {
    "service_request": "2026-1249170",
    "request_type": "Roads and Streets",
    "request_reason": "Pothole",
    "date_created": "2026-01-04T15:25:09.000",
    "date_modified": "2026-01-04T15:25:11.000",
    "request_status": "Pending",
    "responsible_agency": "Department of Public Works",
    "final_address": "8321 Jeannette St",
    "address_councildis": "A",
    "status": "Pending",
    "rowid": "1249170",
    "final_x": "3662023.69306",
    "final_y": "529793.388801",
    "longitude": "-90.12962707510407",
    "latitude": "29.951325035132285",
    "geocoded_column": {
      "latitude": "29.951325035132285",
      "longitude": "-90.12962707510407"
    }
  },
  {
    "service_request": "2026-1249169",
    "request_type": "Trash/Recycling",
    "request_reason": "Order Recycling Cart",
    "date_created": "2026-01-04T15:17:30.000",
    "date_modified": "2026-01-04T15:17:33.000",
    "request_status": "Pending",
    "responsible_agency": "Department of Sanitation",
    "final_address": "0 BLK Alice Ct",
    "address_councildis": "E",
    "status": "Pending",
    "rowid": "1249169",
    "final_x": "3696830.85368",
    "final_y": "533835.980016",
    "longitude": "-90.01957742212986",
    "latitude": "29.961389424106756",
    "geocoded_column": {
      "latitude": "29.961389424106756",
      "longitude": "-90.01957742212986"
    }
  },
  {
    "service_request": "2026-1249168",
    "request_type": "Trash/Recycling",
    "request_reason": "Request a Large Item Pick Up",
    "date_created": "2026-01-04T15:08:17.000",
    "date_modified": "2026-01-04T15:08:19.000",
    "request_status": "Pending",
    "responsible_agency": "Department of Sanitation",
    "final_address": "6320 Laurel St",
    "address_councildis": "A",
    "status": "Assigned to Contractor",
    "contractor": "IV Waste",
    "rowid": "1249168",
    "final_x": "3662841.00333",
    "final_y": "518802.169463",
    "longitude": "-90.12741164526388",
    "latitude": "29.92107902852174",
    "geocoded_column": {
      "latitude": "29.92107902852174",
      "longitude": "-90.12741164526388"
    }
  },
  {
    "service_request": "2026-1249167",
    "request_type": "Christmas Tree Recycle Pick Up",
    "request_reason": "Christmas Tree Recycle Pick Up",
    "date_created": "2026-01-04T15:06:46.000",
    "date_modified": "2026-01-04T15:06:48.000",
    "request_status": "Pending",
    "responsible_agency": "Office of Resilience and Sustainability",
    "final_address": "6320 Laurel St",
    "address_councildis": "A",
    "status": "Pending",
    "contractor": "Glass Half Full",
    "rowid": "1249167",
    "final_x": "3662841.00333",
    "final_y": "518802.169463",
    "longitude": "-90.12741164526388",
    "latitude": "29.92107902852174",
    "geocoded_column": {
      "latitude": "29.92107902852174",
      "longitude": "-90.12741164526388"
    }
  },
  {
    "service_request": "2026-1249166",
    "request_type": "Roads and Streets",
    "request_reason": "Push-up/Pavement Expansion",
    "date_created": "2026-01-04T14:41:39.000",
    "date_modified": "2026-01-04T14:41:40.000",
    "request_status": "Pending",
    "responsible_agency": "Department of Public Works",
    "final_address": "2411 Republic St",
    "address_councildis": "D",
    "status": "Pending",
    "rowid": "1249166",
    "final_x": "3680864.634",
    "final_y": "540905.533963",
    "longitude": "-90.06974976300101",
    "latitude": "29.98132195230236",
    "geocoded_column": {
      "latitude": "29.98132195230236",
      "longitude": "-90.06974976300101"
    }
  },
  {
    "service_request": "2026-1249165",
    "request_type": "Trash/Recycling",
    "request_reason": "Request a Large Item Pick Up",
    "date_created": "2026-01-04T14:29:26.000",
    "date_modified": "2026-01-04T14:29:28.000",
    "request_status": "Pending",
    "responsible_agency": "Department of Sanitation",
    "final_address": "8036 Gus St",
    "address_councildis": "E",
    "status": "Assigned to Contractor",
    "contractor": "Waste Pro",
    "rowid": "1249165",
    "final_x": "3703246.64894",
    "final_y": "563246.634656",
    "longitude": "-89.99823547508511",
    "latitude": "30.042053824722206",
    "geocoded_column": {
      "latitude": "30.042053824722206",
      "longitude": "-89.99823547508511"
    }
  },
  {
    "service_request": "2026-1249164",
    "request_type": "Trash/Recycling",
    "request_reason": "Illegal Dumping",
    "date_created": "2026-01-04T14:27:19.000",
    "date_modified": "2026-01-04T14:27:20.000",
    "request_status": "Pending",
    "responsible_agency": "Department of Sanitation",
    "final_address": "1415 Tupelo St",
    "address_councildis": "E",
    "status": "Pending",
    "rowid": "1249164",
    "final_x": "3700010.31863",
    "final_y": "534483.896197",
    "longitude": "-90.00951365064998",
    "latitude": "29.963070343166045",
    "geocoded_column": {
      "latitude": "29.963070343166045",
      "longitude": "-90.00951365064998"
    }
  },
  {
    "service_request": "2026-1249163",
    "request_type": "Trash/Recycling",
    "request_reason": "Order Trash Cart",
    "date_created": "2026-01-04T14:25:47.000",
    "date_modified": "2026-01-04T14:25:48.000",
    "request_status": "Pending",
    "responsible_agency": "Department of Sanitation",
    "final_address": "4600 Sierra Madre Dr",
    "address_councildis": "E",
    "status": "Assigned to Contractor",
    "contractor": "Waste Pro",
    "rowid": "1249163",
    "final_x": "3713918.56927",
    "final_y": "555591.157977",
    "longitude": "-89.96479747162948",
    "latitude": "30.02065809436109",
    "geocoded_column": {
      "latitude": "30.02065809436109",
      "longitude": "-89.96479747162948"
    }
  },
  {
    "service_request": "2026-1249162",
    "request_type": "Roads and Streets",
    "request_reason": "Pothole",
    "date_created": "2026-01-04T14:21:50.000",
    "date_modified": "2026-01-04T14:21:53.000",
    "request_status": "Pending",
    "responsible_agency": "Department of Public Works",
    "final_address": "6228 Music St",
    "address_councildis": "D",
    "status": "Pending",
    "rowid": "1249162",
    "final_x": "3685182.96073",
    "final_y": "556118.738522",
    "longitude": "-90.05557471654629",
    "latitude": "30.023021125700893",
    "geocoded_column": {
      "latitude": "30.023021125700893",
      "longitude": "-90.05557471654629"
    }
  },
  {
    "service_request": "2026-1249161",
    "request_type": "Christmas Tree Recycle Pick Up",
    "request_reason": "Christmas Tree Recycle Pick Up",
    "date_created": "2026-01-04T13:51:24.000",
    "date_modified": "2026-01-04T13:51:26.000",
    "request_status": "Pending",
    "responsible_agency": "Office of Resilience and Sustainability",
    "final_address": "4617 Chestnut St",
    "address_councildis": "B",
    "status": "Pending",
    "contractor": "Glass Half Full",
    "rowid": "1249161",
    "final_x": "3670079.27028",
    "final_y": "519463.042423",
    "longitude": "-90.10454125089134",
    "latitude": "29.92268477016624",
    "geocoded_column": {
      "latitude": "29.92268477016624",
      "longitude": "-90.10454125089134"
    }
  },
  {
    "service_request": "2026-1249160",
    "request_type": "Trash/Recycling",
    "request_reason": "Request a Large Item Pick Up",
    "date_created": "2026-01-04T13:50:53.000",
    "date_modified": "2026-01-04T13:50:55.000",
    "request_status": "Pending",
    "responsible_agency": "Department of Sanitation",
    "final_address": "1715 Jackson Ave",
    "address_councildis": "B",
    "status": "Assigned to Contractor",
    "contractor": "IV Waste",
    "rowid": "1249160",
    "final_x": "3677339.36584",
    "final_y": "524138.917692",
    "longitude": "-90.08146274867951",
    "latitude": "29.93532582672987",
    "geocoded_column": {
      "latitude": "29.93532582672987",
      "longitude": "-90.08146274867951"
    }
  },
  {
    "service_request": "2026-1249159",
    "request_type": "Trash/Recycling",
    "request_reason": "Request a Large Item Pick Up",
    "date_created": "2026-01-04T13:41:51.000",
    "date_modified": "2026-01-04T13:41:53.000",
    "request_status": "Pending",
    "responsible_agency": "Department of Sanitation",
    "final_address": "2910 Robert St",
    "address_councildis": "B",
    "status": "Assigned to Contractor",
    "contractor": "IV Waste",
    "rowid": "1249159",
    "final_x": "3668849.87783",
    "final_y": "526192.444734",
    "longitude": "-90.10819484429626",
    "latitude": "29.941224668103985",
    "geocoded_column": {
      "latitude": "29.941224668103985",
      "longitude": "-90.10819484429626"
    }
  },
  {
    "service_request": "2026-1249158",
    "request_type": "Trash/Recycling",
    "request_reason": "Damaged Caused By Contractor",
    "date_created": "2026-01-04T13:40:56.000",
    "date_modified": "2026-01-04T13:40:57.000",
    "request_status": "Pending",
    "responsible_agency": "Department of Sanitation",
    "final_address": "1020 Burdette St",
    "address_councildis": "A",
    "status": "Assigned to Contractor",
    "contractor": "IV Waste",
    "rowid": "1249158",
    "final_x": "3662401.05869",
    "final_y": "527244.157183",
    "longitude": "-90.12852016919376",
    "latitude": "29.94430455966254",
    "geocoded_column": {
      "latitude": "29.94430455966254",
      "longitude": "-90.12852016919376"
    }
  },
  {
    "service_request": "2026-1249157",
    "request_type": "Trash/Recycling",
    "request_reason": "Request a Large Item Pick Up",
    "date_created": "2026-01-04T13:37:44.000",
    "date_modified": "2026-01-04T13:37:46.000",
    "request_status": "Pending",
    "responsible_agency": "Department of Sanitation",
    "final_address": "4626 Marigny St",
    "address_councildis": "D",
    "status": "Assigned to Contractor",
    "contractor": "IV Waste",
    "rowid": "1249157",
    "final_x": "3684379.48668",
    "final_y": "549654.663508",
    "longitude": "-90.0583407843333",
    "latitude": "30.005271893258648",
    "geocoded_column": {
      "latitude": "30.005271893258648",
      "longitude": "-90.0583407843333"
    }
  },
  {
    "service_request": "2026-1249156",
    "request_type": "Trash/Recycling",
    "request_reason": "Replace Trash Cart",
    "date_created": "2026-01-04T13:27:21.000",
    "date_modified": "2026-01-04T13:27:23.000",
    "request_status": "Pending",
    "responsible_agency": "Department of Sanitation",
    "final_address": "1716 Constantinople St",
    "address_councildis": "B",
    "status": "Assigned to Contractor",
    "contractor": "IV Waste",
    "rowid": "1249156",
    "final_x": "3672200.36283",
    "final_y": "521538.309369",
    "longitude": "-90.0977751545932",
    "latitude": "29.928328373796127",
    "geocoded_column": {
      "latitude": "29.928328373796127",
      "longitude": "-90.0977751545932"
    }
  },
  {
    "service_request": "2026-1249155",
    "request_type": "General Services",
    "request_reason": "General Service Request",
    "date_created": "2026-01-04T13:14:06.000",
    "date_modified": "2026-01-04T13:14:15.000",
    "request_status": "Pending",
    "responsible_agency": "Orleans Parish Communication District",
    "final_address": "4200 Old Gentilly Rd",
    "address_councildis": "D",
    "status": "Pending",
    "rowid": "1249155",
    "final_x": "3690544.05321",
    "final_y": "548686.902995",
    "longitude": "-90.0389001952332",
    "latitude": "30.002420856982578",
    "geocoded_column": {
      "latitude": "30.002420856982578",
      "longitude": "-90.0389001952332"
    }
  },
  {
    "service_request": "2026-1249154",
    "request_type": "General Services",
    "request_reason": "General Service Request",
    "date_created": "2026-01-04T13:14:03.000",
    "date_modified": "2026-01-04T13:14:07.000",
    "request_status": "Pending",
    "responsible_agency": "Orleans Parish Communication District",
    "final_address": "4200 Old Gentilly Rd",
    "address_councildis": "D",
    "status": "Pending",
    "rowid": "1249154",
    "final_x": "3690544.05321",
    "final_y": "548686.902995",
    "longitude": "-90.0389001952332",
    "latitude": "30.002420856982578",
    "geocoded_column": {
      "latitude": "30.002420856982578",
      "longitude": "-90.0389001952332"
    }
  },
  {
    "service_request": "2026-1249153",
    "request_type": "General Services",
    "request_reason": "General Service Request",
    "date_created": "2026-01-04T13:14:03.000",
    "date_modified": "2026-01-04T13:14:08.000",
    "request_status": "Pending",
    "responsible_agency": "Orleans Parish Communication District",
    "final_address": "4200 Old Gentilly Rd",
    "address_councildis": "D",
    "status": "Pending",
    "rowid": "1249153",
    "final_x": "3690544.05321",
    "final_y": "548686.902995",
    "longitude": "-90.0389001952332",
    "latitude": "30.002420856982578",
    "geocoded_column": {
      "latitude": "30.002420856982578",
      "longitude": "-90.0389001952332"
    }
  },
  {
    "service_request": "2026-1249152",
    "request_type": "Property Maintenance",
    "request_reason": "Property Maintenance",
    "date_created": "2026-01-04T13:13:22.000",
    "date_modified": "2026-01-04T13:13:30.000",
    "request_status": "Pending",
    "responsible_agency": "Department of Code Enforcement",
    "final_address": "1301 Clouet St",
    "address_councildis": "C",
    "status": "Pending",
    "rowid": "1249152",
    "final_x": "3689271.92054",
    "final_y": "536822.90772",
    "longitude": "-90.04334095899789",
    "latitude": "29.96983856912688",
    "geocoded_column": {
      "latitude": "29.96983856912688",
      "longitude": "-90.04334095899789"
    }
  },
  {
    "service_request": "2026-1249151",
    "request_type": "Roads and Streets",
    "request_reason": "Pothole",
    "date_created": "2026-01-04T13:08:30.000",
    "date_modified": "2026-01-04T13:08:31.000",
    "request_status": "Pending",
    "responsible_agency": "Department of Public Works",
    "final_address": "7731 Panola St",
    "address_councildis": "A",
    "status": "Pending",
    "rowid": "1249151",
    "final_x": "3665040.31111",
    "final_y": "529959.024577",
    "longitude": "-90.1200965019609",
    "latitude": "29.9516929991974",
    "geocoded_column": {
      "latitude": "29.9516929991974",
      "longitude": "-90.1200965019609"
    }
  },
  {
    "service_request": "2026-1249150",
    "request_type": "Trash/Recycling",
    "request_reason": "Replace Trash Cart",
    "date_created": "2026-01-04T13:01:40.000",
    "date_modified": "2026-01-04T13:01:41.000",
    "request_status": "Pending",
    "responsible_agency": "Department of Sanitation",
    "final_address": "2626 Dante St",
    "address_councildis": "A",
    "status": "Assigned to Contractor",
    "contractor": "IV Waste",
    "rowid": "1249150",
    "final_x": "3664938.78285",
    "final_y": "532779.013636",
    "longitude": "-90.12032281925413",
    "latitude": "29.9594500065885",
    "geocoded_column": {
      "latitude": "29.9594500065885",
      "longitude": "-90.12032281925413"
    }
  },
  {
    "service_request": "2026-1249149",
    "request_type": "Trash/Recycling",
    "request_reason": "Repair Trash Cart",
    "date_created": "2026-01-04T12:07:00.000",
    "date_modified": "2026-01-04T12:07:02.000",
    "request_status": "Pending",
    "responsible_agency": "Department of Sanitation",
    "final_address": "1265 Esplanade Ave",
    "address_councildis": "C",
    "status": "Assigned to Contractor",
    "contractor": "IV Waste",
    "rowid": "1249149",
    "final_x": "3682218.61704",
    "final_y": "535909.736455",
    "longitude": "-90.06564783822702",
    "latitude": "29.96754411822715",
    "geocoded_column": {
      "latitude": "29.96754411822715",
      "longitude": "-90.06564783822702"
    }
  },
  {
    "service_request": "2026-1249147",
    "request_type": "New Orleans Recreation Development Commission (NORDC)",
    "request_reason": "Facilities and Parks Maintenance/Clean Up",
    "date_created": "2026-01-04T11:30:49.000",
    "date_modified": "2026-01-04T11:30:50.000",
    "request_status": "Pending",
    "responsible_agency": "New Orleans Recreation Development Commission",
    "final_address": "501 Walnut St",
    "address_councildis": "A",
    "status": "Pending",
    "rowid": "1249147",
    "final_x": "3663161.12237",
    "final_y": "523866.921851",
    "longitude": "-90.12623274931994",
    "latitude": "29.934996240122214",
    "geocoded_column": {
      "latitude": "29.934996240122214",
      "longitude": "-90.12623274931994"
    }
  },
  {
    "service_request": "2026-1249146",
    "request_type": "Trash/Recycling",
    "request_reason": "Order Recycling Cart",
    "date_created": "2026-01-04T11:29:01.000",
    "date_modified": "2026-01-04T11:29:03.000",
    "request_status": "Pending",
    "responsible_agency": "Department of Sanitation",
    "final_address": "6601 Coventry St",
    "address_councildis": "E",
    "status": "Pending",
    "rowid": "1249146",
    "final_x": "3697623.37015",
    "final_y": "559227.766108",
    "longitude": "-90.01615308145733",
    "latitude": "30.03118244863143",
    "geocoded_column": {
      "latitude": "30.03118244863143",
      "longitude": "-90.01615308145733"
    }
  },
  {
    "service_request": "2026-1249145",
    "request_type": "Trash/Recycling",
    "request_reason": "Repair Recycling Cart",
    "date_created": "2026-01-04T11:23:09.000",
    "date_modified": "2026-01-04T11:23:11.000",
    "request_status": "Pending",
    "responsible_agency": "Department of Sanitation",
    "final_address": "1016 Desire St",
    "address_councildis": "C",
    "status": "Pending",
    "rowid": "1249145",
    "final_x": "3690081.89078",
    "final_y": "535426.835206",
    "longitude": "-90.04083273789982",
    "latitude": "29.965974761873937",
    "geocoded_column": {
      "latitude": "29.965974761873937",
      "longitude": "-90.04083273789982"
    }
  },
  {
    "service_request": "2026-1249144",
    "request_type": "General Services",
    "request_reason": "General Service Request",
    "date_created": "2026-01-04T11:01:08.000",
    "date_modified": "2026-01-04T11:01:09.000",
    "request_status": "Pending",
    "responsible_agency": "Orleans Parish Communication District",
    "final_address": "7627 Daniel Dr",
    "address_councildis": "E",
    "status": "Pending",
    "rowid": "1249144",
    "final_x": "3705129.46039",
    "final_y": "562874.685088",
    "longitude": "-89.99229887910089",
    "latitude": "30.040970655129872",
    "geocoded_column": {
      "latitude": "30.040970655129872",
      "longitude": "-89.99229887910089"
    }
  },
  {
    "service_request": "2026-1249143",
    "request_type": "Streetlights",
    "request_reason": "Streetlight Outage/Malfunction",
    "date_created": "2026-01-04T10:53:16.000",
    "date_modified": "2026-01-04T10:53:19.000",
    "request_status": "Pending",
    "responsible_agency": "Department of Public Works",
    "final_address": "760 Magazine St",
    "address_councildis": "B",
    "status": "Pending",
    "rowid": "1249143",
    "final_x": "3681241.20226",
    "final_y": "527910.497663",
    "longitude": "-90.06901327117299",
    "latitude": "29.945578622882707",
    "geocoded_column": {
      "latitude": "29.945578622882707",
      "longitude": "-90.06901327117299"
    }
  },
  {
    "service_request": "2026-1249142",
    "request_type": "Streetlights",
    "request_reason": "Streetlight Outage/Malfunction",
    "date_created": "2026-01-04T10:37:56.000",
    "date_modified": "2026-01-04T10:37:59.000",
    "request_status": "Pending",
    "responsible_agency": "Department of Public Works",
    "final_address": "1745 Arabella St",
    "address_councildis": "A",
    "status": "Pending",
    "rowid": "1249142",
    "final_x": "3666889.76935",
    "final_y": "522884.683835",
    "longitude": "-90.11449438432834",
    "latitude": "29.932186865174955",
    "geocoded_column": {
      "latitude": "29.932186865174955",
      "longitude": "-90.11449438432834"
    }
  },
  {
    "service_request": "2026-1249141",
    "request_type": "Trash/Recycling",
    "request_reason": "Order Recycling Cart",
    "date_created": "2026-01-04T10:28:58.000",
    "date_modified": "2026-01-04T10:28:59.000",
    "request_status": "Pending",
    "responsible_agency": "Department of Sanitation",
    "final_address": "3634 Franklin Ave",
    "address_councildis": "D",
    "status": "Pending",
    "rowid": "1249141",
    "final_x": "3687055.74946",
    "final_y": "546391.066064",
    "longitude": "-90.0500013888659",
    "latitude": "29.996216028107725",
    "geocoded_column": {
      "latitude": "29.996216028107725",
      "longitude": "-90.0500013888659"
    }
  },
  {
    "service_request": "2026-1249140",
    "request_type": "Trash/Recycling",
    "request_reason": "Repair Trash Cart",
    "date_created": "2026-01-04T10:28:10.000",
    "date_modified": "2026-01-04T10:28:11.000",
    "request_status": "Pending",
    "responsible_agency": "Department of Sanitation",
    "final_address": "5403 S Prieur St",
    "address_councildis": "A",
    "status": "Assigned to Contractor",
    "contractor": "IV Waste",
    "rowid": "1249140",
    "final_x": "3668447.66983",
    "final_y": "526671.822398",
    "longitude": "-90.10944852908565",
    "latitude": "29.94255462037792",
    "geocoded_column": {
      "latitude": "29.94255462037792",
      "longitude": "-90.10944852908565"
    }
  },
  {
    "service_request": "2026-1249139",
    "request_type": "Christmas Tree Recycle Pick Up",
    "request_reason": "Christmas Tree Recycle Pick Up",
    "date_created": "2026-01-04T10:26:59.000",
    "date_modified": "2026-01-04T10:27:00.000",
    "request_status": "Pending",
    "responsible_agency": "Office of Resilience and Sustainability",
    "final_address": "326 Vallette St",
    "address_councildis": "C",
    "status": "Pending",
    "contractor": "Glass Half Full",
    "rowid": "1249139",
    "final_x": "3687603.99958",
    "final_y": "530548.077698",
    "longitude": "-90.0488305419127",
    "latitude": "29.95263648687249",
    "geocoded_column": {
      "latitude": "29.95263648687249",
      "longitude": "-90.0488305419127"
    }
  },
  {
    "service_request": "2026-1249138",
    "request_type": "Trash/Recycling",
    "request_reason": "Request a Large Item Pick Up",
    "date_created": "2026-01-04T10:24:16.000",
    "date_modified": "2026-01-04T10:24:18.000",
    "request_status": "Pending",
    "responsible_agency": "Department of Sanitation",
    "final_address": "2040 Valentine Ct",
    "address_councildis": "C",
    "status": "Assigned to Contractor",
    "contractor": "Richards Disposal",
    "rowid": "1249138",
    "final_x": "3699798.50359",
    "final_y": "523728.124155",
    "longitude": "-90.01057462906032",
    "latitude": "29.933502483550033",
    "geocoded_column": {
      "latitude": "29.933502483550033",
      "longitude": "-90.01057462906032"
    }
  },
  {
    "service_request": "2026-1249137",
    "request_type": "Trash/Recycling",
    "request_reason": "Start Trash Service",
    "date_created": "2026-01-04T10:06:32.000",
    "date_modified": "2026-01-04T10:06:34.000",
    "request_status": "Pending",
    "responsible_agency": "Department of Sanitation",
    "final_address": "5914 N Prieur St",
    "address_councildis": "E",
    "status": "Assigned to Contractor",
    "contractor": "Waste Pro",
    "rowid": "1249137",
    "final_x": "3700100.31594",
    "final_y": "536323.966151",
    "longitude": "-90.00916230138377",
    "latitude": "29.968127015797513",
    "geocoded_column": {
      "latitude": "29.968127015797513",
      "longitude": "-90.00916230138377"
    }
  },
  {
    "service_request": "2026-1249136",
    "request_type": "Christmas Tree Recycle Pick Up",
    "request_reason": "Christmas Tree Recycle Pick Up",
    "date_created": "2026-01-04T09:56:53.000",
    "date_modified": "2026-01-04T09:56:55.000",
    "request_status": "Pending",
    "responsible_agency": "Office of Resilience and Sustainability",
    "final_address": "448 Julia St Ste 314",
    "address_councildis": "B",
    "status": "Pending",
    "contractor": "Glass Half Full",
    "rowid": "1249136",
    "final_x": "3681307.72175",
    "final_y": "527684.469311",
    "longitude": "-90.06881112319853",
    "latitude": "29.94495510228806",
    "geocoded_column": {
      "latitude": "29.94495510228806",
      "longitude": "-90.06881112319853"
    }
  },
  {
    "service_request": "2026-1249135",
    "request_type": "Property Maintenance",
    "request_reason": "Property Maintenance",
    "date_created": "2026-01-04T09:55:38.000",
    "date_modified": "2026-01-04T09:55:39.000",
    "request_status": "Pending",
    "responsible_agency": "Department of Code Enforcement",
    "final_address": "1700 BLK Fern St",
    "address_councildis": "A",
    "status": "Pending",
    "rowid": "1249135",
    "final_x": "3663836.27301",
    "final_y": "529278.45501",
    "longitude": "-90.12392097456826",
    "latitude": "29.9498566520303",
    "geocoded_column": {
      "latitude": "29.9498566520303",
      "longitude": "-90.12392097456826"
    }
  },
  {
    "service_request": "2026-1249134",
    "request_type": "Trash/Recycling",
    "request_reason": "Request a Large Item Pick Up",
    "date_created": "2026-01-04T09:54:02.000",
    "date_modified": "2026-01-04T09:54:04.000",
    "request_status": "Pending",
    "responsible_agency": "Department of Sanitation",
    "final_address": "773 Canal Roadway",
    "address_councildis": "A",
    "status": "Assigned to Contractor",
    "contractor": "IV Waste",
    "rowid": "1249134",
    "final_x": "3668807.46196",
    "final_y": "544838.168911",
    "longitude": "-90.10769908391285",
    "latitude": "29.992495445112088",
    "geocoded_column": {
      "latitude": "29.992495445112088",
      "longitude": "-90.10769908391285"
    }
  },
  {
    "service_request": "2026-1249133",
    "request_type": "Trash/Recycling",
    "request_reason": "Replace Trash Cart",
    "date_created": "2026-01-04T09:36:50.000",
    "date_modified": "2026-01-04T09:36:52.000",
    "request_status": "Pending",
    "responsible_agency": "Department of Sanitation",
    "final_address": "407 Dearmas St",
    "address_councildis": "C",
    "status": "Assigned to Contractor",
    "contractor": "Richards Disposal",
    "rowid": "1249133",
    "final_x": "3686734.22486",
    "final_y": "527112.131903",
    "longitude": "-90.05169824135166",
    "latitude": "29.943215587636406",
    "geocoded_column": {
      "latitude": "29.943215587636406",
      "longitude": "-90.05169824135166"
    }
  },
  {
    "service_request": "2026-1249132",
    "request_type": "Trash/Recycling",
    "request_reason": "MIssed Recycling Pick-Up",
    "date_created": "2026-01-04T09:28:28.000",
    "date_modified": "2026-01-04T09:28:30.000",
    "request_status": "Pending",
    "responsible_agency": "Department of Sanitation",
    "final_address": "2118 Freret St",
    "address_councildis": "B",
    "status": "Assigned to Contractor",
    "contractor": "IV Waste",
    "rowid": "1249132",
    "final_x": "3675801.34357",
    "final_y": "526418.156094",
    "longitude": "-90.08623997872645",
    "latitude": "29.941639099133855",
    "geocoded_column": {
      "latitude": "29.941639099133855",
      "longitude": "-90.08623997872645"
    }
  },
  {
    "service_request": "2026-1249131",
    "request_type": "Trash/Recycling",
    "request_reason": "Replace Trash Cart",
    "date_created": "2026-01-04T09:26:27.000",
    "date_modified": "2026-01-04T09:26:29.000",
    "request_status": "Pending",
    "responsible_agency": "Department of Sanitation",
    "final_address": "5039 Paris Ave",
    "address_councildis": "D",
    "status": "Assigned to Contractor",
    "contractor": "IV Waste",
    "rowid": "1249131",
    "final_x": "3679363.90984",
    "final_y": "551036.968405",
    "longitude": "-90.07413808233754",
    "latitude": "30.009225237731187",
    "geocoded_column": {
      "latitude": "30.009225237731187",
      "longitude": "-90.07413808233754"
    }
  },
  {
    "service_request": "2026-1249130",
    "request_type": "General Services",
    "request_reason": "General Service Request",
    "date_created": "2026-01-04T09:06:20.000",
    "date_modified": "2026-01-04T09:06:22.000",
    "request_status": "Pending",
    "responsible_agency": "Orleans Parish Communication District",
    "final_address": "803 Pine St",
    "address_councildis": "A",
    "status": "Pending",
    "rowid": "1249130",
    "final_x": "3663193.33811",
    "final_y": "525512.342205",
    "longitude": "-90.12607631388748",
    "latitude": "29.939519690828067",
    "geocoded_column": {
      "latitude": "29.939519690828067",
      "longitude": "-90.12607631388748"
    }
  },
  {
    "service_request": "2026-1249129",
    "request_type": "Property Maintenance",
    "request_reason": "Property Maintenance",
    "date_created": "2026-01-04T08:51:20.000",
    "date_modified": "2026-01-04T08:51:23.000",
    "request_status": "Pending",
    "responsible_agency": "Department of Code Enforcement",
    "final_address": "1420 N Dorgenois St",
    "address_councildis": "D",
    "status": "Pending",
    "rowid": "1249129",
    "final_x": "3678794.81883",
    "final_y": "538738.111561",
    "longitude": "-90.07636228317067",
    "latitude": "29.975424888799026",
    "geocoded_column": {
      "latitude": "29.975424888799026",
      "longitude": "-90.07636228317067"
    }
  },
  {
    "service_request": "2026-1249128",
    "request_type": "Healthy Homes",
    "request_reason": "Healthy Homes",
    "date_created": "2026-01-04T06:15:41.000",
    "date_modified": "2026-01-04T06:15:44.000",
    "request_status": "Pending",
    "responsible_agency": "Department of Code Enforcement",
    "final_address": "627 Seguin St",
    "address_councildis": "C",
    "status": "Pending",
    "rowid": "1249128",
    "final_x": "3686755.43542",
    "final_y": "529442.464385",
    "longitude": "-90.05154897108422",
    "latitude": "29.94962255714438",
    "geocoded_column": {
      "latitude": "29.94962255714438",
      "longitude": "-90.05154897108422"
    }
  },
  {
    "service_request": "2026-1249127",
    "request_type": "Healthy Homes",
    "request_reason": "Healthy Homes",
    "date_created": "2026-01-04T06:13:18.000",
    "date_modified": "2026-01-04T06:13:32.000",
    "request_status": "Pending",
    "responsible_agency": "Department of Code Enforcement",
    "final_address": "623 Seguin St",
    "address_councildis": "C",
    "status": "Pending",
    "rowid": "1249127",
    "final_x": "3686732.52252",
    "final_y": "529473.965249",
    "longitude": "-90.05162020478132",
    "latitude": "29.949709878524978",
    "geocoded_column": {
      "latitude": "29.949709878524978",
      "longitude": "-90.05162020478132"
    }
  },
  {
    "service_request": "2026-1249126",
    "request_type": "Healthy Homes",
    "request_reason": "Healthy Homes",
    "date_created": "2026-01-04T06:09:01.000",
    "date_modified": "2026-01-04T06:09:02.000",
    "request_status": "Pending",
    "responsible_agency": "Department of Code Enforcement",
    "final_address": "631 Seguin St",
    "address_councildis": "C",
    "status": "Pending",
    "rowid": "1249126",
    "final_x": "3686753.24015",
    "final_y": "529409.097857",
    "longitude": "-90.05155708104928",
    "latitude": "29.949530878102593",
    "geocoded_column": {
      "latitude": "29.949530878102593",
      "longitude": "-90.05155708104928"
    }
  },
  {
    "service_request": "2026-1249125",
    "request_type": "Trash/Recycling",
    "request_reason": "Order Second Trash Cart",
    "date_created": "2026-01-04T04:34:36.000",
    "date_modified": "2026-01-04T04:34:38.000",
    "request_status": "Pending",
    "responsible_agency": "Department of Sanitation",
    "final_address": "4901 Haydel St",
    "address_councildis": "E",
    "status": "Assigned to Contractor",
    "contractor": "Waste Pro",
    "rowid": "1249125",
    "final_x": "3698998.30948",
    "final_y": "555257.084633",
    "longitude": "-90.0119529467249",
    "latitude": "30.020221064973413",
    "geocoded_column": {
      "latitude": "30.020221064973413",
      "longitude": "-90.0119529467249"
    }
  },
  {
    "service_request": "2026-1249124",
    "request_type": "Property Maintenance",
    "request_reason": "Property Maintenance",
    "date_created": "2026-01-04T03:42:00.000",
    "date_modified": "2026-01-04T03:42:01.000",
    "request_status": "Pending",
    "responsible_agency": "Department of Code Enforcement",
    "final_address": "4728 Banks St",
    "address_councildis": "A",
    "status": "Pending",
    "rowid": "1249124",
    "final_x": "3668153.66983",
    "final_y": "538975.08801",
    "longitude": "-90.10996203185088",
    "latitude": "29.976393176141922",
    "geocoded_column": {
      "latitude": "29.976393176141922",
      "longitude": "-90.10996203185088"
    }
  },
  {
    "service_request": "2026-1249123",
    "request_type": "Trash/Recycling",
    "request_reason": "Request a Large Item Pick Up",
    "date_created": "2026-01-04T01:45:48.000",
    "date_modified": "2026-01-04T01:45:51.000",
    "request_status": "Pending",
    "responsible_agency": "Department of Sanitation",
    "final_address": "409 Belleville St",
    "address_councildis": "C",
    "status": "Assigned to Contractor",
    "contractor": "Richards Disposal",
    "rowid": "1249123",
    "final_x": "3687827.31772",
    "final_y": "530243.436353",
    "longitude": "-90.0481361947794",
    "latitude": "29.95179194224958",
    "geocoded_column": {
      "latitude": "29.95179194224958",
      "longitude": "-90.0481361947794"
    }
  },
  {
    "service_request": "2026-1249113",
    "request_type": "Trash/Recycling",
    "request_reason": "Replace Recycling Cart",
    "date_created": "2026-01-04T00:03:32.000",
    "date_modified": "2026-01-04T00:03:34.000",
    "request_status": "Pending",
    "responsible_agency": "Department of Sanitation",
    "final_address": "129 20Th St",
    "address_councildis": "A",
    "status": "Pending",
    "rowid": "1249113",
    "final_x": "3665917.79546",
    "final_y": "549057.119187",
    "longitude": "-90.11668552618282",
    "latitude": "30.004180781564006",
    "geocoded_column": {
      "latitude": "30.004180781564006",
      "longitude": "-90.11668552618282"
    }
  },
  {
    "service_request": "2026-1249112",
    "request_type": "Trash/Recycling",
    "request_reason": "Return Trash Cart",
    "date_created": "2026-01-03T22:08:52.000",
    "date_modified": "2026-01-03T22:08:54.000",
    "request_status": "Pending",
    "responsible_agency": "Department of Sanitation",
    "final_address": "1412 Octavia St",
    "address_councildis": "A",
    "status": "Assigned to Contractor",
    "contractor": "IV Waste",
    "rowid": "1249112",
    "final_x": "3666859.94247",
    "final_y": "521031.590457",
    "longitude": "-90.11465076457561",
    "latitude": "29.927092318978108",
    "geocoded_column": {
      "latitude": "29.927092318978108",
      "longitude": "-90.11465076457561"
    }
  },
  {
    "service_request": "2026-1249111",
    "request_type": "Abandoned Vehicles",
    "request_reason": "Abandoned/Junk Vehicles",
    "date_created": "2026-01-03T22:07:09.000",
    "date_modified": "2026-01-03T22:07:10.000",
    "request_status": "Pending",
    "responsible_agency": "Department of Public Works",
    "final_address": "1022 Barracks St",
    "address_councildis": "C",
    "status": "Pending",
    "rowid": "1249111",
    "final_x": "3682840.32111",
    "final_y": "534928.904454",
    "longitude": "-90.06371880656019",
    "latitude": "29.96482824079472",
    "geocoded_column": {
      "latitude": "29.96482824079472",
      "longitude": "-90.06371880656019"
    }
  },
  {
    "service_request": "2026-1249110",
    "request_type": "Trash/Recycling",
    "request_reason": "Repair Trash Cart",
    "date_created": "2026-01-03T22:04:22.000",
    "date_modified": "2026-01-03T22:04:24.000",
    "request_status": "Pending",
    "responsible_agency": "Department of Sanitation",
    "final_address": "2237 Octavia St",
    "address_councildis": "A",
    "status": "Assigned to Contractor",
    "contractor": "IV Waste",
    "rowid": "1249110",
    "final_x": "3667624.30241",
    "final_y": "524006.437692",
    "longitude": "-90.11213778543795",
    "latitude": "29.93524982542993",
    "geocoded_column": {
      "latitude": "29.93524982542993",
      "longitude": "-90.11213778543795"
    }
  },
  {
    "service_request": "2026-1249109",
    "request_type": "Abandoned Vehicles",
    "request_reason": "Abandoned/Junk Vehicles",
    "date_created": "2026-01-03T21:58:11.000",
    "date_modified": "2026-01-03T21:58:13.000",
    "request_status": "Pending",
    "responsible_agency": "Department of Public Works",
    "final_address": "2300 BLK Dauphine St",
    "address_councildis": "C",
    "status": "Pending",
    "rowid": "1249109",
    "final_x": "3685683.77459",
    "final_y": "535274.863621",
    "longitude": "-90.05472719138334",
    "latitude": "29.965692571487683",
    "geocoded_column": {
      "latitude": "29.965692571487683",
      "longitude": "-90.05472719138334"
    }
  },
  {
    "service_request": "2026-1249108",
    "request_type": "Trash/Recycling",
    "request_reason": "Order Trash Cart",
    "date_created": "2026-01-03T21:23:21.000",
    "date_modified": "2026-01-03T21:23:23.000",
    "request_status": "Pending",
    "responsible_agency": "Department of Sanitation",
    "final_address": "5901 Milne Blvd",
    "address_councildis": "A",
    "status": "Assigned to Contractor",
    "contractor": "IV Waste",
    "rowid": "1249108",
    "final_x": "3667038.96186",
    "final_y": "546952.023825",
    "longitude": "-90.11321436053092",
    "latitude": "29.99835971606422",
    "geocoded_column": {
      "latitude": "29.99835971606422",
      "longitude": "-90.11321436053092"
    }
  },
  {
    "service_request": "2026-1249107",
    "request_type": "Trash/Recycling",
    "request_reason": "Replace Trash Cart",
    "date_created": "2026-01-03T21:08:37.000",
    "date_modified": "2026-01-03T21:08:39.000",
    "request_status": "Pending",
    "responsible_agency": "Department of Sanitation",
    "final_address": "2125 Leonidas St",
    "address_councildis": "A",
    "status": "Assigned to Contractor",
    "contractor": "IV Waste",
    "rowid": "1249107",
    "final_x": "3662959.17031",
    "final_y": "532052.107651",
    "longitude": "-90.12659817450916",
    "latitude": "29.957508726564754",
    "geocoded_column": {
      "latitude": "29.957508726564754",
      "longitude": "-90.12659817450916"
    }
  },
  {
    "service_request": "2026-1249106",
    "request_type": "Trash/Recycling",
    "request_reason": "Request a Large Item Pick Up",
    "date_created": "2026-01-03T20:47:06.000",
    "date_modified": "2026-01-03T20:47:09.000",
    "request_status": "Pending",
    "responsible_agency": "Department of Sanitation",
    "final_address": "3713 Louisiana Avenue Prkwy",
    "address_councildis": "B",
    "status": "Assigned to Contractor",
    "contractor": "IV Waste",
    "rowid": "1249106",
    "final_x": "3671427.2939",
    "final_y": "528558.24864",
    "longitude": "-90.09997703946915",
    "latitude": "29.947653829562057",
    "geocoded_column": {
      "latitude": "29.947653829562057",
      "longitude": "-90.09997703946915"
    }
  },
  {
    "service_request": "2026-1249105",
    "request_type": "Streetlights",
    "request_reason": "Streetlight Outage/Malfunction",
    "date_created": "2026-01-03T20:24:55.000",
    "date_modified": "2026-01-03T20:24:56.000",
    "request_status": "Pending",
    "responsible_agency": "Department of Public Works",
    "final_address": "500 Cherokee St",
    "address_councildis": "A",
    "status": "Pending",
    "rowid": "1249105",
    "final_x": "3661888.81031",
    "final_y": "525181.419325",
    "longitude": "-90.13020587473639",
    "latitude": "29.93864748619748",
    "geocoded_column": {
      "latitude": "29.93864748619748",
      "longitude": "-90.13020587473639"
    }
  },
  {
    "service_request": "2026-1249104",
    "request_type": "Trash/Recycling",
    "request_reason": "Request a Large Item Pick Up",
    "date_created": "2026-01-03T20:16:22.000",
    "date_modified": "2026-01-03T20:16:23.000",
    "request_status": "Pending",
    "responsible_agency": "Department of Sanitation",
    "final_address": "131 S Rendon St",
    "address_councildis": "B",
    "status": "Assigned to Contractor",
    "contractor": "IV Waste",
    "rowid": "1249104",
    "final_x": "3673384.83054",
    "final_y": "536244.110535",
    "longitude": "-90.09353374655623",
    "latitude": "29.968729305338623",
    "geocoded_column": {
      "latitude": "29.968729305338623",
      "longitude": "-90.09353374655623"
    }
  },
  {
    "service_request": "2026-1249103",
    "request_type": "Trash/Recycling",
    "request_reason": "Replace Trash Cart",
    "date_created": "2026-01-03T20:16:17.000",
    "date_modified": "2026-01-03T20:16:18.000",
    "request_status": "Pending",
    "responsible_agency": "Department of Sanitation",
    "final_address": "1525 St Andrew St",
    "address_councildis": "B",
    "status": "Assigned to Contractor",
    "contractor": "IV Waste",
    "rowid": "1249103",
    "final_x": "3678408.82318",
    "final_y": "523955.150844",
    "longitude": "-90.07809282450847",
    "latitude": "29.934788357319324",
    "geocoded_column": {
      "latitude": "29.934788357319324",
      "longitude": "-90.07809282450847"
    }
  },
  {
    "service_request": "2026-1249102",
    "request_type": "Trash/Recycling",
    "request_reason": "Illegal Dumping",
    "date_created": "2026-01-03T20:01:57.000",
    "date_modified": "2026-01-04T02:40:44.000",
    "request_status": "Pending",
    "responsible_agency": "Department of Sanitation",
    "final_address": "1410 Mandeville St, New Orleans, Louisiana, 70117",
    "address_councildis": "C",
    "status": "Pending",
    "contractor": "IV Waste",
    "rowid": "1249102",
    "final_x": "3685673.31956",
    "final_y": "537654.765357",
    "longitude": "-90.05467634003965",
    "latitude": "29.97223679423747",
    "geocoded_column": {
      "latitude": "29.97223679423747",
      "longitude": "-90.05467634003965"
    }
  },
  {
    "service_request": "2026-1249101",
    "request_type": "Trash/Recycling",
    "request_reason": "Order Recycling Cart",
    "date_created": "2026-01-03T19:58:38.000",
    "date_modified": "2026-01-03T19:58:41.000",
    "request_status": "Pending",
    "responsible_agency": "Department of Sanitation",
    "final_address": "2939 Pauger St",
    "address_councildis": "D",
    "status": "Pending",
    "rowid": "1249101",
    "final_x": "3683549.23945",
    "final_y": "540584.848971",
    "longitude": "-90.06128180689144",
    "latitude": "29.980358505389525",
    "geocoded_column": {
      "latitude": "29.980358505389525",
      "longitude": "-90.06128180689144"
    }
  },
  {
    "service_request": "2026-1249100",
    "request_type": "Christmas Tree Recycle Pick Up",
    "request_reason": "Christmas Tree Recycle Pick Up",
    "date_created": "2026-01-03T19:49:30.000",
    "date_modified": "2026-01-03T19:49:32.000",
    "request_status": "Pending",
    "responsible_agency": "Office of Resilience and Sustainability",
    "final_address": "837 Topaz St",
    "address_councildis": "D",
    "status": "Pending",
    "contractor": "Glass Half Full",
    "rowid": "1249100",
    "final_x": "3670520.06766",
    "final_y": "556643.566426",
    "longitude": "-90.10188850200032",
    "latitude": "30.02490565616308",
    "geocoded_column": {
      "latitude": "30.02490565616308",
      "longitude": "-90.10188850200032"
    }
  },
  {
    "service_request": "2026-1249099",
    "request_type": "General Services",
    "request_reason": "General Service Request",
    "date_created": "2026-01-03T19:31:28.000",
    "date_modified": "2026-01-03T19:31:30.000",
    "request_status": "Pending",
    "responsible_agency": "Orleans Parish Communication District",
    "final_address": "1300 BLK Florida Ave",
    "address_councildis": "D",
    "status": "Pending",
    "rowid": "1249099",
    "final_x": "3677820.33592",
    "final_y": "544740.484454",
    "longitude": "-90.079232483011",
    "latitude": "29.9919586880776",
    "geocoded_column": {
      "latitude": "29.9919586880776",
      "longitude": "-90.079232483011"
    }
  },
  {
    "service_request": "2026-1249098",
    "request_type": "Trash/Recycling",
    "request_reason": "Missed Trash Pick-Up",
    "date_created": "2026-01-03T19:17:45.000",
    "date_modified": "2026-01-04T05:47:25.000",
    "request_status": "Pending",
    "responsible_agency": "Department of Sanitation",
    "final_address": "7014 Zimple St",
    "address_councildis": "A",
    "status": "Assigned to Contractor",
    "contractor": "IV Waste",
    "rowid": "1249098",
    "final_x": "3664358.97549",
    "final_y": "525874.276157",
    "longitude": "-90.12238414765667",
    "latitude": "29.94048107304766",
    "geocoded_column": {
      "latitude": "29.94048107304766",
      "longitude": "-90.12238414765667"
    }
  },
  {
    "service_request": "2026-1249097",
    "request_type": "Trash/Recycling",
    "request_reason": "MIssed Recycling Pick-Up",
    "date_created": "2026-01-03T19:16:50.000",
    "date_modified": "2026-01-03T19:16:52.000",
    "request_status": "Pending",
    "responsible_agency": "Department of Sanitation",
    "final_address": "7014 Zimple St",
    "address_councildis": "A",
    "status": "Assigned to Contractor",
    "contractor": "IV Waste",
    "rowid": "1249097",
    "final_x": "3664358.97549",
    "final_y": "525874.276157",
    "longitude": "-90.12238414765667",
    "latitude": "29.94048107304766",
    "geocoded_column": {
      "latitude": "29.94048107304766",
      "longitude": "-90.12238414765667"
    }
  },
  {
    "service_request": "2026-1249096",
    "request_type": "Trash/Recycling",
    "request_reason": "Order Recycling Cart",
    "date_created": "2026-01-03T18:56:19.000",
    "date_modified": "2026-01-03T18:56:21.000",
    "request_status": "Pending",
    "responsible_agency": "Department of Sanitation",
    "final_address": "3211 River Oaks Dr",
    "address_councildis": "C",
    "status": "Pending",
    "rowid": "1249096",
    "final_x": "3701386.24241",
    "final_y": "519399.212215",
    "longitude": "-90.0057206011941",
    "latitude": "29.921548978633314",
    "geocoded_column": {
      "latitude": "29.921548978633314",
      "longitude": "-90.0057206011941"
    }
  },
  {
    "service_request": "2026-1249095",
    "request_type": "Mosquito, Termite & Rodent Control",
    "request_reason": "Mosquito Complaint",
    "date_created": "2026-01-03T18:54:15.000",
    "date_modified": "2026-01-03T18:54:16.000",
    "request_status": "Pending",
    "responsible_agency": "Mosquito, Termite & Rodent Control Board",
    "final_address": "7431 Fieldston Rd",
    "address_councildis": "E",
    "status": "Pending",
    "rowid": "1249095",
    "final_x": "3700746.96177",
    "final_y": "560141.722205",
    "longitude": "-90.00624903438703",
    "latitude": "30.033596373831262",
    "geocoded_column": {
      "latitude": "30.033596373831262",
      "longitude": "-90.00624903438703"
    }
  },
  {
    "service_request": "2026-1249094",
    "request_type": "Trash/Recycling",
    "request_reason": "Request a Large Item Pick Up",
    "date_created": "2026-01-03T18:54:01.000",
    "date_modified": "2026-01-03T18:54:03.000",
    "request_status": "Pending",
    "responsible_agency": "Department of Sanitation",
    "final_address": "4820 Carondelet St",
    "address_councildis": "B",
    "status": "Assigned to Contractor",
    "contractor": "IV Waste",
    "rowid": "1249094",
    "final_x": "3669162.42068",
    "final_y": "520989.668793",
    "longitude": "-90.10738383026269",
    "latitude": "29.926909511532198",
    "geocoded_column": {
      "latitude": "29.926909511532198",
      "longitude": "-90.10738383026269"
    }
  },
  {
    "service_request": "2026-1249093",
    "request_type": "Streetlights",
    "request_reason": "Streetlight Outage/Malfunction",
    "date_created": "2026-01-03T18:49:26.000",
    "date_modified": "2026-01-03T18:49:29.000",
    "request_status": "Pending",
    "responsible_agency": "Department of Public Works",
    "final_address": "10700 BLK Roger Dr",
    "address_councildis": "E",
    "status": "Pending",
    "rowid": "1249093",
    "final_x": "3711946.31393",
    "final_y": "563291.888624",
    "longitude": "-89.9707398013987",
    "latitude": "30.041896667804124",
    "geocoded_column": {
      "latitude": "30.041896667804124",
      "longitude": "-89.9707398013987"
    }
  },
  {
    "service_request": "2026-1249092",
    "request_type": "Property Maintenance",
    "request_reason": "Property Maintenance",
    "date_created": "2026-01-03T18:33:46.000",
    "date_modified": "2026-01-03T18:33:48.000",
    "request_status": "Pending",
    "responsible_agency": "Department of Code Enforcement",
    "final_address": "2227 N Villere St",
    "address_councildis": "C",
    "status": "Pending",
    "rowid": "1249092",
    "final_x": "3685231.95631",
    "final_y": "537467.262856",
    "longitude": "-90.05607683831545",
    "latitude": "29.971734763019423",
    "geocoded_column": {
      "latitude": "29.971734763019423",
      "longitude": "-90.05607683831545"
    }
  },
  {
    "service_request": "2026-1249091",
    "request_type": "Abandoned Vehicles",
    "request_reason": "Abandoned/Junk Vehicles",
    "date_created": "2026-01-03T17:13:54.000",
    "date_modified": "2026-01-03T17:13:56.000",
    "request_status": "Pending",
    "responsible_agency": "Department of Public Works",
    "final_address": "4200 Orleans Ave",
    "address_councildis": "A",
    "status": "Pending",
    "rowid": "1249091",
    "final_x": "3671941.71259",
    "final_y": "540563.523147",
    "longitude": "-90.09794413733962",
    "latitude": "29.98064908278904",
    "geocoded_column": {
      "latitude": "29.98064908278904",
      "longitude": "-90.09794413733962"
    }
  },
  {
    "service_request": "2026-1249090",
    "request_type": "Christmas Tree Recycle Pick Up",
    "request_reason": "Christmas Tree Recycle Pick Up",
    "date_created": "2026-01-03T17:03:59.000",
    "date_modified": "2026-01-03T17:04:03.000",
    "request_status": "Pending",
    "responsible_agency": "Office of Resilience and Sustainability",
    "final_address": "430 Harrison Ave",
    "address_councildis": "A",
    "status": "Pending",
    "contractor": "Glass Half Full",
    "rowid": "1249090",
    "final_x": "3667826.21191",
    "final_y": "549225.369747",
    "longitude": "-90.11065080070107",
    "latitude": "30.00458755668541",
    "geocoded_column": {
      "latitude": "30.00458755668541",
      "longitude": "-90.11065080070107"
    }
  },
  {
    "service_request": "2026-1249089",
    "request_type": "Trash/Recycling",
    "request_reason": "Replace Trash Cart",
    "date_created": "2026-01-03T16:57:19.000",
    "date_modified": "2026-01-03T16:57:23.000",
    "request_status": "Pending",
    "responsible_agency": "Department of Sanitation",
    "final_address": "1910 St Ann St",
    "address_councildis": "D",
    "status": "Assigned to Contractor",
    "contractor": "IV Waste",
    "rowid": "1249089",
    "final_x": "3679304.52616",
    "final_y": "535366.89127",
    "longitude": "-90.07486942682614",
    "latitude": "29.966139805702493",
    "geocoded_column": {
      "latitude": "29.966139805702493",
      "longitude": "-90.07486942682614"
    }
  },
  {
    "service_request": "2026-1249088",
    "request_type": "Property Maintenance",
    "request_reason": "Property Maintenance",
    "date_created": "2026-01-03T16:52:13.000",
    "date_modified": "2026-01-03T16:52:15.000",
    "request_status": "Pending",
    "responsible_agency": "Department of Code Enforcement",
    "final_address": "4206 Alfred St",
    "address_councildis": "D",
    "status": "Pending",
    "rowid": "1249088",
    "final_x": "3677581.80814",
    "final_y": "547645.85429",
    "longitude": "-90.07988555016617",
    "latitude": "29.999954608584204",
    "geocoded_column": {
      "latitude": "29.999954608584204",
      "longitude": "-90.07988555016617"
    }
  },
  {
    "service_request": "2026-1249087",
    "request_type": "Trash/Recycling",
    "request_reason": "Replace Recycling Cart",
    "date_created": "2026-01-03T16:45:14.000",
    "date_modified": "2026-01-03T16:45:18.000",
    "request_status": "Pending",
    "responsible_agency": "Department of Sanitation",
    "final_address": "1217 Marengo St",
    "address_councildis": "B",
    "status": "Pending",
    "rowid": "1249087",
    "final_x": "3672091.94683",
    "final_y": "520091.662328",
    "longitude": "-90.09816662844591",
    "latitude": "29.92435377212842",
    "geocoded_column": {
      "latitude": "29.92435377212842",
      "longitude": "-90.09816662844591"
    }
  },
  {
    "service_request": "2026-1249086",
    "request_type": "Christmas Tree Recycle Pick Up",
    "request_reason": "Christmas Tree Recycle Pick Up",
    "date_created": "2026-01-03T16:32:54.000",
    "date_modified": "2026-01-03T16:32:56.000",
    "request_status": "Pending",
    "responsible_agency": "Office of Resilience and Sustainability",
    "final_address": "4934 Perrier St",
    "address_councildis": "B",
    "status": "Pending",
    "contractor": "Glass Half Full",
    "rowid": "1249086",
    "final_x": "3668747.10817",
    "final_y": "519850.869688",
    "longitude": "-90.10873328604106",
    "latitude": "29.923790387072597",
    "geocoded_column": {
      "latitude": "29.923790387072597",
      "longitude": "-90.10873328604106"
    }
  },