[
  {
    "service_request": "2022-852482",
    "request_type": "Roads/Drainage",
    "request_reason": "Pothole",
    "date_created": "2022-01-06T23:56:25.000",
    "date_modified": "2022-01-06T23:56:25.000",
    "request_status": "Pending",
    "responsible_agency": "Department of Public Works",
    "final_address": "8736 Birch St",
    "address_councildis": "A",
    "status": "Pending",
    "rowid": "852482",
    "final_x": "3661117.12058",
    "final_y": "531000.965186",
    "longitude": "-90.13244963918423",
    "latitude": "29.95467163741844",
    "geocoded_column": {
      "latitude": "29.95467163741844",
      "longitude": "-90.13244963918423"
    }
  },
  {
    "service_request": "2022-852481",
    "request_type": "Trash/Recycling",
    "request_reason": "Replace Trash Cart",
    "date_created": "2022-01-06T21:35:04.000",
    "date_modified": "2022-01-06T21:35:04.000",
    "request_status": "Pending",
    "responsible_agency": "Department of Sanitation",
    "final_address": "3713 Meadow Park Ln",
    "address_councildis": "C",
    "status": "Assigned to Contractor",
    "contractor": "Richards Disposal",
    "rowid": "852481",
    "final_x": "3703712.0817",
    "final_y": "510821.517743",
    "longitude": "-89.99869436407006",
    "latitude": "29.89788894518773",
    "geocoded_column": {
      "latitude": "29.89788894518773",
      "longitude": "-89.99869436407006"
    }
  },
  {
    "service_request": "2022-852480",
    "request_type": "Trash/Recycling",
    "request_reason": "Request a Large Item Pick Up",
    "date_created": "2022-01-06T21:25:56.000",
    "date_modified": "2022-01-06T21:25:57.000",
    "request_status": "Pending",
    "responsible_agency": "Department of Sanitation",
    "final_address": "5659 Tullis Dr",
    "address_councildis": "C",
    "status": "Assigned to Contractor",
    "contractor": "Richards Disposal",
    "rowid": "852480",
    "final_x": "3705028.90961",
    "final_y": "512370.525937",
    "longitude": "-89.99448161009038",
    "latitude": "29.902105951886025",
    "geocoded_column": {
      "latitude": "29.902105951886025",
      "longitude": "-89.99448161009038"
    }
  },
  {
    "service_request": "2022-852478",
    "request_type": "Property Maintenance",
    "request_reason": "Property Maintenance",
    "date_created": "2022-01-06T21:10:48.000",
    "date_modified": "2022-01-06T21:10:48.000",
    "request_status": "Pending",
    "responsible_agency": "Department of Code Enforcement",
    "final_address": "1432 Magazine St",
    "address_councildis": "B",
    "status": "Pending",
    "rowid": "852478",
    "final_x": "3680338.5917",
    "final_y": "524246.814908",
    "longitude": "-90.07199044070138",
    "latitude": "29.93553206760488",
    "geocoded_column": {
      "latitude": "29.93553206760488",
      "longitude": "-90.07199044070138"
    }
  },
  {
    "service_request": "2022-852477",
    "request_type": "Traffic Signals/Signs/Striping/Streetlights",
    "request_reason": "Request for Stop Sign",
    "date_created": "2022-01-06T20:36:08.000",
    "date_modified": "2022-01-06T20:36:08.000",
    "request_status": "Pending",
    "responsible_agency": "Department of Public Works",
    "final_address": "2846 Allen St",
    "address_councildis": "D",
    "status": "Pending",
    "rowid": "852477",
    "final_x": "3682197.06645",
    "final_y": "542790.168141",
    "longitude": "-90.06547547183365",
    "latitude": "29.98646356574015",
    "geocoded_column": {
      "latitude": "29.98646356574015",
      "longitude": "-90.06547547183365"
    }
  },
  {
    "service_request": "2022-852476",
    "request_type": "Trash/Recycling",
    "request_reason": "Replace Trash Cart",
    "date_created": "2022-01-06T20:13:53.000",
    "date_modified": "2022-01-06T20:13:53.000",
    "request_status": "Pending",
    "responsible_agency": "Department of Sanitation",
    "final_address": "334 Pine St",
    "address_councildis": "A",
    "status": "Assigned to Contractor",
    "contractor": "Richards Disposal",
    "rowid": "852476",
    "final_x": "3661727.11219",
    "final_y": "523457.096507",
    "longitude": "-90.13077350916909",
    "latitude": "29.93391081035991",
    "geocoded_column": {
      "latitude": "29.93391081035991",
      "longitude": "-90.13077350916909"
    }
  },
  {
    "service_request": "2022-852475",
    "request_type": "Trash/Recycling",
    "request_reason": "Missed Trash Pick-Up",
    "date_created": "2022-01-06T19:58:56.000",
    "date_modified": "2022-01-06T19:58:56.000",
    "request_status": "Pending",
    "responsible_agency": "Department of Sanitation",
    "final_address": "4314 Palmyra St, New Orleans, Louisiana, 70119",
    "address_councildis": "A",
    "status": "Assigned to Contractor",
    "contractor": "Richards Disposal",
    "rowid": "852475",
    "final_x": "3669658.37812",
    "final_y": "538359.947785",
    "longitude": "-90.10523051895977",
    "latitude": "29.974657488289886",
    "geocoded_column": {
      "latitude": "29.974657488289886",
      "longitude": "-90.10523051895977"
    }
  },
  {
    "service_request": "2022-852474",
    "request_type": "Traffic Signals/Signs/Striping/Streetlights",
    "request_reason": "Traffic Signal Malfunctioning/Damaged",
    "date_created": "2022-01-06T19:01:03.000",
    "date_modified": "2022-01-06T19:01:03.000",
    "request_status": "Pending",
    "responsible_agency": "Department of Public Works",
    "final_address": "PALMETTO ST & S CARROLLTON AVE",
    "address_councildis": "A",
    "status": "Pending",
    "rowid": "852474",
    "final_x": "3668118.5",
    "final_y": "535074.38",
    "longitude": "-90.11020461511455",
    "latitude": "29.965668564883114",
    "geocoded_column": {
      "latitude": "29.965668564883114",
      "longitude": "-90.11020461511455"
    }
  },
  {
    "service_request": "2022-852473",
    "request_type": "Traffic Signals/Signs/Striping/Streetlights",
    "request_reason": "Street Light Outage/Malfunction",
    "date_created": "2022-01-06T18:46:02.000",
    "date_modified": "2022-01-06T18:46:03.000",
    "request_status": "Pending",
    "responsible_agency": "Department of Public Works",
    "final_address": "1601 Magazine St",
    "address_councildis": "B",
    "status": "Pending",
    "contractor": "Royal Engineering",
    "rowid": "852473",
    "final_x": "3679986.73013",
    "final_y": "523100.633595",
    "longitude": "-90.07314106656567",
    "latitude": "29.932391092561822",
    "geocoded_column": {
      "latitude": "29.932391092561822",
      "longitude": "-90.07314106656567"
    }
  },
  {
    "service_request": "2022-852472",
    "request_type": "Traffic Signals/Signs/Striping/Streetlights",
    "request_reason": "Street Light Outage/Malfunction",
    "date_created": "2022-01-06T18:44:06.000",
    "date_modified": "2022-01-06T18:44:07.000",
    "request_status": "Pending",
    "responsible_agency": "Department of Public Works",
    "final_address": "1124 Baronne St",
    "address_councildis": "B",
    "status": "Pending",
    "contractor": "Royal Engineering",
    "rowid": "852472",
    "final_x": "3679070.6973",
    "final_y": "526957.586238",
    "longitude": "-90.0758992801898",
    "latitude": "29.94302410785997",
    "geocoded_column": {
      "latitude": "29.94302410785997",
      "longitude": "-90.0758992801898"
    }
  },
  {
    "service_request": "2022-852471",
    "request_type": "Traffic Signals/Signs/Striping/Streetlights",
    "request_reason": "Street Light Outage/Malfunction",
    "date_created": "2022-01-06T18:35:58.000",
    "date_modified": "2022-01-06T18:35:59.000",
    "request_status": "Pending",
    "responsible_agency": "Department of Public Works",
    "final_address": "3584 Gentilly Blvd",
    "address_councildis": "D",
    "status": "Pending",
    "contractor": "Royal Engineering",
    "rowid": "852471",
    "final_x": "3686162.18204",
    "final_y": "548680.727251",
    "longitude": "-90.05274326426564",
    "latitude": "30.002539258475135",
    "geocoded_column": {
      "latitude": "30.002539258475135",
      "longitude": "-90.05274326426564"
    }
  },
  {
    "service_request": "2022-852470",
    "request_type": "Property Maintenance",
    "request_reason": "Property Maintenance",
    "date_created": "2022-01-06T18:33:14.000",
    "date_modified": "2022-01-06T18:33:14.000",
    "request_status": "Pending",
    "responsible_agency": "Department of Code Enforcement",
    "final_address": "3584 Gentilly Blvd",
    "address_councildis": "D",
    "status": "Pending",
    "rowid": "852470",
    "final_x": "3686162.18204",
    "final_y": "548680.727251",
    "longitude": "-90.05274326426564",
    "latitude": "30.002539258475135",
    "geocoded_column": {
      "latitude": "30.002539258475135",
      "longitude": "-90.05274326426564"
    }
  },
  {
    "service_request": "2022-852469",
    "request_type": "Trash/Recycling",
    "request_reason": "Start Trash Service",
    "date_created": "2022-01-06T18:29:27.000",
    "date_modified": "2022-01-06T18:29:28.000",
    "request_status": "Pending",
    "responsible_agency": "Department of Sanitation",
    "final_address": "255 Audubon St",
    "address_councildis": "A",
    "status": "Assigned to Contractor",
    "contractor": "Richards Disposal",
    "rowid": "852469",
    "final_x": "3661308.60467",
    "final_y": "521611.532281",
    "longitude": "-90.1321558040005",
    "latitude": "29.928848158146664",
    "geocoded_column": {
      "latitude": "29.928848158146664",
      "longitude": "-90.1321558040005"
    }
  },
  {
    "service_request": "2022-852468",
    "request_type": "Trash/Recycling",
    "request_reason": "Order Trash Cart",
    "date_created": "2022-01-06T18:01:09.000",
    "date_modified": "2022-01-06T18:01:10.000",
    "request_status": "Pending",
    "responsible_agency": "Department of Sanitation",
    "final_address": "1923 State St",
    "address_councildis": "A",
    "status": "Assigned to Contractor",
    "contractor": "Richards Disposal",
    "rowid": "852468",
    "final_x": "3666309.56212",
    "final_y": "523897.593468",
    "longitude": "-90.11629208545087",
    "latitude": "29.9349890015656",
    "geocoded_column": {
      "latitude": "29.9349890015656",
      "longitude": "-90.11629208545087"
    }
  },
  {
    "service_request": "2022-852467",
    "request_type": "Trash/Recycling",
    "request_reason": "Order Recycling Cart",
    "date_created": "2022-01-06T17:57:48.000",
    "date_modified": "2022-01-06T17:57:48.000",
    "request_status": "Pending",
    "responsible_agency": "Department of Sanitation",
    "final_address": "1923 State St",
    "address_councildis": "A",
    "status": "Pending",
    "rowid": "852467",
    "final_x": "3666309.56212",
    "final_y": "523897.593468",
    "longitude": "-90.11629208545087",
    "latitude": "29.9349890015656",
    "geocoded_column": {
      "latitude": "29.9349890015656",
      "longitude": "-90.11629208545087"
    }
  },
  {
    "service_request": "2022-852465",
    "request_type": "Trash/Recycling",
    "request_reason": "Illegal Dumping",
    "date_created": "2022-01-06T17:42:11.000",
    "date_modified": "2022-01-06T17:42:11.000",
    "request_status": "Pending",
    "responsible_agency": "Department of Sanitation",
    "final_address": "1831 Laurel St",
    "address_councildis": "B",
    "status": "Pending",
    "rowid": "852465",
    "final_x": "3680341.8861",
    "final_y": "522403.97529",
    "longitude": "-90.07204408061497",
    "latitude": "29.93046476653402",
    "geocoded_column": {
      "latitude": "29.93046476653402",
      "longitude": "-90.07204408061497"
    }
  },
  {
    "service_request": "2022-852464",
    "request_type": "Parks & Parkways",
    "request_reason": "Request Tree Service (Right of Way/Public Property)",
    "date_created": "2022-01-06T17:38:51.000",
    "date_modified": "2022-01-06T17:38:51.000",
    "request_status": "Pending",
    "responsible_agency": "Department of Parks & Parkway",
    "final_address": "3303 Chestnut St",
    "address_councildis": "B",
    "status": "Pending",
    "rowid": "852464",
    "final_x": "3675052.48929",
    "final_y": "520490.894776",
    "longitude": "-90.08880751829476",
    "latitude": "29.925363449258292",
    "geocoded_column": {
      "latitude": "29.925363449258292",
      "longitude": "-90.08880751829476"
    }
  },
  {
    "service_request": "2022-852463",
    "request_type": "Trash/Recycling",
    "request_reason": "Repair Recycling Cart",
    "date_created": "2022-01-06T17:28:24.000",
    "date_modified": "2022-01-06T17:28:24.000",
    "request_status": "Pending",
    "responsible_agency": "Department of Sanitation",
    "final_address": "5640 Hempstead Rd",
    "address_councildis": "E",
    "status": "Pending",
    "rowid": "852463",
    "final_x": "3708011.9091",
    "final_y": "557841.191579",
    "longitude": "-89.98337683640143",
    "latitude": "30.02703746197753",
    "geocoded_column": {
      "latitude": "30.02703746197753",
      "longitude": "-89.98337683640143"
    }
  },
  {
    "service_request": "2022-852461",
    "request_type": "Property Maintenance",
    "request_reason": "Property Maintenance",
    "date_created": "2022-01-06T17:10:31.000",
    "date_modified": "2022-01-06T17:10:31.000",
    "request_status": "Pending",
    "responsible_agency": "Department of Code Enforcement",
    "final_address": "815 Third St",
    "address_councildis": "B",
    "status": "Pending",
    "rowid": "852461",
    "final_x": "3678131.32302",
    "final_y": "520383.657272",
    "longitude": "-90.07909230681322",
    "latitude": "29.92497627288507",
    "geocoded_column": {
      "latitude": "29.92497627288507",
      "longitude": "-90.07909230681322"
    }
  },
  {
    "service_request": "2022-852460",
    "request_type": "Roads/Drainage",
    "request_reason": "Pothole",
    "date_created": "2022-01-06T17:06:11.000",
    "date_modified": "2022-01-06T17:06:11.000",
    "request_status": "Pending",
    "responsible_agency": "Department of Public Works",
    "final_address": "831 Third St",
    "address_councildis": "B",
    "status": "Pending",
    "rowid": "852460",
    "final_x": "3678067.34875",
    "final_y": "520473.358264",
    "longitude": "-90.07929115387763",
    "latitude": "29.9252248468082",
    "geocoded_column": {
      "latitude": "29.9252248468082",
      "longitude": "-90.07929115387763"
    }
  },
  {
    "service_request": "2022-852459",
    "request_type": "Trash/Recycling",
    "request_reason": "Order Recycling Cart",
    "date_created": "2022-01-06T17:05:06.000",
    "date_modified": "2022-01-06T17:05:06.000",
    "request_status": "Pending",
    "responsible_agency": "Department of Sanitation",
    "final_address": "946 Felicity St",
    "address_councildis": "B",
    "status": "Pending",
    "rowid": "852459",
    "final_x": "3680230.47394",
    "final_y": "522746.532474",
    "longitude": "-90.07238389140696",
    "latitude": "29.931410057792725",
    "geocoded_column": {
      "latitude": "29.931410057792725",
      "longitude": "-90.07238389140696"
    }
  },
  {
    "service_request": "2022-852458",
    "request_type": "Roads/Drainage",
    "request_reason": "Man hole cover issue",
    "date_created": "2022-01-06T16:56:18.000",
    "date_modified": "2022-01-06T16:56:18.000",
    "request_status": "Pending",
    "responsible_agency": "Department of Public Works",
    "final_address": "915 Conti St",
    "address_councildis": "C",
    "status": "Pending",
    "rowid": "852458",
    "final_x": "3681227.66434",
    "final_y": "532128.050755",
    "longitude": "-90.06890907188632",
    "latitude": "29.9571758820904",
    "geocoded_column": {
      "latitude": "29.9571758820904",
      "longitude": "-90.06890907188632"
    }
  },
  {
    "service_request": "2022-852457",
    "request_type": "Trash/Recycling",
    "request_reason": "Request a Large Item Pick Up",
    "date_created": "2022-01-06T16:55:59.000",
    "date_modified": "2022-01-06T16:55:59.000",
    "request_status": "Pending",
    "responsible_agency": "Department of Sanitation",
    "final_address": "2050 Florida Ave",
    "address_councildis": "D",
    "status": "Assigned to Contractor",
    "contractor": "Metro Disposal",
    "rowid": "852457",
    "final_x": "3683474.24047",
    "final_y": "542724.015949",
    "longitude": "-90.0614436889388",
    "latitude": "29.986242751332796",
    "geocoded_column": {
      "latitude": "29.986242751332796",
      "longitude": "-90.0614436889388"
    }
  },
  {
    "service_request": "2022-852456",
    "request_type": "Trash/Recycling",
    "request_reason": "Request a Large Item Pick Up",
    "date_created": "2022-01-06T16:55:36.000",
    "date_modified": "2022-01-06T16:55:37.000",
    "request_status": "Pending",
    "responsible_agency": "Department of Sanitation",
    "final_address": "2048 Florida Ave Apt B",
    "address_councildis": "D",
    "status": "Assigned to Contractor",
    "contractor": "Metro Disposal",
    "rowid": "852456",
    "final_x": "3683427.00143",
    "final_y": "542715.527437",
    "longitude": "-90.06159319617528",
    "latitude": "29.986220852631174",
    "geocoded_column": {
      "latitude": "29.986220852631174",
      "longitude": "-90.06159319617528"
    }
  },
  {
    "service_request": "2022-852455",
    "request_type": "Trash/Recycling",
    "request_reason": "Order Recycling Cart",
    "date_created": "2022-01-06T16:55:17.000",
    "date_modified": "2022-01-06T16:55:17.000",
    "request_status": "Pending",
    "responsible_agency": "Department of Sanitation",
    "final_address": "5025 S Liberty St",
    "address_councildis": "B",
    "status": "Pending",
    "rowid": "852455",
    "final_x": "3668583.14894",
    "final_y": "523252.989563",
    "longitude": "-90.10913611086293",
    "latitude": "29.933149950685102",
    "geocoded_column": {
      "latitude": "29.933149950685102",
      "longitude": "-90.10913611086293"
    }
  },
  {
    "service_request": "2022-852454",
    "request_type": "COVID-19",
    "request_reason": "COVID-19 Business Non-Compliance",
    "date_created": "2022-01-06T16:54:37.000",
    "date_modified": "2022-01-06T16:54:39.000",
    "request_status": "Pending",
    "responsible_agency": "Safety and Permits",
    "final_address": "411 Bourbon St",
    "address_councildis": "C",
    "status": "Pending",
    "rowid": "852454",
    "final_x": "3681644.70562",
    "final_y": "531907.351619",
    "longitude": "-90.06759988269091",
    "latitude": "29.956556373879675",
    "geocoded_column": {
      "latitude": "29.956556373879675",
      "longitude": "-90.06759988269091"
    }
  },
  {
    "service_request": "2022-852453",
    "request_type": "Traffic Signals/Signs/Striping/Streetlights",
    "request_reason": "Additional signage",
    "date_created": "2022-01-06T16:52:58.000",
    "date_modified": "2022-01-06T16:52:58.000",
    "request_status": "Pending",
    "responsible_agency": "Department of Public Works",
    "final_address": "528 Governor Nicholls St Apt B",
    "address_councildis": "C",
    "status": "Pending",
    "rowid": "852453",
    "final_x": "3684038.26729",
    "final_y": "533554.168133",
    "longitude": "-90.05998401995151",
    "latitude": "29.961011636996986",
    "geocoded_column": {
      "latitude": "29.961011636996986",
      "longitude": "-90.05998401995151"
    }
  },
  {
    "service_request": "2022-852452",
    "request_type": "Traffic Signals/Signs/Striping/Streetlights",
    "request_reason": "Additional signage",
    "date_created": "2022-01-06T16:52:57.000",
    "date_modified": "2022-01-06T16:52:57.000",
    "request_status": "Pending",
    "responsible_agency": "Department of Public Works",
    "final_address": "528 Governor Nicholls St Apt B",
    "address_councildis": "C",
    "status": "Pending",
    "rowid": "852452",
    "final_x": "3684038.26729",
    "final_y": "533554.168133",
    "longitude": "-90.05998401995151",
    "latitude": "29.961011636996986",
    "geocoded_column": {
      "latitude": "29.961011636996986",
      "longitude": "-90.05998401995151"
    }
  },
  {
    "service_request": "2022-852451",
    "request_type": "Traffic Signals/Signs/Striping/Streetlights",
    "request_reason": "Additional signage",
    "date_created": "2022-01-06T16:52:55.000",
    "date_modified": "2022-01-06T16:52:55.000",
    "request_status": "Pending",
    "responsible_agency": "Department of Public Works",
    "final_address": "528 Governor Nicholls St Apt B",
    "address_councildis": "C",
    "status": "Pending",
    "rowid": "852451",
    "final_x": "3684038.26729",
    "final_y": "533554.168133",
    "longitude": "-90.05998401995151",
    "latitude": "29.961011636996986",
    "geocoded_column": {
      "latitude": "29.961011636996986",
      "longitude": "-90.05998401995151"
    }
  },
  {
    "service_request": "2022-852450",
    "request_type": "Traffic Signals/Signs/Striping/Streetlights",
    "request_reason": "Additional signage",
    "date_created": "2022-01-06T16:52:54.000",
    "date_modified": "2022-01-06T16:52:54.000",
    "request_status": "Pending",
    "responsible_agency": "Department of Public Works",
    "final_address": "528 Governor Nicholls St Apt B",
    "address_councildis": "C",
    "status": "Pending",
    "rowid": "852450",
    "final_x": "3684038.26729",
    "final_y": "533554.168133",
    "longitude": "-90.05998401995151",
    "latitude": "29.961011636996986",
    "geocoded_column": {
      "latitude": "29.961011636996986",
      "longitude": "-90.05998401995151"
    }
  },
  {
    "service_request": "2022-852449",
    "request_type": "Traffic Signals/Signs/Striping/Streetlights",
    "request_reason": "Street Light Outage/Malfunction",
    "date_created": "2022-01-06T16:51:50.000",
    "date_modified": "2022-01-06T16:51:51.000",
    "request_status": "Pending",
    "responsible_agency": "Department of Public Works",
    "final_address": "8025 Wales St",
    "address_councildis": "E",
    "status": "Pending",
    "contractor": "Royal Engineering",
    "rowid": "852449",
    "final_x": "3701949.28465",
    "final_y": "562275.845215",
    "longitude": "-90.0023712489195",
    "latitude": "30.039426035466246",
    "geocoded_column": {
      "latitude": "30.039426035466246",
      "longitude": "-90.0023712489195"
    }
  },
  {
    "service_request": "2022-852448",
    "request_type": "Traffic Signals/Signs/Striping/Streetlights",
    "request_reason": "Street Light Outage/Malfunction",
    "date_created": "2022-01-06T16:51:30.000",
    "date_modified": "2022-01-06T16:51:31.000",
    "request_status": "Pending",
    "responsible_agency": "Department of Public Works",
    "final_address": "8025 Wales St",
    "address_councildis": "E",
    "status": "Pending",
    "contractor": "Royal Engineering",
    "rowid": "852448",
    "final_x": "3701949.28465",
    "final_y": "562275.845215",
    "longitude": "-90.0023712489195",
    "latitude": "30.039426035466246",
    "geocoded_column": {
      "latitude": "30.039426035466246",
      "longitude": "-90.0023712489195"
    }
  },
  {
    "service_request": "2022-852447",
    "request_type": "Traffic Signals/Signs/Striping/Streetlights",
    "request_reason": "Street Light Outage/Malfunction",
    "date_created": "2022-01-06T16:51:10.000",
    "date_modified": "2022-01-06T16:51:10.000",
    "request_status": "Pending",
    "responsible_agency": "Department of Public Works",
    "final_address": "8025 Wales St",
    "address_councildis": "E",
    "status": "Pending",
    "contractor": "Royal Engineering",
    "rowid": "852447",
    "final_x": "3701949.28465",
    "final_y": "562275.845215",
    "longitude": "-90.0023712489195",
    "latitude": "30.039426035466246",
    "geocoded_column": {
      "latitude": "30.039426035466246",
      "longitude": "-90.0023712489195"
    }
  },
  {
    "service_request": "2022-852446",
    "request_type": "Traffic Signals/Signs/Striping/Streetlights",
    "request_reason": "Street Light Outage/Malfunction",
    "date_created": "2022-01-06T16:50:54.000",
    "date_modified": "2022-01-06T16:50:55.000",
    "request_status": "Pending",
    "responsible_agency": "Department of Public Works",
    "final_address": "8025 Wales St",
    "address_councildis": "E",
    "status": "Pending",
    "contractor": "Royal Engineering",
    "rowid": "852446",
    "final_x": "3701949.28465",
    "final_y": "562275.845215",
    "longitude": "-90.0023712489195",
    "latitude": "30.039426035466246",
    "geocoded_column": {
      "latitude": "30.039426035466246",
      "longitude": "-90.0023712489195"
    }
  },
  {
    "service_request": "2022-852445",
    "request_type": "Trash/Recycling",
    "request_reason": "Repair Trash Cart",
    "date_created": "2022-01-06T16:40:53.000",
    "date_modified": "2022-01-06T16:40:53.000",
    "request_status": "Pending",
    "responsible_agency": "Department of Sanitation",
    "final_address": "4732 St Peter St",
    "address_councildis": "A",
    "status": "Assigned to Contractor",
    "contractor": "Richards Disposal",
    "rowid": "852445",
    "final_x": "3670150.5129",
    "final_y": "541690.030476",
    "longitude": "-90.10356335602859",
    "latitude": "29.983799573942303",
    "geocoded_column": {
      "latitude": "29.983799573942303",
      "longitude": "-90.10356335602859"
    }
  },
  {
    "service_request": "2022-852444",
    "request_type": "Roads/Drainage",
    "request_reason": "Pothole",
    "date_created": "2022-01-06T16:39:07.000",
    "date_modified": "2022-01-06T16:39:07.000",
    "request_status": "Pending",
    "responsible_agency": "Department of Public Works",
    "final_address": "3122 Dauphine St, New Orleans, Louisiana, 70117",
    "address_councildis": "C",
    "status": "Pending",
    "rowid": "852444",
    "final_x": "3688899.49967",
    "final_y": "534769.838726",
    "longitude": "-90.0445900195391",
    "latitude": "29.964204870879776",
    "geocoded_column": {
      "latitude": "29.964204870879776",
      "longitude": "-90.0445900195391"
    }
  },
  {
    "service_request": "2022-852442",
    "request_type": "Roads/Drainage",
    "request_reason": "Damaged Sidewalk",
    "date_created": "2022-01-06T16:39:04.000",
    "date_modified": "2022-01-06T16:39:04.000",
    "request_status": "Pending",
    "responsible_agency": "Department of Public Works",
    "final_address": "2217 Hyman Pl",
    "address_councildis": "C",
    "status": "Pending",
    "rowid": "852442",
    "final_x": "3701049.94833",
    "final_y": "522716.30329",
    "longitude": "-90.00666089828277",
    "latitude": "29.93068054449946",
    "geocoded_column": {
      "latitude": "29.93068054449946",
      "longitude": "-90.00666089828277"
    }
  },
  {
    "service_request": "2022-852441",
    "request_type": "Abandoned Vehicles",
    "request_reason": "Abandoned/Junk Vehicles",
    "date_created": "2022-01-06T16:38:45.000",
    "date_modified": "2022-01-06T16:38:45.000",
    "request_status": "Pending",
    "responsible_agency": "Department of Public Works",
    "final_address": "4208 S Carrollton Ave",
    "address_councildis": "A",
    "status": "Pending",
    "rowid": "852441",
    "final_x": "3669655.71444",
    "final_y": "536583.512263",
    "longitude": "-90.10529906029463",
    "latitude": "29.969772965701903",
    "geocoded_column": {
      "latitude": "29.969772965701903",
      "longitude": "-90.10529906029463"
    }
  },
  {
    "service_request": "2022-852440",
    "request_type": "Trash/Recycling",
    "request_reason": "Order Trash Cart",
    "date_created": "2022-01-06T16:32:57.000",
    "date_modified": "2022-01-06T16:32:57.000",
    "request_status": "Pending",
    "responsible_agency": "Department of Sanitation",
    "final_address": "1718 Josephine St Unit B",
    "address_councildis": "B",
    "status": "Assigned to Contractor",
    "contractor": "Richards Disposal",
    "rowid": "852440",
    "final_x": "3677541.08974",
    "final_y": "524342.522556",
    "longitude": "-90.08081887941947",
    "latitude": "29.935879611705303",
    "geocoded_column": {
      "latitude": "29.935879611705303",
      "longitude": "-90.08081887941947"
    }
  },
  {
    "service_request": "2022-852439",
    "request_type": "Mayor's Request",
    "request_reason": "Requests to the Mayor",
    "date_created": "2022-01-06T16:31:21.000",
    "date_modified": "2022-01-06T16:31:21.000",
    "request_status": "Pending",
    "responsible_agency": "Executive Office of the Mayor",
    "status": "Pending",
    "rowid": "852439",
    "longitude": "0.0",
    "latitude": "0.0",
    "geocoded_column": {
      "latitude": "0.0",
      "longitude": "0.0"
    }
  },
  {
    "service_request": "2022-852438",
    "request_type": "Traffic Signals/Signs/Striping/Streetlights",
    "request_reason": "Street Light Outage/Malfunction",
    "date_created": "2022-01-06T16:30:16.000",
    "date_modified": "2022-01-06T16:30:16.000",
    "request_status": "Pending",
    "responsible_agency": "Department of Public Works",
    "final_address": "409 S Alexander St",
    "address_councildis": "A",
    "status": "Pending",
    "contractor": "Royal Engineering",
    "rowid": "852438",
    "final_x": "3669154.82593",
    "final_y": "538147.293577",
    "longitude": "-90.10682805454235",
    "latitude": "29.974087591118334",
    "geocoded_column": {
      "latitude": "29.974087591118334",
      "longitude": "-90.10682805454235"
    }
  },
  {
    "service_request": "2022-852437",
    "request_type": "Trash/Recycling",
    "request_reason": "Request a Large Item Pick Up",
    "date_created": "2022-01-06T16:30:06.000",
    "date_modified": "2022-01-06T16:30:07.000",
    "request_status": "Pending",
    "responsible_agency": "Department of Sanitation",
    "final_address": "3604 State Street Dr",
    "address_councildis": "A",
    "status": "Assigned to Contractor",
    "contractor": "Richards Disposal",
    "rowid": "852437",
    "final_x": "3667826.52564",
    "final_y": "528994.027328",
    "longitude": "-90.111331440409",
    "latitude": "29.948958159294644",
    "geocoded_column": {
      "latitude": "29.948958159294644",
      "longitude": "-90.111331440409"
    }
  },
  {
    "service_request": "2022-852436",
    "request_type": "Trash/Recycling",
    "request_reason": "MIssed Recycling Pick-Up",
    "date_created": "2022-01-06T16:28:53.000",
    "date_modified": "2022-01-06T16:28:53.000",
    "request_status": "Pending",
    "responsible_agency": "Department of Sanitation",
    "final_address": "3007 Robert St, New Orleans, Louisiana, 70125",
    "address_councildis": "B",
    "status": "Assigned to Contractor",
    "contractor": "Richards Disposal",
    "rowid": "852436",
    "final_x": "3668946.00737",
    "final_y": "526419.53939",
    "longitude": "-90.1078836763485",
    "latitude": "29.941846278426194",
    "geocoded_column": {
      "latitude": "29.941846278426194",
      "longitude": "-90.1078836763485"
    }
  },
  {
    "service_request": "2022-852435",
    "request_type": "COVID-19",
    "request_reason": "COVID-19 Business Non-Compliance",
    "date_created": "2022-01-06T16:27:16.000",
    "date_modified": "2022-01-06T16:27:17.000",
    "request_status": "Pending",
    "responsible_agency": "Safety and Permits",
    "final_address": "2604 Magazine St",
    "address_councildis": "B",
    "status": "Pending",
    "rowid": "852435",
    "final_x": "3677552.45678",
    "final_y": "521095.466233",
    "longitude": "-90.08089504019853",
    "latitude": "29.926950926341675",
    "geocoded_column": {
      "latitude": "29.926950926341675",
      "longitude": "-90.08089504019853"
    }
  },
  {
    "service_request": "2022-852434",
    "request_type": "Traffic Signals/Signs/Striping/Streetlights",
    "request_reason": "Street Name Sign Damaged or Missing",
    "date_created": "2022-01-06T16:26:56.000",
    "date_modified": "2022-01-06T16:26:56.000",
    "request_status": "Pending",
    "responsible_agency": "Department of Public Works",
    "final_address": "POYDRAS ST & S RAMPART ST",
    "address_councildis": "B",
    "status": "Pending",
    "rowid": "852434",
    "final_x": "3679345.5",
    "final_y": "529731.08",
    "longitude": "-90.07493549297178",
    "latitude": "29.95064199445319",
    "geocoded_column": {
      "latitude": "29.95064199445319",
      "longitude": "-90.07493549297178"
    }
  },
  {
    "service_request": "2022-852433",
    "request_type": "Trash/Recycling",
    "request_reason": "Replace Trash Cart",
    "date_created": "2022-01-06T16:26:43.000",
    "date_modified": "2022-01-06T16:26:44.000",
    "request_status": "Pending",
    "responsible_agency": "Department of Sanitation",
    "final_address": "6763 Avenue A",
    "address_councildis": "A",
    "status": "Assigned to Contractor",
    "contractor": "Metro Disposal",
    "rowid": "852433",
    "final_x": "3666140.47456",
    "final_y": "553131.712343",
    "longitude": "-90.11584526699352",
    "latitude": "30.015377989579953",
    "geocoded_column": {
      "latitude": "30.015377989579953",
      "longitude": "-90.11584526699352"
    }
  },
  {
    "service_request": "2022-852431",
    "request_type": "Trash/Recycling",
    "request_reason": "Replace Trash Cart",
    "date_created": "2022-01-06T16:26:07.000",
    "date_modified": "2022-01-06T16:26:08.000",
    "request_status": "Pending",
    "responsible_agency": "Department of Sanitation",
    "final_address": "5101 Venus St",
    "address_councildis": "D",
    "status": "Assigned to Contractor",
    "contractor": "Metro Disposal",
    "rowid": "852431",
    "final_x": "3686494.22204",
    "final_y": "551614.191253",
    "longitude": "-90.05159064620115",
    "latitude": "30.010595009055894",
    "geocoded_column": {
      "latitude": "30.010595009055894",
      "longitude": "-90.05159064620115"
    }
  },
  {
    "service_request": "2022-852432",
    "request_type": "Abandoned Vehicles",
    "request_reason": "Abandoned/Junk Vehicles",
    "date_created": "2022-01-06T16:26:07.000",
    "date_modified": "2022-01-06T16:26:07.000",
    "request_status": "Pending",
    "responsible_agency": "Department of Public Works",
    "final_address": "2377 N Villere St",
    "address_councildis": "C",
    "status": "Pending",
    "rowid": "852432",
    "final_x": "3686322.23913",
    "final_y": "537556.993608",
    "longitude": "-90.05263039759154",
    "latitude": "29.971948028886814",
    "geocoded_column": {
      "latitude": "29.971948028886814",
      "longitude": "-90.05263039759154"
    }
  },
  {
    "service_request": "2022-852430",
    "request_type": "Trash/Recycling",
    "request_reason": "Illegal Dumping",
    "date_created": "2022-01-06T16:23:59.000",
    "date_modified": "2022-01-06T16:23:59.000",
    "request_status": "Pending",
    "responsible_agency": "Department of Sanitation",
    "final_address": "2240 Gallier St",
    "address_councildis": "D",
    "status": "Pending",
    "rowid": "852430",
    "final_x": "3691531.26294",
    "final_y": "540130.675403",
    "longitude": "-90.03608750552687",
    "latitude": "29.978863623150023",
    "geocoded_column": {
      "latitude": "29.978863623150023",
      "longitude": "-90.03608750552687"
    }
  },
  {
    "service_request": "2022-852429",
    "request_type": "Trash/Recycling",
    "request_reason": "Request a Large Item Pick Up",
    "date_created": "2022-01-06T16:23:36.000",
    "date_modified": "2022-01-06T16:23:37.000",
    "request_status": "Pending",
    "responsible_agency": "Department of Sanitation",
    "final_address": "2311 Valmont St",
    "address_councildis": "B",
    "status": "Assigned to Contractor",
    "contractor": "Richards Disposal",
    "rowid": "852429",
    "final_x": "3668308.91354",
    "final_y": "524028.50662",
    "longitude": "-90.10997571761469",
    "latitude": "29.9352904276019",
    "geocoded_column": {
      "latitude": "29.9352904276019",
      "longitude": "-90.10997571761469"
    }
  },
  {
    "service_request": "2022-852428",
    "request_type": "Traffic Signals/Signs/Striping/Streetlights",
    "request_reason": "Street Light Outage/Malfunction",
    "date_created": "2022-01-06T16:19:05.000",
    "date_modified": "2022-01-06T16:19:06.000",
    "request_status": "Pending",
    "responsible_agency": "Department of Public Works",
    "final_address": "6219 Magazine St",
    "address_councildis": "A",
    "status": "Pending",
    "contractor": "Royal Engineering",
    "rowid": "852428",
    "final_x": "3663640.14336",
    "final_y": "519692.506744",
    "longitude": "-90.12485946692875",
    "latitude": "29.9235040279114",
    "geocoded_column": {
      "latitude": "29.9235040279114",
      "longitude": "-90.12485946692875"
    }
  },
  {
    "service_request": "2022-852427",
    "request_type": "Roads/Drainage",
    "request_reason": "Pothole",
    "date_created": "2022-01-06T16:15:06.000",
    "date_modified": "2022-01-06T16:15:06.000",
    "request_status": "Pending",
    "responsible_agency": "Department of Public Works",
    "final_address": "1820 S Carrollton Ave",
    "address_councildis": "A",
    "status": "Pending",
    "rowid": "852427",
    "final_x": "3663475.70631",
    "final_y": "530065.458113",
    "longitude": "-90.12503325145126",
    "latitude": "29.95203111619384",
    "geocoded_column": {
      "latitude": "29.95203111619384",
      "longitude": "-90.12503325145126"
    }
  },
  {
    "service_request": "2022-852426",
    "request_type": "Traffic Signals/Signs/Striping/Streetlights",
    "request_reason": "Street Light Outage/Malfunction",
    "date_created": "2022-01-06T16:13:35.000",
    "date_modified": "2022-01-06T16:13:36.000",
    "request_status": "Pending",
    "responsible_agency": "Department of Public Works",
    "final_address": "FRERET ST & MCALISTER DR",
    "address_councildis": "A",
    "status": "Pending",
    "contractor": "Royal Engineering",
    "rowid": "852426",
    "final_x": "3664922.8",
    "final_y": "525146.08",
    "longitude": "-90.12062838511929",
    "latitude": "29.938462369952916",
    "geocoded_column": {
      "latitude": "29.938462369952916",
      "longitude": "-90.12062838511929"
    }
  },
  {
    "service_request": "2022-852425",
    "request_type": "Trash/Recycling",
    "request_reason": "Repair Trash Cart",
    "date_created": "2022-01-06T16:13:23.000",
    "date_modified": "2022-01-06T16:13:24.000",
    "request_status": "Pending",
    "responsible_agency": "Department of Sanitation",
    "final_address": "216 S Dupre St, New Orleans, Louisiana, 70119",
    "address_councildis": "B",
    "status": "Assigned to Contractor",
    "contractor": "Richards Disposal",
    "rowid": "852425",
    "final_x": "3674303.70017",
    "final_y": "535159.959494",
    "longitude": "-90.0906690293288",
    "latitude": "29.965720886475896",
    "geocoded_column": {
      "latitude": "29.965720886475896",
      "longitude": "-90.0906690293288"
    }
  },
  {
    "service_request": "2022-852424",
    "request_type": "Trash/Recycling",
    "request_reason": "Replace Trash Cart",
    "date_created": "2022-01-06T16:11:22.000",
    "date_modified": "2022-01-06T16:11:22.000",
    "request_status": "Pending",
    "responsible_agency": "Department of Sanitation",
    "final_address": "607 Clare Ct",
    "address_councildis": "A",
    "status": "Assigned to Contractor",
    "contractor": "Metro Disposal",
    "rowid": "852424",
    "final_x": "3667857.81044",
    "final_y": "543562.189262",
    "longitude": "-90.11074186941183",
    "latitude": "29.989014833639946",
    "geocoded_column": {
      "latitude": "29.989014833639946",
      "longitude": "-90.11074186941183"
    }
  },
  {
    "service_request": "2022-852423",
    "request_type": "Trash/Recycling",
    "request_reason": "Repair Trash Cart",
    "date_created": "2022-01-06T16:08:46.000",
    "date_modified": "2022-01-06T16:08:47.000",
    "request_status": "Pending",
    "responsible_agency": "Department of Sanitation",
    "final_address": "1307 Farragut St",
    "address_councildis": "C",
    "status": "Assigned to Contractor",
    "contractor": "Richards Disposal",
    "rowid": "852423",
    "final_x": "3692306.11165",
    "final_y": "526509.613054",
    "longitude": "-90.03412803391356",
    "latitude": "29.94138632647654",
    "geocoded_column": {
      "latitude": "29.94138632647654",
      "longitude": "-90.03412803391356"
    }
  },
  {
    "service_request": "2022-852422",
    "request_type": "Trash/Recycling",
    "request_reason": "Order Recycling Cart",
    "date_created": "2022-01-06T16:07:52.000",
    "date_modified": "2022-01-06T16:09:57.000",
    "request_status": "Pending",
    "responsible_agency": "Department of Sanitation",
    "final_address": "1309 Foy St",
    "address_councildis": "D",
    "status": "Pending",
    "rowid": "852422",
    "final_x": "3677436.69314",
    "final_y": "546489.397009",
    "longitude": "-90.08038392357014",
    "latitude": "29.9967791232453",
    "geocoded_column": {
      "latitude": "29.9967791232453",
      "longitude": "-90.08038392357014"
    }
  },
  {
    "service_request": "2022-852421",
    "request_type": "Trash/Recycling",
    "request_reason": "Request a Large Item Pick Up",
    "date_created": "2022-01-06T16:05:41.000",
    "date_modified": "2022-01-06T16:05:42.000",
    "request_status": "Pending",
    "responsible_agency": "Department of Sanitation",
    "final_address": "206 18Th St",
    "address_councildis": "A",
    "status": "Assigned to Contractor",
    "contractor": "Metro Disposal",
    "rowid": "852421",
    "final_x": "3665592.69357",
    "final_y": "548654.169875",
    "longitude": "-90.11772609109815",
    "latitude": "30.003082297697617",
    "geocoded_column": {
      "latitude": "30.003082297697617",
      "longitude": "-90.11772609109815"
    }
  },
  {
    "service_request": "2022-852420",
    "request_type": "Property Maintenance",
    "request_reason": "Property Maintenance",
    "date_created": "2022-01-06T16:04:05.000",
    "date_modified": "2022-01-06T16:04:05.000",
    "request_status": "Pending",
    "responsible_agency": "Department of Code Enforcement",
    "final_address": "2232 Louisa St",
    "address_councildis": "D",
    "status": "Pending",
    "rowid": "852420",
    "final_x": "3690614.5574",
    "final_y": "540284.970123",
    "longitude": "-90.03897729449687",
    "latitude": "29.979316383655235",
    "geocoded_column": {
      "latitude": "29.979316383655235",
      "longitude": "-90.03897729449687"
    }
  },
  {
    "service_request": "2022-852419",
    "request_type": "Traffic Signals/Signs/Striping/Streetlights",
    "request_reason": "Street Light Outage/Malfunction",
    "date_created": "2022-01-06T16:03:34.000",
    "date_modified": "2022-01-06T16:03:35.000",
    "request_status": "Pending",
    "responsible_agency": "Department of Public Works",
    "final_address": "GENERAL OGDEN ST & FORSHEY ST",
    "address_councildis": "A",
    "status": "Pending",
    "contractor": "Royal Engineering",
    "rowid": "852419",
    "final_x": "3664918.2",
    "final_y": "535818.18",
    "longitude": "-90.12028621657238",
    "latitude": "29.967807314423464",
    "geocoded_column": {
      "latitude": "29.967807314423464",
      "longitude": "-90.12028621657238"
    }
  },
  {
    "service_request": "2022-852418",
    "request_type": "Abandoned Vehicles",
    "request_reason": "Abandoned/Junk Vehicles",
    "date_created": "2022-01-06T15:53:54.000",
    "date_modified": "2022-01-06T15:53:54.000",
    "request_status": "Pending",
    "responsible_agency": "Department of Public Works",
    "final_address": "2113 Louisa St",
    "address_councildis": "D",
    "status": "Pending",
    "rowid": "852418",
    "final_x": "3690566.73238",
    "final_y": "539741.853642",
    "longitude": "-90.03914771874662",
    "latitude": "29.977824491964626",
    "geocoded_column": {
      "latitude": "29.977824491964626",
      "longitude": "-90.03914771874662"
    }
  },
  {
    "service_request": "2022-852416",
    "request_type": "Parks & Parkways",
    "request_reason": "Request Tree Service (Right of Way/Public Property)",
    "date_created": "2022-01-06T15:53:51.000",
    "date_modified": "2022-01-06T15:53:51.000",
    "request_status": "Pending",
    "responsible_agency": "Department of Parks & Parkway",
    "final_address": "402 State St",
    "address_councildis": "A",
    "status": "Pending",
    "rowid": "852416",
    "final_x": "3664215.55821",
    "final_y": "517908.541174",
    "longitude": "-90.12310256597786",
    "latitude": "29.918581980149128",
    "geocoded_column": {
      "latitude": "29.918581980149128",
      "longitude": "-90.12310256597786"
    }
  },
  {
    "service_request": "2022-852415",
    "request_type": "Trash/Recycling",
    "request_reason": "Request a Large Item Pick Up",
    "date_created": "2022-01-06T15:52:16.000",
    "date_modified": "2022-01-06T15:52:17.000",
    "request_status": "Pending",
    "responsible_agency": "Department of Sanitation",
    "final_address": "5801 Marcia Ave",
    "address_councildis": "A",
    "status": "Assigned to Contractor",
    "contractor": "Metro Disposal",
    "rowid": "852415",
    "final_x": "3664856.64474",
    "final_y": "546396.05864",
    "longitude": "-90.12012691816523",
    "latitude": "29.99689471755044",
    "geocoded_column": {
      "latitude": "29.99689471755044",
      "longitude": "-90.12012691816523"
    }
  },
  {
    "service_request": "2022-852414",
    "request_type": "Abandoned Vehicles",
    "request_reason": "Abandoned/Junk Vehicles",
    "date_created": "2022-01-06T15:50:12.000",
    "date_modified": "2022-01-06T15:50:12.000",
    "request_status": "Pending",
    "responsible_agency": "Department of Public Works",
    "final_address": "1700 Louisa St",
    "address_councildis": "D",
    "status": "Pending",
    "rowid": "852414",
    "final_x": "3690100.50038",
    "final_y": "538147.231369",
    "longitude": "-90.0406770527736",
    "latitude": "29.973454316825165",
    "geocoded_column": {
      "latitude": "29.973454316825165",
      "longitude": "-90.0406770527736"
    }
  },
  {
    "service_request": "2022-852413",
    "request_type": "Trash/Recycling",
    "request_reason": "Order Trash Cart",
    "date_created": "2022-01-06T15:48:28.000",
    "date_modified": "2022-01-06T15:49:54.000",
    "request_status": "Pending",
    "responsible_agency": "Department of Sanitation",
    "final_address": "628 Lang St",
    "address_councildis": "C",
    "status": "Assigned to Contractor",
    "contractor": "Richards Disposal",
    "rowid": "852413",
    "final_x": "3702103.89393",
    "final_y": "520410.395832",
    "longitude": "-90.00341825664043",
    "latitude": "29.924306502080633",
    "geocoded_column": {
      "latitude": "29.924306502080633",
      "longitude": "-90.00341825664043"
    }
  },
  {
    "service_request": "2022-852412",
    "request_type": "Property Maintenance",
    "request_reason": "Property Maintenance",
    "date_created": "2022-01-06T15:46:59.000",
    "date_modified": "2022-01-06T15:46:59.000",
    "request_status": "Pending",
    "responsible_agency": "Department of Code Enforcement",
    "final_address": "1621 Louisa St",
    "address_councildis": "D",
    "status": "Pending",
    "rowid": "852412",
    "final_x": "3690098.91632",
    "final_y": "537889.120137",
    "longitude": "-90.04069125159815",
    "latitude": "29.97274465124754",
    "geocoded_column": {
      "latitude": "29.97274465124754",
      "longitude": "-90.04069125159815"
    }
  },
  {
    "service_request": "2022-852411",
    "request_type": "Trash/Recycling",
    "request_reason": "Illegal Dumping",
    "date_created": "2022-01-06T15:46:30.000",
    "date_modified": "2022-01-06T15:46:30.000",
    "request_status": "Pending",
    "responsible_agency": "Department of Sanitation",
    "final_address": "1723 Audubon St",
    "address_councildis": "A",
    "status": "Pending",
    "rowid": "852411",
    "final_x": "3665539.14919",
    "final_y": "527930.691455",
    "longitude": "-90.11858930091044",
    "latitude": "29.946101206646272",
    "geocoded_column": {
      "latitude": "29.946101206646272",
      "longitude": "-90.11858930091044"
    }
  },
  {
    "service_request": "2022-852410",
    "request_type": "Trash/Recycling",
    "request_reason": "Request a Large Item Pick Up",
    "date_created": "2022-01-06T15:35:17.000",
    "date_modified": "2022-01-06T15:35:17.000",
    "request_status": "Pending",
    "responsible_agency": "Department of Sanitation",
    "final_address": "504 S Murat St",
    "address_councildis": "A",
    "status": "Assigned to Contractor",
    "contractor": "Richards Disposal",
    "rowid": "852410",
    "final_x": "3668723.52391",
    "final_y": "538043.335881",
    "longitude": "-90.1081937194886",
    "latitude": "29.973814429516555",
    "geocoded_column": {
      "latitude": "29.973814429516555",
      "longitude": "-90.1081937194886"
    }
  },
  {
    "service_request": "2022-852409",
    "request_type": "Abandoned Vehicles",
    "request_reason": "Abandoned/Junk Vehicles",
    "date_created": "2022-01-06T15:33:51.000",
    "date_modified": "2022-01-06T15:33:51.000",
    "request_status": "Pending",
    "responsible_agency": "Department of Public Works",
    "final_address": "4233 Buchanan St",
    "address_councildis": "D",
    "status": "Pending",
    "rowid": "852409",
    "final_x": "3677335.03637",
    "final_y": "547846.896082",
    "longitude": "-90.08065817113543",
    "latitude": "30.000514822685073",
    "geocoded_column": {
      "latitude": "30.000514822685073",
      "longitude": "-90.08065817113543"
    }
  },
  {
    "service_request": "2022-852408",
    "request_type": "Abandoned Vehicles",
    "request_reason": "Abandoned/Junk Vehicles",
    "date_created": "2022-01-06T15:31:37.000",
    "date_modified": "2022-01-06T15:31:37.000",
    "request_status": "Pending",
    "responsible_agency": "Department of Public Works",
    "final_address": "1621 Louisa St",
    "address_councildis": "D",
    "status": "Pending",
    "rowid": "852408",
    "final_x": "3690098.91632",
    "final_y": "537889.120137",
    "longitude": "-90.04069125159815",
    "latitude": "29.97274465124754",
    "geocoded_column": {
      "latitude": "29.97274465124754",
      "longitude": "-90.04069125159815"
    }
  },
  {
    "service_request": "2022-852407",
    "request_type": "Roads/Drainage",
    "request_reason": "Road Shoulder Repair",
    "date_created": "2022-01-06T15:29:48.000",
    "date_modified": "2022-01-06T15:29:48.000",
    "request_status": "Pending",
    "responsible_agency": "Department of Public Works",
    "final_address": "456 Audubon St",
    "address_councildis": "A",
    "status": "Pending",
    "rowid": "852407",
    "final_x": "3662378.33114",
    "final_y": "523439.967355",
    "longitude": "-90.12871819715049",
    "latitude": "29.93384490175097",
    "geocoded_column": {
      "latitude": "29.93384490175097",
      "longitude": "-90.12871819715049"
    }
  },
  {
    "service_request": "2022-852406",
    "request_type": "Trash/Recycling",
    "request_reason": "Order Trash Cart",
    "date_created": "2022-01-06T15:28:02.000",
    "date_modified": "2022-01-06T15:28:03.000",
    "request_status": "Pending",
    "responsible_agency": "Department of Sanitation",
    "final_address": "2106 Josephine St",
    "address_councildis": "B",
    "status": "Assigned to Contractor",
    "contractor": "Richards Disposal",
    "rowid": "852406",
    "final_x": "3676685.79521",
    "final_y": "525489.721405",
    "longitude": "-90.08347955792952",
    "latitude": "29.939059711402567",
    "geocoded_column": {
      "latitude": "29.939059711402567",
      "longitude": "-90.08347955792952"
    }
  },
  {
    "service_request": "2022-852405",
    "request_type": "Trash/Recycling",
    "request_reason": "Illegal Dumping",
    "date_created": "2022-01-06T15:23:58.000",
    "date_modified": "2022-01-06T15:23:58.000",
    "request_status": "Pending",
    "responsible_agency": "Department of Code Enforcement",
    "final_address": "ABUNDANCE ST & ST FERDINAND ST",
    "address_councildis": "D",
    "status": "Pending",
    "rowid": "852405",
    "final_x": "3689649.7",
    "final_y": "543844.88",
    "longitude": "-90.0418979619371",
    "latitude": "29.98913479729448",
    "geocoded_column": {
      "latitude": "29.98913479729448",
      "longitude": "-90.0418979619371"
    }
  },
  {
    "service_request": "2022-852404",
    "request_type": "Traffic Signals/Signs/Striping/Streetlights",
    "request_reason": "Street Light Knocked Down/Leaning",
    "date_created": "2022-01-06T15:22:58.000",
    "date_modified": "2022-01-06T15:22:59.000",
    "request_status": "Pending",
    "responsible_agency": "Department of Public Works",
    "final_address": "11 New Basin Way",
    "address_councildis": "A",
    "status": "Pending",
    "contractor": "Royal Engineering",
    "rowid": "852404",
    "final_x": "3666688.3746",
    "final_y": "554712.42652",
    "longitude": "-90.11406100681539",
    "latitude": "30.019708378005763",
    "geocoded_column": {
      "latitude": "30.019708378005763",
      "longitude": "-90.11406100681539"
    }
  },
  {
    "service_request": "2022-852402",
    "request_type": "Traffic Signals/Signs/Striping/Streetlights",
    "request_reason": "Street Name Sign Damaged or Missing",
    "date_created": "2022-01-06T15:20:49.000",
    "date_modified": "2022-01-06T15:20:49.000",
    "request_status": "Pending",
    "responsible_agency": "Department of Public Works",
    "final_address": "1401 Frenchmen St",
    "address_councildis": "C",
    "status": "Pending",
    "rowid": "852402",
    "final_x": "3684526.46844",
    "final_y": "537401.491656",
    "longitude": "-90.05830718524632",
    "latitude": "29.97157551953048",
    "geocoded_column": {
      "latitude": "29.97157551953048",
      "longitude": "-90.05830718524632"
    }
  },
  {
    "service_request": "2022-852401",
    "request_type": "Traffic Signals/Signs/Striping/Streetlights",
    "request_reason": "Street Light Outage/Malfunction",
    "date_created": "2022-01-06T15:18:21.000",
    "date_modified": "2022-01-06T15:18:22.000",
    "request_status": "Pending",
    "responsible_agency": "Department of Public Works",
    "final_address": "1423 St Philip St",
    "address_councildis": "C",
    "status": "Pending",
    "contractor": "Royal Engineering",
    "rowid": "852401",
    "final_x": "3681150.61519",
    "final_y": "534997.405254",
    "longitude": "-90.0690523984384",
    "latitude": "29.965067966244437",
    "geocoded_column": {
      "latitude": "29.965067966244437",
      "longitude": "-90.0690523984384"
    }
  },
  {
    "service_request": "2022-852400",
    "request_type": "Traffic Signals/Signs/Striping/Streetlights",
    "request_reason": "Street Light Outage/Malfunction",
    "date_created": "2022-01-06T15:16:28.000",
    "date_modified": "2022-01-06T15:16:29.000",
    "request_status": "Pending",
    "responsible_agency": "Department of Public Works",
    "final_address": "900 N Villere St",
    "address_councildis": "C",
    "status": "Pending",
    "contractor": "Royal Engineering",
    "rowid": "852400",
    "final_x": "3680924.13883",
    "final_y": "534788.790598",
    "longitude": "-90.06977486220028",
    "latitude": "29.964501216402365",
    "geocoded_column": {
      "latitude": "29.964501216402365",
      "longitude": "-90.06977486220028"
    }
  },
  {
    "service_request": "2022-852399",
    "request_type": "Traffic Signals/Signs/Striping/Streetlights",
    "request_reason": "Street Name Sign Damaged or Missing",
    "date_created": "2022-01-06T15:16:08.000",
    "date_modified": "2022-01-06T15:16:08.000",
    "request_status": "Pending",
    "responsible_agency": "Department of Public Works",
    "final_address": "1840 Touro St",
    "address_councildis": "D",
    "status": "Pending",
    "rowid": "852399",
    "final_x": "3683973.01666",
    "final_y": "539146.814602",
    "longitude": "-90.0599938126323",
    "latitude": "29.976391471712834",
    "geocoded_column": {
      "latitude": "29.976391471712834",
      "longitude": "-90.0599938126323"
    }
  },
  {
    "service_request": "2022-852398",
    "request_type": "Abandoned Vehicles",
    "request_reason": "Abandoned/Junk Vehicles",
    "date_created": "2022-01-06T15:13:49.000",
    "date_modified": "2022-01-06T15:30:45.000",
    "request_status": "Pending",
    "responsible_agency": "Department of Public Works",
    "final_address": "4233 Buchanan St",
    "address_councildis": "D",
    "status": "Pending",
    "rowid": "852398",
    "final_x": "3677335.03637",
    "final_y": "547846.896082",
    "longitude": "-90.08065817113543",
    "latitude": "30.000514822685073",
    "geocoded_column": {
      "latitude": "30.000514822685073",
      "longitude": "-90.08065817113543"
    }
  },
  {
    "service_request": "2022-852397",
    "request_type": "Trash/Recycling",
    "request_reason": "Missed Trash Pick-Up",
    "date_created": "2022-01-06T15:12:52.000",
    "date_modified": "2022-01-06T15:12:53.000",
    "request_status": "Pending",
    "responsible_agency": "Department of Sanitation",
    "final_address": "1743 Holiday Dr",
    "address_councildis": "C",
    "status": "Assigned to Contractor",
    "contractor": "Richards Disposal",
    "rowid": "852397",
    "final_x": "3698857.01802",
    "final_y": "524218.119484",
    "longitude": "-90.01352901097232",
    "latitude": "29.93487965239166",
    "geocoded_column": {
      "latitude": "29.93487965239166",
      "longitude": "-90.01352901097232"
    }
  },
  {
    "service_request": "2022-852396",
    "request_type": "Abandoned Vehicles",
    "request_reason": "Abandoned/Junk Vehicles",
    "date_created": "2022-01-06T15:09:16.000",
    "date_modified": "2022-01-06T15:09:16.000",
    "request_status": "Pending",
    "responsible_agency": "Department of Public Works",
    "final_address": "2600 Ap Tureaud Ave",
    "address_councildis": "D",
    "status": "Pending",
    "rowid": "852396",
    "final_x": "3681319.58428",
    "final_y": "541755.182924",
    "longitude": "-90.06828319519389",
    "latitude": "29.9836443870898",
    "geocoded_column": {
      "latitude": "29.9836443870898",
      "longitude": "-90.06828319519389"
    }
  },
  {
    "service_request": "2022-852395",
    "request_type": "Trash/Recycling",
    "request_reason": "Order Recycling Cart",
    "date_created": "2022-01-06T15:08:32.000",
    "date_modified": "2022-01-06T15:08:33.000",
    "request_status": "Pending",
    "responsible_agency": "Department of Sanitation",
    "final_address": "2301 Upperline St",
    "address_councildis": "B",
    "status": "Pending",
    "rowid": "852395",
    "final_x": "3669194.01857",
    "final_y": "523248.974011",
    "longitude": "-90.10720776624389",
    "latitude": "29.93312094951154",
    "geocoded_column": {
      "latitude": "29.93312094951154",
      "longitude": "-90.10720776624389"
    }
  },
  {
    "service_request": "2022-852394",
    "request_type": "Traffic Signals/Signs/Striping/Streetlights",
    "request_reason": "Street Light Outage/Malfunction",
    "date_created": "2022-01-06T15:06:10.000",
    "date_modified": "2022-01-06T15:06:10.000",
    "request_status": "Pending",
    "responsible_agency": "Department of Public Works",
    "final_address": "1203 Sister St",
    "address_councildis": "E",
    "status": "Pending",
    "contractor": "Royal Engineering",
    "rowid": "852394",
    "final_x": "3694894.27171",
    "final_y": "535082.349318",
    "longitude": "-90.02564786488516",
    "latitude": "29.964877409753864",
    "geocoded_column": {
      "latitude": "29.964877409753864",
      "longitude": "-90.02564786488516"
    }
  },
  {
    "service_request": "2022-852393",
    "request_type": "Roads/Drainage",
    "request_reason": "Catch Basin - Clogged",
    "date_created": "2022-01-06T14:59:36.000",
    "date_modified": "2022-01-06T14:59:36.000",
    "request_status": "Pending",
    "responsible_agency": "Department of Public Works",
    "final_address": "1450 St Andrew St",
    "address_councildis": "B",
    "status": "Pending",
    "rowid": "852393",
    "final_x": "3678559.9076",
    "final_y": "523658.811259",
    "longitude": "-90.07762610561298",
    "latitude": "29.933968969048664",
    "geocoded_column": {
      "latitude": "29.933968969048664",
      "longitude": "-90.07762610561298"
    }
  },
  {
    "service_request": "2022-852391",
    "request_type": "Traffic Signals/Signs/Striping/Streetlights",
    "request_reason": "Street Light Outage/Malfunction",
    "date_created": "2022-01-06T14:53:04.000",
    "date_modified": "2022-01-06T14:53:05.000",
    "request_status": "Pending",
    "responsible_agency": "Department of Public Works",
    "final_address": "4200 General Meyer Ave",
    "address_councildis": "C",
    "status": "Pending",
    "contractor": "Royal Engineering",
    "rowid": "852391",
    "final_x": "3699649.82647",
    "final_y": "524521.289404",
    "longitude": "-90.01101509519901",
    "latitude": "29.935688131423554",
    "geocoded_column": {
      "latitude": "29.935688131423554",
      "longitude": "-90.01101509519901"
    }
  },
  {
    "service_request": "2022-852390",
    "request_type": "Traffic Signals/Signs/Striping/Streetlights",
    "request_reason": "Street Light Outage/Malfunction",
    "date_created": "2022-01-06T14:52:21.000",
    "date_modified": "2022-01-06T14:52:21.000",
    "request_status": "Pending",
    "responsible_agency": "Department of Public Works",
    "final_address": "8839 Forshey St",
    "address_councildis": "A",
    "status": "Pending",
    "contractor": "Royal Engineering",
    "rowid": "852390",
    "final_x": "3664979.91469",
    "final_y": "535815.659847",
    "longitude": "-90.1200914032053",
    "latitude": "29.967798588215054",
    "geocoded_column": {
      "latitude": "29.967798588215054",
      "longitude": "-90.1200914032053"
    }
  },
  {
    "service_request": "2022-852389",
    "request_type": "Trash/Recycling",
    "request_reason": "Request a Large Item Pick Up",
    "date_created": "2022-01-06T14:45:17.000",
    "date_modified": "2022-01-06T14:45:18.000",
    "request_status": "Pending",
    "responsible_agency": "Department of Sanitation",
    "final_address": "5120 Michoud Blvd",
    "address_councildis": "E",
    "status": "Assigned to Contractor",
    "contractor": "Metro Disposal",
    "rowid": "852389",
    "final_x": "3724709.39046",
    "final_y": "562214.401375",
    "longitude": "-89.93044595779796",
    "latitude": "30.038510525421948",
    "geocoded_column": {
      "latitude": "30.038510525421948",
      "longitude": "-89.93044595779796"
    }
  },
  {
    "service_request": "2022-852388",
    "request_type": "Trash/Recycling",
    "request_reason": "Repair Trash Cart",
    "date_created": "2022-01-06T14:44:17.000",
    "date_modified": "2022-01-06T14:44:18.000",
    "request_status": "Pending",
    "responsible_agency": "Department of Sanitation",
    "final_address": "5915 Pitt St",
    "address_councildis": "A",
    "status": "Assigned to Contractor",
    "contractor": "Richards Disposal",
    "rowid": "852388",
    "final_x": "3665542.56448",
    "final_y": "521174.406329",
    "longitude": "-90.11880462457182",
    "latitude": "29.927523478234637",
    "geocoded_column": {
      "latitude": "29.927523478234637",
      "longitude": "-90.11880462457182"
    }
  },
  {
    "service_request": "2022-852387",
    "request_type": "Trash/Recycling",
    "request_reason": "Missed Trash Pick-Up",
    "date_created": "2022-01-06T14:38:40.000",
    "date_modified": "2022-01-06T14:38:44.000",
    "request_status": "Pending",
    "responsible_agency": "Department of Sanitation",
    "final_address": "4515 DHemecourt St",
    "address_councildis": "A",
    "status": "Assigned to Contractor",
    "contractor": "Richards Disposal",
    "rowid": "852387",
    "final_x": "3668435.2059",
    "final_y": "537952.265609",
    "longitude": "-90.10910736697687",
    "latitude": "29.97357249007739",
    "geocoded_column": {
      "latitude": "29.97357249007739",
      "longitude": "-90.10910736697687"
    }
  },
  {
    "service_request": "2022-852386",
    "request_type": "Trash/Recycling",
    "request_reason": "Replace Trash Cart",
    "date_created": "2022-01-06T14:25:52.000",
    "date_modified": "2022-01-06T14:25:52.000",
    "request_status": "Pending",
    "responsible_agency": "Department of Sanitation",
    "final_address": "331 N Bernadotte St",
    "address_councildis": "A",
    "status": "Assigned to Contractor",
    "contractor": "Richards Disposal",
    "rowid": "852386",
    "final_x": "3669445.74113",
    "final_y": "540959.495947",
    "longitude": "-90.1058141283554",
    "latitude": "29.981811631718404",
    "geocoded_column": {
      "latitude": "29.981811631718404",
      "longitude": "-90.1058141283554"
    }
  },
  {
    "service_request": "2022-852385",
    "request_type": "EMS",
    "request_reason": "EMS Complaint",
    "date_created": "2022-01-06T14:25:46.000",
    "date_modified": "2022-01-06T14:25:46.000",
    "request_status": "Pending",
    "responsible_agency": "Emergency Medical Services",
    "final_address": "S CLAIBORNE AVE & EAGLE ST",
    "address_councildis": "A",
    "status": "Pending",
    "rowid": "852385",
    "final_x": "3662970.1",
    "final_y": "533166.38",
    "longitude": "-90.12652660404831",
    "latitude": "29.96057229654851",
    "geocoded_column": {
      "latitude": "29.96057229654851",
      "longitude": "-90.12652660404831"
    }
  },
  {
    "service_request": "2022-852384",
    "request_type": "Trash/Recycling",
    "request_reason": "Replace Trash Cart",
    "date_created": "2022-01-06T14:23:36.000",
    "date_modified": "2022-01-06T14:23:37.000",
    "request_status": "Pending",
    "responsible_agency": "Department of Sanitation",
    "final_address": "329 N Bernadotte St",
    "address_councildis": "A",
    "status": "Assigned to Contractor",
    "contractor": "Richards Disposal",
    "rowid": "852384",
    "final_x": "3669434.10932",
    "final_y": "540949.725195",
    "longitude": "-90.10585119781334",
    "latitude": "29.98178510809585",
    "geocoded_column": {
      "latitude": "29.98178510809585",
      "longitude": "-90.10585119781334"
    }
  },
  {
    "service_request": "2022-852383",
    "request_type": "COVID-19",
    "request_reason": "COVID-19 Business Non-Compliance",
    "date_created": "2022-01-06T14:18:10.000",
    "date_modified": "2022-01-06T14:18:12.000",
    "request_status": "Pending",
    "responsible_agency": "Safety and Permits",
    "final_address": "4645 Freret St",
    "address_councildis": "B",
    "status": "Pending",
    "rowid": "852383",
    "final_x": "3669522.96263",
    "final_y": "524037.168764",
    "longitude": "-90.10614265980237",
    "latitude": "29.935278549150258",
    "geocoded_column": {
      "latitude": "29.935278549150258",
      "longitude": "-90.10614265980237"
    }
  },
  {
    "service_request": "2022-852382",
    "request_type": "Traffic Signals/Signs/Striping/Streetlights",
    "request_reason": "Street Light Outage/Malfunction",
    "date_created": "2022-01-06T14:17:46.000",
    "date_modified": "2022-01-06T14:17:47.000",
    "request_status": "Pending",
    "responsible_agency": "Department of Public Works",
    "final_address": "1912 Holiday Dr",
    "address_councildis": "C",
    "status": "Pending",
    "contractor": "Royal Engineering",
    "rowid": "852382",
    "final_x": "3699038.69456",
    "final_y": "523927.816572",
    "longitude": "-90.01296602462295",
    "latitude": "29.934075664714392",
    "geocoded_column": {
      "latitude": "29.934075664714392",
      "longitude": "-90.01296602462295"
    }
  },
  {
    "service_request": "2022-852381",
    "request_type": "COVID-19",
    "request_reason": "COVID-19 Business Non-Compliance",
    "date_created": "2022-01-06T14:17:13.000",
    "date_modified": "2022-01-06T14:17:14.000",
    "request_status": "Pending",
    "responsible_agency": "Safety and Permits",
    "final_address": "1153 N Broad St",
    "address_councildis": "A",
    "status": "Pending",
    "rowid": "852381",
    "final_x": "3677783.01774",
    "final_y": "538555.914057",
    "longitude": "-90.07956412249027",
    "latitude": "29.974954388787037",
    "geocoded_column": {
      "latitude": "29.974954388787037",
      "longitude": "-90.07956412249027"
    }
  },
  {
    "service_request": "2022-852380",
    "request_type": "Roads/Drainage",
    "request_reason": "Street Flooding / Drainage",
    "date_created": "2022-01-06T14:13:40.000",
    "date_modified": "2022-01-06T14:14:30.000",
    "request_status": "Pending",
    "responsible_agency": "Department of Public Works",
    "final_address": "800 BLK Commerce St",
    "address_councildis": "B",
    "status": "Inspected",
    "rowid": "852380",
    "final_x": "3681984.58481",
    "final_y": "527333.336197",
    "longitude": "-90.06668631609762",
    "latitude": "29.9439690474267",
    "geocoded_column": {
      "latitude": "29.9439690474267",
      "longitude": "-90.06668631609762"
    }
  },
  {
    "service_request": "2022-852379",
    "request_type": "Trash/Recycling",
    "request_reason": "Replace Recycling Cart",
    "date_created": "2022-01-06T14:11:43.000",
    "date_modified": "2022-01-06T14:11:43.000",
    "request_status": "Pending",
    "responsible_agency": "Department of Sanitation",
    "final_address": "7428 Benjamin St",
    "address_councildis": "A",
    "status": "Pending",
    "rowid": "852379",
    "final_x": "3661667.53491",
    "final_y": "524296.804028",
    "longitude": "-90.13093377530288",
    "latitude": "29.936221460462708",
    "geocoded_column": {
      "latitude": "29.936221460462708",
      "longitude": "-90.13093377530288"
    }
  },
  {
    "service_request": "2022-852378",
    "request_type": "Property Maintenance",
    "request_reason": "Property Maintenance",
    "date_created": "2022-01-06T14:09:31.000",
    "date_modified": "2022-01-06T14:09:31.000",
    "request_status": "Pending",
    "responsible_agency": "Department of Code Enforcement",
    "final_address": "2204 Franklin Ave",
    "address_councildis": "D",
    "status": "Pending",
    "rowid": "852378",
    "final_x": "3687507.2431",
    "final_y": "540651.714443",
    "longitude": "-90.04877840630597",
    "latitude": "29.980420949343298",
    "geocoded_column": {
      "latitude": "29.980420949343298",
      "longitude": "-90.04877840630597"
    }
  },
  {
    "service_request": "2022-852377",
    "request_type": "Trash/Recycling",
    "request_reason": "Missed Trash Pick-Up",
    "date_created": "2022-01-06T14:07:17.000",
    "date_modified": "2022-01-06T14:07:18.000",
    "request_status": "Pending",
    "responsible_agency": "Department of Sanitation",
    "final_address": "4661 Press Dr",
    "address_councildis": "D",
    "status": "Assigned to Contractor",
    "contractor": "Metro Disposal",
    "rowid": "852377",
    "final_x": "3689767.8712",
    "final_y": "550551.926356",
    "longitude": "-90.04128580731296",
    "latitude": "30.007573075509065",
    "geocoded_column": {
      "latitude": "30.007573075509065",
      "longitude": "-90.04128580731296"
    }
  },
  {
    "service_request": "2022-852376",
    "request_type": "Roads/Drainage",
    "request_reason": "Drainage Issue (Catch Basins, Culverts, Ditches, and Manhole Covers)",
    "date_created": "2022-01-06T14:05:00.000",
    "date_modified": "2022-01-06T14:05:00.000",
    "request_status": "Pending",
    "responsible_agency": "Department of Public Works",
    "final_address": "DWYER RD & CAMELIA ST",
    "address_councildis": "E",
    "status": "Pending",
    "rowid": "852376",
    "final_x": "3701393.2",
    "final_y": "555776.68",
    "longitude": "-90.00436684786617",
    "latitude": "30.021573596991846",
    "geocoded_column": {
      "latitude": "30.021573596991846",
      "longitude": "-90.00436684786617"
    }
  },
  {
    "service_request": "2022-852375",
    "request_type": "Traffic Signals/Signs/Striping/Streetlights",
    "request_reason": "Traffic Signal Malfunctioning/Damaged",
    "date_created": "2022-01-06T14:04:49.000",
    "date_modified": "2022-01-06T14:04:49.000",
    "request_status": "Pending",
    "responsible_agency": "Department of Public Works",
    "final_address": "CHEF MENTEUR HWY & I 510 N",
    "address_councildis": "E",
    "status": "Pending",
    "rowid": "852375",
    "final_x": "3721964.4",
    "final_y": "557972.78",
    "longitude": "-89.93928382991413",
    "latitude": "30.026939914988635",
    "geocoded_column": {
      "latitude": "30.026939914988635",
      "longitude": "-89.93928382991413"
    }
  },
  {
    "service_request": "2022-852374",
    "request_type": "Roads/Drainage",
    "request_reason": "Drainage Issue (Catch Basins, Culverts, Ditches, and Manhole Covers)",
    "date_created": "2022-01-06T14:02:37.000",
    "date_modified": "2022-01-06T14:02:37.000",
    "request_status": "Pending",
    "responsible_agency": "Department of Public Works",
    "final_address": "ORLEANS AVE & N GALVEZ ST",
    "address_councildis": "D",
    "status": "Pending",
    "rowid": "852374",
    "final_x": "3678374.2",
    "final_y": "535783.38",
    "longitude": "-90.07779296410732",
    "latitude": "29.96731307006448",
    "geocoded_column": {
      "latitude": "29.96731307006448",
      "longitude": "-90.07779296410732"
    }
  },
  {
    "service_request": "2022-852373",
    "request_type": "Trash/Recycling",
    "request_reason": "Illegal Dumping",
    "date_created": "2022-01-06T13:55:43.000",
    "date_modified": "2022-01-06T13:55:43.000",
    "request_status": "Pending",
    "responsible_agency": "Department of Sanitation",
    "final_address": "928 Dumaine St",
    "address_councildis": "C",
    "status": "Pending",
    "rowid": "852373",
    "final_x": "3682226.02568",
    "final_y": "533608.377221",
    "longitude": "-90.06570484366328",
    "latitude": "29.961215944620136",
    "geocoded_column": {
      "latitude": "29.961215944620136",
      "longitude": "-90.06570484366328"
    }
  },
  {
    "service_request": "2022-852372",
    "request_type": "Trash/Recycling",
    "request_reason": "Replace Trash Cart",
    "date_created": "2022-01-06T13:50:49.000",
    "date_modified": "2022-01-06T13:50:50.000",
    "request_status": "Pending",
    "responsible_agency": "Department of Sanitation",
    "final_address": "7033 Coliseum St",
    "address_councildis": "A",
    "status": "Assigned to Contractor",
    "contractor": "Richards Disposal",
    "rowid": "852372",
    "final_x": "3661659.39437",
    "final_y": "522005.169082",
    "longitude": "-90.13103538779097",
    "latitude": "29.929920420002638",
    "geocoded_column": {
      "latitude": "29.929920420002638",
      "longitude": "-90.13103538779097"
    }
  },
  {
    "service_request": "2022-852371",
    "request_type": "Trash/Recycling",
    "request_reason": "Order Trash Cart",
    "date_created": "2022-01-06T13:49:38.000",
    "date_modified": "2022-01-06T13:49:38.000",
    "request_status": "Pending",
    "responsible_agency": "Department of Sanitation",
    "final_address": "743 Washington Ave",
    "address_councildis": "B",
    "status": "Assigned to Contractor",
    "contractor": "Richards Disposal",
    "rowid": "852371",
    "final_x": "3677719.29454",
    "final_y": "519894.303096",
    "longitude": "-90.08040983813697",
    "latitude": "29.92364310246167",
    "geocoded_column": {
      "latitude": "29.92364310246167",
      "longitude": "-90.08040983813697"
    }
  },
  {
    "service_request": "2022-852370",
    "request_type": "Property Maintenance",
    "request_reason": "Property Maintenance",
    "date_created": "2022-01-06T13:49:04.000",
    "date_modified": "2022-01-06T13:49:04.000",
    "request_status": "Pending",
    "responsible_agency": "Department of Code Enforcement",
    "final_address": "529 S Rendon St",
    "address_councildis": "B",
    "status": "Pending",
    "rowid": "852370",
    "final_x": "3672442.62055",
    "final_y": "535011.035654",
    "longitude": "-90.09655133893993",
    "latitude": "29.9653667621743",
    "geocoded_column": {
      "latitude": "29.9653667621743",
      "longitude": "-90.09655133893993"
    }
  },
  {
    "service_request": "2022-852369",
    "request_type": "Trash/Recycling",
    "request_reason": "Replace Trash Cart",
    "date_created": "2022-01-06T13:45:29.000",
    "date_modified": "2022-01-06T13:45:30.000",
    "request_status": "Pending",
    "responsible_agency": "Department of Sanitation",
    "final_address": "2454 Benefit St",
    "address_councildis": "D",
    "status": "Assigned to Contractor",
    "contractor": "Metro Disposal",
    "rowid": "852369",
    "final_x": "3686367.82146",
    "final_y": "544521.567567",
    "longitude": "-90.05224052667191",
    "latitude": "29.99109674466827",
    "geocoded_column": {
      "latitude": "29.99109674466827",
      "longitude": "-90.05224052667191"
    }
  },
  {
    "service_request": "2022-852368",
    "request_type": "Trash/Recycling",
    "request_reason": "Request a Large Item Pick Up",
    "date_created": "2022-01-06T13:44:54.000",
    "date_modified": "2022-01-06T13:44:54.000",
    "request_status": "Pending",
    "responsible_agency": "Department of Sanitation",
    "final_address": "2836 Palmyra St",
    "address_councildis": "B",
    "status": "Assigned to Contractor",
    "contractor": "Richards Disposal",
    "rowid": "852368",
    "final_x": "3674133.47867",
    "final_y": "534959.23239",
    "longitude": "-90.09121345494623",
    "latitude": "29.965174029470326",
    "geocoded_column": {
      "latitude": "29.965174029470326",
      "longitude": "-90.09121345494623"
    }
  },
  {
    "service_request": "2022-852367",
    "request_type": "Roads/Drainage",
    "request_reason": "Pothole",
    "date_created": "2022-01-06T13:44:41.000",
    "date_modified": "2022-01-06T13:44:42.000",
    "request_status": "Pending",
    "responsible_agency": "Department of Public Works",
    "final_address": "835 Julia St",
    "address_councildis": "B",
    "status": "Pending",
    "rowid": "852367",
    "final_x": "3679723.8436",
    "final_y": "528227.776256",
    "longitude": "-90.07379305504593",
    "latitude": "29.946496982187416",
    "geocoded_column": {
      "latitude": "29.946496982187416",
      "longitude": "-90.07379305504593"
    }
  },
  {
    "service_request": "2022-852365",
    "request_type": "Trash/Recycling",
    "request_reason": "Replace Trash Cart",
    "date_created": "2022-01-06T13:41:57.000",
    "date_modified": "2022-01-06T13:41:58.000",
    "request_status": "Pending",
    "responsible_agency": "Department of Sanitation",
    "final_address": "4536 Jeanne Marie Pl, New Orleans, Louisiana, 70122",
    "address_councildis": "D",
    "status": "Assigned to Contractor",
    "contractor": "Metro Disposal",
    "rowid": "852365",
    "final_x": "3678393.4004",
    "final_y": "549404.200595",
    "longitude": "-90.07726080051822",
    "latitude": "30.004764999469565",
    "geocoded_column": {
      "latitude": "30.004764999469565",
      "longitude": "-90.07726080051822"
    }
  },
  {
    "service_request": "2022-852364",
    "request_type": "Trash/Recycling",
    "request_reason": "Order Trash Cart",
    "date_created": "2022-01-06T13:40:58.000",
    "date_modified": "2022-01-06T13:40:59.000",
    "request_status": "Pending",
    "responsible_agency": "Department of Sanitation",
    "final_address": "5327 Eastern St, New Orleans, Louisiana, 70122",
    "address_councildis": "D",
    "status": "Assigned to Contractor",
    "contractor": "Metro Disposal",
    "rowid": "852364",
    "final_x": "3687908.11113",
    "final_y": "552539.991702",
    "longitude": "-90.04709080558497",
    "latitude": "30.013097056540513",
    "geocoded_column": {
      "latitude": "30.013097056540513",
      "longitude": "-90.04709080558497"
    }
  },
  {
    "service_request": "2022-852363",
    "request_type": "Trash/Recycling",
    "request_reason": "Order Recycling Cart",
    "date_created": "2022-01-06T13:38:00.000",
    "date_modified": "2022-01-06T13:38:00.000",
    "request_status": "Pending",
    "responsible_agency": "Department of Sanitation",
    "final_address": "1824 Spain St",
    "address_councildis": "D",
    "status": "Pending",
    "rowid": "852363",
    "final_x": "3685875.01858",
    "final_y": "539208.379018",
    "longitude": "-90.05398455896075",
    "latitude": "29.97650249739526",
    "geocoded_column": {
      "latitude": "29.97650249739526",
      "longitude": "-90.05398455896075"
    }
  },
  {
    "service_request": "2022-852362",
    "request_type": "Trash/Recycling",
    "request_reason": "Illegal Dumping",
    "date_created": "2022-01-06T13:31:13.000",
    "date_modified": "2022-01-06T13:31:13.000",
    "request_status": "Pending",
    "responsible_agency": "Department of Sanitation",
    "final_address": "529 S Galvez St",
    "address_councildis": "B",
    "status": "Pending",
    "rowid": "852362",
    "final_x": "3675596.2468",
    "final_y": "532254.590467",
    "longitude": "-90.086687032129",
    "latitude": "29.957693492371817",
    "geocoded_column": {
      "latitude": "29.957693492371817",
      "longitude": "-90.086687032129"
    }
  },
  {
    "service_request": "2022-852361",
    "request_type": "Traffic Signals/Signs/Striping/Streetlights",
    "request_reason": "Traffic Signal Malfunctioning/Damaged",
    "date_created": "2022-01-06T13:29:31.000",
    "date_modified": "2022-01-06T13:29:31.000",
    "request_status": "Pending",
    "responsible_agency": "Department of Public Works",
    "final_address": "N CLAIBORNE AVE & INDEPENDENCE ST",
    "address_councildis": "D",
    "status": "Pending",
    "rowid": "852361",
    "final_x": "3691423.6",
    "final_y": "537386.08",
    "longitude": "-90.03652565020944",
    "latitude": "29.97132031165849",
    "geocoded_column": {
      "latitude": "29.97132031165849",
      "longitude": "-90.03652565020944"
    }
  },
  {
    "service_request": "2022-852360",
    "request_type": "Trash/Recycling",
    "request_reason": "Order Trash Cart",
    "date_created": "2022-01-06T13:27:52.000",
    "date_modified": "2022-01-06T13:27:53.000",
    "request_status": "Pending",
    "responsible_agency": "Department of Sanitation",
    "final_address": "8040 St Charles Ave",
    "address_councildis": "A",
    "status": "Assigned to Contractor",
    "contractor": "Richards Disposal",
    "rowid": "852360",
    "final_x": "3660656.35296",
    "final_y": "526653.49523",
    "longitude": "-90.13404825284259",
    "latitude": "29.942730754288796",
    "geocoded_column": {
      "latitude": "29.942730754288796",
      "longitude": "-90.13404825284259"
    }
  },
  {
    "service_request": "2022-852359",
    "request_type": "Trash/Recycling",
    "request_reason": "MIssed Recycling Pick-Up",
    "date_created": "2022-01-06T13:26:37.000",
    "date_modified": "2022-01-06T13:26:38.000",
    "request_status": "Pending",
    "responsible_agency": "Department of Sanitation",
    "final_address": "1436 Athis St",
    "address_councildis": "D",
    "status": "Assigned to Contractor",
    "contractor": "Metro Disposal",
    "rowid": "852359",
    "final_x": "3677806.85614",
    "final_y": "553645.553431",
    "longitude": "-90.07896712801612",
    "latitude": "30.016444865998274",
    "geocoded_column": {
      "latitude": "30.016444865998274",
      "longitude": "-90.07896712801612"
    }
  },
  {
    "service_request": "2022-852357",
    "request_type": "Trash/Recycling",
    "request_reason": "Order Trash Cart",
    "date_created": "2022-01-06T13:25:58.000",
    "date_modified": "2022-01-06T13:25:59.000",
    "request_status": "Pending",
    "responsible_agency": "Department of Sanitation",
    "final_address": "1009 Jefferson Ave",
    "address_councildis": "B",
    "status": "Assigned to Contractor",
    "contractor": "Richards Disposal",
    "rowid": "852357",
    "final_x": "3666926.44609",
    "final_y": "519235.137655",
    "longitude": "-90.11450115098555",
    "latitude": "29.922150695835786",
    "geocoded_column": {
      "latitude": "29.922150695835786",
      "longitude": "-90.11450115098555"
    }
  },
  {
    "service_request": "2022-852355",
    "request_type": "Trash/Recycling",
    "request_reason": "Request a Large Item Pick Up",
    "date_created": "2022-01-06T13:20:20.000",
    "date_modified": "2022-01-06T13:20:21.000",
    "request_status": "Pending",
    "responsible_agency": "Department of Sanitation",
    "final_address": "1127 Dauphine St",
    "address_councildis": "C",
    "status": "Assigned to Contractor",
    "contractor": "Empire Services",
    "rowid": "852355",
    "final_x": "3682964.19202",
    "final_y": "534249.366085",
    "longitude": "-90.0633514149992",
    "latitude": "29.962955969211215",
    "geocoded_column": {
      "latitude": "29.962955969211215",
      "longitude": "-90.0633514149992"
    }
  },
  {
    "service_request": "2022-852354",
    "request_type": "Trash/Recycling",
    "request_reason": "Illegal Dumping",
    "date_created": "2022-01-06T13:17:09.000",
    "date_modified": "2022-01-06T13:17:09.000",
    "request_status": "Pending",
    "responsible_agency": "Department of Sanitation",
    "final_address": "2100 BLK Sixth St",
    "address_councildis": "B",
    "status": "Pending",
    "rowid": "852354",
    "final_x": "3674415.09142",
    "final_y": "523890.746626",
    "longitude": "-90.09070319827408",
    "latitude": "29.934730961636227",
    "geocoded_column": {
      "latitude": "29.934730961636227",
      "longitude": "-90.09070319827408"
    }
  },
  {
    "service_request": "2022-852353",
    "request_type": "Trash/Recycling",
    "request_reason": "Request a Large Item Pick Up",
    "date_created": "2022-01-06T13:15:06.000",
    "date_modified": "2022-01-06T13:15:07.000",
    "request_status": "Pending",
    "responsible_agency": "Department of Sanitation",
    "final_address": "6027 Charlotte Dr, New Orleans, Louisiana, 70122",
    "address_councildis": "D",
    "status": "Assigned to Contractor",
    "contractor": "Metro Disposal",
    "rowid": "852353",
    "final_x": "3679964.02229",
    "final_y": "554702.504856",
    "longitude": "-90.0721146552672",
    "latitude": "30.01928598991309",
    "geocoded_column": {
      "latitude": "30.01928598991309",
      "longitude": "-90.0721146552672"
    }
  },
  {
    "service_request": "2022-852352",
    "request_type": "Abandoned Vehicles",
    "request_reason": "Abandoned/Junk Vehicles",
    "date_created": "2022-01-06T13:14:42.000",
    "date_modified": "2022-01-06T13:14:42.000",
    "request_status": "Pending",
    "responsible_agency": "Department of Public Works",
    "final_address": "600 BLK S Clark St",
    "address_councildis": "B",
    "status": "Pending",
    "rowid": "852352",
    "final_x": "3671581.7421",
    "final_y": "535309.833696",
    "longitude": "-90.09925979570103",
    "latitude": "29.96621387859381",
    "geocoded_column": {
      "latitude": "29.96621387859381",
      "longitude": "-90.09925979570103"
    }
  },
  {
    "service_request": "2022-852351",
    "request_type": "Trash/Recycling",
    "request_reason": "Order Recycling Cart",
    "date_created": "2022-01-06T13:13:54.000",
    "date_modified": "2022-01-06T13:13:54.000",
    "request_status": "Pending",
    "responsible_agency": "Department of Sanitation",
    "final_address": "8123 Belfast St, #B, New Orleans, Louisiana, 70118",
    "status": "Pending",
    "rowid": "852351",
    "longitude": "0.0",
    "latitude": "0.0",
    "geocoded_column": {
      "latitude": "0.0",
      "longitude": "0.0"
    }
  },
  {
    "service_request": "2022-852350",
    "request_type": "Trash/Recycling",
    "request_reason": "Request a Large Item Pick Up",
    "date_created": "2022-01-06T13:13:02.000",
    "date_modified": "2022-01-06T13:13:03.000",
    "request_status": "Pending",
    "responsible_agency": "Department of Sanitation",
    "final_address": "5145 Peoples Ave, New Orleans, Louisiana, 70122",
    "status": "Assigned to Contractor",
    "rowid": "852350",
    "longitude": "0.0",
    "latitude": "0.0",
    "geocoded_column": {
      "latitude": "0.0",
      "longitude": "0.0"
    }
  },
  {
    "service_request": "2022-852349",
    "request_type": "Trash/Recycling",
    "request_reason": "Start Trash Service",
    "date_created": "2022-01-06T13:12:52.000",
    "date_modified": "2022-01-06T13:12:53.000",
    "request_status": "Pending",
    "responsible_agency": "Department of Sanitation",
    "final_address": "2935 Maurepas St",
    "address_councildis": "A",
    "status": "Assigned to Contractor",
    "contractor": "Metro Disposal",
    "rowid": "852349",
    "final_x": "3677444.36354",
    "final_y": "540750.033355",
    "longitude": "-90.08055791669969",
    "latitude": "29.980997645482102",
    "geocoded_column": {
      "latitude": "29.980997645482102",
      "longitude": "-90.08055791669969"
    }
  },
  {
    "service_request": "2022-852348",
    "request_type": "Property Maintenance",
    "request_reason": "Property Maintenance",
    "date_created": "2022-01-06T13:08:19.000",
    "date_modified": "2022-01-06T13:08:19.000",
    "request_status": "Pending",
    "responsible_agency": "Department of Code Enforcement",
    "final_address": "4118 N Roman St",
    "address_councildis": "D",
    "status": "Pending",
    "rowid": "852348",
    "final_x": "3692951.8223",
    "final_y": "537764.63604",
    "longitude": "-90.03168574865765",
    "latitude": "29.972313560670244",
    "geocoded_column": {
      "latitude": "29.972313560670244",
      "longitude": "-90.03168574865765"
    }
  },
  {
    "service_request": "2022-852347",
    "request_type": "Traffic Signals/Signs/Striping/Streetlights",
    "request_reason": "Street Name Sign Damaged or Missing",
    "date_created": "2022-01-06T13:06:58.000",
    "date_modified": "2022-01-06T13:06:58.000",
    "request_status": "Pending",
    "responsible_agency": "Department of Public Works",
    "final_address": "PORT ST & N DERBIGNY ST",
    "address_councildis": "D",
    "status": "Pending",
    "rowid": "852347",
    "final_x": "3687993.7",
    "final_y": "538635.68",
    "longitude": "-90.0473134357634",
    "latitude": "29.974862562691897",
    "geocoded_column": {
      "latitude": "29.974862562691897",
      "longitude": "-90.0473134357634"
    }
  },
  {
    "service_request": "2022-852346",
    "request_type": "COVID-19",
    "request_reason": "COVID-19 Business Non-Compliance",
    "date_created": "2022-01-06T13:06:52.000",
    "date_modified": "2022-01-06T13:06:53.000",
    "request_status": "Pending",
    "responsible_agency": "Safety and Permits",
    "final_address": "234 Loyola Ave",
    "address_councildis": "B",
    "status": "Pending",
    "rowid": "852346",
    "final_x": "3679318.05544",
    "final_y": "530786.730434",
    "longitude": "-90.0749855439834",
    "latitude": "29.95354550722152",
    "geocoded_column": {
      "latitude": "29.95354550722152",
      "longitude": "-90.0749855439834"
    }
  },
  {
    "service_request": "2022-852345",
    "request_type": "Trash/Recycling",
    "request_reason": "Dead Animal Pick Up",
    "date_created": "2022-01-06T13:05:45.000",
    "date_modified": "2022-01-06T13:05:45.000",
    "request_status": "Pending",
    "responsible_agency": "Department of Sanitation",
    "final_address": "FRANCE ST & N ROMAN ST",
    "address_councildis": "D",
    "status": "Assigned to Contractor",
    "contractor": "Metro Disposal",
    "rowid": "852345",
    "final_x": "3693039.9",
    "final_y": "537788.98",
    "longitude": "-90.03140671175346",
    "latitude": "29.972377746470972",
    "geocoded_column": {
      "latitude": "29.972377746470972",
      "longitude": "-90.03140671175346"
    }
  },
  {
    "service_request": "2022-852344",
    "request_type": "Parks & Parkways",
    "request_reason": "Request Tree Service (Right of Way/Public Property)",
    "date_created": "2022-01-06T13:02:53.000",
    "date_modified": "2022-01-06T13:02:53.000",
    "request_status": "Pending",
    "responsible_agency": "Department of Parks & Parkway",
    "final_address": "2031 St Charles Ave Ste A",
    "address_councildis": "B",
    "status": "Pending",
    "rowid": "852344",
    "final_x": "3677933.48789",
    "final_y": "524054.419644",
    "longitude": "-90.07959002236828",
    "latitude": "29.9350756233992",
    "geocoded_column": {
      "latitude": "29.9350756233992",
      "longitude": "-90.07959002236828"
    }
  },
  {
    "service_request": "2022-852343",
    "request_type": "Safety & Permits",
    "request_reason": "Licenses & Permits",
    "date_created": "2022-01-06T12:58:18.000",
    "date_modified": "2022-01-06T12:58:18.000",
    "request_status": "Pending",
    "responsible_agency": "Safety and Permits",
    "final_address": "215 N Carrollton Ave",
    "address_councildis": "A",
    "status": "Pending",
    "rowid": "852343",
    "final_x": "3671411.62715",
    "final_y": "538832.544393",
    "longitude": "-90.09967724406714",
    "latitude": "29.97590518318674",
    "geocoded_column": {
      "latitude": "29.97590518318674",
      "longitude": "-90.09967724406714"
    }
  },
  {
    "service_request": "2022-852342",
    "request_type": "Roads/Drainage",
    "request_reason": "Pothole",
    "date_created": "2022-01-06T12:54:50.000",
    "date_modified": "2022-01-06T12:54:50.000",
    "request_status": "Pending",
    "responsible_agency": "Department of Public Works",
    "final_address": "900 BLK Conti St",
    "address_councildis": "C",
    "status": "Pending",
    "rowid": "852342",
    "final_x": "3681172.64024",
    "final_y": "532131.409934",
    "longitude": "-90.06908270396765",
    "latitude": "29.957186788133153",
    "geocoded_column": {
      "latitude": "29.957186788133153",
      "longitude": "-90.06908270396765"
    }
  },
  {
    "service_request": "2022-852341",
    "request_type": "Trash/Recycling",
    "request_reason": "Order Trash Cart",
    "date_created": "2022-01-06T12:54:17.000",
    "date_modified": "2022-01-06T12:54:18.000",
    "request_status": "Pending",
    "responsible_agency": "Department of Sanitation",
    "final_address": "311 S Cortez St, New Orleans, Louisiana, 70119",
    "address_councildis": "A",
    "status": "Assigned to Contractor",
    "contractor": "Richards Disposal",
    "rowid": "852341",
    "final_x": "3671485.55086",
    "final_y": "536907.517128",
    "longitude": "-90.0995092376135",
    "latitude": "29.97060981973877",
    "geocoded_column": {
      "latitude": "29.97060981973877",
      "longitude": "-90.0995092376135"
    }
  },
  {
    "service_request": "2022-852340",
    "request_type": "Property Maintenance",
    "request_reason": "Property Maintenance",
    "date_created": "2022-01-06T12:51:19.000",
    "date_modified": "2022-01-06T12:51:19.000",
    "request_status": "Pending",
    "responsible_agency": "Department of Code Enforcement",
    "final_address": "2415 Republic St",
    "address_councildis": "D",
    "status": "Pending",
    "rowid": "852340",
    "final_x": "3680859.88213",
    "final_y": "540938.522827",
    "longitude": "-90.06976362257899",
    "latitude": "29.98141280425899",
    "geocoded_column": {
      "latitude": "29.98141280425899",
      "longitude": "-90.06976362257899"
    }
  },
  {
    "service_request": "2022-852339",
    "request_type": "Abandoned Vehicles",
    "request_reason": "Abandoned/Junk Vehicles",
    "date_created": "2022-01-06T12:50:19.000",
    "date_modified": "2022-01-06T12:50:20.000",
    "request_status": "Pending",
    "responsible_agency": "Department of Public Works",
    "final_address": "1617 Coliseum St",
    "address_councildis": "B",
    "status": "Pending",
    "rowid": "852339",
    "final_x": "3679736.15739",
    "final_y": "524651.25702",
    "longitude": "-90.07387829625036",
    "latitude": "29.936662370791282",
    "geocoded_column": {
      "latitude": "29.936662370791282",
      "longitude": "-90.07387829625036"
    }
  },
  {
    "service_request": "2022-852338",
    "request_type": "Property Maintenance",
    "request_reason": "Property Maintenance",
    "date_created": "2022-01-06T12:48:54.000",
    "date_modified": "2022-01-06T12:48:54.000",
    "request_status": "Pending",
    "responsible_agency": "Department of Code Enforcement",
    "final_address": "2411 Republic St",
    "address_councildis": "D",
    "status": "Pending",
    "rowid": "852338",
    "final_x": "3680864.91176",
    "final_y": "540905.256203",
    "longitude": "-90.06974889538279",
    "latitude": "29.981321180136987",
    "geocoded_column": {
      "latitude": "29.981321180136987",
      "longitude": "-90.06974889538279"
    }
  },
  {
    "service_request": "2022-852337",
    "request_type": "Trash/Recycling",
    "request_reason": "Order Recycling Cart",
    "date_created": "2022-01-06T12:47:03.000",
    "date_modified": "2022-01-06T12:47:03.000",
    "request_status": "Pending",
    "responsible_agency": "Department of Sanitation",
    "final_address": "3535 Broadway St",
    "address_councildis": "B",
    "status": "Pending",
    "rowid": "852337",
    "final_x": "3668943.30394",
    "final_y": "533473.701508",
    "longitude": "-90.10765397873621",
    "latitude": "29.961242995309632",
    "geocoded_column": {
      "latitude": "29.961242995309632",
      "longitude": "-90.10765397873621"
    }
  },
  {
    "service_request": "2022-852336",
    "request_type": "Trash/Recycling",
    "request_reason": "Request a Large Item Pick Up",
    "date_created": "2022-01-06T12:46:20.000",
    "date_modified": "2022-01-06T12:46:21.000",
    "request_status": "Pending",
    "responsible_agency": "Department of Sanitation",
    "final_address": "1433 St Roch Ave",
    "address_councildis": "C",
    "status": "Assigned to Contractor",
    "contractor": "Metro Disposal",
    "rowid": "852336",
    "final_x": "3686451.57442",
    "final_y": "537803.850184",
    "longitude": "-90.05221322034109",
    "latitude": "29.972622822647775",
    "geocoded_column": {
      "latitude": "29.972622822647775",
      "longitude": "-90.05221322034109"
    }
  },
  {
    "service_request": "2022-852335",
    "request_type": "Trash/Recycling",
    "request_reason": "Illegal Dumping",
    "date_created": "2022-01-06T12:31:05.000",
    "date_modified": "2022-01-06T12:31:05.000",
    "request_status": "Pending",
    "responsible_agency": "Department of Sanitation",
    "final_address": "FRANKLIN AVE & I 610 W ONRAMP & FRANKLIN EXIT & I 10 E ONRAMP",
    "address_councildis": "D",
    "status": "Pending",
    "rowid": "852335",
    "final_x": "3687219.79",
    "final_y": "545203.27",
    "longitude": "-90.04952523721728",
    "latitude": "29.99294496319761",
    "geocoded_column": {
      "latitude": "29.99294496319761",
      "longitude": "-90.04952523721728"
    }
  },
  {
    "service_request": "2022-852334",
    "request_type": "Traffic Signals/Signs/Striping/Streetlights",
    "request_reason": "Street Light Outage/Malfunction",
    "date_created": "2022-01-06T12:29:30.000",
    "date_modified": "2022-01-06T12:29:31.000",
    "request_status": "Pending",
    "responsible_agency": "Department of Public Works",
    "final_address": "1814 Bodenger Blvd",
    "address_councildis": "C",
    "status": "Pending",
    "contractor": "Royal Engineering",
    "rowid": "852334",
    "final_x": "3688518.65532",
    "final_y": "525076.221437",
    "longitude": "-90.04613657029107",
    "latitude": "29.93756252331605",
    "geocoded_column": {
      "latitude": "29.93756252331605",
      "longitude": "-90.04613657029107"
    }
  },