[
  {
    "service_request": "2025-1202069",
    "request_type": "Trash/Recycling",
    "request_reason": "Request a Large Item Pick Up",
    "date_created": "2025-06-17T23:21:05.000",
    "date_modified": "2025-06-17T23:21:07.000",
    "request_status": "Pending",
    "responsible_agency": "Department of Sanitation",
    "final_address": "1441 Bartholomew St",
    "address_councildis": "D",
    "status": "Assigned to Contractor",
    "contractor": "IV Waste",
    "rowid": "1202069",
    "final_x": "3692190.3023",
    "final_y": "536733.688327",
    "longitude": "-90.03412766723194",
    "latitude": "29.969502583987875",
    "geocoded_column": {
      "latitude": "29.969502583987875",
      "longitude": "-90.03412766723194"
    }
  },
  {
    "service_request": "2025-1202068",
    "request_type": "Streetlights",
    "request_reason": "Streetlight Outage/Malfunction",
    "date_created": "2025-06-17T22:31:00.000",
    "date_modified": "2025-06-17T22:31:03.000",
    "request_status": "Pending",
    "responsible_agency": "Department of Public Works",
    "final_address": "2120 S Lopez St",
    "address_councildis": "A",
    "status": "Pending",
    "contractor": "Legacy Professional Services",
    "rowid": "1202068",
    "final_x": "3669192.12026",
    "final_y": "529303.050881",
    "longitude": "-90.1070092113469",
    "latitude": "29.949767757349534",
    "geocoded_column": {
      "latitude": "29.949767757349534",
      "longitude": "-90.1070092113469"
    }
  },
  {
    "service_request": "2025-1202067",
    "request_type": "Trash/Recycling",
    "request_reason": "Request a Large Item Pick Up",
    "date_created": "2025-06-17T22:28:09.000",
    "date_modified": "2025-06-17T22:28:11.000",
    "request_status": "Pending",
    "responsible_agency": "Department of Sanitation",
    "final_address": "4842 Gabriel Dr",
    "address_councildis": "E",
    "status": "Assigned to Contractor",
    "contractor": "Waste Pro",
    "rowid": "1202067",
    "final_x": "3708759.61144",
    "final_y": "556382.21609",
    "longitude": "-89.98106859726059",
    "latitude": "30.023001607871134",
    "geocoded_column": {
      "latitude": "30.023001607871134",
      "longitude": "-89.98106859726059"
    }
  },
  {
    "service_request": "2025-1202066",
    "request_type": "Traffic Signals",
    "request_reason": "Traffic Signal Malfunctioning or Damaged",
    "date_created": "2025-06-17T21:33:31.000",
    "date_modified": "2025-06-17T21:33:33.000",
    "request_status": "Pending",
    "responsible_agency": "Department of Public Works",
    "final_address": "MELPOMENE ST & MAGAZINE ST",
    "address_councildis": "B",
    "status": "Pending",
    "rowid": "1202066",
    "final_x": "3680456.4",
    "final_y": "524890.08",
    "longitude": "-90.07159615706821",
    "latitude": "29.93729726725992",
    "geocoded_column": {
      "latitude": "29.93729726725992",
      "longitude": "-90.07159615706821"
    }
  },
  {
    "service_request": "2025-1202065",
    "request_type": "Streetlights",
    "request_reason": "Streetlight Outage/Malfunction",
    "date_created": "2025-06-17T20:49:33.000",
    "date_modified": "2025-06-17T20:49:35.000",
    "request_status": "Pending",
    "responsible_agency": "Department of Public Works",
    "final_address": "1494 Granada Dr",
    "address_councildis": "D",
    "status": "Pending",
    "contractor": "Legacy Professional Services",
    "rowid": "1202065",
    "final_x": "3678585.76469",
    "final_y": "550542.075604",
    "longitude": "-90.0766136569246",
    "latitude": "30.007887949698866",
    "geocoded_column": {
      "latitude": "30.007887949698866",
      "longitude": "-90.0766136569246"
    }
  },
  {
    "service_request": "2025-1202064",
    "request_type": "Trash/Recycling",
    "request_reason": "Request a Large Item Pick Up",
    "date_created": "2025-06-17T20:31:21.000",
    "date_modified": "2025-06-17T20:31:23.000",
    "request_status": "Pending",
    "responsible_agency": "Department of Sanitation",
    "final_address": "420 Delery St",
    "address_councildis": "E",
    "status": "Assigned to Contractor",
    "contractor": "Waste Pro",
    "rowid": "1202064",
    "final_x": "3699517.16925",
    "final_y": "530761.234626",
    "longitude": "-90.01120659014201",
    "latitude": "29.952850003967722",
    "geocoded_column": {
      "latitude": "29.952850003967722",
      "longitude": "-90.01120659014201"
    }
  },
  {
    "service_request": "2025-1202063",
    "request_type": "Trash/Recycling",
    "request_reason": "Request a Large Item Pick Up",
    "date_created": "2025-06-17T20:26:41.000",
    "date_modified": "2025-06-17T20:26:43.000",
    "request_status": "Pending",
    "responsible_agency": "Department of Sanitation",
    "final_address": "2017 Louisa St",
    "address_councildis": "D",
    "status": "Assigned to Contractor",
    "contractor": "IV Waste",
    "rowid": "1202063",
    "final_x": "3690478.20572",
    "final_y": "539392.123978",
    "longitude": "-90.03943978851515",
    "latitude": "29.9768656086476",
    "geocoded_column": {
      "latitude": "29.9768656086476",
      "longitude": "-90.03943978851515"
    }
  },
  {
    "service_request": "2025-1202062",
    "request_type": "Trash/Recycling",
    "request_reason": "Request a Large Item Pick Up",
    "date_created": "2025-06-17T20:18:37.000",
    "date_modified": "2025-06-17T20:18:39.000",
    "request_status": "Pending",
    "responsible_agency": "Department of Sanitation",
    "final_address": "513 english turn dr. new orleans, la 70131",
    "address_councildis": "C",
    "status": "Assigned to Contractor",
    "contractor": "Richards Disposal",
    "rowid": "1202062",
    "final_x": "3715032.16696",
    "final_y": "515613.262196",
    "longitude": "-89.96278976450816",
    "latitude": "29.91069716226731",
    "geocoded_column": {
      "latitude": "29.91069716226731",
      "longitude": "-89.96278976450816"
    }
  },
  {
    "service_request": "2025-1202061",
    "request_type": "Trash/Recycling",
    "request_reason": "Missed Trash Pick-Up",
    "date_created": "2025-06-17T20:09:57.000",
    "date_modified": "2025-06-17T20:09:59.000",
    "request_status": "Pending",
    "responsible_agency": "Department of Sanitation",
    "final_address": "705 N Prieur St",
    "address_councildis": "D",
    "status": "Assigned to Contractor",
    "contractor": "IV Waste",
    "rowid": "1202061",
    "final_x": "3678878.68322",
    "final_y": "535260.909062",
    "longitude": "-90.07621790097178",
    "latitude": "29.965861244011165",
    "geocoded_column": {
      "latitude": "29.965861244011165",
      "longitude": "-90.07621790097178"
    }
  },
  {
    "service_request": "2025-1202060",
    "request_type": "Trash/Recycling",
    "request_reason": "Request a Large Item Pick Up",
    "date_created": "2025-06-17T19:45:19.000",
    "date_modified": "2025-06-17T19:45:21.000",
    "request_status": "Pending",
    "responsible_agency": "Department of Sanitation",
    "final_address": "1419 Euterpe St",
    "address_councildis": "B",
    "status": "Assigned to Contractor",
    "contractor": "IV Waste",
    "rowid": "1202060",
    "final_x": "3679595.76719",
    "final_y": "524598.160124",
    "longitude": "-90.0743233561039",
    "latitude": "29.936520614151217",
    "geocoded_column": {
      "latitude": "29.936520614151217",
      "longitude": "-90.0743233561039"
    }
  },
  {
    "service_request": "2025-1202059",
    "request_type": "Trash/Recycling",
    "request_reason": "Request a Large Item Pick Up",
    "date_created": "2025-06-17T19:40:43.000",
    "date_modified": "2025-06-17T19:40:44.000",
    "request_status": "Pending",
    "responsible_agency": "Department of Sanitation",
    "final_address": "4965 Friar Tuck Dr",
    "address_councildis": "E",
    "status": "Assigned to Contractor",
    "contractor": "Waste Pro",
    "rowid": "1202059",
    "final_x": "3717683.411",
    "final_y": "558142.942427",
    "longitude": "-89.95280469252188",
    "latitude": "30.02755030794648",
    "geocoded_column": {
      "latitude": "30.02755030794648",
      "longitude": "-89.95280469252188"
    }
  },
  {
    "service_request": "2025-1202058",
    "request_type": "Property Maintenance",
    "request_reason": "Property Maintenance",
    "date_created": "2025-06-17T19:40:18.000",
    "date_modified": "2025-06-17T19:40:20.000",
    "request_status": "Pending",
    "responsible_agency": "Department of Code Enforcement",
    "final_address": "2519 N Tonti St",
    "address_councildis": "D",
    "status": "Pending",
    "rowid": "1202058",
    "final_x": "3686662.6662",
    "final_y": "540922.044811",
    "longitude": "-90.05143638419325",
    "latitude": "29.981190269549455",
    "geocoded_column": {
      "latitude": "29.981190269549455",
      "longitude": "-90.05143638419325"
    }
  },
  {
    "service_request": "2025-1202057",
    "request_type": "Trash/Recycling",
    "request_reason": "Replace Recycling Cart",
    "date_created": "2025-06-17T19:35:12.000",
    "date_modified": "2025-06-17T19:35:15.000",
    "request_status": "Pending",
    "responsible_agency": "Department of Sanitation",
    "final_address": "1338 Prentiss Ave",
    "address_councildis": "D",
    "status": "Pending",
    "rowid": "1202057",
    "final_x": "3677286.51739",
    "final_y": "553186.783639",
    "longitude": "-90.08062702249478",
    "latitude": "30.01519906659775",
    "geocoded_column": {
      "latitude": "30.01519906659775",
      "longitude": "-90.08062702249478"
    }
  },
  {
    "service_request": "2025-1202056",
    "request_type": "Trash/Recycling",
    "request_reason": "Order Second Trash Cart",
    "date_created": "2025-06-17T19:33:56.000",
    "date_modified": "2025-06-17T19:33:59.000",
    "request_status": "Pending",
    "responsible_agency": "Department of Sanitation",
    "final_address": "1338 Prentiss Ave",
    "address_councildis": "D",
    "status": "Assigned to Contractor",
    "contractor": "IV Waste",
    "rowid": "1202056",
    "final_x": "3677286.51739",
    "final_y": "553186.783639",
    "longitude": "-90.08062702249478",
    "latitude": "30.01519906659775",
    "geocoded_column": {
      "latitude": "30.01519906659775",
      "longitude": "-90.08062702249478"
    }
  },
  {
    "service_request": "2025-1202055",
    "request_type": "Trash/Recycling",
    "request_reason": "Replace Trash Cart",
    "date_created": "2025-06-17T19:30:31.000",
    "date_modified": "2025-06-17T19:30:32.000",
    "request_status": "Pending",
    "responsible_agency": "Department of Sanitation",
    "final_address": "1338 Prentiss Ave",
    "address_councildis": "D",
    "status": "Assigned to Contractor",
    "contractor": "IV Waste",
    "rowid": "1202055",
    "final_x": "3677286.51739",
    "final_y": "553186.783639",
    "longitude": "-90.08062702249478",
    "latitude": "30.01519906659775",
    "geocoded_column": {
      "latitude": "30.01519906659775",
      "longitude": "-90.08062702249478"
    }
  },
  {
    "service_request": "2025-1202054",
    "request_type": "Trash/Recycling",
    "request_reason": "Replace Trash Cart",
    "date_created": "2025-06-17T19:30:26.000",
    "date_modified": "2025-06-17T19:30:28.000",
    "request_status": "Pending",
    "responsible_agency": "Department of Sanitation",
    "final_address": "116 Oaktree Dr",
    "address_councildis": "A",
    "status": "Assigned to Contractor",
    "contractor": "IV Waste",
    "rowid": "1202054",
    "final_x": "3665446.26592",
    "final_y": "544799.225999",
    "longitude": "-90.11831781499754",
    "latitude": "29.992486794361444",
    "geocoded_column": {
      "latitude": "29.992486794361444",
      "longitude": "-90.11831781499754"
    }
  },
  {
    "service_request": "2025-1202053",
    "request_type": "Streetlights",
    "request_reason": "Streetlight Knocked Down/Leaning",
    "date_created": "2025-06-17T19:19:01.000",
    "date_modified": "2025-06-17T19:19:03.000",
    "request_status": "Pending",
    "responsible_agency": "Department of Public Works",
    "final_address": "103 Maumus Ave",
    "address_councildis": "C",
    "status": "Pending",
    "contractor": "Legacy Professional Services",
    "rowid": "1202053",
    "final_x": "3705627.97233",
    "final_y": "516710.162101",
    "longitude": "-89.99243074162817",
    "latitude": "29.914019203911696",
    "geocoded_column": {
      "latitude": "29.914019203911696",
      "longitude": "-89.99243074162817"
    }
  },
  {
    "service_request": "2025-1202052",
    "request_type": "Trash/Recycling",
    "request_reason": "Request a Large Item Pick Up",
    "date_created": "2025-06-17T18:57:55.000",
    "date_modified": "2025-06-17T18:57:57.000",
    "request_status": "Pending",
    "responsible_agency": "Department of Sanitation",
    "final_address": "901 Porteous St",
    "address_councildis": "A",
    "status": "Assigned to Contractor",
    "contractor": "IV Waste",
    "rowid": "1202052",
    "final_x": "3670296.16058",
    "final_y": "551299.520789",
    "longitude": "-90.10277736183275",
    "latitude": "30.010218043777957",
    "geocoded_column": {
      "latitude": "30.010218043777957",
      "longitude": "-90.10277736183275"
    }
  },
  {
    "service_request": "2025-1202051",
    "request_type": "Trash/Recycling",
    "request_reason": "Return Trash Cart",
    "date_created": "2025-06-17T18:57:38.000",
    "date_modified": "2025-06-17T18:57:40.000",
    "request_status": "Pending",
    "responsible_agency": "Department of Sanitation",
    "final_address": "521 Pacific Ave",
    "address_councildis": "C",
    "status": "Assigned to Contractor",
    "contractor": "Richards Disposal",
    "rowid": "1202051",
    "final_x": "3688450.63753",
    "final_y": "529722.522049",
    "longitude": "-90.04618653024033",
    "latitude": "29.95034036835285",
    "geocoded_column": {
      "latitude": "29.95034036835285",
      "longitude": "-90.04618653024033"
    }
  },
  {
    "service_request": "2025-1202050",
    "request_type": "Drainage",
    "request_reason": "Street Flooding",
    "date_created": "2025-06-17T18:57:27.000",
    "date_modified": "2025-06-17T18:57:29.000",
    "request_status": "Pending",
    "responsible_agency": "Sewerage & Water Board",
    "final_address": "3711 Pauger St",
    "address_councildis": "D",
    "status": "Pending",
    "rowid": "1202050",
    "final_x": "3683358.19893",
    "final_y": "543695.289806",
    "longitude": "-90.06177617408615",
    "latitude": "29.98891695244461",
    "geocoded_column": {
      "latitude": "29.98891695244461",
      "longitude": "-90.06177617408615"
    }
  },
  {
    "service_request": "2025-1202049",
    "request_type": "Trash/Recycling",
    "request_reason": "Replace Trash Cart",
    "date_created": "2025-06-17T18:29:53.000",
    "date_modified": "2025-06-17T18:29:55.000",
    "request_status": "Pending",
    "responsible_agency": "Department of Sanitation",
    "final_address": "10151 River Rd",
    "address_councildis": "C",
    "status": "Assigned to Contractor",
    "contractor": "Richards Disposal",
    "rowid": "1202049",
    "final_x": "3723327.60313",
    "final_y": "518314.739318",
    "longitude": "-89.93650394532473",
    "latitude": "29.917849816378087",
    "geocoded_column": {
      "latitude": "29.917849816378087",
      "longitude": "-89.93650394532473"
    }
  },
  {
    "service_request": "2025-1202048",
    "request_type": "Roads and Streets",
    "request_reason": "Pothole",
    "date_created": "2025-06-17T18:26:21.000",
    "date_modified": "2025-06-17T18:26:23.000",
    "request_status": "Pending",
    "responsible_agency": "Department of Public Works",
    "final_address": "5728 St Claude Ave",
    "address_councildis": "E",
    "status": "Pending",
    "rowid": "1202048",
    "final_x": "3698576.27588",
    "final_y": "533579.214213",
    "longitude": "-90.01407505026232",
    "latitude": "29.960628267906348",
    "geocoded_column": {
      "latitude": "29.960628267906348",
      "longitude": "-90.01407505026232"
    }
  },
  {
    "service_request": "2025-1202047",
    "request_type": "Graffiti Removal",
    "request_reason": "Graffiti Removal",
    "date_created": "2025-06-17T18:24:55.000",
    "date_modified": "2025-06-17T18:24:57.000",
    "request_status": "Pending",
    "responsible_agency": "Department of Code Enforcement",
    "final_address": "915 Decatur St",
    "address_councildis": "C",
    "status": "Pending",
    "rowid": "1202047",
    "final_x": "3683671.57276",
    "final_y": "532707.408772",
    "longitude": "-90.06117165854448",
    "latitude": "29.95869453861337",
    "geocoded_column": {
      "latitude": "29.95869453861337",
      "longitude": "-90.06117165854448"
    }
  },
  {
    "service_request": "2025-1202046",
    "request_type": "Trash/Recycling",
    "request_reason": "Request a Large Item Pick Up",
    "date_created": "2025-06-17T18:18:26.000",
    "date_modified": "2025-06-17T18:18:28.000",
    "request_status": "Pending",
    "responsible_agency": "Department of Sanitation",
    "final_address": "745 Toledano St",
    "address_councildis": "B",
    "status": "Assigned to Contractor",
    "contractor": "IV Waste",
    "rowid": "1202046",
    "final_x": "3675908.99841",
    "final_y": "518700.795383",
    "longitude": "-90.08616528946597",
    "latitude": "29.920415645682976",
    "geocoded_column": {
      "latitude": "29.920415645682976",
      "longitude": "-90.08616528946597"
    }
  },
  {
    "service_request": "2025-1202045",
    "request_type": "Roads and Streets",
    "request_reason": "Pothole",
    "date_created": "2025-06-17T17:59:43.000",
    "date_modified": "2025-06-17T17:59:45.000",
    "request_status": "Pending",
    "responsible_agency": "Department of Public Works",
    "final_address": "TOLEDANO ST & COLISEUM ST",
    "address_councildis": "B",
    "status": "Pending",
    "rowid": "1202045",
    "final_x": "3674981.4",
    "final_y": "520752.98",
    "longitude": "-90.08902294101439",
    "latitude": "29.926086221949046",
    "geocoded_column": {
      "latitude": "29.926086221949046",
      "longitude": "-90.08902294101439"
    }
  },
  {
    "service_request": "2025-1202044",
    "request_type": "Drainage",
    "request_reason": "Street Flooding",
    "date_created": "2025-06-17T17:53:37.000",
    "date_modified": "2025-06-17T17:53:40.000",
    "request_status": "Pending",
    "responsible_agency": "Sewerage & Water Board",
    "final_address": "10 Glacier Ct",
    "address_councildis": "C",
    "status": "Pending",
    "rowid": "1202044",
    "final_x": "3700216.98781",
    "final_y": "515973.615412",
    "longitude": "-90.00953633111642",
    "latitude": "29.91216695442454",
    "geocoded_column": {
      "latitude": "29.91216695442454",
      "longitude": "-90.00953633111642"
    }
  },
  {
    "service_request": "2025-1202043",
    "request_type": "Trash/Recycling",
    "request_reason": "Repair Trash Cart",
    "date_created": "2025-06-17T17:35:56.000",
    "date_modified": "2025-06-17T17:35:58.000",
    "request_status": "Pending",
    "responsible_agency": "Department of Sanitation",
    "final_address": "4959 Miles Dr. ",
    "address_councildis": "D",
    "status": "Assigned to Contractor",
    "contractor": "IV Waste",
    "rowid": "1202043",
    "final_x": "3680367.01851",
    "final_y": "549763.368596",
    "longitude": "-90.07101324886246",
    "latitude": "30.005692947077463",
    "geocoded_column": {
      "latitude": "30.005692947077463",
      "longitude": "-90.07101324886246"
    }
  },
  {
    "service_request": "2025-1202042",
    "request_type": "Traffic Signals",
    "request_reason": "Traffic Signal Malfunctioning or Damaged",
    "date_created": "2025-06-17T17:19:32.000",
    "date_modified": "2025-06-17T17:19:34.000",
    "request_status": "Pending",
    "responsible_agency": "Department of Public Works",
    "final_address": "2400 Filmore Ave",
    "address_councildis": "D",
    "status": "Pending",
    "rowid": "1202042",
    "final_x": "3685234.46364",
    "final_y": "552467.72591",
    "longitude": "-90.05554062793307",
    "latitude": "30.012980604678486",
    "geocoded_column": {
      "latitude": "30.012980604678486",
      "longitude": "-90.05554062793307"
    }
  },
  {
    "service_request": "2025-1202041",
    "request_type": "Trash/Recycling",
    "request_reason": "Return Trash Cart",
    "date_created": "2025-06-17T17:17:35.000",
    "date_modified": "2025-06-17T17:17:37.000",
    "request_status": "Pending",
    "responsible_agency": "Department of Sanitation",
    "final_address": "4426 S Miro St",
    "address_councildis": "B",
    "status": "Assigned to Contractor",
    "contractor": "IV Waste",
    "rowid": "1202041",
    "final_x": "3669814.1682",
    "final_y": "527749.063487",
    "longitude": "-90.10509770999467",
    "latitude": "29.945476479009404",
    "geocoded_column": {
      "latitude": "29.945476479009404",
      "longitude": "-90.10509770999467"
    }
  },
  {
    "service_request": "2025-1202040",
    "request_type": "Trash/Recycling",
    "request_reason": "Return Trash Cart",
    "date_created": "2025-06-17T17:12:03.000",
    "date_modified": "2025-06-17T17:12:05.000",
    "request_status": "Pending",
    "responsible_agency": "Department of Sanitation",
    "final_address": "4426 S Miro St",
    "address_councildis": "B",
    "status": "Assigned to Contractor",
    "contractor": "IV Waste",
    "rowid": "1202040",
    "final_x": "3669814.1682",
    "final_y": "527749.063487",
    "longitude": "-90.10509770999467",
    "latitude": "29.945476479009404",
    "geocoded_column": {
      "latitude": "29.945476479009404",
      "longitude": "-90.10509770999467"
    }
  },
  {
    "service_request": "2025-1202039",
    "request_type": "Trash/Recycling",
    "request_reason": "Request a Large Item Pick Up",
    "date_created": "2025-06-17T17:02:59.000",
    "date_modified": "2025-06-17T17:03:01.000",
    "request_status": "Pending",
    "responsible_agency": "Department of Sanitation",
    "final_address": "3944 Annunciation St",
    "address_councildis": "B",
    "status": "Assigned to Contractor",
    "contractor": "IV Waste",
    "rowid": "1202039",
    "final_x": "3673018.31598",
    "final_y": "517890.345462",
    "longitude": "-90.09531747320457",
    "latitude": "29.918273363576176",
    "geocoded_column": {
      "latitude": "29.918273363576176",
      "longitude": "-90.09531747320457"
    }
  },
  {
    "service_request": "2025-1202038",
    "request_type": "Drainage",
    "request_reason": "Street Flooding",
    "date_created": "2025-06-17T17:02:47.000",
    "date_modified": "2025-06-17T17:02:50.000",
    "request_status": "Pending",
    "responsible_agency": "Sewerage & Water Board",
    "final_address": "3707 Pauger St",
    "address_councildis": "D",
    "status": "Pending",
    "rowid": "1202038",
    "final_x": "3683360.66901",
    "final_y": "543660.31323",
    "longitude": "-90.06176959788444",
    "latitude": "29.988820703868388",
    "geocoded_column": {
      "latitude": "29.988820703868388",
      "longitude": "-90.06176959788444"
    }
  },
  {
    "service_request": "2025-1202037",
    "request_type": "Drainage",
    "request_reason": "Catch Basin Clogged",
    "date_created": "2025-06-17T16:59:05.000",
    "date_modified": "2025-06-17T16:59:07.000",
    "request_status": "Pending",
    "responsible_agency": "Sewerage & Water Board",
    "final_address": "940 Burgundy St",
    "address_councildis": "C",
    "status": "Pending",
    "rowid": "1202037",
    "final_x": "3682342.44188",
    "final_y": "533924.836101",
    "longitude": "-90.0653261638516",
    "latitude": "29.962082556467273",
    "geocoded_column": {
      "latitude": "29.962082556467273",
      "longitude": "-90.0653261638516"
    }
  },
  {
    "service_request": "2025-1202035",
    "request_type": "Drainage",
    "request_reason": "Catch Basin Damaged",
    "date_created": "2025-06-17T16:57:58.000",
    "date_modified": "2025-06-17T16:57:59.000",
    "request_status": "Pending",
    "responsible_agency": "Sewerage & Water Board",
    "final_address": "2500 Fats Domino Ave",
    "address_councildis": "E",
    "status": "Pending",
    "rowid": "1202035",
    "final_x": "3699406.48336",
    "final_y": "539214.37601",
    "longitude": "-90.01124811827164",
    "latitude": "29.976096628677436",
    "geocoded_column": {
      "latitude": "29.976096628677436",
      "longitude": "-90.01124811827164"
    }
  },
  {
    "service_request": "2025-1202036",
    "request_type": "Drainage",
    "request_reason": "Catch Basin Damaged",
    "date_created": "2025-06-17T16:57:58.000",
    "date_modified": "2025-06-17T16:58:00.000",
    "request_status": "Pending",
    "responsible_agency": "Sewerage & Water Board",
    "final_address": "2500 Fats Domino Ave",
    "address_councildis": "E",
    "status": "Pending",
    "rowid": "1202036",
    "final_x": "3699406.48336",
    "final_y": "539214.37601",
    "longitude": "-90.01124811827164",
    "latitude": "29.976096628677436",
    "geocoded_column": {
      "latitude": "29.976096628677436",
      "longitude": "-90.01124811827164"
    }
  },
  {
    "service_request": "2025-1202034",
    "request_type": "Drainage",
    "request_reason": "Catch Basin Damaged",
    "date_created": "2025-06-17T16:57:41.000",
    "date_modified": "2025-06-17T16:57:42.000",
    "request_status": "Pending",
    "responsible_agency": "Sewerage & Water Board",
    "final_address": "2500 Fats Domino Ave",
    "address_councildis": "E",
    "status": "Pending",
    "rowid": "1202034",
    "final_x": "3699406.48336",
    "final_y": "539214.37601",
    "longitude": "-90.01124811827164",
    "latitude": "29.976096628677436",
    "geocoded_column": {
      "latitude": "29.976096628677436",
      "longitude": "-90.01124811827164"
    }
  },
  {
    "service_request": "2025-1202033",
    "request_type": "Trash/Recycling",
    "request_reason": "Replace Trash Cart",
    "date_created": "2025-06-17T16:57:25.000",
    "date_modified": "2025-06-17T16:57:27.000",
    "request_status": "Pending",
    "responsible_agency": "Department of Sanitation",
    "final_address": "3018 Hollygrove St",
    "address_councildis": "A",
    "status": "Assigned to Contractor",
    "contractor": "IV Waste",
    "rowid": "1202033",
    "final_x": "3664026.47949",
    "final_y": "535418.699526",
    "longitude": "-90.12311563347079",
    "latitude": "29.96673480198356",
    "geocoded_column": {
      "latitude": "29.96673480198356",
      "longitude": "-90.12311563347079"
    }
  },
  {
    "service_request": "2025-1202032",
    "request_type": "Trash/Recycling",
    "request_reason": "Request a Large Item Pick Up",
    "date_created": "2025-06-17T16:56:13.000",
    "date_modified": "2025-06-17T16:56:15.000",
    "request_status": "Pending",
    "responsible_agency": "Department of Sanitation",
    "final_address": "6501 Vicksburg St",
    "address_councildis": "A",
    "status": "Assigned to Contractor",
    "contractor": "IV Waste",
    "rowid": "1202032",
    "final_x": "3669272.69191",
    "final_y": "550716.028693",
    "longitude": "-90.10603063534911",
    "latitude": "30.008643827894204",
    "geocoded_column": {
      "latitude": "30.008643827894204",
      "longitude": "-90.10603063534911"
    }
  },
  {
    "service_request": "2025-1202031",
    "request_type": "Trash/Recycling",
    "request_reason": "Order Trash Cart",
    "date_created": "2025-06-17T16:56:04.000",
    "date_modified": "2025-06-17T16:56:06.000",
    "request_status": "Pending",
    "responsible_agency": "Department of Sanitation",
    "final_address": "4919 S Saratoga St",
    "address_councildis": "B",
    "status": "Assigned to Contractor",
    "contractor": "IV Waste",
    "rowid": "1202031",
    "final_x": "3668940.24538",
    "final_y": "522532.214458",
    "longitude": "-90.10803311020737",
    "latitude": "29.93115755453462",
    "geocoded_column": {
      "latitude": "29.93115755453462",
      "longitude": "-90.10803311020737"
    }
  },
  {
    "service_request": "2025-1202029",
    "request_type": "Trash/Recycling",
    "request_reason": "Replace Trash Cart",
    "date_created": "2025-06-17T16:49:55.000",
    "date_modified": "2025-06-17T16:49:57.000",
    "request_status": "Pending",
    "responsible_agency": "Department of Sanitation",
    "final_address": "8425 Oak St",
    "address_councildis": "A",
    "status": "Assigned to Contractor",
    "contractor": "IV Waste",
    "rowid": "1202029",
    "final_x": "3661043.6631",
    "final_y": "529267.491777",
    "longitude": "-90.13273894285986",
    "latitude": "29.94990725895876",
    "geocoded_column": {
      "latitude": "29.94990725895876",
      "longitude": "-90.13273894285986"
    }
  },
  {
    "service_request": "2025-1202028",
    "request_type": "Trash/Recycling",
    "request_reason": "Request a Large Item Pick Up",
    "date_created": "2025-06-17T16:41:51.000",
    "date_modified": "2025-06-17T16:41:52.000",
    "request_status": "Pending",
    "responsible_agency": "Department of Sanitation",
    "final_address": "7670 Wave Dr",
    "address_councildis": "E",
    "status": "Assigned to Contractor",
    "contractor": "Waste Pro",
    "rowid": "1202028",
    "final_x": "3714751.31736",
    "final_y": "568938.468069",
    "longitude": "-89.96166141218586",
    "latitude": "30.057330443136838",
    "geocoded_column": {
      "latitude": "30.057330443136838",
      "longitude": "-89.96166141218586"
    }
  },
  {
    "service_request": "2025-1202027",
    "request_type": "Trash/Recycling",
    "request_reason": "Return Trash Cart",
    "date_created": "2025-06-17T16:41:45.000",
    "date_modified": "2025-06-17T16:41:47.000",
    "request_status": "Pending",
    "responsible_agency": "Department of Sanitation",
    "final_address": "4821 Laurel St",
    "address_councildis": "B",
    "status": "Assigned to Contractor",
    "contractor": "IV Waste",
    "rowid": "1202027",
    "final_x": "3669472.27521",
    "final_y": "517924.58079",
    "longitude": "-90.10650929377935",
    "latitude": "29.91847237203799",
    "geocoded_column": {
      "latitude": "29.91847237203799",
      "longitude": "-90.10650929377935"
    }
  },
  {
    "service_request": "2025-1202026",
    "request_type": "Drainage",
    "request_reason": "Catch Basin Clogged",
    "date_created": "2025-06-17T16:31:24.000",
    "date_modified": "2025-06-17T16:31:27.000",
    "request_status": "Pending",
    "responsible_agency": "Sewerage & Water Board",
    "final_address": "4640 Franklin Ave",
    "address_councildis": "D",
    "status": "Pending",
    "rowid": "1202026",
    "final_x": "3686779.30127",
    "final_y": "549957.25602",
    "longitude": "-90.05074856966391",
    "latitude": "30.00603027042841",
    "geocoded_column": {
      "latitude": "30.00603027042841",
      "longitude": "-90.05074856966391"
    }
  },
  {
    "service_request": "2025-1202025",
    "request_type": "Roads and Streets",
    "request_reason": "Pothole",
    "date_created": "2025-06-17T16:26:40.000",
    "date_modified": "2025-06-17T16:26:41.000",
    "request_status": "Pending",
    "responsible_agency": "Department of Public Works",
    "final_address": "2200 BLK Joliet St",
    "address_councildis": "A",
    "status": "Pending",
    "rowid": "1202025",
    "final_x": "3663510.75103",
    "final_y": "532193.975754",
    "longitude": "-90.1248517132943",
    "latitude": "29.957882833537344",
    "geocoded_column": {
      "latitude": "29.957882833537344",
      "longitude": "-90.1248517132943"
    }
  },
  {
    "service_request": "2025-1202024",
    "request_type": "Trash/Recycling",
    "request_reason": "Request a Large Item Pick Up",
    "date_created": "2025-06-17T16:25:46.000",
    "date_modified": "2025-06-17T16:25:49.000",
    "request_status": "Pending",
    "responsible_agency": "Department of Sanitation",
    "final_address": "2871 Maurepas St",
    "address_councildis": "A",
    "status": "Assigned to Contractor",
    "contractor": "IV Waste",
    "rowid": "1202024",
    "final_x": "3677840.12392",
    "final_y": "540769.448779",
    "longitude": "-90.07930725686708",
    "latitude": "29.981039127644518",
    "geocoded_column": {
      "latitude": "29.981039127644518",
      "longitude": "-90.07930725686708"
    }
  },
  {
    "service_request": "2025-1202023",
    "request_type": "Trash/Recycling",
    "request_reason": "Missed Trash Pick-Up",
    "date_created": "2025-06-17T16:22:10.000",
    "date_modified": "2025-06-17T16:43:43.000",
    "case_close_date": "2025-06-17T11:43:41.000",
    "request_status": "Closed",
    "responsible_agency": "Department of Sanitation",
    "final_address": "2871 Maurepas St",
    "address_councildis": "A",
    "status": "Invalid Request",
    "contractor": "IV Waste",
    "contractor_action": "Invalid",
    "rowid": "1202023",
    "final_x": "3677840.12392",
    "final_y": "540769.448779",
    "longitude": "-90.07930725686708",
    "latitude": "29.981039127644518",
    "geocoded_column": {
      "latitude": "29.981039127644518",
      "longitude": "-90.07930725686708"
    }
  },
  {
    "service_request": "2025-1202022",
    "request_type": "Trash/Recycling",
    "request_reason": "Request a Large Item Pick Up",
    "date_created": "2025-06-17T16:19:18.000",
    "date_modified": "2025-06-17T16:19:20.000",
    "request_status": "Pending",
    "responsible_agency": "Department of Sanitation",
    "final_address": "2919 Castiglione St",
    "address_councildis": "D",
    "status": "Assigned to Contractor",
    "contractor": "IV Waste",
    "rowid": "1202022",
    "final_x": "3679229.34978",
    "final_y": "542440.065869",
    "longitude": "-90.07486150660526",
    "latitude": "29.98559086437853",
    "geocoded_column": {
      "latitude": "29.98559086437853",
      "longitude": "-90.07486150660526"
    }
  },
  {
    "service_request": "2025-1202021",
    "request_type": "Parks & Parkways",
    "request_reason": "Request Tree Service (Right of Way/Public Property)",
    "date_created": "2025-06-17T16:11:58.000",
    "date_modified": "2025-06-17T16:12:00.000",
    "request_status": "Pending",
    "responsible_agency": "Department of Parks & Parkway",
    "final_address": "625 Webster St",
    "address_councildis": "A",
    "status": "Pending",
    "rowid": "1202021",
    "final_x": "3663992.09888",
    "final_y": "518962.241207",
    "longitude": "-90.12377280298061",
    "latitude": "29.921485814610794",
    "geocoded_column": {
      "latitude": "29.921485814610794",
      "longitude": "-90.12377280298061"
    }
  },
  {
    "service_request": "2025-1202020",
    "request_type": "Trash/Recycling",
    "request_reason": "Return Trash Cart",
    "date_created": "2025-06-17T16:11:30.000",
    "date_modified": "2025-06-17T16:11:31.000",
    "request_status": "Pending",
    "responsible_agency": "Department of Sanitation",
    "final_address": "710 Webster St",
    "address_councildis": "A",
    "status": "Assigned to Contractor",
    "contractor": "IV Waste",
    "rowid": "1202020",
    "final_x": "3664001.82093",
    "final_y": "519216.008119",
    "longitude": "-90.12373365851342",
    "latitude": "29.922183312161255",
    "geocoded_column": {
      "latitude": "29.922183312161255",
      "longitude": "-90.12373365851342"
    }
  },
  {
    "service_request": "2025-1202019",
    "request_type": "Trash/Recycling",
    "request_reason": "MIssed Recycling Pick-Up",
    "date_created": "2025-06-17T16:09:38.000",
    "date_modified": "2025-06-17T17:26:17.000",
    "case_close_date": "2025-06-17T12:26:16.000",
    "request_status": "Closed",
    "responsible_agency": "Department of Sanitation",
    "final_address": "8225 S Claiborne Ave",
    "address_councildis": "A",
    "status": "Invalid Request",
    "contractor": "IV Waste",
    "contractor_action": "Invalid Request",
    "rowid": "1202019",
    "final_x": "3664483.73703",
    "final_y": "532001.480707",
    "longitude": "-90.1217857139661",
    "latitude": "29.957325282578875",
    "geocoded_column": {
      "latitude": "29.957325282578875",
      "longitude": "-90.1217857139661"
    }
  },
  {
    "service_request": "2025-1202018",
    "request_type": "Parks & Parkways",
    "request_reason": "Request Tree Service (Right of Way/Public Property)",
    "date_created": "2025-06-17T16:08:05.000",
    "date_modified": "2025-06-17T16:08:07.000",
    "request_status": "Pending",
    "responsible_agency": "Department of Parks & Parkway",
    "final_address": "7030 Hickory St",
    "address_councildis": "A",
    "status": "Pending",
    "rowid": "1202018",
    "final_x": "3665673.08077",
    "final_y": "527995.699007",
    "longitude": "-90.11816425461495",
    "latitude": "29.946276051635863",
    "geocoded_column": {
      "latitude": "29.946276051635863",
      "longitude": "-90.11816425461495"
    }
  },
  {
    "service_request": "2025-1202017",
    "request_type": "Property Maintenance",
    "request_reason": "Property Maintenance",
    "date_created": "2025-06-17T16:07:20.000",
    "date_modified": "2025-06-17T16:07:22.000",
    "request_status": "Pending",
    "responsible_agency": "Department of Code Enforcement",
    "final_address": "1434 Touro St",
    "address_councildis": "C",
    "status": "Pending",
    "rowid": "1202017",
    "final_x": "3684093.57186",
    "final_y": "537631.391816",
    "longitude": "-90.05966626445561",
    "latitude": "29.972220903105466",
    "geocoded_column": {
      "latitude": "29.972220903105466",
      "longitude": "-90.05966626445561"
    }
  },
  {
    "service_request": "2025-1202016",
    "request_type": "Trash/Recycling",
    "request_reason": "Request a Large Item Pick Up",
    "date_created": "2025-06-17T16:01:56.000",
    "date_modified": "2025-06-17T16:01:58.000",
    "request_status": "Pending",
    "responsible_agency": "Department of Sanitation",
    "final_address": "7724 Oak St",
    "address_councildis": "A",
    "status": "Assigned to Contractor",
    "contractor": "IV Waste",
    "rowid": "1202016",
    "final_x": "3662870.44391",
    "final_y": "527502.888063",
    "longitude": "-90.12702957877323",
    "latitude": "29.94500240769668",
    "geocoded_column": {
      "latitude": "29.94500240769668",
      "longitude": "-90.12702957877323"
    }
  },
  {
    "service_request": "2025-1202015",
    "request_type": "Traffic Signals",
    "request_reason": "Traffic Signal Malfunctioning or Damaged",
    "date_created": "2025-06-17T16:01:39.000",
    "date_modified": "2025-06-17T16:01:41.000",
    "request_status": "Pending",
    "responsible_agency": "Department of Public Works",
    "final_address": "EARHART BLVD & S NORMAN C FRANCIS PKWY",
    "address_councildis": "B",
    "status": "Pending",
    "rowid": "1202015",
    "final_x": "3669903.8",
    "final_y": "531879.48",
    "longitude": "-90.10467487626596",
    "latitude": "29.956831128087114",
    "geocoded_column": {
      "latitude": "29.956831128087114",
      "longitude": "-90.10467487626596"
    }
  },
  {
    "service_request": "2025-1202014",
    "request_type": "Roads and Streets",
    "request_reason": "Pothole",
    "date_created": "2025-06-17T15:59:50.000",
    "date_modified": "2025-06-17T15:59:52.000",
    "request_status": "Pending",
    "responsible_agency": "Department of Public Works",
    "final_address": "S DUPRE ST & EUPHROSINE ST",
    "address_councildis": "B",
    "status": "Pending",
    "rowid": "1202014",
    "final_x": "3671996.5",
    "final_y": "532082.08",
    "longitude": "-90.0980598837412",
    "latitude": "29.957326343722016",
    "geocoded_column": {
      "latitude": "29.957326343722016",
      "longitude": "-90.0980598837412"
    }
  },
  {
    "service_request": "2025-1202013",
    "request_type": "Trash/Recycling",
    "request_reason": "Start Trash Service",
    "date_created": "2025-06-17T15:58:36.000",
    "date_modified": "2025-06-17T15:58:38.000",
    "request_status": "Pending",
    "responsible_agency": "Department of Sanitation",
    "final_address": "4523 Chestnut St",
    "address_councildis": "B",
    "status": "Assigned to Contractor",
    "contractor": "IV Waste",
    "rowid": "1202013",
    "final_x": "3670380.4793",
    "final_y": "519496.593271",
    "longitude": "-90.1035893147488",
    "latitude": "29.922768139038762",
    "geocoded_column": {
      "latitude": "29.922768139038762",
      "longitude": "-90.1035893147488"
    }
  },
  {
    "service_request": "2025-1202012",
    "request_type": "Trash/Recycling",
    "request_reason": "Repair Trash Cart",
    "date_created": "2025-06-17T15:58:05.000",
    "date_modified": "2025-06-17T15:58:07.000",
    "request_status": "Pending",
    "responsible_agency": "Department of Sanitation",
    "final_address": "6542 Avenue A",
    "address_councildis": "A",
    "status": "Assigned to Contractor",
    "contractor": "IV Waste",
    "rowid": "1202012",
    "final_x": "3665963.52602",
    "final_y": "551697.646805",
    "longitude": "-90.116452463467",
    "latitude": "30.01143997966091",
    "geocoded_column": {
      "latitude": "30.01143997966091",
      "longitude": "-90.116452463467"
    }
  },
  {
    "service_request": "2025-1202011",
    "request_type": "Trash/Recycling",
    "request_reason": "Missed Trash Pick-Up",
    "date_created": "2025-06-17T15:56:20.000",
    "date_modified": "2025-06-17T16:37:06.000",
    "case_close_date": "2025-06-17T11:37:05.000",
    "request_status": "Closed",
    "responsible_agency": "Department of Sanitation",
    "final_address": "127 34Th St",
    "address_councildis": "A",
    "status": "Invalid Request",
    "contractor": "IV Waste",
    "contractor_action": "Invalid",
    "rowid": "1202011",
    "final_x": "3666070.16916",
    "final_y": "551382.114517",
    "longitude": "-90.11612612251041",
    "latitude": "30.010569261445223",
    "geocoded_column": {
      "latitude": "30.010569261445223",
      "longitude": "-90.11612612251041"
    }
  },
  {
    "service_request": "2025-1202010",
    "request_type": "Traffic Signals",
    "request_reason": "Traffic Signal Malfunctioning or Damaged",
    "date_created": "2025-06-17T15:55:55.000",
    "date_modified": "2025-06-17T15:55:57.000",
    "request_status": "Pending",
    "responsible_agency": "Department of Public Works",
    "final_address": "0 BLK N Broad St",
    "address_councildis": "B",
    "status": "Pending",
    "rowid": "1202010",
    "final_x": "3675449.49847",
    "final_y": "535200.531093",
    "longitude": "-90.08704924250887",
    "latitude": "29.965798227126992",
    "geocoded_column": {
      "latitude": "29.965798227126992",
      "longitude": "-90.08704924250887"
    }
  },
  {
    "service_request": "2025-1202009",
    "request_type": "Trash/Recycling",
    "request_reason": "Request a Large Item Pick Up",
    "date_created": "2025-06-17T15:55:04.000",
    "date_modified": "2025-06-17T15:55:07.000",
    "request_status": "Pending",
    "responsible_agency": "Department of Sanitation",
    "final_address": "4850 Gabriel Dr",
    "address_councildis": "E",
    "status": "Assigned to Contractor",
    "contractor": "Waste Pro",
    "rowid": "1202009",
    "final_x": "3708756.32318",
    "final_y": "556442.491162",
    "longitude": "-89.98107673968784",
    "latitude": "30.02316744748321",
    "geocoded_column": {
      "latitude": "30.02316744748321",
      "longitude": "-89.98107673968784"
    }
  },
  {
    "service_request": "2025-1202008",
    "request_type": "Property Maintenance",
    "request_reason": "Property Maintenance",
    "date_created": "2025-06-17T15:54:03.000",
    "date_modified": "2025-06-17T15:54:05.000",
    "request_status": "Pending",
    "responsible_agency": "Department of Code Enforcement",
    "final_address": "11020 Willowbrae Dr",
    "address_councildis": "E",
    "status": "Pending",
    "rowid": "1202008",
    "final_x": "3711500.63525",
    "final_y": "564601.264225",
    "longitude": "-89.97209913948096",
    "latitude": "30.04551148904752",
    "geocoded_column": {
      "latitude": "30.04551148904752",
      "longitude": "-89.97209913948096"
    }
  },
  {
    "service_request": "2025-1202007",
    "request_type": "Trash/Recycling",
    "request_reason": "Repair Trash Cart",
    "date_created": "2025-06-17T15:52:57.000",
    "date_modified": "2025-06-17T15:52:59.000",
    "request_status": "Pending",
    "responsible_agency": "Department of Sanitation",
    "final_address": "705 Cadiz St",
    "address_councildis": "B",
    "status": "Assigned to Contractor",
    "contractor": "IV Waste",
    "rowid": "1202007",
    "final_x": "3670410.31393",
    "final_y": "518066.735798",
    "longitude": "-90.1035435801404",
    "latitude": "29.918835604003373",
    "geocoded_column": {
      "latitude": "29.918835604003373",
      "longitude": "-90.1035435801404"
    }
  },
  {
    "service_request": "2025-1202006",
    "request_type": "Trash/Recycling",
    "request_reason": "Request a Large Item Pick Up",
    "date_created": "2025-06-17T15:52:17.000",
    "date_modified": "2025-06-17T15:52:18.000",
    "request_status": "Pending",
    "responsible_agency": "Department of Sanitation",
    "final_address": "4318 Annunciation St",
    "address_councildis": "B",
    "status": "Assigned to Contractor",
    "contractor": "IV Waste",
    "rowid": "1202006",
    "final_x": "3671405.59195",
    "final_y": "517740.400822",
    "longitude": "-90.10041308079752",
    "latitude": "29.9179088768141",
    "geocoded_column": {
      "latitude": "29.9179088768141",
      "longitude": "-90.10041308079752"
    }
  },
  {
    "service_request": "2025-1202005",
    "request_type": "Abandoned Vehicles",
    "request_reason": "Abandoned/Junk Vehicles",
    "date_created": "2025-06-17T15:52:07.000",
    "date_modified": "2025-06-17T15:52:09.000",
    "request_status": "Pending",
    "responsible_agency": "Department of Public Works",
    "final_address": "3842 Orleans Ave",
    "address_councildis": "A",
    "status": "Pending",
    "rowid": "1202005",
    "final_x": "3673190.77921",
    "final_y": "539629.230858",
    "longitude": "-90.094030949222",
    "latitude": "29.978043009873094",
    "geocoded_column": {
      "latitude": "29.978043009873094",
      "longitude": "-90.094030949222"
    }
  },
  {
    "service_request": "2025-1202004",
    "request_type": "Trash/Recycling",
    "request_reason": "Replace Trash Cart",
    "date_created": "2025-06-17T15:51:17.000",
    "date_modified": "2025-06-17T15:51:18.000",
    "request_status": "Pending",
    "responsible_agency": "Department of Sanitation",
    "final_address": "1604 Shirley Dr",
    "address_councildis": "C",
    "status": "Assigned to Contractor",
    "contractor": "Richards Disposal",
    "rowid": "1202004",
    "final_x": "3693107.83869",
    "final_y": "524643.217468",
    "longitude": "-90.03166377655855",
    "latitude": "29.93622935840123",
    "geocoded_column": {
      "latitude": "29.93622935840123",
      "longitude": "-90.03166377655855"
    }
  },
  {
    "service_request": "2025-1202003",
    "request_type": "Traffic Signals",
    "request_reason": "Traffic Signal Malfunctioning or Damaged",
    "date_created": "2025-06-17T15:48:02.000",
    "date_modified": "2025-06-17T15:48:04.000",
    "request_status": "Pending",
    "responsible_agency": "Department of Public Works",
    "final_address": "S CARROLLTON AVE & ULLOA ST",
    "address_councildis": "A",
    "status": "Pending",
    "rowid": "1202003",
    "final_x": "3669505.3",
    "final_y": "536597.98",
    "longitude": "-90.10577359477857",
    "latitude": "29.96981717884046",
    "geocoded_column": {
      "latitude": "29.96981717884046",
      "longitude": "-90.10577359477857"
    }
  },
  {
    "service_request": "2025-1202002",
    "request_type": "Trash/Recycling",
    "request_reason": "Request a Large Item Pick Up",
    "date_created": "2025-06-17T15:46:07.000",
    "date_modified": "2025-06-17T15:46:09.000",
    "request_status": "Pending",
    "responsible_agency": "Department of Sanitation",
    "final_address": "1314 Adams St",
    "address_councildis": "A",
    "status": "Assigned to Contractor",
    "contractor": "IV Waste",
    "rowid": "1202002",
    "final_x": "3663358.1209",
    "final_y": "527765.918079",
    "longitude": "-90.12548107099623",
    "latitude": "29.94571152985379",
    "geocoded_column": {
      "latitude": "29.94571152985379",
      "longitude": "-90.12548107099623"
    }
  },
  {
    "service_request": "2025-1202001",
    "request_type": "Trash/Recycling",
    "request_reason": "Order Second Trash Cart",
    "date_created": "2025-06-17T15:43:12.000",
    "date_modified": "2025-06-17T15:43:13.000",
    "request_status": "Pending",
    "responsible_agency": "Department of Sanitation",
    "final_address": "7743 Arcadia Ln",
    "address_councildis": "E",
    "status": "Assigned to Contractor",
    "contractor": "Waste Pro",
    "rowid": "1202001",
    "final_x": "3712128.62949",
    "final_y": "567510.454052",
    "longitude": "-89.97000499418856",
    "latitude": "30.053490053149293",
    "geocoded_column": {
      "latitude": "30.053490053149293",
      "longitude": "-89.97000499418856"
    }
  },
  {
    "service_request": "2025-1202000",
    "request_type": "Trash/Recycling",
    "request_reason": "Replace Trash Cart",
    "date_created": "2025-06-17T15:42:51.000",
    "date_modified": "2025-06-17T15:42:54.000",
    "request_status": "Pending",
    "responsible_agency": "Department of Sanitation",
    "final_address": "7032 Queensway Dr",
    "address_councildis": "E",
    "status": "Assigned to Contractor",
    "contractor": "Waste Pro",
    "rowid": "1202000",
    "final_x": "3719173.50674",
    "final_y": "569395.83063",
    "longitude": "-89.94766616239347",
    "latitude": "30.058441700970505",
    "geocoded_column": {
      "latitude": "30.058441700970505",
      "longitude": "-89.94766616239347"
    }
  },
  {
    "service_request": "2025-1201998",
    "request_type": "Trash/Recycling",
    "request_reason": "Request a Large Item Pick Up",
    "date_created": "2025-06-17T15:42:07.000",
    "date_modified": "2025-06-17T15:42:08.000",
    "request_status": "Pending",
    "responsible_agency": "Department of Sanitation",
    "final_address": "2311 Valentine Ct",
    "address_councildis": "C",
    "status": "Assigned to Contractor",
    "contractor": "Richards Disposal",
    "rowid": "1201998",
    "final_x": "3699337.71012",
    "final_y": "522638.265402",
    "longitude": "-90.01206899285567",
    "latitude": "29.93052036713017",
    "geocoded_column": {
      "latitude": "29.93052036713017",
      "longitude": "-90.01206899285567"
    }
  },
  {
    "service_request": "2025-1201999",
    "request_type": "Roads and Streets",
    "request_reason": "Abandoned Service Cut",
    "date_created": "2025-06-17T15:42:07.000",
    "date_modified": "2025-06-17T15:42:10.000",
    "request_status": "Pending",
    "responsible_agency": "Department of Public Works",
    "final_address": "MANDEVILLE ST & MADRID ST",
    "address_councildis": "D",
    "status": "Pending",
    "rowid": "1201999",
    "final_x": "3684249.0",
    "final_y": "555389.08",
    "longitude": "-90.05855147054774",
    "latitude": "30.02104343780445",
    "geocoded_column": {
      "latitude": "30.02104343780445",
      "longitude": "-90.05855147054774"
    }
  },
  {
    "service_request": "2025-1201997",
    "request_type": "Trash/Recycling",
    "request_reason": "Request a Large Item Pick Up",
    "date_created": "2025-06-17T15:41:25.000",
    "date_modified": "2025-06-17T15:41:59.000",
    "request_status": "Pending",
    "responsible_agency": "Department of Sanitation",
    "final_address": "3711 Laurel St",
    "address_councildis": "B",
    "status": "Assigned to Contractor",
    "contractor": "IV Waste",
    "rowid": "1201997",
    "final_x": "3673723.09684",
    "final_y": "518414.201462",
    "longitude": "-90.09307495728154",
    "latitude": "29.919692843411145",
    "geocoded_column": {
      "latitude": "29.919692843411145",
      "longitude": "-90.09307495728154"
    }
  },
  {
    "service_request": "2025-1201996",
    "request_type": "Trash/Recycling",
    "request_reason": "Request a Large Item Pick Up",
    "date_created": "2025-06-17T15:40:22.000",
    "date_modified": "2025-06-17T15:40:25.000",
    "request_status": "Pending",
    "responsible_agency": "Department of Sanitation",
    "final_address": "1681 Paul Morphy St",
    "address_councildis": "D",
    "status": "Assigned to Contractor",
    "contractor": "IV Waste",
    "rowid": "1201996",
    "final_x": "3679183.57659",
    "final_y": "540944.214155",
    "longitude": "-90.07505796948634",
    "latitude": "29.981479175297075",
    "geocoded_column": {
      "latitude": "29.981479175297075",
      "longitude": "-90.07505796948634"
    }
  },
  {
    "service_request": "2025-1201995",
    "request_type": "Property Maintenance",
    "request_reason": "Property Maintenance",
    "date_created": "2025-06-17T15:40:04.000",
    "date_modified": "2025-06-17T15:40:06.000",
    "request_status": "Pending",
    "responsible_agency": "Department of Code Enforcement",
    "final_address": "1605 Patterson St",
    "address_councildis": "C",
    "status": "Pending",
    "rowid": "1201995",
    "final_x": "3690408.6728",
    "final_y": "530958.548674",
    "longitude": "-90.03996004843391",
    "latitude": "29.953678390675478",
    "geocoded_column": {
      "latitude": "29.953678390675478",
      "longitude": "-90.03996004843391"
    }
  },
  {
    "service_request": "2025-1201994",
    "request_type": "Mosquito, Termite & Rodent Control",
    "request_reason": "Non-Rodent Complaint (Possums & Snakes)",
    "date_created": "2025-06-17T15:39:32.000",
    "date_modified": "2025-06-17T15:39:33.000",
    "request_status": "Pending",
    "responsible_agency": "Mosquito, Termite & Rodent Control Board",
    "final_address": "4724 St Peter St",
    "address_councildis": "A",
    "status": "Pending",
    "rowid": "1201994",
    "final_x": "3670201.76327",
    "final_y": "541643.602188",
    "longitude": "-90.10340305354201",
    "latitude": "29.983670399450418",
    "geocoded_column": {
      "latitude": "29.983670399450418",
      "longitude": "-90.10340305354201"
    }
  },
  {
    "service_request": "2025-1201993",
    "request_type": "Trash/Recycling",
    "request_reason": "Request a Large Item Pick Up",
    "date_created": "2025-06-17T15:38:32.000",
    "date_modified": "2025-06-17T15:38:34.000",
    "request_status": "Pending",
    "responsible_agency": "Department of Sanitation",
    "final_address": "731 Louque Pl",
    "address_councildis": "A",
    "status": "Assigned to Contractor",
    "contractor": "IV Waste",
    "rowid": "1201993",
    "final_x": "3668509.66292",
    "final_y": "543574.13659",
    "longitude": "-90.10868245251811",
    "latitude": "29.98902854435826",
    "geocoded_column": {
      "latitude": "29.98902854435826",
      "longitude": "-90.10868245251811"
    }
  },
  {
    "service_request": "2025-1201992",
    "request_type": "Mosquito, Termite & Rodent Control",
    "request_reason": "Non-Rodent Complaint (Possums & Snakes)",
    "date_created": "2025-06-17T15:37:27.000",
    "date_modified": "2025-06-17T15:37:30.000",
    "request_status": "Pending",
    "responsible_agency": "Mosquito, Termite & Rodent Control Board",
    "final_address": "4724 St Peter St",
    "address_councildis": "A",
    "status": "Pending",
    "rowid": "1201992",
    "final_x": "3670201.76327",
    "final_y": "541643.602188",
    "longitude": "-90.10340305354201",
    "latitude": "29.983670399450418",
    "geocoded_column": {
      "latitude": "29.983670399450418",
      "longitude": "-90.10340305354201"
    }
  },
  {
    "service_request": "2025-1201991",
    "request_type": "Trash/Recycling",
    "request_reason": "Request a Large Item Pick Up",
    "date_created": "2025-06-17T15:36:55.000",
    "date_modified": "2025-06-17T15:36:57.000",
    "request_status": "Pending",
    "responsible_agency": "Department of Sanitation",
    "final_address": "5313 Zeno Pl",
    "address_councildis": "E",
    "status": "Assigned to Contractor",
    "contractor": "Waste Pro",
    "rowid": "1201991",
    "final_x": "3718340.7278",
    "final_y": "561576.304671",
    "longitude": "-89.95059672789853",
    "latitude": "30.036968877612576",
    "geocoded_column": {
      "latitude": "30.036968877612576",
      "longitude": "-89.95059672789853"
    }
  },
  {
    "service_request": "2025-1201990",
    "request_type": "Trash/Recycling",
    "request_reason": "Request a Large Item Pick Up",
    "date_created": "2025-06-17T15:36:25.000",
    "date_modified": "2025-06-17T15:36:27.000",
    "request_status": "Pending",
    "responsible_agency": "Department of Sanitation",
    "final_address": "731 Louque Pl",
    "address_councildis": "A",
    "status": "Assigned to Contractor",
    "contractor": "IV Waste",
    "rowid": "1201990",
    "final_x": "3668509.66292",
    "final_y": "543574.13659",
    "longitude": "-90.10868245251811",
    "latitude": "29.98902854435826",
    "geocoded_column": {
      "latitude": "29.98902854435826",
      "longitude": "-90.10868245251811"
    }
  },
  {
    "service_request": "2025-1201989",
    "request_type": "Trash/Recycling",
    "request_reason": "Request a Large Item Pick Up",
    "date_created": "2025-06-17T15:33:45.000",
    "date_modified": "2025-06-17T15:33:48.000",
    "request_status": "Pending",
    "responsible_agency": "Department of Sanitation",
    "final_address": "514 Bouny St",
    "address_councildis": "C",
    "status": "Assigned to Contractor",
    "contractor": "Richards Disposal",
    "rowid": "1201989",
    "final_x": "3686222.57519",
    "final_y": "529666.260673",
    "longitude": "-90.05322355490425",
    "latitude": "29.950254300052897",
    "geocoded_column": {
      "latitude": "29.950254300052897",
      "longitude": "-90.05322355490425"
    }
  },
  {
    "service_request": "2025-1201988",
    "request_type": "Abandoned Vehicles",
    "request_reason": "Abandoned/Junk Vehicles",
    "date_created": "2025-06-17T15:26:08.000",
    "date_modified": "2025-06-17T15:30:52.000",
    "request_status": "Pending",
    "responsible_agency": "Department of Public Works",
    "final_address": "3000 BLK Peoples Ave",
    "address_councildis": "D",
    "status": "Inspected",
    "rowid": "1201988",
    "final_x": "3688705.75641",
    "final_y": "544195.754572",
    "longitude": "-90.04486712963312",
    "latitude": "29.99012879579338",
    "geocoded_column": {
      "latitude": "29.99012879579338",
      "longitude": "-90.04486712963312"
    }
  },
  {
    "service_request": "2025-1201987",
    "request_type": "Trash/Recycling",
    "request_reason": "Repair Trash Cart",
    "date_created": "2025-06-17T15:24:23.000",
    "date_modified": "2025-06-17T15:24:25.000",
    "request_status": "Pending",
    "responsible_agency": "Department of Sanitation",
    "final_address": "3239 Calhoun St",
    "address_councildis": "A",
    "status": "Assigned to Contractor",
    "contractor": "IV Waste",
    "rowid": "1201987",
    "final_x": "3667418.21505",
    "final_y": "528685.548864",
    "longitude": "-90.11263103465731",
    "latitude": "29.948121910849345",
    "geocoded_column": {
      "latitude": "29.948121910849345",
      "longitude": "-90.11263103465731"
    }
  },
  {
    "service_request": "2025-1201986",
    "request_type": "Trash/Recycling",
    "request_reason": "Request a Large Item Pick Up",
    "date_created": "2025-06-17T15:23:59.000",
    "date_modified": "2025-06-17T15:24:00.000",
    "request_status": "Pending",
    "responsible_agency": "Department of Sanitation",
    "final_address": "64 Grand Canyon Dr",
    "address_councildis": "C",
    "status": "Assigned to Contractor",
    "contractor": "Richards Disposal",
    "rowid": "1201986",
    "final_x": "3699206.83152",
    "final_y": "516079.686772",
    "longitude": "-90.01272077833575",
    "latitude": "29.912490665905782",
    "geocoded_column": {
      "latitude": "29.912490665905782",
      "longitude": "-90.01272077833575"
    }
  },
  {
    "service_request": "2025-1201985",
    "request_type": "Safety & Permits",
    "request_reason": "Licenses & Permits",
    "date_created": "2025-06-17T15:22:32.000",
    "date_modified": "2025-06-17T15:22:34.000",
    "request_status": "Pending",
    "responsible_agency": "Safety and Permits",
    "final_address": "3750 Herald St",
    "address_councildis": "C",
    "status": "Pending",
    "rowid": "1201985",
    "final_x": "3702236.75332",
    "final_y": "517095.316725",
    "longitude": "-90.00312035195387",
    "latitude": "29.91518693322863",
    "geocoded_column": {
      "latitude": "29.91518693322863",
      "longitude": "-90.00312035195387"
    }
  },
  {
    "service_request": "2025-1201984",
    "request_type": "Property Maintenance",
    "request_reason": "Property Maintenance",
    "date_created": "2025-06-17T15:21:38.000",
    "date_modified": "2025-06-17T15:21:39.000",
    "request_status": "Pending",
    "responsible_agency": "Department of Code Enforcement",
    "final_address": "2214 S Claiborne Ave",
    "address_councildis": "B",
    "status": "Pending",
    "rowid": "1201984",
    "final_x": "3674540.14939",
    "final_y": "527495.734335",
    "longitude": "-90.09018491796954",
    "latitude": "29.9446397679687",
    "geocoded_column": {
      "latitude": "29.9446397679687",
      "longitude": "-90.09018491796954"
    }
  },
  {
    "service_request": "2025-1201983",
    "request_type": "Trash/Recycling",
    "request_reason": "Repair Trash Cart",
    "date_created": "2025-06-17T15:21:36.000",
    "date_modified": "2025-06-17T15:21:38.000",
    "request_status": "Pending",
    "responsible_agency": "Department of Sanitation",
    "final_address": "5 Heritage Ln Unit 17",
    "address_councildis": "C",
    "status": "Assigned to Contractor",
    "contractor": "Richards Disposal",
    "rowid": "1201983",
    "final_x": "3696046.25866",
    "final_y": "520279.13548",
    "longitude": "-90.02254475186088",
    "latitude": "29.924137513786008",
    "geocoded_column": {
      "latitude": "29.924137513786008",
      "longitude": "-90.02254475186088"
    }
  },
  {
    "service_request": "2025-1201982",
    "request_type": "Trash/Recycling",
    "request_reason": "Request a Large Item Pick Up",
    "date_created": "2025-06-17T15:18:59.000",
    "date_modified": "2025-06-17T15:19:01.000",
    "request_status": "Pending",
    "responsible_agency": "Department of Sanitation",
    "final_address": "4775 Knight Dr",
    "address_councildis": "E",
    "status": "Assigned to Contractor",
    "contractor": "Waste Pro",
    "rowid": "1201982",
    "final_x": "3708183.68779",
    "final_y": "555795.159769",
    "longitude": "-89.9829102327282",
    "latitude": "30.02140610772267",
    "geocoded_column": {
      "latitude": "30.02140610772267",
      "longitude": "-89.9829102327282"
    }
  },
  {
    "service_request": "2025-1201981",
    "request_type": "Health Related Request",
    "request_reason": "Homeless Encampment Complaint",
    "date_created": "2025-06-17T15:18:16.000",
    "date_modified": "2025-06-17T15:18:18.000",
    "request_status": "Pending",
    "responsible_agency": "Health Department",
    "final_address": "2720 N Claiborne Ave",
    "address_councildis": "C",
    "status": "Pending",
    "rowid": "1201981",
    "final_x": "3688061.0927",
    "final_y": "538158.843145",
    "longitude": "-90.04711749779922",
    "latitude": "29.97354934921967",
    "geocoded_column": {
      "latitude": "29.97354934921967",
      "longitude": "-90.04711749779922"
    }
  },
  {
    "service_request": "2025-1201980",
    "request_type": "Trash/Recycling",
    "request_reason": "Request a Large Item Pick Up",
    "date_created": "2025-06-17T15:18:04.000",
    "date_modified": "2025-06-17T15:18:06.000",
    "request_status": "Pending",
    "responsible_agency": "Department of Sanitation",
    "final_address": "3000 Dumaine St",
    "address_councildis": "A",
    "status": "Assigned to Contractor",
    "contractor": "IV Waste",
    "rowid": "1201980",
    "final_x": "3676073.10158",
    "final_y": "538227.305737",
    "longitude": "-90.08497578691512",
    "latitude": "29.974102162911016",
    "geocoded_column": {
      "latitude": "29.974102162911016",
      "longitude": "-90.08497578691512"
    }
  },
  {
    "service_request": "2025-1201979",
    "request_type": "Property Maintenance",
    "request_reason": "Property Maintenance",
    "date_created": "2025-06-17T15:15:02.000",
    "date_modified": "2025-06-17T15:15:04.000",
    "request_status": "Pending",
    "responsible_agency": "Department of Code Enforcement",
    "final_address": "7410 Dartmoor Dr",
    "address_councildis": "E",
    "status": "Pending",
    "rowid": "1201979",
    "final_x": "3704911.24638",
    "final_y": "561947.326751",
    "longitude": "-89.99302278720502",
    "latitude": "30.038427805937037",
    "geocoded_column": {
      "latitude": "30.038427805937037",
      "longitude": "-89.99302278720502"
    }
  },
  {
    "service_request": "2025-1201978",
    "request_type": "Trash/Recycling",
    "request_reason": "Request a Large Item Pick Up",
    "date_created": "2025-06-17T15:14:35.000",
    "date_modified": "2025-06-17T15:14:37.000",
    "request_status": "Pending",
    "responsible_agency": "Department of Sanitation",
    "final_address": "5470 Stillwater Dr",
    "address_councildis": "E",
    "status": "Assigned to Contractor",
    "contractor": "Waste Pro",
    "rowid": "1201978",
    "final_x": "3716601.62776",
    "final_y": "560582.610014",
    "longitude": "-89.956130344825",
    "latitude": "30.034294208137506",
    "geocoded_column": {
      "latitude": "30.034294208137506",
      "longitude": "-89.956130344825"
    }
  },
  {
    "service_request": "2025-1201977",
    "request_type": "Trash/Recycling",
    "request_reason": "Request a Large Item Pick Up",
    "date_created": "2025-06-17T15:13:22.000",
    "date_modified": "2025-06-17T15:13:24.000",
    "request_status": "Pending",
    "responsible_agency": "Department of Sanitation",
    "final_address": "529 Whitney Ave",
    "address_councildis": "C",
    "status": "Assigned to Contractor",
    "contractor": "Richards Disposal",
    "rowid": "1201977",
    "final_x": "3690128.61603",
    "final_y": "529446.338625",
    "longitude": "-90.04089820589117",
    "latitude": "29.94952902372718",
    "geocoded_column": {
      "latitude": "29.94952902372718",
      "longitude": "-90.04089820589117"
    }
  },
  {
    "service_request": "2025-1201976",
    "request_type": "Trash/Recycling",
    "request_reason": "Request a Large Item Pick Up",
    "date_created": "2025-06-17T15:11:38.000",
    "date_modified": "2025-06-17T15:11:39.000",
    "request_status": "Pending",
    "responsible_agency": "Department of Sanitation",
    "final_address": "7300 Spring Lake Dr",
    "address_councildis": "E",
    "status": "Assigned to Contractor",
    "contractor": "Waste Pro",
    "rowid": "1201976",
    "final_x": "3700550.08221",
    "final_y": "558887.444828",
    "longitude": "-90.00691707483311",
    "latitude": "30.030153864897148",
    "geocoded_column": {
      "latitude": "30.030153864897148",
      "longitude": "-90.00691707483311"
    }
  },
  {
    "service_request": "2025-1201975",
    "request_type": "Trash/Recycling",
    "request_reason": "Request a Large Item Pick Up",
    "date_created": "2025-06-17T15:11:09.000",
    "date_modified": "2025-06-17T15:11:11.000",
    "request_status": "Pending",
    "responsible_agency": "Department of Sanitation",
    "final_address": "6014 Franklin Ave",
    "address_councildis": "D",
    "status": "Assigned to Contractor",
    "contractor": "IV Waste",
    "rowid": "1201975",
    "final_x": "3686317.85615",
    "final_y": "555345.754777",
    "longitude": "-90.05201601917842",
    "latitude": "30.020860859848767",
    "geocoded_column": {
      "latitude": "30.020860859848767",
      "longitude": "-90.05201601917842"
    }
  },
  {
    "service_request": "2025-1201974",
    "request_type": "Trash/Recycling",
    "request_reason": "Order Recycling Cart",
    "date_created": "2025-06-17T15:03:13.000",
    "date_modified": "2025-06-17T15:03:15.000",
    "request_status": "Pending",
    "responsible_agency": "Department of Sanitation",
    "final_address": "3105 Jena St",
    "address_councildis": "B",
    "status": "Pending",
    "rowid": "1201974",
    "final_x": "3669948.39546",
    "final_y": "526272.78387",
    "longitude": "-90.10472388788274",
    "latitude": "29.94141323296593",
    "geocoded_column": {
      "latitude": "29.94141323296593",
      "longitude": "-90.10472388788274"
    }
  },
  {
    "service_request": "2025-1201973",
    "request_type": "Trash/Recycling",
    "request_reason": "Request a Large Item Pick Up",
    "date_created": "2025-06-17T15:00:47.000",
    "date_modified": "2025-06-17T15:00:50.000",
    "request_status": "Pending",
    "responsible_agency": "Department of Sanitation",
    "final_address": "1552 Harrison Ave",
    "address_councildis": "D",
    "status": "Assigned to Contractor",
    "contractor": "IV Waste",
    "rowid": "1201973",
    "final_x": "3679197.74875",
    "final_y": "547638.45941",
    "longitude": "-90.07478097397856",
    "latitude": "29.999885570954138",
    "geocoded_column": {
      "latitude": "29.999885570954138",
      "longitude": "-90.07478097397856"
    }
  },
  {
    "service_request": "2025-1201972",
    "request_type": "Property Maintenance",
    "request_reason": "Property Maintenance",
    "date_created": "2025-06-17T14:53:32.000",
    "date_modified": "2025-06-17T14:53:33.000",
    "request_status": "Pending",
    "responsible_agency": "Department of Code Enforcement",
    "final_address": "1 N Villere St",
    "address_councildis": "E",
    "status": "Pending",
    "rowid": "1201972",
    "final_x": "3701125.39773",
    "final_y": "534141.364165",
    "longitude": "-90.00600491908395",
    "latitude": "29.96209303256369",
    "geocoded_column": {
      "latitude": "29.96209303256369",
      "longitude": "-90.00600491908395"
    }
  },
  {
    "service_request": "2025-1201971",
    "request_type": "Property Maintenance",
    "request_reason": "Property Maintenance",
    "date_created": "2025-06-17T14:53:32.000",
    "date_modified": "2025-06-17T14:53:33.000",
    "request_status": "Pending",
    "responsible_agency": "Department of Code Enforcement",
    "final_address": "1 N Villere St",
    "address_councildis": "E",
    "status": "Pending",
    "rowid": "1201971",
    "final_x": "3701125.39773",
    "final_y": "534141.364165",
    "longitude": "-90.00600491908395",
    "latitude": "29.96209303256369",
    "geocoded_column": {
      "latitude": "29.96209303256369",
      "longitude": "-90.00600491908395"
    }
  },
  {
    "service_request": "2025-1201970",
    "request_type": "Trash/Recycling",
    "request_reason": "Order Second Trash Cart",
    "date_created": "2025-06-17T14:51:10.000",
    "date_modified": "2025-06-17T14:51:12.000",
    "request_status": "Pending",
    "responsible_agency": "Department of Sanitation",
    "final_address": "1050 Casa Calvo St",
    "address_councildis": "C",
    "status": "Assigned to Contractor",
    "contractor": "Richards Disposal",
    "rowid": "1201970",
    "final_x": "3692169.59945",
    "final_y": "527343.729215",
    "longitude": "-90.03452917746863",
    "latitude": "29.94368411495024",
    "geocoded_column": {
      "latitude": "29.94368411495024",
      "longitude": "-90.03452917746863"
    }
  },
  {
    "service_request": "2025-1201969",
    "request_type": "Trash/Recycling",
    "request_reason": "Request a Large Item Pick Up",
    "date_created": "2025-06-17T14:50:20.000",
    "date_modified": "2025-06-17T14:50:27.000",
    "request_status": "Pending",
    "responsible_agency": "Department of Sanitation",
    "final_address": "11236 King Richard Dr",
    "address_councildis": "E",
    "status": "Assigned to Contractor",
    "contractor": "Waste Pro",
    "rowid": "1201969",
    "final_x": "3717103.43205",
    "final_y": "556369.646426",
    "longitude": "-89.95470477688602",
    "latitude": "30.02269365218227",
    "geocoded_column": {
      "latitude": "30.02269365218227",
      "longitude": "-89.95470477688602"
    }
  },
  {
    "service_request": "2025-1201968",
    "request_type": "Trash/Recycling",
    "request_reason": "Request a Large Item Pick Up",
    "date_created": "2025-06-17T14:49:18.000",
    "date_modified": "2025-06-17T14:49:20.000",
    "request_status": "Pending",
    "responsible_agency": "Department of Sanitation",
    "final_address": "11244 King Richard Dr",
    "address_councildis": "E",
    "status": "Assigned to Contractor",
    "contractor": "Waste Pro",
    "rowid": "1201968",
    "final_x": "3717159.37068",
    "final_y": "556382.175514",
    "longitude": "-89.95452754956872",
    "latitude": "30.02272625148785",
    "geocoded_column": {
      "latitude": "30.02272625148785",
      "longitude": "-89.95452754956872"
    }
  },
  {
    "service_request": "2025-1201967",
    "request_type": "Abandoned Vehicles",
    "request_reason": "Abandoned/Junk Vehicles",
    "date_created": "2025-06-17T14:47:43.000",
    "date_modified": "2025-06-17T14:47:45.000",
    "request_status": "Pending",
    "responsible_agency": "Department of Public Works",
    "final_address": "4300 BLK N Derbigny St",
    "address_councildis": "D",
    "status": "Pending",
    "rowid": "1201967",
    "final_x": "3693419.58064",
    "final_y": "537287.501984",
    "longitude": "-90.03022563065153",
    "latitude": "29.970986992730847",
    "geocoded_column": {
      "latitude": "29.970986992730847",
      "longitude": "-90.03022563065153"
    }
  },
  {
    "service_request": "2025-1201966",
    "request_type": "Roads and Streets",
    "request_reason": "Pothole",
    "date_created": "2025-06-17T14:46:15.000",
    "date_modified": "2025-06-17T14:56:20.000",
    "case_close_date": "2025-06-17T09:53:16.000",
    "request_status": "Pending",
    "responsible_agency": "Department of Public Works",
    "final_address": "1630 Baronne St",
    "address_councildis": "B",
    "status": "Pending",
    "rowid": "1201966",
    "final_x": "3678161.25109",
    "final_y": "525513.456061",
    "longitude": "-90.07882054488859",
    "latitude": "29.93908063850299",
    "geocoded_column": {
      "latitude": "29.93908063850299",
      "longitude": "-90.07882054488859"
    }
  },
  {
    "service_request": "2025-1201965",
    "request_type": "Street and Traffic Signs",
    "request_reason": "Disabled Parking Sign Missing or Damaged",
    "date_created": "2025-06-17T14:44:37.000",
    "date_modified": "2025-06-17T14:45:45.000",
    "request_status": "Pending",
    "responsible_agency": "Department of Public Works",
    "final_address": "8616 Nelson St",
    "address_councildis": "A",
    "status": "Pending",
    "rowid": "1201965",
    "final_x": "3663680.15104",
    "final_y": "533103.19482",
    "longitude": "-90.12428649948909",
    "latitude": "29.960377975992373",
    "geocoded_column": {
      "latitude": "29.960377975992373",
      "longitude": "-90.12428649948909"
    }
  },
  {
    "service_request": "2025-1201964",
    "request_type": "Trash/Recycling",
    "request_reason": "Request a Large Item Pick Up",
    "date_created": "2025-06-17T14:42:21.000",
    "date_modified": "2025-06-17T14:42:23.000",
    "request_status": "Pending",
    "responsible_agency": "Department of Sanitation",
    "final_address": "6951 W Laverne St",
    "address_councildis": "D",
    "status": "Assigned to Contractor",
    "contractor": "Waste Pro",
    "rowid": "1201964",
    "final_x": "3695987.79709",
    "final_y": "556505.172378",
    "longitude": "-90.02142002961607",
    "latitude": "30.023747949270817",
    "geocoded_column": {
      "latitude": "30.023747949270817",
      "longitude": "-90.02142002961607"
    }
  },
  {
    "service_request": "2025-1201963",
    "request_type": "Trash/Recycling",
    "request_reason": "Request a Large Item Pick Up",
    "date_created": "2025-06-17T14:41:35.000",
    "date_modified": "2025-06-17T14:41:38.000",
    "request_status": "Pending",
    "responsible_agency": "Department of Sanitation",
    "final_address": "1937 Allen St",
    "address_councildis": "D",
    "status": "Assigned to Contractor",
    "contractor": "IV Waste",
    "rowid": "1201963",
    "final_x": "3682552.33116",
    "final_y": "539370.938506",
    "longitude": "-90.06447292232423",
    "latitude": "29.977051068522695",
    "geocoded_column": {
      "latitude": "29.977051068522695",
      "longitude": "-90.06447292232423"
    }
  },
  {
    "service_request": "2025-1201962",
    "request_type": "Trash/Recycling",
    "request_reason": "Request a Large Item Pick Up",
    "date_created": "2025-06-17T14:39:14.000",
    "date_modified": "2025-06-17T14:39:17.000",
    "request_status": "Pending",
    "responsible_agency": "Department of Sanitation",
    "final_address": "4758 Francis Dr",
    "address_councildis": "D",
    "status": "Assigned to Contractor",
    "contractor": "Waste Pro",
    "rowid": "1201962",
    "final_x": "3698183.4264",
    "final_y": "554517.313688",
    "longitude": "-90.01455461110969",
    "latitude": "30.018212789295934",
    "geocoded_column": {
      "latitude": "30.018212789295934",
      "longitude": "-90.01455461110969"
    }
  },
  {
    "service_request": "2025-1201961",
    "request_type": "Trash/Recycling",
    "request_reason": "Order Trash Cart",
    "date_created": "2025-06-17T14:37:38.000",
    "date_modified": "2025-06-17T14:37:40.000",
    "request_status": "Pending",
    "responsible_agency": "Department of Sanitation",
    "final_address": "1323 Mandeville St",
    "address_councildis": "C",
    "status": "Assigned to Contractor",
    "contractor": "IV Waste",
    "rowid": "1201961",
    "final_x": "3685737.62569",
    "final_y": "537298.03348",
    "longitude": "-90.05448582472232",
    "latitude": "29.971253932761893",
    "geocoded_column": {
      "latitude": "29.971253932761893",
      "longitude": "-90.05448582472232"
    }
  },
  {
    "service_request": "2025-1201960",
    "request_type": "Trash/Recycling",
    "request_reason": "Request a Large Item Pick Up",
    "date_created": "2025-06-17T14:35:24.000",
    "date_modified": "2025-06-17T14:35:26.000",
    "request_status": "Pending",
    "responsible_agency": "Department of Sanitation",
    "final_address": "5705 Wingate Dr",
    "address_councildis": "D",
    "status": "Assigned to Contractor",
    "contractor": "IV Waste",
    "rowid": "1201960",
    "final_x": "3681359.70671",
    "final_y": "553770.460055",
    "longitude": "-90.06773729776076",
    "latitude": "30.01668089216634",
    "geocoded_column": {
      "latitude": "30.01668089216634",
      "longitude": "-90.06773729776076"
    }
  },
  {
    "service_request": "2025-1201959",
    "request_type": "Trash/Recycling",
    "request_reason": "Request a Large Item Pick Up",
    "date_created": "2025-06-17T14:35:15.000",
    "date_modified": "2025-06-17T14:35:17.000",
    "request_status": "Pending",
    "responsible_agency": "Department of Sanitation",
    "final_address": "6638 Orleans Ave",
    "address_councildis": "A",
    "status": "Assigned to Contractor",
    "contractor": "IV Waste",
    "rowid": "1201959",
    "final_x": "3671187.53799",
    "final_y": "551451.611605",
    "longitude": "-90.09995598972628",
    "latitude": "30.010609887960953",
    "geocoded_column": {
      "latitude": "30.010609887960953",
      "longitude": "-90.09995598972628"
    }
  },
  {
    "service_request": "2025-1201958",
    "request_type": "Abandoned Vehicles",
    "request_reason": "Abandoned/Junk Vehicles",
    "date_created": "2025-06-17T14:33:54.000",
    "date_modified": "2025-06-17T14:44:54.000",
    "request_status": "Pending",
    "responsible_agency": "Department of Public Works",
    "final_address": "GRAVIER ST & LOYOLA AVE",
    "address_councildis": "B",
    "status": "Inspected",
    "rowid": "1201958",
    "final_x": "3679188.1",
    "final_y": "530787.08",
    "longitude": "-90.07539587633175",
    "latitude": "29.95355039196535",
    "geocoded_column": {
      "latitude": "29.95355039196535",
      "longitude": "-90.07539587633175"
    }
  },
  {
    "service_request": "2025-1201957",
    "request_type": "Roads and Streets",
    "request_reason": "Street Subsidence (Sinking)",
    "date_created": "2025-06-17T14:26:01.000",
    "date_modified": "2025-06-17T14:26:03.000",
    "request_status": "Pending",
    "responsible_agency": "Department of Public Works",
    "final_address": "ALVAR ST & FLORIDA AVE",
    "address_councildis": "D",
    "status": "Pending",
    "rowid": "1201957",
    "final_x": "3693024.3",
    "final_y": "541525.38",
    "longitude": "-90.03132189428443",
    "latitude": "29.98265199802295",
    "geocoded_column": {
      "latitude": "29.98265199802295",
      "longitude": "-90.03132189428443"
    }
  },
  {
    "service_request": "2025-1201956",
    "request_type": "Trash/Recycling",
    "request_reason": "Request a Large Item Pick Up",
    "date_created": "2025-06-17T14:24:00.000",
    "date_modified": "2025-06-17T14:24:02.000",
    "request_status": "Pending",
    "responsible_agency": "Department of Sanitation",
    "final_address": "7169 Parkside Ct",
    "address_councildis": "E",
    "status": "Assigned to Contractor",
    "contractor": "Waste Pro",
    "rowid": "1201956",
    "final_x": "3704391.8794",
    "final_y": "560507.756126",
    "longitude": "-89.99471726024105",
    "latitude": "30.03448624598184",
    "geocoded_column": {
      "latitude": "30.03448624598184",
      "longitude": "-89.99471726024105"
    }
  },
  {
    "service_request": "2025-1201955",
    "request_type": "Roads and Streets",
    "request_reason": "Sidewalk Damaged or Missing",
    "date_created": "2025-06-17T14:23:23.000",
    "date_modified": "2025-06-17T14:23:25.000",
    "request_status": "Pending",
    "responsible_agency": "Department of Public Works",
    "final_address": "600 BLK Decatur St",
    "address_councildis": "C",
    "status": "Pending",
    "rowid": "1201955",
    "final_x": "3682991.75176",
    "final_y": "531758.533055",
    "longitude": "-90.0633515640523",
    "latitude": "29.95610619003354",
    "geocoded_column": {
      "latitude": "29.95610619003354",
      "longitude": "-90.0633515640523"
    }
  },
  {
    "service_request": "2025-1201954",
    "request_type": "Drainage",
    "request_reason": "Catch Basin Clogged",
    "date_created": "2025-06-17T14:18:16.000",
    "date_modified": "2025-06-17T14:18:18.000",
    "request_status": "Pending",
    "responsible_agency": "Sewerage & Water Board",
    "final_address": "400 Dauphine St",
    "address_councildis": "C",
    "status": "Pending",
    "rowid": "1201954",
    "final_x": "3681351.87874",
    "final_y": "532037.492419",
    "longitude": "-90.0685199976539",
    "latitude": "29.956923107885665",
    "geocoded_column": {
      "latitude": "29.956923107885665",
      "longitude": "-90.0685199976539"
    }
  },
  {
    "service_request": "2025-1201952",
    "request_type": "Property Maintenance",
    "request_reason": "Property Maintenance",
    "date_created": "2025-06-17T14:14:59.000",
    "date_modified": "2025-06-17T14:15:01.000",
    "request_status": "Pending",
    "responsible_agency": "Department of Code Enforcement",
    "final_address": "5198 Bayouview Ct",
    "address_councildis": "E",
    "status": "Pending",
    "rowid": "1201952",
    "final_x": "3699292.54602",
    "final_y": "556549.15305",
    "longitude": "-90.01097614210998",
    "latitude": "30.023764426851404",
    "geocoded_column": {
      "latitude": "30.023764426851404",
      "longitude": "-90.01097614210998"
    }
  },
  {
    "service_request": "2025-1201953",
    "request_type": "Trash/Recycling",
    "request_reason": "Request a Large Item Pick Up",
    "date_created": "2025-06-17T14:14:59.000",
    "date_modified": "2025-06-17T14:15:50.000",
    "request_status": "Pending",
    "responsible_agency": "Department of Sanitation",
    "final_address": "8330 Curran Rd",
    "address_councildis": "E",
    "status": "Assigned to Contractor",
    "contractor": "Waste Pro",
    "rowid": "1201953",
    "final_x": "3703174.39582",
    "final_y": "562011.511327",
    "longitude": "-89.99850929324624",
    "latitude": "30.038660035961524",
    "geocoded_column": {
      "latitude": "30.038660035961524",
      "longitude": "-89.99850929324624"
    }
  },
  {
    "service_request": "2025-1201951",
    "request_type": "Trash/Recycling",
    "request_reason": "Request a Large Item Pick Up",
    "date_created": "2025-06-17T14:13:49.000",
    "date_modified": "2025-06-17T14:14:07.000",
    "request_status": "Pending",
    "responsible_agency": "Department of Sanitation",
    "final_address": "8320 Curran Rd",
    "address_councildis": "E",
    "status": "Assigned to Contractor",
    "contractor": "Waste Pro",
    "rowid": "1201951",
    "final_x": "3703118.63063",
    "final_y": "561984.555615",
    "longitude": "-89.99868651742396",
    "latitude": "30.038587704438676",
    "geocoded_column": {
      "latitude": "30.038587704438676",
      "longitude": "-89.99868651742396"
    }
  },
  {
    "service_request": "2025-1201950",
    "request_type": "Abandoned Vehicles",
    "request_reason": "Abandoned/Junk Vehicles",
    "date_created": "2025-06-17T14:10:00.000",
    "date_modified": "2025-06-17T14:10:01.000",
    "request_status": "Pending",
    "responsible_agency": "Department of Public Works",
    "final_address": "4818 Francis Dr",
    "address_councildis": "D",
    "status": "Pending",
    "rowid": "1201950",
    "final_x": "3698169.5953",
    "final_y": "554743.366168",
    "longitude": "-90.01459009179231",
    "latitude": "30.01883478560003",
    "geocoded_column": {
      "latitude": "30.01883478560003",
      "longitude": "-90.01459009179231"
    }
  },
  {
    "service_request": "2025-1201949",
    "request_type": "Abandoned Vehicles",
    "request_reason": "Abandoned/Junk Vehicles",
    "date_created": "2025-06-17T14:08:03.000",
    "date_modified": "2025-06-17T14:10:41.000",
    "request_status": "Pending",
    "responsible_agency": "Department of Public Works",
    "final_address": "4318 Bienville Ave",
    "address_councildis": "A",
    "status": "Pending",
    "rowid": "1201949",
    "final_x": "3670570.77441",
    "final_y": "539639.801418",
    "longitude": "-90.10230551324001",
    "latitude": "29.978149732444468",
    "geocoded_column": {
      "latitude": "29.978149732444468",
      "longitude": "-90.10230551324001"
    }
  },
  {
    "service_request": "2025-1201948",
    "request_type": "Streetlights",
    "request_reason": "Streetlight Outage/Malfunction",
    "date_created": "2025-06-17T14:06:56.000",
    "date_modified": "2025-06-17T14:06:58.000",
    "request_status": "Pending",
    "responsible_agency": "Department of Public Works",
    "final_address": "400 Lowerline St",
    "address_councildis": "A",
    "status": "Pending",
    "contractor": "Legacy Professional Services",
    "rowid": "1201948",
    "final_x": "3661695.8096",
    "final_y": "523932.827196",
    "longitude": "-90.13085656963732",
    "latitude": "29.93521982314546",
    "geocoded_column": {
      "latitude": "29.93521982314546",
      "longitude": "-90.13085656963732"
    }
  },
  {
    "service_request": "2025-1201947",
    "request_type": "Drainage",
    "request_reason": "Catch Basin Clogged",
    "date_created": "2025-06-17T14:05:41.000",
    "date_modified": "2025-06-17T14:05:42.000",
    "request_status": "Pending",
    "responsible_agency": "Sewerage & Water Board",
    "final_address": "400 Dauphine St",
    "address_councildis": "C",
    "status": "Pending",
    "rowid": "1201947",
    "final_x": "3681351.87874",
    "final_y": "532037.492419",
    "longitude": "-90.0685199976539",
    "latitude": "29.956923107885665",
    "geocoded_column": {
      "latitude": "29.956923107885665",
      "longitude": "-90.0685199976539"
    }
  },
  {
    "service_request": "2025-1201946",
    "request_type": "Trash/Recycling",
    "request_reason": "Request a Large Item Pick Up",
    "date_created": "2025-06-17T14:03:57.000",
    "date_modified": "2025-06-17T14:03:59.000",
    "request_status": "Pending",
    "responsible_agency": "Department of Sanitation",
    "final_address": "7567 Horizon Ct",
    "address_councildis": "E",
    "status": "Assigned to Contractor",
    "contractor": "Waste Pro",
    "rowid": "1201946",
    "final_x": "3725688.6007",
    "final_y": "569648.311206",
    "longitude": "-89.9270631104813",
    "latitude": "30.058917672510685",
    "geocoded_column": {
      "latitude": "30.058917672510685",
      "longitude": "-89.9270631104813"
    }
  },
  {
    "service_request": "2025-1201945",
    "request_type": "Streetlights",
    "request_reason": "Streetlight Outage/Malfunction",
    "date_created": "2025-06-17T14:03:57.000",
    "date_modified": "2025-06-17T14:03:58.000",
    "request_status": "Pending",
    "responsible_agency": "Department of Public Works",
    "final_address": "812 Bourbon St",
    "address_councildis": "C",
    "status": "Pending",
    "contractor": "Legacy Professional Services",
    "rowid": "1201945",
    "final_x": "3682594.6669",
    "final_y": "533056.043716",
    "longitude": "-90.06456005485782",
    "latitude": "29.959685997433304",
    "geocoded_column": {
      "latitude": "29.959685997433304",
      "longitude": "-90.06456005485782"
    }
  },
  {
    "service_request": "2025-1201944",
    "request_type": "Streetlights",
    "request_reason": "Streetlight Knocked Down/Leaning",
    "date_created": "2025-06-17T14:02:32.000",
    "date_modified": "2025-06-17T14:05:00.000",
    "request_status": "Pending",
    "responsible_agency": "Department of Public Works",
    "final_address": "5400 BLK N Claiborne Ave",
    "address_councildis": "E",
    "status": "Pending",
    "contractor": "Legacy Professional Services",
    "rowid": "1201944",
    "final_x": "3697908.82232",
    "final_y": "535643.093856",
    "longitude": "-90.01610780327857",
    "latitude": "29.96632431518887",
    "geocoded_column": {
      "latitude": "29.96632431518887",
      "longitude": "-90.01610780327857"
    }
  },
  {
    "service_request": "2025-1201943",
    "request_type": "Drainage",
    "request_reason": "Catch Basin Clogged",
    "date_created": "2025-06-17T14:01:23.000",
    "date_modified": "2025-06-17T14:01:25.000",
    "request_status": "Pending",
    "responsible_agency": "Sewerage & Water Board",
    "final_address": "3409 Audubon Ct",
    "address_councildis": "B",
    "status": "Pending",
    "rowid": "1201943",
    "final_x": "3668915.63764",
    "final_y": "532768.466948",
    "longitude": "-90.10776516387654",
    "latitude": "29.95930464709613",
    "geocoded_column": {
      "latitude": "29.95930464709613",
      "longitude": "-90.10776516387654"
    }
  },
  {
    "service_request": "2025-1201942",
    "request_type": "Roads and Streets",
    "request_reason": "Sidewalk Damaged or Missing",
    "date_created": "2025-06-17T13:59:39.000",
    "date_modified": "2025-06-17T13:59:41.000",
    "request_status": "Pending",
    "responsible_agency": "Department of Public Works",
    "final_address": "1015 Esplanade Ave",
    "address_councildis": "C",
    "status": "Pending",
    "rowid": "1201942",
    "final_x": "3683113.34594",
    "final_y": "535212.507718",
    "longitude": "-90.0628466826078",
    "latitude": "29.965599731145804",
    "geocoded_column": {
      "latitude": "29.965599731145804",
      "longitude": "-90.0628466826078"
    }
  },
  {
    "service_request": "2025-1201941",
    "request_type": "Abandoned Vehicles",
    "request_reason": "Abandoned/Junk Vehicles",
    "date_created": "2025-06-17T13:59:13.000",
    "date_modified": "2025-06-17T13:59:14.000",
    "request_status": "Pending",
    "responsible_agency": "Department of Public Works",
    "final_address": "1230 N Broad St",
    "address_councildis": "D",
    "status": "Pending",
    "rowid": "1201941",
    "final_x": "3678024.13275",
    "final_y": "538599.677385",
    "longitude": "-90.07880110609337",
    "latitude": "29.975067466381123",
    "geocoded_column": {
      "latitude": "29.975067466381123",
      "longitude": "-90.07880110609337"
    }
  },
  {
    "service_request": "2025-1201940",
    "request_type": "Traffic Signals",
    "request_reason": "Traffic Signal Malfunctioning or Damaged",
    "date_created": "2025-06-17T13:58:33.000",
    "date_modified": "2025-06-17T13:58:35.000",
    "request_status": "Pending",
    "responsible_agency": "Department of Public Works",
    "final_address": "S CARROLLTON AVE & ULLOA ST",
    "address_councildis": "A",
    "status": "Pending",
    "rowid": "1201940",
    "final_x": "3669505.3",
    "final_y": "536597.98",
    "longitude": "-90.10577359477857",
    "latitude": "29.96981717884046",
    "geocoded_column": {
      "latitude": "29.96981717884046",
      "longitude": "-90.10577359477857"
    }
  },
  {
    "service_request": "2025-1201939",
    "request_type": "Drainage",
    "request_reason": "Drainage Manhole Cover Missing or Damaged",
    "date_created": "2025-06-17T13:58:31.000",
    "date_modified": "2025-06-17T13:58:33.000",
    "request_status": "Pending",
    "responsible_agency": "Sewerage & Water Board",
    "final_address": "1440 Canal St",
    "address_councildis": "B",
    "status": "Pending",
    "rowid": "1201939",
    "final_x": "3679172.53557",
    "final_y": "532097.942595",
    "longitude": "-90.07539958154901",
    "latitude": "29.957155292057504",
    "geocoded_column": {
      "latitude": "29.957155292057504",
      "longitude": "-90.07539958154901"
    }
  },
  {
    "service_request": "2025-1201938",
    "request_type": "Drainage",
    "request_reason": "Catch Basin Clogged",
    "date_created": "2025-06-17T13:58:16.000",
    "date_modified": "2025-06-17T13:58:17.000",
    "request_status": "Pending",
    "responsible_agency": "Sewerage & Water Board",
    "final_address": "400 BLK Dauphine St",
    "address_councildis": "C",
    "status": "Pending",
    "rowid": "1201938",
    "final_x": "3681420.7362",
    "final_y": "532160.341963",
    "longitude": "-90.06829828489722",
    "latitude": "29.95725881229516",
    "geocoded_column": {
      "latitude": "29.95725881229516",
      "longitude": "-90.06829828489722"
    }
  },
  {
    "service_request": "2025-1201937",
    "request_type": "Parks & Parkways",
    "request_reason": "Request Tree Service (Right of Way/Public Property)",
    "date_created": "2025-06-17T13:57:56.000",
    "date_modified": "2025-06-17T13:57:57.000",
    "request_status": "Pending",
    "responsible_agency": "Department of Parks & Parkway",
    "final_address": "729 Harrison Ave",
    "address_councildis": "A",
    "status": "Pending",
    "rowid": "1201937",
    "final_x": "3668951.66817",
    "final_y": "549383.324627",
    "longitude": "-90.10708991488733",
    "latitude": "30.004988808161826",
    "geocoded_column": {
      "latitude": "30.004988808161826",
      "longitude": "-90.10708991488733"
    }
  },
  {
    "service_request": "2025-1201936",
    "request_type": "Trash/Recycling",
    "request_reason": "MIssed Recycling Pick-Up",
    "date_created": "2025-06-17T13:57:54.000",
    "date_modified": "2025-06-17T14:22:48.000",
    "case_close_date": "2025-06-17T09:22:47.000",
    "request_status": "Closed",
    "responsible_agency": "Department of Sanitation",
    "final_address": "7316 Birch St Apt 2A",
    "address_councildis": "A",
    "status": "Invalid Request",
    "contractor": "IV Waste",
    "contractor_action": "Invalid",
    "rowid": "1201936",
    "final_x": "3664557.50426",
    "final_y": "527878.605311",
    "longitude": "-90.12169044280645",
    "latitude": "29.9459865651226",
    "geocoded_column": {
      "latitude": "29.9459865651226",
      "longitude": "-90.12169044280645"
    }
  },
  {
    "service_request": "2025-1201935",
    "request_type": "Abandoned Vehicles",
    "request_reason": "Abandoned/Junk Vehicles",
    "date_created": "2025-06-17T13:55:39.000",
    "date_modified": "2025-06-17T13:56:38.000",
    "request_status": "Pending",
    "responsible_agency": "Department of Public Works",
    "final_address": "1707 Esplanade Ave",
    "address_councildis": "D",
    "status": "Pending",
    "rowid": "1201935",
    "final_x": "3680945.21794",
    "final_y": "536924.167048",
    "longitude": "-90.0696339263307",
    "latitude": "29.97037212949588",
    "geocoded_column": {
      "latitude": "29.97037212949588",
      "longitude": "-90.0696339263307"
    }
  },
  {
    "service_request": "2025-1201934",
    "request_type": "Trash/Recycling",
    "request_reason": "Request a Large Item Pick Up",
    "date_created": "2025-06-17T13:54:49.000",
    "date_modified": "2025-06-17T13:54:51.000",
    "request_status": "Pending",
    "responsible_agency": "Department of Sanitation",
    "final_address": "9900 E Wheaton Cir",
    "address_councildis": "E",
    "status": "Assigned to Contractor",
    "contractor": "Waste Pro",
    "rowid": "1201934",
    "final_x": "3709202.15787",
    "final_y": "562631.75184",
    "longitude": "-89.97943693575642",
    "latitude": "30.040170996519738",
    "geocoded_column": {
      "latitude": "30.040170996519738",
      "longitude": "-89.97943693575642"
    }
  },
  {
    "service_request": "2025-1201933",
    "request_type": "Trash/Recycling",
    "request_reason": "Illegal Dumping",
    "date_created": "2025-06-17T13:52:46.000",
    "date_modified": "2025-06-17T13:52:48.000",
    "request_status": "Pending",
    "responsible_agency": "Department of Sanitation",
    "final_address": "3408 Jackson Ave",
    "address_councildis": "B",
    "status": "Pending",
    "rowid": "1201933",
    "final_x": "3673622.86862",
    "final_y": "528802.645696",
    "longitude": "-90.09303638554924",
    "latitude": "29.9482606763099",
    "geocoded_column": {
      "latitude": "29.9482606763099",
      "longitude": "-90.09303638554924"
    }
  },
  {
    "service_request": "2025-1201932",
    "request_type": "Trash/Recycling",
    "request_reason": "Damaged Caused By Contractor",
    "date_created": "2025-06-17T13:50:31.000",
    "date_modified": "2025-06-17T13:50:33.000",
    "request_status": "Pending",
    "responsible_agency": "Department of Sanitation",
    "final_address": "313 Opelousas Ave",
    "address_councildis": "C",
    "status": "Assigned to Contractor",
    "contractor": "Richards Disposal",
    "rowid": "1201932",
    "final_x": "3686239.45634",
    "final_y": "528967.884416",
    "longitude": "-90.05319488874494",
    "latitude": "29.948333484712226",
    "geocoded_column": {
      "latitude": "29.948333484712226",
      "longitude": "-90.05319488874494"
    }
  },
  {
    "service_request": "2025-1201931",
    "request_type": "Trash/Recycling",
    "request_reason": "Request a Large Item Pick Up",
    "date_created": "2025-06-17T13:50:30.000",
    "date_modified": "2025-06-17T13:50:32.000",
    "request_status": "Pending",
    "responsible_agency": "Department of Sanitation",
    "final_address": "8720 Hickory St",
    "address_councildis": "A",
    "status": "Assigned to Contractor",
    "contractor": "IV Waste",
    "rowid": "1201931",
    "final_x": "3661646.9481",
    "final_y": "531455.816195",
    "longitude": "-90.13076156623289",
    "latitude": "29.955907051901747",
    "geocoded_column": {
      "latitude": "29.955907051901747",
      "longitude": "-90.13076156623289"
    }
  },