[
  {
    "service_request": "2023-1027812",
    "request_type": "Roads/Drainage",
    "request_reason": "Pothole",
    "date_created": "2023-08-19T23:58:53.000",
    "date_modified": "2023-08-19T23:58:53.000",
    "request_status": "Pending",
    "responsible_agency": "Department of Public Works",
    "final_address": "1424 Valmont St",
    "address_councildis": "B",
    "status": "Pending",
    "rowid": "1027812",
    "final_x": "3667643.52897",
    "final_y": "520415.550008",
    "longitude": "-90.11219790077504",
    "latitude": "29.925375463871653",
    "geocoded_column": {
      "latitude": "29.925375463871653",
      "longitude": "-90.11219790077504"
    }
  },
  {
    "service_request": "2023-1027811",
    "request_type": "Traffic Signals/Signs/Striping/Streetlights",
    "request_reason": "Street Light Outage/Malfunction",
    "date_created": "2023-08-19T23:49:02.000",
    "date_modified": "2023-08-19T23:49:03.000",
    "request_status": "Pending",
    "responsible_agency": "Department of Public Works",
    "final_address": "5115 Baronne St",
    "address_councildis": "B",
    "status": "Assigned to Contractor",
    "contractor": "Legacy Professional Services",
    "rowid": "1027811",
    "final_x": "3668279.27527",
    "final_y": "521492.597433",
    "longitude": "-90.11015474825568",
    "latitude": "29.928318357272406",
    "geocoded_column": {
      "latitude": "29.928318357272406",
      "longitude": "-90.11015474825568"
    }
  },
  {
    "service_request": "2023-1027810",
    "request_type": "Traffic Signals/Signs/Striping/Streetlights",
    "request_reason": "Traffic Signal Malfunctioning/Damaged",
    "date_created": "2023-08-19T22:56:01.000",
    "date_modified": "2023-08-19T22:56:01.000",
    "request_status": "Pending",
    "responsible_agency": "Department of Public Works",
    "final_address": "ESPLANADE AVE & N BROAD ST",
    "address_councildis": "A",
    "status": "Pending",
    "rowid": "1027810",
    "final_x": "3678149.22",
    "final_y": "538964.74",
    "longitude": "-90.07839342059656",
    "latitude": "29.976067496615002",
    "geocoded_column": {
      "latitude": "29.976067496615002",
      "longitude": "-90.07839342059656"
    }
  },
  {
    "service_request": "2023-1027809",
    "request_type": "Traffic Signals/Signs/Striping/Streetlights",
    "request_reason": "Street Name Sign Damaged or Missing",
    "date_created": "2023-08-19T22:17:36.000",
    "date_modified": "2023-08-19T22:17:36.000",
    "request_status": "Pending",
    "responsible_agency": "Department of Public Works",
    "final_address": "1131 General Pershing St",
    "address_councildis": "B",
    "status": "Pending",
    "rowid": "1027809",
    "final_x": "3671416.3778",
    "final_y": "519794.4046",
    "longitude": "-90.10030926903697",
    "latitude": "29.923556415029356",
    "geocoded_column": {
      "latitude": "29.923556415029356",
      "longitude": "-90.10030926903697"
    }
  },
  {
    "service_request": "2023-1027808",
    "request_type": "Roads/Drainage",
    "request_reason": "Pothole",
    "date_created": "2023-08-19T21:48:40.000",
    "date_modified": "2023-08-19T21:48:40.000",
    "request_status": "Pending",
    "responsible_agency": "Department of Public Works",
    "final_address": "1422 General Pershing St",
    "address_councildis": "B",
    "status": "Pending",
    "rowid": "1027808",
    "final_x": "3671239.44116",
    "final_y": "520532.324984",
    "longitude": "-90.10084273889387",
    "latitude": "29.925590694745555",
    "geocoded_column": {
      "latitude": "29.925590694745555",
      "longitude": "-90.10084273889387"
    }
  },
  {
    "service_request": "2023-1027807",
    "request_type": "Trash/Recycling",
    "request_reason": "Missed Trash Pick-Up",
    "date_created": "2023-08-19T21:20:10.000",
    "date_modified": "2023-08-19T21:20:11.000",
    "request_status": "Pending",
    "responsible_agency": "Department of Sanitation",
    "final_address": "5705 Willow St",
    "address_councildis": "A",
    "status": "Assigned to Contractor",
    "contractor": "Richards Disposal",
    "rowid": "1027807",
    "final_x": "3667520.01556",
    "final_y": "525484.605565",
    "longitude": "-90.11241729675683",
    "latitude": "29.93931736867204",
    "geocoded_column": {
      "latitude": "29.93931736867204",
      "longitude": "-90.11241729675683"
    }
  },
  {
    "service_request": "2023-1027804",
    "request_type": "Trash/Recycling",
    "request_reason": "Request a Large Item Pick Up",
    "date_created": "2023-08-19T20:57:04.000",
    "date_modified": "2023-08-19T20:57:05.000",
    "request_status": "Pending",
    "responsible_agency": "Department of Sanitation",
    "final_address": "55 Grand Canyon Dr",
    "address_councildis": "C",
    "status": "Assigned to Contractor",
    "contractor": "Richards Disposal",
    "rowid": "1027804",
    "final_x": "3699152.87946",
    "final_y": "516390.312821",
    "longitude": "-90.01287976682167",
    "latitude": "29.913346492029135",
    "geocoded_column": {
      "latitude": "29.913346492029135",
      "longitude": "-90.01287976682167"
    }
  },
  {
    "service_request": "2023-1027803",
    "request_type": "Trash/Recycling",
    "request_reason": "Replace Trash Cart",
    "date_created": "2023-08-19T20:56:07.000",
    "date_modified": "2023-08-19T20:56:09.000",
    "request_status": "Pending",
    "responsible_agency": "Department of Sanitation",
    "final_address": "2322 Camp St",
    "address_councildis": "B",
    "status": "Assigned to Contractor",
    "contractor": "Richards Disposal",
    "rowid": "1027803",
    "final_x": "3678178.37538",
    "final_y": "521993.739898",
    "longitude": "-90.07888813542188",
    "latitude": "29.92940205926746",
    "geocoded_column": {
      "latitude": "29.92940205926746",
      "longitude": "-90.07888813542188"
    }
  },
  {
    "service_request": "2023-1027802",
    "request_type": "Roads/Drainage",
    "request_reason": "Catch Basin - Broken/Damage",
    "date_created": "2023-08-19T20:37:47.000",
    "date_modified": "2023-08-19T20:37:47.000",
    "request_status": "Pending",
    "responsible_agency": "Department of Public Works",
    "final_address": "2533 Jefferson Ave",
    "address_councildis": "B",
    "status": "Pending",
    "rowid": "1027802",
    "final_x": "3668180.9522",
    "final_y": "524897.851068",
    "longitude": "-90.11035040002281",
    "latitude": "29.93768460170928",
    "geocoded_column": {
      "latitude": "29.93768460170928",
      "longitude": "-90.11035040002281"
    }
  },
  {
    "service_request": "2023-1027801",
    "request_type": "Trash/Recycling",
    "request_reason": "Replace Trash Cart",
    "date_created": "2023-08-19T20:05:37.000",
    "date_modified": "2023-08-19T20:05:38.000",
    "request_status": "Pending",
    "responsible_agency": "Department of Sanitation",
    "final_address": "200 Forest Oaks Dr",
    "address_councildis": "C",
    "status": "Assigned to Contractor",
    "contractor": "Richards Disposal",
    "rowid": "1027801",
    "final_x": "3722561.62815",
    "final_y": "510715.908143",
    "longitude": "-89.93921349610555",
    "latitude": "29.89698140195295",
    "geocoded_column": {
      "latitude": "29.89698140195295",
      "longitude": "-89.93921349610555"
    }
  },
  {
    "service_request": "2023-1027799",
    "request_type": "Property Maintenance",
    "request_reason": "Property Maintenance",
    "date_created": "2023-08-19T19:27:45.000",
    "date_modified": "2023-08-19T19:27:45.000",
    "request_status": "Pending",
    "responsible_agency": "Department of Code Enforcement",
    "final_address": "6736 Dorian St",
    "address_councildis": "D",
    "status": "Pending",
    "rowid": "1027799",
    "final_x": "3696327.93149",
    "final_y": "556039.715545",
    "longitude": "-90.02036213100162",
    "latitude": "30.022457407328954",
    "geocoded_column": {
      "latitude": "30.022457407328954",
      "longitude": "-90.02036213100162"
    }
  },
  {
    "service_request": "2023-1027798",
    "request_type": "Property Maintenance",
    "request_reason": "Property Maintenance",
    "date_created": "2023-08-19T19:24:46.000",
    "date_modified": "2023-08-19T19:24:46.000",
    "request_status": "Pending",
    "responsible_agency": "Department of Code Enforcement",
    "final_address": "6736 Dorian St",
    "address_councildis": "D",
    "status": "Pending",
    "rowid": "1027798",
    "final_x": "3696327.93149",
    "final_y": "556039.715545",
    "longitude": "-90.02036213100162",
    "latitude": "30.022457407328954",
    "geocoded_column": {
      "latitude": "30.022457407328954",
      "longitude": "-90.02036213100162"
    }
  },
  {
    "service_request": "2023-1027797",
    "request_type": "Traffic Signals/Signs/Striping/Streetlights",
    "request_reason": "Traffic Signal Malfunctioning/Damaged",
    "date_created": "2023-08-19T19:18:25.000",
    "date_modified": "2023-08-19T19:18:25.000",
    "request_status": "Pending",
    "responsible_agency": "Department of Public Works",
    "final_address": "2832 General Meyer Ave",
    "address_councildis": "C",
    "status": "Pending",
    "rowid": "1027797",
    "final_x": "3694662.32048",
    "final_y": "527221.497599",
    "longitude": "-90.02666343192367",
    "latitude": "29.943270093520304",
    "geocoded_column": {
      "latitude": "29.943270093520304",
      "longitude": "-90.02666343192367"
    }
  },
  {
    "service_request": "2023-1027796",
    "request_type": "Trash/Recycling",
    "request_reason": "Request a Large Item Pick Up",
    "date_created": "2023-08-19T19:17:28.000",
    "date_modified": "2023-08-19T19:17:29.000",
    "request_status": "Pending",
    "responsible_agency": "Department of Sanitation",
    "final_address": "1664 Southlawn Blvd",
    "address_councildis": "C",
    "status": "Assigned to Contractor",
    "contractor": "Richards Disposal",
    "rowid": "1027796",
    "final_x": "3695189.90672",
    "final_y": "524959.359805",
    "longitude": "-90.02507926151331",
    "latitude": "29.937033441342617",
    "geocoded_column": {
      "latitude": "29.937033441342617",
      "longitude": "-90.02507926151331"
    }
  },
  {
    "service_request": "2023-1027795",
    "request_type": "Trash/Recycling",
    "request_reason": "Replace Trash Cart",
    "date_created": "2023-08-19T19:16:07.000",
    "date_modified": "2023-08-19T19:16:07.000",
    "request_status": "Pending",
    "responsible_agency": "Department of Sanitation",
    "final_address": "1239 Constance St",
    "address_councildis": "B",
    "status": "Assigned to Contractor",
    "contractor": "Richards Disposal",
    "rowid": "1027795",
    "final_x": "3680891.55976",
    "final_y": "525230.147517",
    "longitude": "-90.07021049543229",
    "latitude": "29.938219157181614",
    "geocoded_column": {
      "latitude": "29.938219157181614",
      "longitude": "-90.07021049543229"
    }
  },
  {
    "service_request": "2023-1027794",
    "request_type": "Trash/Recycling",
    "request_reason": "Request a Large Item Pick Up",
    "date_created": "2023-08-19T19:10:17.000",
    "date_modified": "2023-08-19T19:10:17.000",
    "request_status": "Pending",
    "responsible_agency": "Department of Sanitation",
    "final_address": "1229 Governor Nicholls St",
    "address_councildis": "C",
    "status": "Assigned to Contractor",
    "contractor": "Richards Disposal",
    "rowid": "1027794",
    "final_x": "3682014.20962",
    "final_y": "535274.299718",
    "longitude": "-90.06631555004992",
    "latitude": "29.965803102282084",
    "geocoded_column": {
      "latitude": "29.965803102282084",
      "longitude": "-90.06631555004992"
    }
  },
  {
    "service_request": "2023-1027793",
    "request_type": "Trash/Recycling",
    "request_reason": "Request a Large Item Pick Up",
    "date_created": "2023-08-19T18:45:53.000",
    "date_modified": "2023-08-19T18:45:54.000",
    "request_status": "Pending",
    "responsible_agency": "Department of Sanitation",
    "final_address": "816 N Miro St",
    "address_councildis": "D",
    "status": "Assigned to Contractor",
    "contractor": "Richards Disposal",
    "rowid": "1027793",
    "final_x": "3678409.00078",
    "final_y": "536276.708039",
    "longitude": "-90.07766599010996",
    "latitude": "29.968668505210115",
    "geocoded_column": {
      "latitude": "29.968668505210115",
      "longitude": "-90.07766599010996"
    }
  },
  {
    "service_request": "2023-1027792",
    "request_type": "Trash/Recycling",
    "request_reason": "Return Trash Cart",
    "date_created": "2023-08-19T18:15:19.000",
    "date_modified": "2023-08-19T18:15:20.000",
    "request_status": "Pending",
    "responsible_agency": "Department of Sanitation",
    "final_address": "2150 Timoleon St",
    "address_councildis": "D",
    "status": "Assigned to Contractor",
    "contractor": "IV Waste",
    "rowid": "1027792",
    "final_x": "3683496.12309",
    "final_y": "551051.480533",
    "longitude": "-90.06108252002572",
    "latitude": "30.00913963233658",
    "geocoded_column": {
      "latitude": "30.00913963233658",
      "longitude": "-90.06108252002572"
    }
  },
  {
    "service_request": "2023-1027791",
    "request_type": "Trash/Recycling",
    "request_reason": "Return Recycling Cart",
    "date_created": "2023-08-19T18:12:50.000",
    "date_modified": "2023-08-19T18:12:50.000",
    "request_status": "Pending",
    "responsible_agency": "Department of Sanitation",
    "final_address": "2150 Timoleon St",
    "address_councildis": "D",
    "status": "Pending",
    "rowid": "1027791",
    "final_x": "3683496.12309",
    "final_y": "551051.480533",
    "longitude": "-90.06108252002572",
    "latitude": "30.00913963233658",
    "geocoded_column": {
      "latitude": "30.00913963233658",
      "longitude": "-90.06108252002572"
    }
  },
  {
    "service_request": "2023-1027790",
    "request_type": "Trash/Recycling",
    "request_reason": "Replace Trash Cart",
    "date_created": "2023-08-19T18:12:03.000",
    "date_modified": "2023-08-19T18:12:04.000",
    "request_status": "Pending",
    "responsible_agency": "Department of Sanitation",
    "final_address": "25 Kings Canyon Dr",
    "address_councildis": "C",
    "status": "Assigned to Contractor",
    "contractor": "Richards Disposal",
    "rowid": "1027790",
    "final_x": "3699837.48317",
    "final_y": "515731.174516",
    "longitude": "-90.010742974815",
    "latitude": "29.911512374434192",
    "geocoded_column": {
      "latitude": "29.911512374434192",
      "longitude": "-90.010742974815"
    }
  },
  {
    "service_request": "2023-1027789",
    "request_type": "Trash/Recycling",
    "request_reason": "Replace Trash Cart",
    "date_created": "2023-08-19T18:09:14.000",
    "date_modified": "2023-08-19T18:09:15.000",
    "request_status": "Pending",
    "responsible_agency": "Department of Sanitation",
    "final_address": "25 Kings Canyon Dr",
    "address_councildis": "C",
    "status": "Assigned to Contractor",
    "contractor": "Richards Disposal",
    "rowid": "1027789",
    "final_x": "3699837.48317",
    "final_y": "515731.174516",
    "longitude": "-90.010742974815",
    "latitude": "29.911512374434192",
    "geocoded_column": {
      "latitude": "29.911512374434192",
      "longitude": "-90.010742974815"
    }
  },
  {
    "service_request": "2023-1027788",
    "request_type": "Abandoned Vehicles",
    "request_reason": "Abandoned/Junk Vehicles",
    "date_created": "2023-08-19T17:39:44.000",
    "date_modified": "2023-08-19T17:39:44.000",
    "request_status": "Pending",
    "responsible_agency": "Department of Public Works",
    "final_address": "4126 Burgundy St",
    "address_councildis": "C",
    "status": "Pending",
    "rowid": "1027788",
    "final_x": "3692133.46435",
    "final_y": "534352.352837",
    "longitude": "-90.03439241832456",
    "latitude": "29.962956522151018",
    "geocoded_column": {
      "latitude": "29.962956522151018",
      "longitude": "-90.03439241832456"
    }
  },
  {
    "service_request": "2023-1027787",
    "request_type": "Trash/Recycling",
    "request_reason": "Replace Trash Cart",
    "date_created": "2023-08-19T17:33:48.000",
    "date_modified": "2023-08-19T17:33:49.000",
    "request_status": "Pending",
    "responsible_agency": "Department of Sanitation",
    "final_address": "5420 S Johnson St",
    "address_councildis": "A",
    "status": "Assigned to Contractor",
    "contractor": "Richards Disposal",
    "rowid": "1027787",
    "final_x": "3668395.24129",
    "final_y": "526913.13171",
    "longitude": "-90.1096059220343",
    "latitude": "29.943219682612135",
    "geocoded_column": {
      "latitude": "29.943219682612135",
      "longitude": "-90.1096059220343"
    }
  },
  {
    "service_request": "2023-1027786",
    "request_type": "Trash/Recycling",
    "request_reason": "Request a Large Item Pick Up",
    "date_created": "2023-08-19T17:13:34.000",
    "date_modified": "2023-08-19T17:13:35.000",
    "request_status": "Pending",
    "responsible_agency": "Department of Sanitation",
    "final_address": "332 Bragg St",
    "address_councildis": "A",
    "status": "Assigned to Contractor",
    "contractor": "IV Waste",
    "rowid": "1027786",
    "final_x": "3667564.40301",
    "final_y": "550069.334996",
    "longitude": "-90.11144947669369",
    "latitude": "30.0069158464596",
    "geocoded_column": {
      "latitude": "30.0069158464596",
      "longitude": "-90.11144947669369"
    }
  },
  {
    "service_request": "2023-1027785",
    "request_type": "Property Maintenance",
    "request_reason": "Property Maintenance",
    "date_created": "2023-08-19T16:58:11.000",
    "date_modified": "2023-08-19T16:58:11.000",
    "request_status": "Pending",
    "responsible_agency": "Department of Code Enforcement",
    "final_address": "4041 Tulane Ave",
    "address_councildis": "A",
    "status": "Pending",
    "rowid": "1027785",
    "final_x": "3669643.28628",
    "final_y": "536226.881159",
    "longitude": "-90.10535037982294",
    "latitude": "29.96879271575841",
    "geocoded_column": {
      "latitude": "29.96879271575841",
      "longitude": "-90.10535037982294"
    }
  },
  {
    "service_request": "2023-1027784",
    "request_type": "Property Maintenance",
    "request_reason": "Property Maintenance",
    "date_created": "2023-08-19T16:56:51.000",
    "date_modified": "2023-08-19T16:56:51.000",
    "request_status": "Pending",
    "responsible_agency": "Department of Code Enforcement",
    "final_address": "4041 Tulane Ave",
    "address_councildis": "A",
    "status": "Pending",
    "rowid": "1027784",
    "final_x": "3669643.28628",
    "final_y": "536226.881159",
    "longitude": "-90.10535037982294",
    "latitude": "29.96879271575841",
    "geocoded_column": {
      "latitude": "29.96879271575841",
      "longitude": "-90.10535037982294"
    }
  },
  {
    "service_request": "2023-1027783",
    "request_type": "Trash/Recycling",
    "request_reason": "Order Recycling Cart",
    "date_created": "2023-08-19T16:51:26.000",
    "date_modified": "2023-08-19T16:51:26.000",
    "request_status": "Pending",
    "responsible_agency": "Department of Sanitation",
    "final_address": "6509 General Haig St",
    "address_councildis": "A",
    "status": "Pending",
    "rowid": "1027783",
    "final_x": "3670953.34638",
    "final_y": "550615.232852",
    "longitude": "-90.10072431839068",
    "latitude": "30.00831707032012",
    "geocoded_column": {
      "latitude": "30.00831707032012",
      "longitude": "-90.10072431839068"
    }
  },
  {
    "service_request": "2023-1027782",
    "request_type": "Trash/Recycling",
    "request_reason": "Order Recycling Cart",
    "date_created": "2023-08-19T16:24:31.000",
    "date_modified": "2023-08-19T16:24:31.000",
    "request_status": "Pending",
    "responsible_agency": "Department of Sanitation",
    "final_address": "1115 Washington Ave",
    "address_councildis": "B",
    "status": "Pending",
    "rowid": "1027782",
    "final_x": "3677014.87752",
    "final_y": "520964.882041",
    "longitude": "-90.08259653721477",
    "latitude": "29.92660800808757",
    "geocoded_column": {
      "latitude": "29.92660800808757",
      "longitude": "-90.08259653721477"
    }
  },
  {
    "service_request": "2023-1027781",
    "request_type": "Roads/Drainage",
    "request_reason": "Street Subsidence (Sinking)",
    "date_created": "2023-08-19T16:07:50.000",
    "date_modified": "2023-08-19T16:07:51.000",
    "request_status": "Pending",
    "responsible_agency": "Department of Public Works",
    "final_address": "GENERAL DE GAULLE DR & SOMERSET DR & SOMMERSET DR",
    "address_councildis": "C",
    "status": "Pending",
    "rowid": "1027781",
    "final_x": "3702390.1",
    "final_y": "516661.38",
    "longitude": "-90.002652243402",
    "latitude": "29.91398885976953",
    "geocoded_column": {
      "latitude": "29.91398885976953",
      "longitude": "-90.002652243402"
    }
  },
  {
    "service_request": "2023-1027780",
    "request_type": "Parks & Parkways",
    "request_reason": "Request Tree Service (Right of Way/Public Property)",
    "date_created": "2023-08-19T15:56:59.000",
    "date_modified": "2023-08-19T18:32:23.000",
    "request_status": "Pending",
    "responsible_agency": "Department of Parks & Parkway",
    "final_address": "7634 Plum St",
    "address_councildis": "A",
    "status": "Pending",
    "rowid": "1027780",
    "final_x": "3663363.02816",
    "final_y": "527529.839423",
    "longitude": "-90.12547343431909",
    "latitude": "29.945062246957256",
    "geocoded_column": {
      "latitude": "29.945062246957256",
      "longitude": "-90.12547343431909"
    }
  },
  {
    "service_request": "2023-1027779",
    "request_type": "Property Maintenance",
    "request_reason": "Property Maintenance",
    "date_created": "2023-08-19T15:34:11.000",
    "date_modified": "2023-08-19T15:34:11.000",
    "request_status": "Pending",
    "responsible_agency": "Department of Code Enforcement",
    "final_address": "5000 BLK Canal Blvd",
    "address_councildis": "A",
    "status": "Pending",
    "rowid": "1027779",
    "final_x": "3667875.32399",
    "final_y": "541162.285901",
    "longitude": "-90.11076743097156",
    "latitude": "29.98241540113798",
    "geocoded_column": {
      "latitude": "29.98241540113798",
      "longitude": "-90.11076743097156"
    }
  },
  {
    "service_request": "2023-1027778",
    "request_type": "Trash/Recycling",
    "request_reason": "Request a Large Item Pick Up",
    "date_created": "2023-08-19T15:27:03.000",
    "date_modified": "2023-08-19T15:27:04.000",
    "request_status": "Pending",
    "responsible_agency": "Department of Sanitation",
    "final_address": "7531 Plum St",
    "address_councildis": "A",
    "status": "Assigned to Contractor",
    "contractor": "Richards Disposal",
    "rowid": "1027778",
    "final_x": "3663764.11987",
    "final_y": "527350.758399",
    "longitude": "-90.1242130241325",
    "latitude": "29.94455819980751",
    "geocoded_column": {
      "latitude": "29.94455819980751",
      "longitude": "-90.1242130241325"
    }
  },
  {
    "service_request": "2023-1027776",
    "request_type": "Trash/Recycling",
    "request_reason": "Missed Trash Pick-Up",
    "date_created": "2023-08-19T15:17:14.000",
    "date_modified": "2023-08-19T15:17:15.000",
    "request_status": "Pending",
    "responsible_agency": "Department of Sanitation",
    "final_address": "6551 Morrison Rd",
    "address_councildis": "E",
    "status": "Assigned to Contractor",
    "contractor": "Waste Pro",
    "rowid": "1027776",
    "final_x": "3697909.80496",
    "final_y": "558509.421916",
    "longitude": "-90.01527405390915",
    "latitude": "30.0291982213156",
    "geocoded_column": {
      "latitude": "30.0291982213156",
      "longitude": "-90.01527405390915"
    }
  },
  {
    "service_request": "2023-1027775",
    "request_type": "Trash/Recycling",
    "request_reason": "Replace Trash Cart",
    "date_created": "2023-08-19T15:10:33.000",
    "date_modified": "2023-08-19T15:10:34.000",
    "request_status": "Pending",
    "responsible_agency": "Department of Sanitation",
    "final_address": "1224 Decatur St Apt A",
    "address_councildis": "C",
    "status": "Assigned to Contractor",
    "contractor": "Empire Services",
    "rowid": "1027775",
    "final_x": "3684424.76821",
    "final_y": "533594.627397",
    "longitude": "-90.05876210254065",
    "latitude": "29.96111107032842",
    "geocoded_column": {
      "latitude": "29.96111107032842",
      "longitude": "-90.05876210254065"
    }
  },
  {
    "service_request": "2023-1027774",
    "request_type": "Parks & Parkways",
    "request_reason": "Request Tree Service (Right of Way/Public Property)",
    "date_created": "2023-08-19T15:04:26.000",
    "date_modified": "2023-08-19T15:04:26.000",
    "request_status": "Pending",
    "responsible_agency": "Department of Parks & Parkway",
    "final_address": "1323 St Roch Ave",
    "address_councildis": "C",
    "status": "Pending",
    "rowid": "1027774",
    "final_x": "3686493.47682",
    "final_y": "537355.19668",
    "longitude": "-90.05209672880441",
    "latitude": "29.97138789415418",
    "geocoded_column": {
      "latitude": "29.97138789415418",
      "longitude": "-90.05209672880441"
    }
  },
  {
    "service_request": "2023-1027773",
    "request_type": "Trash/Recycling",
    "request_reason": "Missed Trash Pick-Up",
    "date_created": "2023-08-19T15:03:55.000",
    "date_modified": "2023-08-19T15:06:19.000",
    "request_status": "Pending",
    "responsible_agency": "Department of Sanitation",
    "final_address": "4941 Chantilly Dr",
    "address_councildis": "E",
    "status": "Assigned to Contractor",
    "contractor": "Waste Pro",
    "rowid": "1027773",
    "final_x": "3700849.88029",
    "final_y": "555357.919449",
    "longitude": "-90.0060989073631",
    "latitude": "30.020439481350152",
    "geocoded_column": {
      "latitude": "30.020439481350152",
      "longitude": "-90.0060989073631"
    }
  },
  {
    "service_request": "2023-1027772",
    "request_type": "Trash/Recycling",
    "request_reason": "Replace Trash Cart",
    "date_created": "2023-08-19T15:01:29.000",
    "date_modified": "2023-08-19T15:01:29.000",
    "request_status": "Pending",
    "responsible_agency": "Department of Sanitation",
    "final_address": "7300 Thames St",
    "address_councildis": "E",
    "status": "Assigned to Contractor",
    "contractor": "Waste Pro",
    "rowid": "1027772",
    "final_x": "3697662.59907",
    "final_y": "558574.270428",
    "longitude": "-90.01605285775054",
    "latitude": "30.02938434639848",
    "geocoded_column": {
      "latitude": "30.02938434639848",
      "longitude": "-90.01605285775054"
    }
  },
  {
    "service_request": "2023-1027771",
    "request_type": "Property Maintenance",
    "request_reason": "Property Maintenance",
    "date_created": "2023-08-19T14:46:25.000",
    "date_modified": "2023-08-19T14:47:28.000",
    "request_status": "Pending",
    "responsible_agency": "Department of Code Enforcement",
    "final_address": "5400 BLK Franklin Ave",
    "address_councildis": "D",
    "status": "Pending",
    "rowid": "1027771",
    "final_x": "3686559.50348",
    "final_y": "553083.826691",
    "longitude": "-90.05133244866201",
    "latitude": "30.014633959666096",
    "geocoded_column": {
      "latitude": "30.014633959666096",
      "longitude": "-90.05133244866201"
    }
  },
  {
    "service_request": "2023-1027769",
    "request_type": "Trash/Recycling",
    "request_reason": "Order Trash Cart",
    "date_created": "2023-08-19T14:39:22.000",
    "date_modified": "2023-08-19T14:39:23.000",
    "request_status": "Pending",
    "responsible_agency": "Department of Sanitation",
    "final_address": "104 Lark St",
    "address_councildis": "D",
    "status": "Assigned to Contractor",
    "contractor": "IV Waste",
    "rowid": "1027769",
    "final_x": "3674806.40789",
    "final_y": "556448.398682",
    "longitude": "-90.08835104534121",
    "latitude": "30.02424165510211",
    "geocoded_column": {
      "latitude": "30.02424165510211",
      "longitude": "-90.08835104534121"
    }
  },
  {
    "service_request": "2023-1027768",
    "request_type": "Abandoned Vehicles",
    "request_reason": "Vehicle Blocking Your Driveway",
    "date_created": "2023-08-19T14:33:17.000",
    "date_modified": "2023-08-19T14:33:17.000",
    "request_status": "Pending",
    "responsible_agency": "Department of Public Works",
    "final_address": "1899 Crete St",
    "address_councildis": "A",
    "status": "Pending",
    "rowid": "1027768",
    "final_x": "3678708.24763",
    "final_y": "543086.114509",
    "longitude": "-90.07648507319786",
    "latitude": "29.98738299927463",
    "geocoded_column": {
      "latitude": "29.98738299927463",
      "longitude": "-90.07648507319786"
    }
  },
  {
    "service_request": "2023-1027767",
    "request_type": "Trash/Recycling",
    "request_reason": "Request a Large Item Pick Up",
    "date_created": "2023-08-19T14:22:25.000",
    "date_modified": "2023-08-19T14:22:26.000",
    "request_status": "Pending",
    "responsible_agency": "Department of Sanitation",
    "final_address": "1324 Marigny St",
    "address_councildis": "C",
    "status": "Assigned to Contractor",
    "contractor": "IV Waste",
    "rowid": "1027767",
    "final_x": "3685302.559",
    "final_y": "537279.083336",
    "longitude": "-90.05586049029279",
    "latitude": "29.971215170752302",
    "geocoded_column": {
      "latitude": "29.971215170752302",
      "longitude": "-90.05586049029279"
    }
  },
  {
    "service_request": "2023-1027766",
    "request_type": "Property Maintenance",
    "request_reason": "Property Maintenance",
    "date_created": "2023-08-19T13:47:16.000",
    "date_modified": "2023-08-19T13:47:17.000",
    "request_status": "Pending",
    "responsible_agency": "Department of Code Enforcement",
    "final_address": "2019 Frenchmen St",
    "address_councildis": "D",
    "status": "Pending",
    "rowid": "1027766",
    "final_x": "3684359.54773",
    "final_y": "539747.43009",
    "longitude": "-90.05875193248137",
    "latitude": "29.978031137542292",
    "geocoded_column": {
      "latitude": "29.978031137542292",
      "longitude": "-90.05875193248137"
    }
  },
  {
    "service_request": "2023-1027765",
    "request_type": "Trash/Recycling",
    "request_reason": "Repair Recycling Cart",
    "date_created": "2023-08-19T13:46:23.000",
    "date_modified": "2023-08-19T13:46:23.000",
    "request_status": "Pending",
    "responsible_agency": "Department of Sanitation",
    "final_address": "1029 Fern St",
    "address_councildis": "A",
    "status": "Pending",
    "rowid": "1027765",
    "final_x": "3662259.47309",
    "final_y": "527491.602943",
    "longitude": "-90.12895898596719",
    "latitude": "29.944989049248946",
    "geocoded_column": {
      "latitude": "29.944989049248946",
      "longitude": "-90.12895898596719"
    }
  },
  {
    "service_request": "2023-1027764",
    "request_type": "Trash/Recycling",
    "request_reason": "Request a Large Item Pick Up",
    "date_created": "2023-08-19T13:42:13.000",
    "date_modified": "2023-08-19T13:42:13.000",
    "request_status": "Pending",
    "responsible_agency": "Department of Sanitation",
    "final_address": "9201 Forshey St",
    "address_councildis": "A",
    "status": "Assigned to Contractor",
    "contractor": "Richards Disposal",
    "rowid": "1027764",
    "final_x": "3664142.81127",
    "final_y": "536581.294023",
    "longitude": "-90.12270946607313",
    "latitude": "29.96992817440111",
    "geocoded_column": {
      "latitude": "29.96992817440111",
      "longitude": "-90.12270946607313"
    }
  },
  {
    "service_request": "2023-1027763",
    "request_type": "Utility Poles",
    "request_reason": "Utility Pole Leaning",
    "date_created": "2023-08-19T13:39:13.000",
    "date_modified": "2023-08-19T13:39:17.000",
    "request_status": "Pending",
    "responsible_agency": "Utility Company Collective",
    "final_address": "2452 Madrid St",
    "address_councildis": "D",
    "status": "Pending",
    "rowid": "1027763",
    "final_x": "3685435.61109",
    "final_y": "555442.077593",
    "longitude": "-90.05480025599607",
    "latitude": "30.02115280919469",
    "geocoded_column": {
      "latitude": "30.02115280919469",
      "longitude": "-90.05480025599607"
    }
  },
  {
    "service_request": "2023-1027762",
    "request_type": "Trash/Recycling",
    "request_reason": "Replace Trash Cart",
    "date_created": "2023-08-19T13:38:50.000",
    "date_modified": "2023-08-19T13:38:51.000",
    "request_status": "Pending",
    "responsible_agency": "Department of Sanitation",
    "final_address": "1029 Fern St",
    "address_councildis": "A",
    "status": "Assigned to Contractor",
    "contractor": "Richards Disposal",
    "rowid": "1027762",
    "final_x": "3662259.47309",
    "final_y": "527491.602943",
    "longitude": "-90.12895898596719",
    "latitude": "29.944989049248946",
    "geocoded_column": {
      "latitude": "29.944989049248946",
      "longitude": "-90.12895898596719"
    }
  },
  {
    "service_request": "2023-1027761",
    "request_type": "Trash/Recycling",
    "request_reason": "Replace Trash Cart",
    "date_created": "2023-08-19T13:35:46.000",
    "date_modified": "2023-08-19T13:35:47.000",
    "request_status": "Pending",
    "responsible_agency": "Department of Sanitation",
    "final_address": "5905 Marigny St",
    "address_councildis": "D",
    "status": "Assigned to Contractor",
    "contractor": "IV Waste",
    "rowid": "1027761",
    "final_x": "3683983.23292",
    "final_y": "554705.685656",
    "longitude": "-90.05941522455277",
    "latitude": "30.019172481907923",
    "geocoded_column": {
      "latitude": "30.019172481907923",
      "longitude": "-90.05941522455277"
    }
  },
  {
    "service_request": "2023-1027760",
    "request_type": "Trash/Recycling",
    "request_reason": "Return Trash Cart",
    "date_created": "2023-08-19T13:34:32.000",
    "date_modified": "2023-08-19T13:34:33.000",
    "request_status": "Pending",
    "responsible_agency": "Department of Sanitation",
    "final_address": "4417 Dryades St",
    "address_councildis": "B",
    "status": "Assigned to Contractor",
    "contractor": "Richards Disposal",
    "rowid": "1027760",
    "final_x": "3670505.04142",
    "final_y": "522023.371578",
    "longitude": "-90.10311048613688",
    "latitude": "29.92971229649019",
    "geocoded_column": {
      "latitude": "29.92971229649019",
      "longitude": "-90.10311048613688"
    }
  },
  {
    "service_request": "2023-1027759",
    "request_type": "Traffic Signals/Signs/Striping/Streetlights",
    "request_reason": "Traffic Signal Malfunctioning/Damaged",
    "date_created": "2023-08-19T13:24:16.000",
    "date_modified": "2023-08-19T13:24:17.000",
    "request_status": "Pending",
    "responsible_agency": "Department of Public Works",
    "final_address": "POYDRAS ST & TCHOUPITOULAS ST",
    "address_councildis": "B",
    "status": "Pending",
    "rowid": "1027759",
    "final_x": "3681889.0",
    "final_y": "529116.48",
    "longitude": "-90.06692588082657",
    "latitude": "29.948874998826515",
    "geocoded_column": {
      "latitude": "29.948874998826515",
      "longitude": "-90.06692588082657"
    }
  },
  {
    "service_request": "2023-1027758",
    "request_type": "Trash/Recycling",
    "request_reason": "Repair Trash Cart",
    "date_created": "2023-08-19T13:15:01.000",
    "date_modified": "2023-08-19T13:18:00.000",
    "request_status": "Pending",
    "responsible_agency": "Department of Sanitation",
    "final_address": "5954 Laurel St",
    "address_councildis": "A",
    "status": "Assigned to Contractor",
    "contractor": "Richards Disposal",
    "rowid": "1027758",
    "final_x": "3664520.71815",
    "final_y": "518093.826486",
    "longitude": "-90.12213315077841",
    "latitude": "29.91908259102795",
    "geocoded_column": {
      "latitude": "29.91908259102795",
      "longitude": "-90.12213315077841"
    }
  },
  {
    "service_request": "2023-1027757",
    "request_type": "Trash/Recycling",
    "request_reason": "Illegal Dumping",
    "date_created": "2023-08-19T13:13:25.000",
    "date_modified": "2023-08-19T13:13:25.000",
    "request_status": "Pending",
    "responsible_agency": "Department of Sanitation",
    "status": "Pending",
    "rowid": "1027757",
    "longitude": "0.0",
    "latitude": "0.0",
    "geocoded_column": {
      "latitude": "0.0",
      "longitude": "0.0"
    }
  },
  {
    "service_request": "2023-1027756",
    "request_type": "Trash/Recycling",
    "request_reason": "Replace Trash Cart",
    "date_created": "2023-08-19T13:11:04.000",
    "date_modified": "2023-08-19T13:11:05.000",
    "request_status": "Pending",
    "responsible_agency": "Department of Sanitation",
    "final_address": "2112 Harmony St",
    "address_councildis": "B",
    "status": "Assigned to Contractor",
    "contractor": "Richards Disposal",
    "rowid": "1027756",
    "final_x": "3673961.31816",
    "final_y": "523541.614523",
    "longitude": "-90.09214769419879",
    "latitude": "29.933784485219324",
    "geocoded_column": {
      "latitude": "29.933784485219324",
      "longitude": "-90.09214769419879"
    }
  },
  {
    "service_request": "2023-1027755",
    "request_type": "Abandoned Vehicles",
    "request_reason": "Abandoned/Junk Vehicles",
    "date_created": "2023-08-19T13:07:31.000",
    "date_modified": "2023-08-19T13:07:31.000",
    "request_status": "Pending",
    "responsible_agency": "Department of Public Works",
    "final_address": "1960 N Rocheblave St",
    "address_councildis": "D",
    "status": "Pending",
    "rowid": "1027755",
    "final_x": "3682204.45167",
    "final_y": "540817.030667",
    "longitude": "-90.06552110286775",
    "latitude": "29.98103790524251",
    "geocoded_column": {
      "latitude": "29.98103790524251",
      "longitude": "-90.06552110286775"
    }
  },
  {
    "service_request": "2023-1027754",
    "request_type": "Abandoned Vehicles",
    "request_reason": "Abandoned/Junk Vehicles",
    "date_created": "2023-08-19T13:03:29.000",
    "date_modified": "2023-08-19T13:03:29.000",
    "request_status": "Pending",
    "responsible_agency": "Department of Public Works",
    "final_address": "2300 BLK Somerset Dr",
    "address_councildis": "C",
    "status": "Pending",
    "rowid": "1027754",
    "final_x": "3702897.52954",
    "final_y": "522073.67316",
    "longitude": "-90.00085198675445",
    "latitude": "29.928854586172772",
    "geocoded_column": {
      "latitude": "29.928854586172772",
      "longitude": "-90.00085198675445"
    }
  },
  {
    "service_request": "2023-1027752",
    "request_type": "Trash/Recycling",
    "request_reason": "Order Trash Cart",
    "date_created": "2023-08-19T12:46:01.000",
    "date_modified": "2023-08-19T12:46:02.000",
    "request_status": "Pending",
    "responsible_agency": "Department of Sanitation",
    "final_address": "3531 Mansfield Ave",
    "address_councildis": "C",
    "status": "Assigned to Contractor",
    "contractor": "Richards Disposal",
    "rowid": "1027752",
    "final_x": "3708979.25867",
    "final_y": "517736.216438",
    "longitude": "-89.98181488248802",
    "latitude": "29.916732234462604",
    "geocoded_column": {
      "latitude": "29.916732234462604",
      "longitude": "-89.98181488248802"
    }
  },
  {
    "service_request": "2023-1027751",
    "request_type": "Trash/Recycling",
    "request_reason": "Repair Trash Cart",
    "date_created": "2023-08-19T12:34:01.000",
    "date_modified": "2023-08-19T12:34:01.000",
    "request_status": "Pending",
    "responsible_agency": "Department of Sanitation",
    "final_address": "8526 Palmetto St",
    "address_councildis": "A",
    "status": "Assigned to Contractor",
    "contractor": "Richards Disposal",
    "rowid": "1027751",
    "final_x": "3666853.36359",
    "final_y": "536228.979655",
    "longitude": "-90.11416108692225",
    "latitude": "29.968880403789182",
    "geocoded_column": {
      "latitude": "29.968880403789182",
      "longitude": "-90.11416108692225"
    }
  },
  {
    "service_request": "2023-1027750",
    "request_type": "Trash/Recycling",
    "request_reason": "Request a Large Item Pick Up",
    "date_created": "2023-08-19T12:15:42.000",
    "date_modified": "2023-08-19T12:15:42.000",
    "request_status": "Pending",
    "responsible_agency": "Department of Sanitation",
    "final_address": "4920 Camp St",
    "address_councildis": "B",
    "status": "Assigned to Contractor",
    "contractor": "Richards Disposal",
    "rowid": "1027750",
    "final_x": "3668829.47758",
    "final_y": "518888.438583",
    "longitude": "-90.10850574963433",
    "latitude": "29.921141585271084",
    "geocoded_column": {
      "latitude": "29.921141585271084",
      "longitude": "-90.10850574963433"
    }
  },
  {
    "service_request": "2023-1027749",
    "request_type": "Trash/Recycling",
    "request_reason": "Illegal Dumping",
    "date_created": "2023-08-19T12:00:01.000",
    "date_modified": "2023-08-19T12:00:03.000",
    "request_status": "Pending",
    "responsible_agency": "Department of Code Enforcement",
    "final_address": "9407 Stroelitz St",
    "address_councildis": "A",
    "status": "Pending",
    "rowid": "1027749",
    "final_x": "3664559.09786",
    "final_y": "538104.627081",
    "longitude": "-90.12134390140153",
    "latitude": "29.97410473490744",
    "geocoded_column": {
      "latitude": "29.97410473490744",
      "longitude": "-90.12134390140153"
    }
  },
  {
    "service_request": "2023-1027748",
    "request_type": "Trash/Recycling",
    "request_reason": "Request a Large Item Pick Up",
    "date_created": "2023-08-19T11:49:04.000",
    "date_modified": "2023-08-19T11:49:05.000",
    "request_status": "Pending",
    "responsible_agency": "Department of Sanitation",
    "final_address": "877 Pontalba St",
    "address_councildis": "A",
    "status": "Assigned to Contractor",
    "contractor": "IV Waste",
    "rowid": "1027748",
    "final_x": "3669386.60218",
    "final_y": "544398.561039",
    "longitude": "-90.10588455941438",
    "latitude": "29.991269628527117",
    "geocoded_column": {
      "latitude": "29.991269628527117",
      "longitude": "-90.10588455941438"
    }
  },
  {
    "service_request": "2023-1027747",
    "request_type": "Trash/Recycling",
    "request_reason": "Repair Trash Cart",
    "date_created": "2023-08-19T11:42:33.000",
    "date_modified": "2023-08-19T11:42:34.000",
    "request_status": "Pending",
    "responsible_agency": "Department of Sanitation",
    "final_address": "4536 Bonita Dr",
    "address_councildis": "E",
    "status": "Assigned to Contractor",
    "contractor": "Waste Pro",
    "rowid": "1027747",
    "final_x": "3704560.47479",
    "final_y": "553959.285912",
    "longitude": "-89.99442628767345",
    "latitude": "30.01647507601084",
    "geocoded_column": {
      "latitude": "30.01647507601084",
      "longitude": "-89.99442628767345"
    }
  },
  {
    "service_request": "2023-1027746",
    "request_type": "Trash/Recycling",
    "request_reason": "Illegal Dumping",
    "date_created": "2023-08-19T11:40:45.000",
    "date_modified": "2023-08-19T11:40:45.000",
    "request_status": "Pending",
    "responsible_agency": "Department of Sanitation",
    "final_address": "2235 Poydras St Ste A",
    "address_councildis": "B",
    "status": "Pending",
    "rowid": "1027746",
    "final_x": "3674853.30203",
    "final_y": "531992.290755",
    "longitude": "-90.08904203323482",
    "latitude": "29.956994460615146",
    "geocoded_column": {
      "latitude": "29.956994460615146",
      "longitude": "-90.08904203323482"
    }
  },
  {
    "service_request": "2023-1027745",
    "request_type": "Traffic Signals/Signs/Striping/Streetlights",
    "request_reason": "Street Light Outage/Malfunction",
    "date_created": "2023-08-19T11:38:33.000",
    "date_modified": "2023-08-19T11:39:26.000",
    "request_status": "Pending",
    "responsible_agency": "Department of Public Works",
    "final_address": "2200 BLK Milton St",
    "address_councildis": "D",
    "status": "Assigned to Contractor",
    "contractor": "Legacy Professional Services",
    "rowid": "1027745",
    "final_x": "3684556.23354",
    "final_y": "546754.486003",
    "longitude": "-90.05788439025893",
    "latitude": "29.997292040552107",
    "geocoded_column": {
      "latitude": "29.997292040552107",
      "longitude": "-90.05788439025893"
    }
  },
  {
    "service_request": "2023-1027744",
    "request_type": "Roads/Drainage",
    "request_reason": "Damaged Sidewalk",
    "date_created": "2023-08-19T11:36:54.000",
    "date_modified": "2023-08-19T11:36:54.000",
    "request_status": "Pending",
    "responsible_agency": "Department of Public Works",
    "final_address": "300 BLK Verret St",
    "address_councildis": "C",
    "status": "Pending",
    "rowid": "1027744",
    "final_x": "3686887.64719",
    "final_y": "530536.094227",
    "longitude": "-90.05109287811567",
    "latitude": "29.952625597895445",
    "geocoded_column": {
      "latitude": "29.952625597895445",
      "longitude": "-90.05109287811567"
    }
  },
  {
    "service_request": "2023-1027743",
    "request_type": "Property Maintenance",
    "request_reason": "Property Maintenance",
    "date_created": "2023-08-19T11:31:04.000",
    "date_modified": "2023-08-19T11:31:04.000",
    "request_status": "Pending",
    "responsible_agency": "Department of Code Enforcement",
    "final_address": "7417 Zimple St",
    "address_councildis": "A",
    "status": "Pending",
    "rowid": "1027743",
    "final_x": "3663385.58144",
    "final_y": "526646.420606",
    "longitude": "-90.12543162931388",
    "latitude": "29.942632474057433",
    "geocoded_column": {
      "latitude": "29.942632474057433",
      "longitude": "-90.12543162931388"
    }
  },
  {
    "service_request": "2023-1027741",
    "request_type": "Trash/Recycling",
    "request_reason": "Request a Large Item Pick Up",
    "date_created": "2023-08-19T11:12:49.000",
    "date_modified": "2023-08-19T11:12:50.000",
    "request_status": "Pending",
    "responsible_agency": "Department of Sanitation",
    "final_address": "1521 N Dupre St",
    "address_councildis": "A",
    "status": "Assigned to Contractor",
    "contractor": "IV Waste",
    "rowid": "1027741",
    "final_x": "3677270.05794",
    "final_y": "540127.079499",
    "longitude": "-90.08112995409591",
    "latitude": "29.97928997639407",
    "geocoded_column": {
      "latitude": "29.97928997639407",
      "longitude": "-90.08112995409591"
    }
  },
  {
    "service_request": "2023-1027740",
    "request_type": "Trash/Recycling",
    "request_reason": "Repair Trash Cart",
    "date_created": "2023-08-19T11:07:57.000",
    "date_modified": "2023-08-19T11:07:58.000",
    "request_status": "Pending",
    "responsible_agency": "Department of Sanitation",
    "final_address": "5156 Westlake Dr",
    "address_councildis": "E",
    "status": "Assigned to Contractor",
    "contractor": "Waste Pro",
    "rowid": "1027740",
    "final_x": "3699324.72868",
    "final_y": "556456.861594",
    "longitude": "-90.01087781764345",
    "latitude": "30.023509639378787",
    "geocoded_column": {
      "latitude": "30.023509639378787",
      "longitude": "-90.01087781764345"
    }
  },
  {
    "service_request": "2023-1027738",
    "request_type": "Parks & Parkways",
    "request_reason": "Request Tree Service (Right of Way/Public Property)",
    "date_created": "2023-08-19T10:52:05.000",
    "date_modified": "2023-08-19T10:52:05.000",
    "request_status": "Pending",
    "responsible_agency": "Department of Parks & Parkway",
    "final_address": "138 Middle Park Pl",
    "address_councildis": "A",
    "status": "Pending",
    "rowid": "1027738",
    "final_x": "3670157.93703",
    "final_y": "544182.81915",
    "longitude": "-90.10345539631139",
    "latitude": "29.990653670409596",
    "geocoded_column": {
      "latitude": "29.990653670409596",
      "longitude": "-90.10345539631139"
    }
  },
  {
    "service_request": "2023-1027737",
    "request_type": "Trash/Recycling",
    "request_reason": "Request a Large Item Pick Up",
    "date_created": "2023-08-19T10:44:37.000",
    "date_modified": "2023-08-19T10:44:38.000",
    "request_status": "Pending",
    "responsible_agency": "Department of Sanitation",
    "final_address": "1564 N Rocheblave St",
    "address_councildis": "D",
    "status": "Assigned to Contractor",
    "contractor": "IV Waste",
    "rowid": "1027737",
    "final_x": "3679862.65755",
    "final_y": "539357.717322",
    "longitude": "-90.0729682355092",
    "latitude": "29.977096337568145",
    "geocoded_column": {
      "latitude": "29.977096337568145",
      "longitude": "-90.0729682355092"
    }
  },
  {
    "service_request": "2023-1027735",
    "request_type": "Roads/Drainage",
    "request_reason": "Catch Basin - Broken/Damage",
    "date_created": "2023-08-19T10:27:38.000",
    "date_modified": "2023-08-19T10:27:38.000",
    "request_status": "Pending",
    "responsible_agency": "Department of Public Works",
    "final_address": "3801 Annunciation St",
    "address_councildis": "B",
    "status": "Pending",
    "rowid": "1027735",
    "final_x": "3673590.11316",
    "final_y": "518060.612086",
    "longitude": "-90.09350679852284",
    "latitude": "29.91872454274625",
    "geocoded_column": {
      "latitude": "29.91872454274625",
      "longitude": "-90.09350679852284"
    }
  },
  {
    "service_request": "2023-1027734",
    "request_type": "Abandoned Vehicles",
    "request_reason": "Abandoned/Junk Vehicles",
    "date_created": "2023-08-19T10:23:17.000",
    "date_modified": "2023-08-19T10:25:28.000",
    "request_status": "Pending",
    "responsible_agency": "Department of Public Works",
    "final_address": "2508 Alvar St",
    "address_councildis": "D",
    "status": "Pending",
    "rowid": "1027734",
    "final_x": "3692766.00201",
    "final_y": "540710.149131",
    "longitude": "-90.03216696439473",
    "latitude": "29.98041847348539",
    "geocoded_column": {
      "latitude": "29.98041847348539",
      "longitude": "-90.03216696439473"
    }
  },
  {
    "service_request": "2023-1027733",
    "request_type": "Trash/Recycling",
    "request_reason": "Request a Large Item Pick Up",
    "date_created": "2023-08-19T10:23:05.000",
    "date_modified": "2023-08-19T10:23:06.000",
    "request_status": "Pending",
    "responsible_agency": "Department of Sanitation",
    "final_address": "7033 E Tamaron Blvd",
    "address_councildis": "E",
    "status": "Assigned to Contractor",
    "contractor": "Waste Pro",
    "rowid": "1027733",
    "final_x": "3719050.74034",
    "final_y": "568467.233317",
    "longitude": "-89.94808969434386",
    "latitude": "30.055892525602047",
    "geocoded_column": {
      "latitude": "30.055892525602047",
      "longitude": "-89.94808969434386"
    }
  },
  {
    "service_request": "2023-1027732",
    "request_type": "Abandoned Vehicles",
    "request_reason": "Abandoned/Junk Vehicles",
    "date_created": "2023-08-19T10:11:17.000",
    "date_modified": "2023-08-19T10:11:17.000",
    "request_status": "Pending",
    "responsible_agency": "Department of Public Works",
    "final_address": "4126 Burgundy St",
    "address_councildis": "C",
    "status": "Pending",
    "rowid": "1027732",
    "final_x": "3692133.46435",
    "final_y": "534352.352837",
    "longitude": "-90.03439241832456",
    "latitude": "29.962956522151018",
    "geocoded_column": {
      "latitude": "29.962956522151018",
      "longitude": "-90.03439241832456"
    }
  },
  {
    "service_request": "2023-1027731",
    "request_type": "Roads/Drainage",
    "request_reason": "Damaged Sidewalk",
    "date_created": "2023-08-19T10:04:19.000",
    "date_modified": "2023-08-19T10:04:19.000",
    "request_status": "Pending",
    "responsible_agency": "Department of Public Works",
    "final_address": "3628 Camp St",
    "address_councildis": "B",
    "status": "Pending",
    "rowid": "1027731",
    "final_x": "3673835.045",
    "final_y": "519478.722807",
    "longitude": "-90.09268520956738",
    "latitude": "29.92261660405603",
    "geocoded_column": {
      "latitude": "29.92261660405603",
      "longitude": "-90.09268520956738"
    }
  },
  {
    "service_request": "2023-1027730",
    "request_type": "Trash/Recycling",
    "request_reason": "Replace Trash Cart",
    "date_created": "2023-08-19T10:03:19.000",
    "date_modified": "2023-08-19T10:03:20.000",
    "request_status": "Pending",
    "responsible_agency": "Department of Sanitation",
    "final_address": "8702 Belfast St",
    "address_councildis": "A",
    "status": "Assigned to Contractor",
    "contractor": "Richards Disposal",
    "rowid": "1027730",
    "final_x": "3663953.44039",
    "final_y": "533803.781893",
    "longitude": "-90.1234001434152",
    "latitude": "29.962296429486166",
    "geocoded_column": {
      "latitude": "29.962296429486166",
      "longitude": "-90.1234001434152"
    }
  },
  {
    "service_request": "2023-1027728",
    "request_type": "Property Maintenance",
    "request_reason": "Property Maintenance",
    "date_created": "2023-08-19T09:57:01.000",
    "date_modified": "2023-08-19T09:57:01.000",
    "request_status": "Pending",
    "responsible_agency": "Department of Code Enforcement",
    "final_address": "13434 Dwyer Blvd",
    "address_councildis": "E",
    "status": "Pending",
    "rowid": "1027728",
    "final_x": "3725680.7431",
    "final_y": "561775.584159",
    "longitude": "-89.9273932837619",
    "latitude": "30.03727122337378",
    "geocoded_column": {
      "latitude": "30.03727122337378",
      "longitude": "-89.9273932837619"
    }
  },
  {
    "service_request": "2023-1027727",
    "request_type": "Abandoned Vehicles",
    "request_reason": "Abandoned/Junk Vehicles",
    "date_created": "2023-08-19T09:46:29.000",
    "date_modified": "2023-08-19T09:46:29.000",
    "request_status": "Pending",
    "responsible_agency": "Department of Public Works",
    "final_address": "1803 St Philip St",
    "address_councildis": "D",
    "status": "Pending",
    "rowid": "1027727",
    "final_x": "3680134.23887",
    "final_y": "535773.375239",
    "longitude": "-90.07223508625412",
    "latitude": "29.96723241474567",
    "geocoded_column": {
      "latitude": "29.96723241474567",
      "longitude": "-90.07223508625412"
    }
  },
  {
    "service_request": "2023-1027726",
    "request_type": "Roads/Drainage",
    "request_reason": "Street Flooding / Drainage",
    "date_created": "2023-08-19T09:43:31.000",
    "date_modified": "2023-08-19T09:43:31.000",
    "request_status": "Pending",
    "responsible_agency": "Department of Public Works",
    "final_address": "3400 Robert St",
    "address_councildis": "B",
    "status": "Pending",
    "rowid": "1027726",
    "final_x": "3668897.3467",
    "final_y": "527326.659327",
    "longitude": "-90.10800668227216",
    "latitude": "29.944341995209946",
    "geocoded_column": {
      "latitude": "29.944341995209946",
      "longitude": "-90.10800668227216"
    }
  },
  {
    "service_request": "2023-1027725",
    "request_type": "Trash/Recycling",
    "request_reason": "Request a Large Item Pick Up",
    "date_created": "2023-08-19T09:40:03.000",
    "date_modified": "2023-08-19T09:40:42.000",
    "request_status": "Pending",
    "responsible_agency": "Department of Sanitation",
    "final_address": "8215 Zimple St",
    "address_councildis": "A",
    "status": "Assigned to Contractor",
    "contractor": "Richards Disposal",
    "rowid": "1027725",
    "final_x": "3661391.23955",
    "final_y": "528469.662848",
    "longitude": "-90.13166789576867",
    "latitude": "29.94770346634277",
    "geocoded_column": {
      "latitude": "29.94770346634277",
      "longitude": "-90.13166789576867"
    }
  },
  {
    "service_request": "2023-1027724",
    "request_type": "Trash/Recycling",
    "request_reason": "Request a Large Item Pick Up",
    "date_created": "2023-08-19T09:35:49.000",
    "date_modified": "2023-08-19T09:35:50.000",
    "request_status": "Pending",
    "responsible_agency": "Department of Sanitation",
    "final_address": "3144 Chippewa St",
    "address_councildis": "B",
    "status": "Assigned to Contractor",
    "contractor": "Richards Disposal",
    "rowid": "1027724",
    "final_x": "3676629.07118",
    "final_y": "518695.171191",
    "longitude": "-90.0838925497487",
    "latitude": "29.920378610756586",
    "geocoded_column": {
      "latitude": "29.920378610756586",
      "longitude": "-90.0838925497487"
    }
  },
  {
    "service_request": "2023-1027723",
    "request_type": "Trash/Recycling",
    "request_reason": "Missed Trash Pick-Up",
    "date_created": "2023-08-19T09:27:08.000",
    "date_modified": "2023-08-19T09:27:08.000",
    "request_status": "Pending",
    "responsible_agency": "Department of Sanitation",
    "final_address": "5417 Freret St",
    "address_councildis": "A",
    "status": "Assigned to Contractor",
    "contractor": "Richards Disposal",
    "rowid": "1027723",
    "final_x": "3667761.82676",
    "final_y": "524116.028156",
    "longitude": "-90.11169993103742",
    "latitude": "29.93554713323735",
    "geocoded_column": {
      "latitude": "29.93554713323735",
      "longitude": "-90.11169993103742"
    }
  },
  {
    "service_request": "2023-1027722",
    "request_type": "Abandoned Vehicles",
    "request_reason": "Abandoned/Junk Vehicles",
    "date_created": "2023-08-19T09:23:15.000",
    "date_modified": "2023-08-19T09:23:15.000",
    "request_status": "Pending",
    "responsible_agency": "Department of Public Works",
    "status": "Pending",
    "rowid": "1027722",
    "longitude": "0.0",
    "latitude": "0.0",
    "geocoded_column": {
      "latitude": "0.0",
      "longitude": "0.0"
    }
  },
  {
    "service_request": "2023-1027721",
    "request_type": "Trash/Recycling",
    "request_reason": "Order Recycling Cart",
    "date_created": "2023-08-19T09:12:09.000",
    "date_modified": "2023-08-19T09:12:10.000",
    "request_status": "Pending",
    "responsible_agency": "Department of Sanitation",
    "final_address": "2362 Killdeer St",
    "address_councildis": "D",
    "status": "Pending",
    "rowid": "1027721",
    "final_x": "3684593.08002",
    "final_y": "557525.503259",
    "longitude": "-90.05738910778982",
    "latitude": "30.026907281432983",
    "geocoded_column": {
      "latitude": "30.026907281432983",
      "longitude": "-90.05738910778982"
    }
  },
  {
    "service_request": "2023-1027720",
    "request_type": "Property Maintenance",
    "request_reason": "Property Maintenance",
    "date_created": "2023-08-19T09:07:18.000",
    "date_modified": "2023-08-19T09:07:18.000",
    "request_status": "Pending",
    "responsible_agency": "Department of Code Enforcement",
    "final_address": "514 S Salcedo St",
    "address_councildis": "B",
    "status": "Pending",
    "rowid": "1027720",
    "final_x": "3673080.29096",
    "final_y": "534620.464198",
    "longitude": "-90.09455093703228",
    "latitude": "29.96427388101359",
    "geocoded_column": {
      "latitude": "29.96427388101359",
      "longitude": "-90.09455093703228"
    }
  },
  {
    "service_request": "2023-1027719",
    "request_type": "Trash/Recycling",
    "request_reason": "Missed Trash Pick-Up",
    "date_created": "2023-08-19T09:06:57.000",
    "date_modified": "2023-08-19T09:06:57.000",
    "request_status": "Pending",
    "responsible_agency": "Department of Sanitation",
    "final_address": "6551 Morrison Rd",
    "address_councildis": "E",
    "status": "Assigned to Contractor",
    "contractor": "Waste Pro",
    "rowid": "1027719",
    "final_x": "3697909.80496",
    "final_y": "558509.421916",
    "longitude": "-90.01527405390915",
    "latitude": "30.0291982213156",
    "geocoded_column": {
      "latitude": "30.0291982213156",
      "longitude": "-90.01527405390915"
    }
  },
  {
    "service_request": "2023-1027718",
    "request_type": "Abandoned Vehicles",
    "request_reason": "Abandoned/Junk Vehicles",
    "date_created": "2023-08-19T09:02:55.000",
    "date_modified": "2023-08-19T09:02:55.000",
    "request_status": "Pending",
    "responsible_agency": "Department of Public Works",
    "final_address": "3120 Orleans Ave",
    "address_councildis": "A",
    "status": "Pending",
    "rowid": "1027718",
    "final_x": "3675120.48456",
    "final_y": "538183.910985",
    "longitude": "-90.08798586259242",
    "latitude": "29.974011344972478",
    "geocoded_column": {
      "latitude": "29.974011344972478",
      "longitude": "-90.08798586259242"
    }
  },
  {
    "service_request": "2023-1027717",
    "request_type": "Trash/Recycling",
    "request_reason": "Request a Large Item Pick Up",
    "date_created": "2023-08-19T09:02:18.000",
    "date_modified": "2023-08-19T09:02:19.000",
    "request_status": "Pending",
    "responsible_agency": "Department of Sanitation",
    "final_address": "5575 Jacquelyn Ct",
    "address_councildis": "A",
    "status": "Assigned to Contractor",
    "contractor": "IV Waste",
    "rowid": "1027717",
    "final_x": "3664531.53306",
    "final_y": "544794.791375",
    "longitude": "-90.1212074438025",
    "latitude": "29.992501239349508",
    "geocoded_column": {
      "latitude": "29.992501239349508",
      "longitude": "-90.1212074438025"
    }
  },
  {
    "service_request": "2023-1027716",
    "request_type": "Trash/Recycling",
    "request_reason": "Repair Recycling Cart",
    "date_created": "2023-08-19T09:01:34.000",
    "date_modified": "2023-08-19T09:03:47.000",
    "request_status": "Pending",
    "responsible_agency": "Department of Sanitation",
    "final_address": "5318 Annunciation St",
    "address_councildis": "B",
    "status": "Pending",
    "rowid": "1027716",
    "final_x": "3667164.82145",
    "final_y": "517533.566134",
    "longitude": "-90.11380586187173",
    "latitude": "29.917464934488432",
    "geocoded_column": {
      "latitude": "29.917464934488432",
      "longitude": "-90.11380586187173"
    }
  },
  {
    "service_request": "2023-1027715",
    "request_type": "Trash/Recycling",
    "request_reason": "Dead Animal Pick Up",
    "date_created": "2023-08-19T09:00:09.000",
    "date_modified": "2023-08-19T09:00:10.000",
    "request_status": "Pending",
    "responsible_agency": "Department of Sanitation",
    "final_address": "1401 Louisa Dr",
    "address_councildis": "C",
    "status": "Assigned to Contractor",
    "contractor": "IV Waste",
    "rowid": "1027715",
    "final_x": "3690039.78294",
    "final_y": "537175.570632",
    "longitude": "-90.04090342333966",
    "latitude": "29.970784475887505",
    "geocoded_column": {
      "latitude": "29.970784475887505",
      "longitude": "-90.04090342333966"
    }
  },
  {
    "service_request": "2023-1027714",
    "request_type": "Trash/Recycling",
    "request_reason": "Missed Trash Pick-Up",
    "date_created": "2023-08-19T08:48:03.000",
    "date_modified": "2023-08-19T08:48:04.000",
    "request_status": "Pending",
    "responsible_agency": "Department of Sanitation",
    "final_address": "6930 Martin Dr",
    "address_councildis": "E",
    "status": "Assigned to Contractor",
    "contractor": "Waste Pro",
    "rowid": "1027714",
    "final_x": "3699030.9153",
    "final_y": "557926.290267",
    "longitude": "-90.01175264948685",
    "latitude": "30.027559326171158",
    "geocoded_column": {
      "latitude": "30.027559326171158",
      "longitude": "-90.01175264948685"
    }
  },
  {
    "service_request": "2023-1027713",
    "request_type": "Abandoned Vehicles",
    "request_reason": "Abandoned/Junk Vehicles",
    "date_created": "2023-08-19T08:44:26.000",
    "date_modified": "2023-08-19T08:44:26.000",
    "request_status": "Pending",
    "responsible_agency": "Department of Public Works",
    "final_address": "3120 Orleans Ave",
    "address_councildis": "A",
    "status": "Pending",
    "rowid": "1027713",
    "final_x": "3675120.48456",
    "final_y": "538183.910985",
    "longitude": "-90.08798586259242",
    "latitude": "29.974011344972478",
    "geocoded_column": {
      "latitude": "29.974011344972478",
      "longitude": "-90.08798586259242"
    }
  },
  {
    "service_request": "2023-1027712",
    "request_type": "Safety & Permits",
    "request_reason": "Safety & Permits Request (Cyber Incident Back Up)",
    "date_created": "2023-08-19T08:36:53.000",
    "date_modified": "2023-08-19T08:36:54.000",
    "request_status": "Pending",
    "responsible_agency": "Safety and Permits",
    "final_address": "4051 Piedmont Dr",
    "address_councildis": "D",
    "status": "Pending",
    "rowid": "1027712",
    "final_x": "3685216.47036",
    "final_y": "547618.123986",
    "longitude": "-90.05576831214732",
    "latitude": "29.999646510425393",
    "geocoded_column": {
      "latitude": "29.999646510425393",
      "longitude": "-90.05576831214732"
    }
  },
  {
    "service_request": "2023-1027711",
    "request_type": "Abandoned Vehicles",
    "request_reason": "Abandoned/Junk Vehicles",
    "date_created": "2023-08-19T08:36:11.000",
    "date_modified": "2023-08-19T08:36:11.000",
    "request_status": "Pending",
    "responsible_agency": "Department of Public Works",
    "final_address": "3120 Orleans Ave",
    "address_councildis": "A",
    "status": "Pending",
    "rowid": "1027711",
    "final_x": "3675120.48456",
    "final_y": "538183.910985",
    "longitude": "-90.08798586259242",
    "latitude": "29.974011344972478",
    "geocoded_column": {
      "latitude": "29.974011344972478",
      "longitude": "-90.08798586259242"
    }
  },
  {
    "service_request": "2023-1027710",
    "request_type": "Trash/Recycling",
    "request_reason": "Dead Animal Pick Up",
    "date_created": "2023-08-19T08:30:51.000",
    "date_modified": "2023-08-19T08:30:52.000",
    "request_status": "Pending",
    "responsible_agency": "Department of Sanitation",
    "final_address": "HAMMOND ST & FLAKE AVE",
    "address_councildis": "E",
    "status": "Assigned to Contractor",
    "contractor": "Waste Pro",
    "rowid": "1027710",
    "final_x": "3706070.0",
    "final_y": "555760.48",
    "longitude": "-89.98959013746978",
    "latitude": "30.021379077669053",
    "geocoded_column": {
      "latitude": "30.021379077669053",
      "longitude": "-89.98959013746978"
    }
  },
  {
    "service_request": "2023-1027709",
    "request_type": "Trash/Recycling",
    "request_reason": "Illegal Dumping",
    "date_created": "2023-08-19T08:10:13.000",
    "date_modified": "2023-08-19T08:10:13.000",
    "request_status": "Pending",
    "responsible_agency": "Department of Sanitation",
    "final_address": "1800 St Philip St",
    "address_councildis": "D",
    "status": "Pending",
    "rowid": "1027709",
    "final_x": "3680091.38875",
    "final_y": "535694.293255",
    "longitude": "-90.07237315570845",
    "latitude": "29.967016263046936",
    "geocoded_column": {
      "latitude": "29.967016263046936",
      "longitude": "-90.07237315570845"
    }
  },
  {
    "service_request": "2023-1027708",
    "request_type": "Trash/Recycling",
    "request_reason": "Request a Large Item Pick Up",
    "date_created": "2023-08-19T08:07:56.000",
    "date_modified": "2023-08-19T08:07:57.000",
    "request_status": "Pending",
    "responsible_agency": "Department of Sanitation",
    "final_address": "1800 St Philip St",
    "address_councildis": "D",
    "status": "Assigned to Contractor",
    "contractor": "Richards Disposal",
    "rowid": "1027708",
    "final_x": "3680091.38875",
    "final_y": "535694.293255",
    "longitude": "-90.07237315570845",
    "latitude": "29.967016263046936",
    "geocoded_column": {
      "latitude": "29.967016263046936",
      "longitude": "-90.07237315570845"
    }
  },
  {
    "service_request": "2023-1027707",
    "request_type": "Mosquito, Termite & Rodent Control",
    "request_reason": "Rodent Complaint (Rats)",
    "date_created": "2023-08-19T08:05:38.000",
    "date_modified": "2023-08-19T08:05:38.000",
    "request_status": "Pending",
    "responsible_agency": "Mosquito, Termite & Rodent Control Board",
    "final_address": "1800 St Philip St",
    "address_councildis": "D",
    "status": "Pending",
    "rowid": "1027707",
    "final_x": "3680091.38875",
    "final_y": "535694.293255",
    "longitude": "-90.07237315570845",
    "latitude": "29.967016263046936",
    "geocoded_column": {
      "latitude": "29.967016263046936",
      "longitude": "-90.07237315570845"
    }
  },
  {
    "service_request": "2023-1027706",
    "request_type": "Trash/Recycling",
    "request_reason": "Illegal Dumping",
    "date_created": "2023-08-19T08:03:12.000",
    "date_modified": "2023-08-19T08:03:12.000",
    "request_status": "Pending",
    "responsible_agency": "Department of Sanitation",
    "final_address": "1800 St Philip St",
    "address_councildis": "D",
    "status": "Pending",
    "rowid": "1027706",
    "final_x": "3680091.38875",
    "final_y": "535694.293255",
    "longitude": "-90.07237315570845",
    "latitude": "29.967016263046936",
    "geocoded_column": {
      "latitude": "29.967016263046936",
      "longitude": "-90.07237315570845"
    }
  },
  {
    "service_request": "2023-1027705",
    "request_type": "Property Maintenance",
    "request_reason": "Property Maintenance",
    "date_created": "2023-08-19T08:01:26.000",
    "date_modified": "2023-08-19T08:01:26.000",
    "request_status": "Pending",
    "responsible_agency": "Department of Code Enforcement",
    "final_address": "1800 St Philip St",
    "address_councildis": "D",
    "status": "Pending",
    "rowid": "1027705",
    "final_x": "3680091.38875",
    "final_y": "535694.293255",
    "longitude": "-90.07237315570845",
    "latitude": "29.967016263046936",
    "geocoded_column": {
      "latitude": "29.967016263046936",
      "longitude": "-90.07237315570845"
    }
  },
  {
    "service_request": "2023-1027704",
    "request_type": "Roads/Drainage",
    "request_reason": "Debris in Roadway",
    "date_created": "2023-08-19T07:59:26.000",
    "date_modified": "2023-08-19T07:59:26.000",
    "request_status": "Pending",
    "responsible_agency": "Department of Public Works",
    "final_address": "1800 St Philip St",
    "address_councildis": "D",
    "status": "Pending",
    "rowid": "1027704",
    "final_x": "3680091.38875",
    "final_y": "535694.293255",
    "longitude": "-90.07237315570845",
    "latitude": "29.967016263046936",
    "geocoded_column": {
      "latitude": "29.967016263046936",
      "longitude": "-90.07237315570845"
    }
  },
  {
    "service_request": "2023-1027703",
    "request_type": "Traffic Signals/Signs/Striping/Streetlights",
    "request_reason": "Street Light Knocked Down/Leaning",
    "date_created": "2023-08-19T07:54:25.000",
    "date_modified": "2023-08-19T07:54:25.000",
    "request_status": "Pending",
    "responsible_agency": "Department of Public Works",
    "final_address": "837 Royal St",
    "address_councildis": "C",
    "status": "Pending",
    "contractor": "Legacy Professional Services",
    "rowid": "1027703",
    "final_x": "3682939.87458",
    "final_y": "533003.749828",
    "longitude": "-90.06347179883261",
    "latitude": "29.959531692201413",
    "geocoded_column": {
      "latitude": "29.959531692201413",
      "longitude": "-90.06347179883261"
    }
  },
  {
    "service_request": "2023-1027702",
    "request_type": "Roads/Drainage",
    "request_reason": "Street Subsidence (Sinking)",
    "date_created": "2023-08-19T07:52:36.000",
    "date_modified": "2023-08-19T07:52:36.000",
    "request_status": "Pending",
    "responsible_agency": "Department of Public Works",
    "final_address": "0 BLK English Turn Pkwy",
    "address_councildis": "C",
    "status": "Pending",
    "rowid": "1027702",
    "final_x": "3717809.09125",
    "final_y": "515802.357947",
    "longitude": "-89.95401809490531",
    "latitude": "29.911125486606146",
    "geocoded_column": {
      "latitude": "29.911125486606146",
      "longitude": "-89.95401809490531"
    }
  },
  {
    "service_request": "2023-1027701",
    "request_type": "Roads/Drainage",
    "request_reason": "Street Subsidence (Sinking)",
    "date_created": "2023-08-19T07:50:27.000",
    "date_modified": "2023-08-19T07:50:27.000",
    "request_status": "Pending",
    "responsible_agency": "Department of Public Works",
    "final_address": "0 BLK English Turn Pkwy",
    "address_councildis": "C",
    "status": "Pending",
    "rowid": "1027701",
    "final_x": "3714478.8315",
    "final_y": "516189.451005",
    "longitude": "-89.96451447055301",
    "latitude": "29.912299665809115",
    "geocoded_column": {
      "latitude": "29.912299665809115",
      "longitude": "-89.96451447055301"
    }
  },
  {
    "service_request": "2023-1027700",
    "request_type": "Abandoned Vehicles",
    "request_reason": "Abandoned/Junk Vehicles",
    "date_created": "2023-08-19T07:28:02.000",
    "date_modified": "2023-08-19T07:28:02.000",
    "request_status": "Pending",
    "responsible_agency": "Department of Public Works",
    "final_address": "1822 Hastings Pl",
    "address_councildis": "B",
    "status": "Pending",
    "rowid": "1027700",
    "final_x": "3679981.15515",
    "final_y": "522799.014331",
    "longitude": "-90.07316913813223",
    "latitude": "29.93156190741912",
    "geocoded_column": {
      "latitude": "29.93156190741912",
      "longitude": "-90.07316913813223"
    }
  },
  {
    "service_request": "2023-1027699",
    "request_type": "Trash/Recycling",
    "request_reason": "Start Trash Service",
    "date_created": "2023-08-19T07:17:16.000",
    "date_modified": "2023-08-19T07:17:17.000",
    "request_status": "Pending",
    "responsible_agency": "Department of Sanitation",
    "final_address": "1134 Adams St",
    "address_councildis": "A",
    "status": "Assigned to Contractor",
    "contractor": "Richards Disposal",
    "rowid": "1027699",
    "final_x": "3662986.26215",
    "final_y": "527357.566143",
    "longitude": "-90.12666873499403",
    "latitude": "29.944599465731255",
    "geocoded_column": {
      "latitude": "29.944599465731255",
      "longitude": "-90.12666873499403"
    }
  },
  {
    "service_request": "2023-1027698",
    "request_type": "Trash/Recycling",
    "request_reason": "Request a Large Item Pick Up",
    "date_created": "2023-08-19T07:09:31.000",
    "date_modified": "2023-08-19T07:09:32.000",
    "request_status": "Pending",
    "responsible_agency": "Department of Sanitation",
    "final_address": "4920 Camp St",
    "address_councildis": "B",
    "status": "Assigned to Contractor",
    "contractor": "Richards Disposal",
    "rowid": "1027698",
    "final_x": "3668829.47758",
    "final_y": "518888.438583",
    "longitude": "-90.10850574963433",
    "latitude": "29.921141585271084",
    "geocoded_column": {
      "latitude": "29.921141585271084",
      "longitude": "-90.10850574963433"
    }
  },
  {
    "service_request": "2023-1027697",
    "request_type": "Traffic Signals/Signs/Striping/Streetlights",
    "request_reason": "Street Light Outage/Malfunction",
    "date_created": "2023-08-19T04:02:29.000",
    "date_modified": "2023-08-19T04:02:30.000",
    "request_status": "Pending",
    "responsible_agency": "Department of Public Works",
    "final_address": "429 Amethyst St",
    "address_councildis": "D",
    "status": "Assigned to Contractor",
    "contractor": "Legacy Professional Services",
    "rowid": "1027697",
    "final_x": "3667631.67284",
    "final_y": "556678.378138",
    "longitude": "-90.11101421883531",
    "latitude": "30.025086413441702",
    "geocoded_column": {
      "latitude": "30.025086413441702",
      "longitude": "-90.11101421883531"
    }
  },
  {
    "service_request": "2023-1027696",
    "request_type": "Parks & Parkways",
    "request_reason": "Request Tree Service (Right of Way/Public Property)",
    "date_created": "2023-08-19T03:39:43.000",
    "date_modified": "2023-08-19T03:46:31.000",
    "request_status": "Pending",
    "responsible_agency": "Department of Parks & Parkway",
    "final_address": "700 BLK Esplanade Ave",
    "address_councildis": "C",
    "status": "Pending",
    "rowid": "1027696",
    "final_x": "3683919.4438",
    "final_y": "534551.409687",
    "longitude": "-90.06032425595917",
    "latitude": "29.963757338729597",
    "geocoded_column": {
      "latitude": "29.963757338729597",
      "longitude": "-90.06032425595917"
    }
  },
  {
    "service_request": "2023-1027695",
    "request_type": "Trash/Recycling",
    "request_reason": "Request a Large Item Pick Up",
    "date_created": "2023-08-19T00:47:54.000",
    "date_modified": "2023-08-19T00:47:55.000",
    "request_status": "Pending",
    "responsible_agency": "Department of Sanitation",
    "final_address": "1509 Gordon St",
    "address_councildis": "E",
    "status": "Assigned to Contractor",
    "contractor": "Waste Pro",
    "rowid": "1027695",
    "final_x": "3699791.80528",
    "final_y": "534933.782342",
    "longitude": "-90.01018727991112",
    "latitude": "29.96431430885462",
    "geocoded_column": {
      "latitude": "29.96431430885462",
      "longitude": "-90.01018727991112"
    }
  },
  {
    "service_request": "2023-1027694",
    "request_type": "Trash/Recycling",
    "request_reason": "MIssed Recycling Pick-Up",
    "date_created": "2023-08-19T00:43:19.000",
    "date_modified": "2023-08-19T00:43:20.000",
    "request_status": "Pending",
    "responsible_agency": "Department of Sanitation",
    "final_address": "7423 Downman Rd",
    "address_councildis": "D",
    "status": "Assigned to Contractor",
    "contractor": "Waste Pro",
    "rowid": "1027694",
    "final_x": "3694920.97085",
    "final_y": "557938.725467",
    "longitude": "-90.02473924048844",
    "latitude": "30.027723218336078",
    "geocoded_column": {
      "latitude": "30.027723218336078",
      "longitude": "-90.02473924048844"
    }
  },
  {
    "service_request": "2023-1027693",
    "request_type": "Roads/Drainage",
    "request_reason": "Pothole",
    "date_created": "2023-08-19T00:39:16.000",
    "date_modified": "2023-08-19T00:39:16.000",
    "request_status": "Pending",
    "responsible_agency": "Department of Public Works",
    "final_address": "1421 Constantinople St",
    "address_councildis": "B",
    "status": "Pending",
    "rowid": "1027693",
    "final_x": "3672433.24257",
    "final_y": "520667.657465",
    "longitude": "-90.09706965638372",
    "latitude": "29.925927453713577",
    "geocoded_column": {
      "latitude": "29.925927453713577",
      "longitude": "-90.09706965638372"
    }
  },
  {
    "service_request": "2023-1027692",
    "request_type": "Roads/Drainage",
    "request_reason": "Pothole",
    "date_created": "2023-08-19T00:32:52.000",
    "date_modified": "2023-08-19T00:32:52.000",
    "request_status": "Pending",
    "responsible_agency": "Department of Public Works",
    "final_address": "1312 Milan St",
    "address_councildis": "B",
    "status": "Pending",
    "rowid": "1027692",
    "final_x": "3671625.82823",
    "final_y": "520286.919608",
    "longitude": "-90.09963137110304",
    "latitude": "29.92490447494246",
    "geocoded_column": {
      "latitude": "29.92490447494246",
      "longitude": "-90.09963137110304"
    }
  },
  {
    "service_request": "2023-1027691",
    "request_type": "Roads/Drainage",
    "request_reason": "Pothole",
    "date_created": "2023-08-19T00:12:46.000",
    "date_modified": "2023-08-19T00:12:46.000",
    "request_status": "Pending",
    "responsible_agency": "Department of Public Works",
    "final_address": "3629 Prytania St",
    "address_councildis": "B",
    "status": "Pending",
    "rowid": "1027691",
    "final_x": "3673410.74836",
    "final_y": "520712.326393",
    "longitude": "-90.09398242884356",
    "latitude": "29.926021243402264",
    "geocoded_column": {
      "latitude": "29.926021243402264",
      "longitude": "-90.09398242884356"
    }
  },
  {
    "service_request": "2023-1027690",
    "request_type": "Trash/Recycling",
    "request_reason": "Request a Large Item Pick Up",
    "date_created": "2023-08-18T23:39:37.000",
    "date_modified": "2023-08-18T23:39:37.000",
    "request_status": "Pending",
    "responsible_agency": "Department of Sanitation",
    "final_address": "2621 Rousseau St",
    "address_councildis": "B",
    "status": "Assigned to Contractor",
    "contractor": "Richards Disposal",
    "rowid": "1027690",
    "final_x": "3678641.1837",
    "final_y": "519208.824631",
    "longitude": "-90.07752348716248",
    "latitude": "29.921730509074422",
    "geocoded_column": {
      "latitude": "29.921730509074422",
      "longitude": "-90.07752348716248"
    }
  },
  {
    "service_request": "2023-1027689",
    "request_type": "Roads/Drainage",
    "request_reason": "Pothole",
    "date_created": "2023-08-18T23:22:45.000",
    "date_modified": "2023-08-18T23:22:45.000",
    "request_status": "Pending",
    "responsible_agency": "Department of Public Works",
    "final_address": "1525 Webster St",
    "address_councildis": "A",
    "status": "Pending",
    "rowid": "1027689",
    "final_x": "3665190.42503",
    "final_y": "522192.335546",
    "longitude": "-90.1198822175671",
    "latitude": "29.930332720519434",
    "geocoded_column": {
      "latitude": "29.930332720519434",
      "longitude": "-90.1198822175671"
    }
  },
  {
    "service_request": "2023-1027688",
    "request_type": "Roads/Drainage",
    "request_reason": "Pothole",
    "date_created": "2023-08-18T23:18:58.000",
    "date_modified": "2023-08-18T23:18:58.000",
    "request_status": "Pending",
    "responsible_agency": "Department of Public Works",
    "final_address": "4216 Chestnut St",
    "address_councildis": "B",
    "status": "Pending",
    "rowid": "1027688",
    "final_x": "3671574.31393",
    "final_y": "519539.203703",
    "longitude": "-90.09981939416457",
    "latitude": "29.922850019854593",
    "geocoded_column": {
      "latitude": "29.922850019854593",
      "longitude": "-90.09981939416457"
    }
  },
  {
    "service_request": "2023-1027687",
    "request_type": "Roads/Drainage",
    "request_reason": "Pothole",
    "date_created": "2023-08-18T23:13:03.000",
    "date_modified": "2023-08-18T23:13:03.000",
    "request_status": "Pending",
    "responsible_agency": "Department of Public Works",
    "final_address": "1571 Henry Clay Ave",
    "address_councildis": "A",
    "status": "Pending",
    "rowid": "1027687",
    "final_x": "3665103.08288",
    "final_y": "522618.44953",
    "longitude": "-90.12014370182915",
    "latitude": "29.931506942162873",
    "geocoded_column": {
      "latitude": "29.931506942162873",
      "longitude": "-90.12014370182915"
    }
  },
  {
    "service_request": "2023-1027686",
    "request_type": "Traffic Signals/Signs/Striping/Streetlights",
    "request_reason": "Street Light Outage/Malfunction",
    "date_created": "2023-08-18T23:07:33.000",
    "date_modified": "2023-08-18T23:07:34.000",
    "request_status": "Pending",
    "responsible_agency": "Department of Public Works",
    "final_address": "402 Audubon St",
    "address_councildis": "A",
    "status": "Assigned to Contractor",
    "contractor": "Legacy Professional Services",
    "rowid": "1027686",
    "final_x": "3662089.68135",
    "final_y": "522932.876091",
    "longitude": "-90.12964627301545",
    "latitude": "29.932458901345072",
    "geocoded_column": {
      "latitude": "29.932458901345072",
      "longitude": "-90.12964627301545"
    }
  },
  {
    "service_request": "2023-1027685",
    "request_type": "Abandoned Vehicles",
    "request_reason": "Abandoned/Junk Vehicles",
    "date_created": "2023-08-18T22:58:16.000",
    "date_modified": "2023-08-18T22:58:16.000",
    "request_status": "Pending",
    "responsible_agency": "Department of Public Works",
    "final_address": "8415 Colapissa St",
    "address_councildis": "A",
    "status": "Pending",
    "rowid": "1027685",
    "final_x": "3665670.25818",
    "final_y": "534243.449669",
    "longitude": "-90.11796393321049",
    "latitude": "29.963455412332355",
    "geocoded_column": {
      "latitude": "29.963455412332355",
      "longitude": "-90.11796393321049"
    }
  },
  {
    "service_request": "2023-1027684",
    "request_type": "Roads/Drainage",
    "request_reason": "Pothole",
    "date_created": "2023-08-18T21:55:24.000",
    "date_modified": "2023-08-18T21:55:24.000",
    "request_status": "Pending",
    "responsible_agency": "Department of Public Works",
    "final_address": "2900 BLK Pocahontas St",
    "address_councildis": "D",
    "status": "Pending",
    "rowid": "1027684",
    "final_x": "3688974.48258",
    "final_y": "548365.865654",
    "longitude": "-90.04387006396978",
    "latitude": "30.001586782053135",
    "geocoded_column": {
      "latitude": "30.001586782053135",
      "longitude": "-90.04387006396978"
    }
  },
  {
    "service_request": "2023-1027683",
    "request_type": "Trash/Recycling",
    "request_reason": "Missed Trash Pick-Up",
    "date_created": "2023-08-18T21:53:36.000",
    "date_modified": "2023-08-19T15:14:19.000",
    "case_close_date": "2023-08-19T10:14:19.000",
    "request_status": "Closed",
    "responsible_agency": "Department of Sanitation",
    "final_address": "Wildair Dr, New Orleans, Louisiana, 70122",
    "address_councildis": "D",
    "status": "Invalid Request",
    "contractor": "IV Waste",
    "contractor_action": "Invalid Pick-Up",
    "rowid": "1027683",
    "final_x": "3681521.903",
    "final_y": "553403.138199",
    "longitude": "-90.0672376502805",
    "latitude": "30.01566596381515",
    "geocoded_column": {
      "latitude": "30.01566596381515",
      "longitude": "-90.0672376502805"
    }
  },
  {
    "service_request": "2023-1027682",
    "request_type": "Property Maintenance",
    "request_reason": "Property Maintenance",
    "date_created": "2023-08-18T20:37:39.000",
    "date_modified": "2023-08-18T20:37:39.000",
    "request_status": "Pending",
    "responsible_agency": "Department of Code Enforcement",
    "final_address": "10330 Deerfield Dr",
    "address_councildis": "E",
    "status": "Pending",
    "rowid": "1027682",
    "final_x": "3710278.36369",
    "final_y": "563599.577825",
    "longitude": "-89.97599958097344",
    "latitude": "30.042797122163762",
    "geocoded_column": {
      "latitude": "30.042797122163762",
      "longitude": "-89.97599958097344"
    }
  },
  {
    "service_request": "2023-1027681",
    "request_type": "Trash/Recycling",
    "request_reason": "Illegal Dumping",
    "date_created": "2023-08-18T20:29:32.000",
    "date_modified": "2023-08-18T20:29:32.000",
    "request_status": "Pending",
    "responsible_agency": "Department of Sanitation",
    "final_address": "6874 Parc Brittany Blvd",
    "address_councildis": "E",
    "status": "Pending",
    "rowid": "1027681",
    "final_x": "3702688.5306",
    "final_y": "557698.305563",
    "longitude": "-90.0002033376842",
    "latitude": "30.026815953682124",
    "geocoded_column": {
      "latitude": "30.026815953682124",
      "longitude": "-90.0002033376842"
    }
  },
  {
    "service_request": "2023-1027680",
    "request_type": "Traffic Signals/Signs/Striping/Streetlights",
    "request_reason": "Disabled Parking Sign ",
    "date_created": "2023-08-18T20:11:46.000",
    "date_modified": "2023-08-18T20:11:46.000",
    "request_status": "Pending",
    "responsible_agency": "Department of Public Works",
    "final_address": "2328 Jena St",
    "address_councildis": "B",
    "status": "Pending",
    "rowid": "1027680",
    "final_x": "3670129.75918",
    "final_y": "523561.226555",
    "longitude": "-90.1042431148589",
    "latitude": "29.93395197784161",
    "geocoded_column": {
      "latitude": "29.93395197784161",
      "longitude": "-90.1042431148589"
    }
  },
  {
    "service_request": "2023-1027679",
    "request_type": "Roads/Drainage",
    "request_reason": "Damaged Sidewalk",
    "date_created": "2023-08-18T20:09:50.000",
    "date_modified": "2023-08-18T20:09:51.000",
    "request_status": "Pending",
    "responsible_agency": "Department of Public Works",
    "final_address": "10330 Deerfield Dr",
    "address_councildis": "E",
    "status": "Pending",
    "rowid": "1027679",
    "final_x": "3710278.36369",
    "final_y": "563599.577825",
    "longitude": "-89.97599958097344",
    "latitude": "30.042797122163762",
    "geocoded_column": {
      "latitude": "30.042797122163762",
      "longitude": "-89.97599958097344"
    }
  },
  {
    "service_request": "2023-1027678",
    "request_type": "Traffic Signals/Signs/Striping/Streetlights",
    "request_reason": "Street Light Outage/Malfunction",
    "date_created": "2023-08-18T20:05:29.000",
    "date_modified": "2023-08-18T20:05:30.000",
    "request_status": "Pending",
    "responsible_agency": "Department of Public Works",
    "final_address": "4566 Eastview Dr",
    "address_councildis": "E",
    "status": "Assigned to Contractor",
    "contractor": "Legacy Professional Services",
    "rowid": "1027678",
    "final_x": "3705103.28836",
    "final_y": "554250.1846",
    "longitude": "-89.99270049018902",
    "latitude": "30.017257484176103",
    "geocoded_column": {
      "latitude": "30.017257484176103",
      "longitude": "-89.99270049018902"
    }
  },
  {
    "service_request": "2023-1027677",
    "request_type": "Traffic Signals/Signs/Striping/Streetlights",
    "request_reason": "Street Light Outage/Malfunction",
    "date_created": "2023-08-18T20:05:07.000",
    "date_modified": "2023-08-18T20:05:08.000",
    "request_status": "Pending",
    "responsible_agency": "Department of Public Works",
    "final_address": "4566 Eastview Dr",
    "address_councildis": "E",
    "status": "Assigned to Contractor",
    "contractor": "Legacy Professional Services",
    "rowid": "1027677",
    "final_x": "3705103.28836",
    "final_y": "554250.1846",
    "longitude": "-89.99270049018902",
    "latitude": "30.017257484176103",
    "geocoded_column": {
      "latitude": "30.017257484176103",
      "longitude": "-89.99270049018902"
    }
  },
  {
    "service_request": "2023-1027676",
    "request_type": "Safety & Permits",
    "request_reason": "Safety & Permits Request (Cyber Incident Back Up)",
    "date_created": "2023-08-18T20:04:19.000",
    "date_modified": "2023-08-18T20:04:19.000",
    "request_status": "Pending",
    "responsible_agency": "Safety and Permits",
    "final_address": "5120 Eastern St",
    "address_councildis": "D",
    "status": "Pending",
    "rowid": "1027676",
    "final_x": "3687874.57212",
    "final_y": "551923.061398",
    "longitude": "-90.04721864843223",
    "latitude": "30.01140176012717",
    "geocoded_column": {
      "latitude": "30.01140176012717",
      "longitude": "-90.04721864843223"
    }
  },
  {
    "service_request": "2023-1027675",
    "request_type": "Trash/Recycling",
    "request_reason": "MIssed Recycling Pick-Up",
    "date_created": "2023-08-18T19:33:40.000",
    "date_modified": "2023-08-18T19:33:41.000",
    "request_status": "Pending",
    "responsible_agency": "Department of Sanitation",
    "final_address": "171 Walnut St",
    "address_councildis": "A",
    "status": "Assigned to Contractor",
    "contractor": "Richards Disposal",
    "rowid": "1027675",
    "final_x": "3661128.84749",
    "final_y": "520736.568057",
    "longitude": "-90.13275220439071",
    "latitude": "29.92644745985871",
    "geocoded_column": {
      "latitude": "29.92644745985871",
      "longitude": "-90.13275220439071"
    }
  },
  {
    "service_request": "2023-1027674",
    "request_type": "Trash/Recycling",
    "request_reason": "Missed Trash Pick-Up",
    "date_created": "2023-08-18T19:30:09.000",
    "date_modified": "2023-08-18T19:30:10.000",
    "request_status": "Pending",
    "responsible_agency": "Department of Sanitation",
    "final_address": "917 Dufossat St",
    "address_councildis": "B",
    "status": "Assigned to Contractor",
    "contractor": "Richards Disposal",
    "rowid": "1027674",
    "final_x": "3668134.80788",
    "final_y": "518760.210871",
    "longitude": "-90.11070283762476",
    "latitude": "29.920809399124185",
    "geocoded_column": {
      "latitude": "29.920809399124185",
      "longitude": "-90.11070283762476"
    }
  },
  {
    "service_request": "2023-1027673",
    "request_type": "Trash/Recycling",
    "request_reason": "Replace Trash Cart",
    "date_created": "2023-08-18T19:26:55.000",
    "date_modified": "2023-08-18T19:26:56.000",
    "request_status": "Pending",
    "responsible_agency": "Department of Sanitation",
    "final_address": "2838 Chippewa St",
    "address_councildis": "B",
    "status": "Assigned to Contractor",
    "contractor": "Richards Disposal",
    "rowid": "1027673",
    "final_x": "3677629.80533",
    "final_y": "519359.674487",
    "longitude": "-90.08071077178795",
    "latitude": "29.922175737227178",
    "geocoded_column": {
      "latitude": "29.922175737227178",
      "longitude": "-90.08071077178795"
    }
  },
  {
    "service_request": "2023-1027672",
    "request_type": "Taxi Issues",
    "request_reason": "Taxi Lost & Found Item",
    "date_created": "2023-08-18T19:07:49.000",
    "date_modified": "2023-08-18T19:07:50.000",
    "request_status": "Pending",
    "responsible_agency": "Ground Transportation Bureau",
    "final_address": "817 Common St",
    "address_councildis": "B",
    "status": "Pending",
    "rowid": "1027672",
    "final_x": "3680475.86792",
    "final_y": "530608.104258",
    "longitude": "-90.0713358739745",
    "latitude": "29.953019332872906",
    "geocoded_column": {
      "latitude": "29.953019332872906",
      "longitude": "-90.0713358739745"
    }
  },
  {
    "service_request": "2023-1027671",
    "request_type": "Trash/Recycling",
    "request_reason": "Repair Trash Cart",
    "date_created": "2023-08-18T18:38:11.000",
    "date_modified": "2023-08-18T18:38:12.000",
    "request_status": "Pending",
    "responsible_agency": "Department of Sanitation",
    "final_address": "7310 Hickory St",
    "address_councildis": "A",
    "status": "Assigned to Contractor",
    "contractor": "Richards Disposal",
    "rowid": "1027671",
    "final_x": "3664998.91482",
    "final_y": "528453.441088",
    "longitude": "-90.12027753993051",
    "latitude": "29.947554336540804",
    "geocoded_column": {
      "latitude": "29.947554336540804",
      "longitude": "-90.12027753993051"
    }
  },
  {
    "service_request": "2023-1027670",
    "request_type": "Trash/Recycling",
    "request_reason": "Order Recycling Cart",
    "date_created": "2023-08-18T18:36:13.000",
    "date_modified": "2023-08-18T18:36:13.000",
    "request_status": "Pending",
    "responsible_agency": "Department of Sanitation",
    "final_address": "7310 Hickory St",
    "address_councildis": "A",
    "status": "Pending",
    "rowid": "1027670",
    "final_x": "3664998.91482",
    "final_y": "528453.441088",
    "longitude": "-90.12027753993051",
    "latitude": "29.947554336540804",
    "geocoded_column": {
      "latitude": "29.947554336540804",
      "longitude": "-90.12027753993051"
    }
  },
  {
    "service_request": "2023-1027669",
    "request_type": "Traffic Signals/Signs/Striping/Streetlights",
    "request_reason": "Additional signage",
    "date_created": "2023-08-18T18:28:27.000",
    "date_modified": "2023-08-18T18:28:27.000",
    "request_status": "Pending",
    "responsible_agency": "Department of Public Works",
    "final_address": "500 BLK Andrew Higgins Dr",
    "address_councildis": "B",
    "status": "Pending",
    "rowid": "1027669",
    "final_x": "3680748.79824",
    "final_y": "526930.223486",
    "longitude": "-90.07060205833817",
    "latitude": "29.942898126757424",
    "geocoded_column": {
      "latitude": "29.942898126757424",
      "longitude": "-90.07060205833817"
    }
  },
  {
    "service_request": "2023-1027668",
    "request_type": "Abandoned Vehicles",
    "request_reason": "Abandoned/Junk Vehicles",
    "date_created": "2023-08-18T18:26:47.000",
    "date_modified": "2023-08-18T18:26:47.000",
    "request_status": "Pending",
    "responsible_agency": "Department of Public Works",
    "final_address": "7816 Breakwater Dr",
    "address_councildis": "A",
    "status": "Pending",
    "rowid": "1027668",
    "final_x": "3664821.87412",
    "final_y": "557487.897883",
    "longitude": "-90.11986569139917",
    "latitude": "30.02739442226211",
    "geocoded_column": {
      "latitude": "30.02739442226211",
      "longitude": "-90.11986569139917"
    }
  },
  {
    "service_request": "2023-1027667",
    "request_type": "Trash/Recycling",
    "request_reason": "Repair Trash Cart",
    "date_created": "2023-08-18T18:20:32.000",
    "date_modified": "2023-08-18T18:20:32.000",
    "request_status": "Pending",
    "responsible_agency": "Department of Sanitation",
    "final_address": "1848 Halsey Ave",
    "address_councildis": "C",
    "status": "Assigned to Contractor",
    "contractor": "Richards Disposal",
    "rowid": "1027667",
    "final_x": "3697849.39331",
    "final_y": "523958.764668",
    "longitude": "-90.0167194595286",
    "latitude": "29.934198390449616",
    "geocoded_column": {
      "latitude": "29.934198390449616",
      "longitude": "-90.0167194595286"
    }
  },
  {
    "service_request": "2023-1027666",
    "request_type": "Trash/Recycling",
    "request_reason": "Dead Animal Pick Up",
    "date_created": "2023-08-18T18:12:25.000",
    "date_modified": "2023-08-18T18:12:26.000",
    "request_status": "Pending",
    "responsible_agency": "Department of Sanitation",
    "final_address": "NASHVILLE AVE & S TONTI ST",
    "address_councildis": "A",
    "status": "Assigned to Contractor",
    "contractor": "Richards Disposal",
    "rowid": "1027666",
    "final_x": "3668068.1",
    "final_y": "528111.58",
    "longitude": "-90.11059841551247",
    "latitude": "29.946524629796265",
    "geocoded_column": {
      "latitude": "29.946524629796265",
      "longitude": "-90.11059841551247"
    }
  },
  {
    "service_request": "2023-1027665",
    "request_type": "Roads/Drainage",
    "request_reason": "WaterMain Break",
    "date_created": "2023-08-18T18:10:07.000",
    "date_modified": "2023-08-18T18:10:07.000",
    "request_status": "Closed",
    "responsible_agency": "Department of Public Works",
    "final_address": "1830 Congress St",
    "address_councildis": "D",
    "status": "Invalid Case",
    "rowid": "1027665",
    "final_x": "3691396.64668",
    "final_y": "538460.120201",
    "longitude": "-90.03657238499581",
    "latitude": "29.974274380499434",
    "geocoded_column": {
      "latitude": "29.974274380499434",
      "longitude": "-90.03657238499581"
    }
  },
  {
    "service_request": "2023-1027664",
    "request_type": "Trash/Recycling",
    "request_reason": "Order Trash Cart",
    "date_created": "2023-08-18T18:07:01.000",
    "date_modified": "2023-08-18T18:07:02.000",
    "request_status": "Pending",
    "responsible_agency": "Department of Sanitation",
    "final_address": "3938 Jennifer St",
    "address_councildis": "C",
    "status": "Assigned to Contractor",
    "contractor": "Richards Disposal",
    "rowid": "1027664",
    "final_x": "3709634.72779",
    "final_y": "516184.485236",
    "longitude": "-89.97980382698078",
    "latitude": "29.912444239703234",
    "geocoded_column": {
      "latitude": "29.912444239703234",
      "longitude": "-89.97980382698078"
    }
  },