[
  {
    "service_request": "2025-1195948",
    "request_type": "Property Maintenance",
    "request_reason": "Property Maintenance",
    "date_created": "2025-05-28T22:37:54.000",
    "date_modified": "2025-05-28T22:37:55.000",
    "request_status": "Pending",
    "responsible_agency": "Department of Code Enforcement",
    "final_address": "8621 Plum St",
    "address_councildis": "A",
    "status": "Pending",
    "rowid": "1195948",
    "final_x": "3660786.63443",
    "final_y": "529973.757569",
    "longitude": "-90.13352715542179",
    "latitude": "29.951856666224725",
    "geocoded_column": {
      "latitude": "29.951856666224725",
      "longitude": "-90.13352715542179"
    }
  },
  {
    "service_request": "2025-1195947",
    "request_type": "Abandoned Vehicles",
    "request_reason": "Abandoned/Junk Vehicles",
    "date_created": "2025-05-28T22:35:05.000",
    "date_modified": "2025-05-28T22:35:07.000",
    "request_status": "Pending",
    "responsible_agency": "Department of Public Works",
    "final_address": "1409 Madrid St",
    "address_councildis": "D",
    "status": "Pending",
    "rowid": "1195947",
    "final_x": "3677552.87426",
    "final_y": "554635.844888",
    "longitude": "-90.07973537039825",
    "latitude": "30.019175452277228",
    "geocoded_column": {
      "latitude": "30.019175452277228",
      "longitude": "-90.07973537039825"
    }
  },
  {
    "service_request": "2025-1195946",
    "request_type": "Abandoned Vehicles",
    "request_reason": "Abandoned/Junk Vehicles",
    "date_created": "2025-05-28T22:34:23.000",
    "date_modified": "2025-05-28T22:34:25.000",
    "request_status": "Pending",
    "responsible_agency": "Department of Public Works",
    "final_address": "1409 Madrid St",
    "address_councildis": "D",
    "status": "Pending",
    "rowid": "1195946",
    "final_x": "3677552.87426",
    "final_y": "554635.844888",
    "longitude": "-90.07973537039825",
    "latitude": "30.019175452277228",
    "geocoded_column": {
      "latitude": "30.019175452277228",
      "longitude": "-90.07973537039825"
    }
  },
  {
    "service_request": "2025-1195945",
    "request_type": "Abandoned Vehicles",
    "request_reason": "Abandoned/Junk Vehicles",
    "date_created": "2025-05-28T22:32:54.000",
    "date_modified": "2025-05-28T22:32:58.000",
    "request_status": "Pending",
    "responsible_agency": "Department of Public Works",
    "final_address": "1409 Madrid St",
    "address_councildis": "D",
    "status": "Pending",
    "rowid": "1195945",
    "final_x": "3677552.87426",
    "final_y": "554635.844888",
    "longitude": "-90.07973537039825",
    "latitude": "30.019175452277228",
    "geocoded_column": {
      "latitude": "30.019175452277228",
      "longitude": "-90.07973537039825"
    }
  },
  {
    "service_request": "2025-1195944",
    "request_type": "Trash/Recycling",
    "request_reason": "Order Recycling Cart",
    "date_created": "2025-05-28T21:58:27.000",
    "date_modified": "2025-05-28T21:58:29.000",
    "request_status": "Pending",
    "responsible_agency": "Department of Sanitation",
    "final_address": "18 Castle Pines Dr",
    "address_councildis": "C",
    "status": "Pending",
    "rowid": "1195944",
    "final_x": "3719523.85906",
    "final_y": "511382.480368",
    "longitude": "-89.94877451531495",
    "latitude": "29.898915519272123",
    "geocoded_column": {
      "latitude": "29.898915519272123",
      "longitude": "-89.94877451531495"
    }
  },
  {
    "service_request": "2025-1195942",
    "request_type": "Trash/Recycling",
    "request_reason": "Order Recycling Cart",
    "date_created": "2025-05-28T21:24:35.000",
    "date_modified": "2025-05-28T21:24:37.000",
    "request_status": "Pending",
    "responsible_agency": "Department of Sanitation",
    "final_address": "357 Millaudon St",
    "address_councildis": "A",
    "status": "Pending",
    "rowid": "1195942",
    "final_x": "3661794.54432",
    "final_y": "524456.601404",
    "longitude": "-90.13052750503476",
    "latitude": "29.936657187434115",
    "geocoded_column": {
      "latitude": "29.936657187434115",
      "longitude": "-90.13052750503476"
    }
  },
  {
    "service_request": "2025-1195941",
    "request_type": "Trash/Recycling",
    "request_reason": "Order Trash Cart",
    "date_created": "2025-05-28T20:59:47.000",
    "date_modified": "2025-05-28T20:59:50.000",
    "request_status": "Pending",
    "responsible_agency": "Department of Sanitation",
    "final_address": "812 Dublin St",
    "address_councildis": "A",
    "status": "Assigned to Contractor",
    "contractor": "IV Waste",
    "rowid": "1195941",
    "final_x": "3660811.95674",
    "final_y": "527700.067903",
    "longitude": "-90.13352237312202",
    "latitude": "29.945604017324587",
    "geocoded_column": {
      "latitude": "29.945604017324587",
      "longitude": "-90.13352237312202"
    }
  },
  {
    "service_request": "2025-1195940",
    "request_type": "Alley Ways",
    "request_reason": "Alley Way Regrading",
    "date_created": "2025-05-28T20:53:57.000",
    "date_modified": "2025-05-28T20:53:59.000",
    "request_status": "Pending",
    "responsible_agency": "Department of Public Works",
    "final_address": "6856 Catina St",
    "address_councildis": "A",
    "status": "Pending",
    "rowid": "1195940",
    "final_x": "3667049.96474",
    "final_y": "553539.692375",
    "longitude": "-90.11295796102038",
    "latitude": "30.016473188331624",
    "geocoded_column": {
      "latitude": "30.016473188331624",
      "longitude": "-90.11295796102038"
    }
  },
  {
    "service_request": "2025-1195939",
    "request_type": "Streetlights",
    "request_reason": "Streetlight Outage/Malfunction",
    "date_created": "2025-05-28T20:47:36.000",
    "date_modified": "2025-05-28T20:47:39.000",
    "request_status": "Pending",
    "responsible_agency": "Department of Public Works",
    "final_address": "3116 Fortin St",
    "address_councildis": "A",
    "status": "Pending",
    "contractor": "Legacy Professional Services",
    "rowid": "1195939",
    "final_x": "3676469.47547",
    "final_y": "540924.258955",
    "longitude": "-90.0836310499441",
    "latitude": "29.981505977451373",
    "geocoded_column": {
      "latitude": "29.981505977451373",
      "longitude": "-90.0836310499441"
    }
  },
  {
    "service_request": "2025-1195938",
    "request_type": "Trash/Recycling",
    "request_reason": "Request a Large Item Pick Up",
    "date_created": "2025-05-28T20:37:18.000",
    "date_modified": "2025-05-28T20:37:21.000",
    "request_status": "Pending",
    "responsible_agency": "Department of Sanitation",
    "final_address": "4821 Read Blvd",
    "address_councildis": "E",
    "status": "Assigned to Contractor",
    "contractor": "Waste Pro",
    "rowid": "1195938",
    "final_x": "3712828.31762",
    "final_y": "556592.240282",
    "longitude": "-89.96820462192127",
    "latitude": "30.02344643554903",
    "geocoded_column": {
      "latitude": "30.02344643554903",
      "longitude": "-89.96820462192127"
    }
  },
  {
    "service_request": "2025-1195937",
    "request_type": "Parks & Parkways",
    "request_reason": "Park Maintenance/Clean Up",
    "date_created": "2025-05-28T19:56:19.000",
    "date_modified": "2025-05-28T19:56:21.000",
    "request_status": "Pending",
    "responsible_agency": "Department of Parks & Parkway",
    "final_address": "2860 Florida Ave",
    "address_councildis": "D",
    "status": "Pending",
    "rowid": "1195937",
    "final_x": "3688381.63708",
    "final_y": "542460.694157",
    "longitude": "-90.04595251004734",
    "latitude": "29.985368017743916",
    "geocoded_column": {
      "latitude": "29.985368017743916",
      "longitude": "-90.04595251004734"
    }
  },
  {
    "service_request": "2025-1195936",
    "request_type": "Mosquito, Termite & Rodent Control",
    "request_reason": "Mosquito Complaint",
    "date_created": "2025-05-28T19:56:07.000",
    "date_modified": "2025-05-28T19:56:09.000",
    "request_status": "Pending",
    "responsible_agency": "Mosquito, Termite & Rodent Control Board",
    "final_address": "528 Topaz St",
    "address_councildis": "D",
    "status": "Pending",
    "rowid": "1195936",
    "final_x": "3668584.34606",
    "final_y": "556475.569754",
    "longitude": "-90.10801076407002",
    "latitude": "30.024500784943502",
    "geocoded_column": {
      "latitude": "30.024500784943502",
      "longitude": "-90.10801076407002"
    }
  },
  {
    "service_request": "2025-1195935",
    "request_type": "Trash/Recycling",
    "request_reason": "Request a Large Item Pick Up",
    "date_created": "2025-05-28T19:54:09.000",
    "date_modified": "2025-05-28T19:54:11.000",
    "request_status": "Pending",
    "responsible_agency": "Department of Sanitation",
    "final_address": "2530 Tricou St",
    "address_councildis": "E",
    "status": "Assigned to Contractor",
    "contractor": "Waste Pro",
    "rowid": "1195935",
    "final_x": "3702211.49898",
    "final_y": "538287.107337",
    "longitude": "-90.00242313952627",
    "latitude": "29.973457688216346",
    "geocoded_column": {
      "latitude": "29.973457688216346",
      "longitude": "-90.00242313952627"
    }
  },
  {
    "service_request": "2025-1195934",
    "request_type": "Trash/Recycling",
    "request_reason": "Request a Large Item Pick Up",
    "date_created": "2025-05-28T19:50:38.000",
    "date_modified": "2025-05-28T19:50:39.000",
    "request_status": "Pending",
    "responsible_agency": "Department of Sanitation",
    "final_address": "706 River Oaks Dr",
    "address_councildis": "C",
    "status": "Assigned to Contractor",
    "contractor": "Richards Disposal",
    "rowid": "1195934",
    "final_x": "3701545.82583",
    "final_y": "519947.15692",
    "longitude": "-90.00519682115737",
    "latitude": "29.923050552996486",
    "geocoded_column": {
      "latitude": "29.923050552996486",
      "longitude": "-90.00519682115737"
    }
  },
  {
    "service_request": "2025-1195933",
    "request_type": "Drainage",
    "request_reason": "Catch Basin Clogged",
    "date_created": "2025-05-28T19:50:31.000",
    "date_modified": "2025-05-28T19:50:33.000",
    "request_status": "Pending",
    "responsible_agency": "Sewerage & Water Board",
    "final_address": "2858 Florida Ave",
    "address_councildis": "D",
    "status": "Pending",
    "rowid": "1195933",
    "final_x": "3688357.33155",
    "final_y": "542461.388557",
    "longitude": "-90.04602925628286",
    "latitude": "29.985370677944548",
    "geocoded_column": {
      "latitude": "29.985370677944548",
      "longitude": "-90.04602925628286"
    }
  },
  {
    "service_request": "2025-1195932",
    "request_type": "Abandoned Vehicles",
    "request_reason": "Abandoned/Junk Vehicles",
    "date_created": "2025-05-28T19:48:18.000",
    "date_modified": "2025-05-28T19:48:22.000",
    "request_status": "Pending",
    "responsible_agency": "Department of Public Works",
    "final_address": "714 Third St",
    "address_councildis": "B",
    "status": "Pending",
    "rowid": "1195932",
    "final_x": "3678285.5213",
    "final_y": "520006.47436",
    "longitude": "-90.07861859064549",
    "latitude": "29.923934500463133",
    "geocoded_column": {
      "latitude": "29.923934500463133",
      "longitude": "-90.07861859064549"
    }
  },
  {
    "service_request": "2025-1195931",
    "request_type": "Abandoned Vehicles",
    "request_reason": "Abandoned/Junk Vehicles",
    "date_created": "2025-05-28T19:45:30.000",
    "date_modified": "2025-05-28T19:45:32.000",
    "request_status": "Pending",
    "responsible_agency": "Department of Public Works",
    "final_address": "714 Third St",
    "address_councildis": "B",
    "status": "Pending",
    "rowid": "1195931",
    "final_x": "3678285.5213",
    "final_y": "520006.47436",
    "longitude": "-90.07861859064549",
    "latitude": "29.923934500463133",
    "geocoded_column": {
      "latitude": "29.923934500463133",
      "longitude": "-90.07861859064549"
    }
  },
  {
    "service_request": "2025-1195930",
    "request_type": "Abandoned Vehicles",
    "request_reason": "Abandoned/Junk Vehicles",
    "date_created": "2025-05-28T19:44:06.000",
    "date_modified": "2025-05-28T19:44:08.000",
    "request_status": "Pending",
    "responsible_agency": "Department of Public Works",
    "final_address": "714 Third St",
    "address_councildis": "B",
    "status": "Pending",
    "rowid": "1195930",
    "final_x": "3678285.5213",
    "final_y": "520006.47436",
    "longitude": "-90.07861859064549",
    "latitude": "29.923934500463133",
    "geocoded_column": {
      "latitude": "29.923934500463133",
      "longitude": "-90.07861859064549"
    }
  },
  {
    "service_request": "2025-1195929",
    "request_type": "Drainage",
    "request_reason": "Drainage Manhole Cover Missing or Damaged",
    "date_created": "2025-05-28T19:43:02.000",
    "date_modified": "2025-05-28T19:43:04.000",
    "request_status": "Pending",
    "responsible_agency": "Sewerage & Water Board",
    "final_address": "1208 Murl St",
    "address_councildis": "C",
    "status": "Pending",
    "rowid": "1195929",
    "final_x": "3695496.49898",
    "final_y": "526957.08915",
    "longitude": "-90.02403927136812",
    "latitude": "29.942516878937326",
    "geocoded_column": {
      "latitude": "29.942516878937326",
      "longitude": "-90.02403927136812"
    }
  },
  {
    "service_request": "2025-1195928",
    "request_type": "Drainage",
    "request_reason": "Drainage Manhole Cover Missing or Damaged",
    "date_created": "2025-05-28T19:32:59.000",
    "date_modified": "2025-05-28T19:33:01.000",
    "request_status": "Pending",
    "responsible_agency": "Sewerage & Water Board",
    "final_address": "1208 Murl St",
    "address_councildis": "C",
    "status": "Pending",
    "rowid": "1195928",
    "final_x": "3695496.49898",
    "final_y": "526957.08915",
    "longitude": "-90.02403927136812",
    "latitude": "29.942516878937326",
    "geocoded_column": {
      "latitude": "29.942516878937326",
      "longitude": "-90.02403927136812"
    }
  },
  {
    "service_request": "2025-1195927",
    "request_type": "Roads and Streets",
    "request_reason": "Abandoned Service Cut",
    "date_created": "2025-05-28T19:30:18.000",
    "date_modified": "2025-05-28T19:30:21.000",
    "request_status": "Pending",
    "responsible_agency": "Department of Public Works",
    "final_address": "6167 Bellaire Dr",
    "address_councildis": "A",
    "status": "Pending",
    "rowid": "1195927",
    "final_x": "3664409.3904",
    "final_y": "548841.901779",
    "longitude": "-90.12145806286715",
    "latitude": "30.003632960433805",
    "geocoded_column": {
      "latitude": "30.003632960433805",
      "longitude": "-90.12145806286715"
    }
  },
  {
    "service_request": "2025-1195926",
    "request_type": "Trash/Recycling",
    "request_reason": "Request a Large Item Pick Up",
    "date_created": "2025-05-28T19:12:49.000",
    "date_modified": "2025-05-28T19:12:51.000",
    "request_status": "Pending",
    "responsible_agency": "Department of Sanitation",
    "final_address": "117 Mary Jane Ln",
    "address_councildis": "E",
    "status": "Assigned to Contractor",
    "contractor": "Waste Pro",
    "rowid": "1195926",
    "final_x": "3718050.72511",
    "final_y": "571574.47204",
    "longitude": "-89.95113205009822",
    "latitude": "30.064469343373524",
    "geocoded_column": {
      "latitude": "30.064469343373524",
      "longitude": "-89.95113205009822"
    }
  },
  {
    "service_request": "2025-1195925",
    "request_type": "Trash/Recycling",
    "request_reason": "Request a Large Item Pick Up",
    "date_created": "2025-05-28T19:08:04.000",
    "date_modified": "2025-05-28T19:08:06.000",
    "request_status": "Pending",
    "responsible_agency": "Department of Sanitation",
    "final_address": "3520 Rue Michelle",
    "address_councildis": "C",
    "status": "Assigned to Contractor",
    "contractor": "Richards Disposal",
    "rowid": "1195925",
    "final_x": "3703676.80951",
    "final_y": "517673.207222",
    "longitude": "-89.99855379570958",
    "latitude": "29.916729886812615",
    "geocoded_column": {
      "latitude": "29.916729886812615",
      "longitude": "-89.99855379570958"
    }
  },
  {
    "service_request": "2025-1195924",
    "request_type": "Trash/Recycling",
    "request_reason": "Replace Trash Cart",
    "date_created": "2025-05-28T18:58:27.000",
    "date_modified": "2025-05-28T18:58:28.000",
    "request_status": "Pending",
    "responsible_agency": "Department of Sanitation",
    "final_address": "1625 S Salcedo St",
    "address_councildis": "B",
    "status": "Assigned to Contractor",
    "contractor": "IV Waste",
    "rowid": "1195924",
    "final_x": "3670197.74522",
    "final_y": "530567.948738",
    "longitude": "-90.10379112743605",
    "latitude": "29.95321617940303",
    "geocoded_column": {
      "latitude": "29.95321617940303",
      "longitude": "-90.10379112743605"
    }
  },
  {
    "service_request": "2025-1195923",
    "request_type": "Property Maintenance",
    "request_reason": "Property Maintenance",
    "date_created": "2025-05-28T18:44:43.000",
    "date_modified": "2025-05-28T18:44:45.000",
    "request_status": "Pending",
    "responsible_agency": "Department of Code Enforcement",
    "final_address": "3319 Baronne St",
    "address_councildis": "B",
    "status": "Pending",
    "rowid": "1195923",
    "final_x": "3674099.21332",
    "final_y": "522350.153594",
    "longitude": "-90.09175312165588",
    "latitude": "29.93050424608102",
    "geocoded_column": {
      "latitude": "29.93050424608102",
      "longitude": "-90.09175312165588"
    }
  },
  {
    "service_request": "2025-1195922",
    "request_type": "Parks & Parkways",
    "request_reason": "Request Tree Service (Right of Way/Public Property)",
    "date_created": "2025-05-28T18:07:13.000",
    "date_modified": "2025-05-28T18:07:15.000",
    "request_status": "Pending",
    "responsible_agency": "Department of Parks & Parkway",
    "final_address": "2511 Magazine St",
    "address_councildis": "B",
    "status": "Pending",
    "rowid": "1195922",
    "final_x": "3677692.62875",
    "final_y": "521322.576185",
    "longitude": "-90.08044471491573",
    "latitude": "29.927571191222146",
    "geocoded_column": {
      "latitude": "29.927571191222146",
      "longitude": "-90.08044471491573"
    }
  },
  {
    "service_request": "2025-1195921",
    "request_type": "Property Maintenance",
    "request_reason": "Property Maintenance",
    "date_created": "2025-05-28T18:01:02.000",
    "date_modified": "2025-05-28T18:01:04.000",
    "request_status": "Pending",
    "responsible_agency": "Department of Code Enforcement",
    "final_address": "18 Christopher Ct",
    "address_councildis": "E",
    "status": "Pending",
    "rowid": "1195921",
    "final_x": "3716804.39026",
    "final_y": "570425.744871",
    "longitude": "-89.9551154582039",
    "latitude": "30.061352100903825",
    "geocoded_column": {
      "latitude": "30.061352100903825",
      "longitude": "-89.9551154582039"
    }
  },
  {
    "service_request": "2025-1195920",
    "request_type": "Trash/Recycling",
    "request_reason": "Missed Trash Pick-Up",
    "date_created": "2025-05-28T17:27:55.000",
    "date_modified": "2025-05-28T17:27:57.000",
    "request_status": "Pending",
    "responsible_agency": "Department of Sanitation",
    "final_address": "3422 Livingston St",
    "address_councildis": "A",
    "status": "Assigned to Contractor",
    "contractor": "IV Waste",
    "rowid": "1195920",
    "final_x": "3663691.69472",
    "final_y": "537668.050376",
    "longitude": "-90.12409792257263",
    "latitude": "29.972929492729595",
    "geocoded_column": {
      "latitude": "29.972929492729595",
      "longitude": "-90.12409792257263"
    }
  },
  {
    "service_request": "2025-1195919",
    "request_type": "Utility Poles",
    "request_reason": "Utility Pole Leaning",
    "date_created": "2025-05-28T17:25:50.000",
    "date_modified": "2025-05-28T17:26:00.000",
    "request_status": "Pending",
    "responsible_agency": "Utility Company Collective",
    "final_address": "519 Eleonore St",
    "address_councildis": "A",
    "status": "Pending",
    "rowid": "1195919",
    "final_x": "3665125.35527",
    "final_y": "518228.156918",
    "longitude": "-90.12022012380964",
    "latitude": "29.91943436999054",
    "geocoded_column": {
      "latitude": "29.91943436999054",
      "longitude": "-90.12022012380964"
    }
  },
  {
    "service_request": "2025-1195918",
    "request_type": "Parks & Parkways",
    "request_reason": "Request Tree Service (Right of Way/Public Property)",
    "date_created": "2025-05-28T16:50:01.000",
    "date_modified": "2025-05-28T16:50:03.000",
    "request_status": "Pending",
    "responsible_agency": "Department of Parks & Parkway",
    "final_address": "GENERAL DE GAULLE DR & HOLIDAY DR",
    "address_councildis": "C",
    "status": "Pending",
    "rowid": "1195918",
    "final_x": "3698595.0",
    "final_y": "519112.58",
    "longitude": "-90.01454170298932",
    "latitude": "29.920849468009546",
    "geocoded_column": {
      "latitude": "29.920849468009546",
      "longitude": "-90.01454170298932"
    }
  },
  {
    "service_request": "2025-1195917",
    "request_type": "Trash/Recycling",
    "request_reason": "Repair Recycling Cart",
    "date_created": "2025-05-28T16:47:43.000",
    "date_modified": "2025-05-28T16:47:45.000",
    "request_status": "Pending",
    "responsible_agency": "Department of Sanitation",
    "final_address": "1500 Holiday Pl",
    "address_councildis": "C",
    "status": "Pending",
    "rowid": "1195917",
    "final_x": "3699028.41776",
    "final_y": "525659.740605",
    "longitude": "-90.0129354624615",
    "latitude": "29.938838180578593",
    "geocoded_column": {
      "latitude": "29.938838180578593",
      "longitude": "-90.0129354624615"
    }
  },
  {
    "service_request": "2025-1195916",
    "request_type": "General Services",
    "request_reason": "General Service Request",
    "date_created": "2025-05-28T16:47:43.000",
    "date_modified": "2025-05-28T16:47:45.000",
    "request_status": "Pending",
    "responsible_agency": "Orleans Parish Communication District",
    "final_address": "ABUNDANCE ST & ALVAR ST & ALVAR ST OVERPASS",
    "address_councildis": "D",
    "status": "Pending",
    "rowid": "1195916",
    "final_x": "3693313.09",
    "final_y": "542940.18",
    "longitude": "-90.03035894079659",
    "latitude": "29.98653316167305",
    "geocoded_column": {
      "latitude": "29.98653316167305",
      "longitude": "-90.03035894079659"
    }
  },
  {
    "service_request": "2025-1195915",
    "request_type": "Trash/Recycling",
    "request_reason": "Repair Trash Cart",
    "date_created": "2025-05-28T16:45:00.000",
    "date_modified": "2025-05-28T16:45:02.000",
    "request_status": "Pending",
    "responsible_agency": "Department of Sanitation",
    "final_address": "1430 N Roman St",
    "address_councildis": "D",
    "status": "Assigned to Contractor",
    "contractor": "IV Waste",
    "rowid": "1195915",
    "final_x": "3680904.90664",
    "final_y": "537230.160008",
    "longitude": "-90.06975057722227",
    "latitude": "29.97121472707846",
    "geocoded_column": {
      "latitude": "29.97121472707846",
      "longitude": "-90.06975057722227"
    }
  },
  {
    "service_request": "2025-1195914",
    "request_type": "Abandoned Vehicles",
    "request_reason": "Abandoned/Junk Vehicles",
    "date_created": "2025-05-28T16:40:58.000",
    "date_modified": "2025-05-28T16:41:00.000",
    "request_status": "Pending",
    "responsible_agency": "Department of Public Works",
    "final_address": "3129 Derby Pl",
    "address_councildis": "A",
    "status": "Pending",
    "rowid": "1195914",
    "final_x": "3678227.59586",
    "final_y": "542929.755277",
    "longitude": "-90.07800869470748",
    "latitude": "29.986967553806714",
    "geocoded_column": {
      "latitude": "29.986967553806714",
      "longitude": "-90.07800869470748"
    }
  },
  {
    "service_request": "2025-1195913",
    "request_type": "Trash/Recycling",
    "request_reason": "Repair Recycling Cart",
    "date_created": "2025-05-28T16:29:31.000",
    "date_modified": "2025-05-28T16:29:33.000",
    "request_status": "Pending",
    "responsible_agency": "Department of Sanitation",
    "final_address": "4620 Chestnut St",
    "address_councildis": "B",
    "status": "Pending",
    "rowid": "1195913",
    "final_x": "3670055.50823",
    "final_y": "519389.544887",
    "longitude": "-90.10461874625791",
    "latitude": "29.922483375935894",
    "geocoded_column": {
      "latitude": "29.922483375935894",
      "longitude": "-90.10461874625791"
    }
  },
  {
    "service_request": "2025-1195912",
    "request_type": "Trash/Recycling",
    "request_reason": "Request a Large Item Pick Up",
    "date_created": "2025-05-28T16:29:17.000",
    "date_modified": "2025-05-28T16:29:18.000",
    "request_status": "Pending",
    "responsible_agency": "Department of Sanitation",
    "final_address": "1637 Seventh St",
    "address_councildis": "B",
    "status": "Assigned to Contractor",
    "contractor": "IV Waste",
    "rowid": "1195912",
    "final_x": "3675086.31835",
    "final_y": "522376.093562",
    "longitude": "-90.08863608639302",
    "latitude": "29.930546125664993",
    "geocoded_column": {
      "latitude": "29.930546125664993",
      "longitude": "-90.08863608639302"
    }
  },
  {
    "service_request": "2025-1195911",
    "request_type": "Trash/Recycling",
    "request_reason": "Start Trash Service",
    "date_created": "2025-05-28T16:28:24.000",
    "date_modified": "2025-05-28T16:28:26.000",
    "request_status": "Pending",
    "responsible_agency": "Department of Sanitation",
    "final_address": "6072 General Diaz St",
    "address_councildis": "A",
    "status": "Assigned to Contractor",
    "contractor": "IV Waste",
    "rowid": "1195911",
    "final_x": "3669466.43418",
    "final_y": "547752.853458",
    "longitude": "-90.10551885297072",
    "latitude": "30.000490422690778",
    "geocoded_column": {
      "latitude": "30.000490422690778",
      "longitude": "-90.10551885297072"
    }
  },
  {
    "service_request": "2025-1195910",
    "request_type": "Streetlights",
    "request_reason": "Streetlight Outage/Malfunction",
    "date_created": "2025-05-28T16:23:33.000",
    "date_modified": "2025-05-28T16:23:34.000",
    "request_status": "Pending",
    "responsible_agency": "Department of Public Works",
    "final_address": "MARCONI DR & FINCH ST",
    "address_councildis": "D",
    "status": "Pending",
    "contractor": "Legacy Professional Services",
    "rowid": "1195910",
    "final_x": "3672147.9",
    "final_y": "555243.78",
    "longitude": "-90.09679253732708",
    "latitude": "30.021008542287035",
    "geocoded_column": {
      "latitude": "30.021008542287035",
      "longitude": "-90.09679253732708"
    }
  },
  {
    "service_request": "2025-1195909",
    "request_type": "Trash/Recycling",
    "request_reason": "Request a Large Item Pick Up",
    "date_created": "2025-05-28T16:19:07.000",
    "date_modified": "2025-05-28T16:19:09.000",
    "request_status": "Pending",
    "responsible_agency": "Department of Sanitation",
    "final_address": "2653 Abundance St",
    "address_councildis": "D",
    "status": "Assigned to Contractor",
    "contractor": "IV Waste",
    "rowid": "1195909",
    "final_x": "3687856.895",
    "final_y": "543986.29179",
    "longitude": "-90.04755587612932",
    "latitude": "29.98957906681047",
    "geocoded_column": {
      "latitude": "29.98957906681047",
      "longitude": "-90.04755587612932"
    }
  },
  {
    "service_request": "2025-1195908",
    "request_type": "Trash/Recycling",
    "request_reason": "Replace Trash Cart",
    "date_created": "2025-05-28T16:15:53.000",
    "date_modified": "2025-05-28T16:15:55.000",
    "request_status": "Pending",
    "responsible_agency": "Department of Sanitation",
    "final_address": "2750 St Ann St",
    "address_councildis": "A",
    "status": "Assigned to Contractor",
    "contractor": "IV Waste",
    "rowid": "1195908",
    "final_x": "3676542.81013",
    "final_y": "537466.426952",
    "longitude": "-90.08351854950142",
    "latitude": "29.971995927073987",
    "geocoded_column": {
      "latitude": "29.971995927073987",
      "longitude": "-90.08351854950142"
    }
  },
  {
    "service_request": "2025-1195907",
    "request_type": "Trash/Recycling",
    "request_reason": "Request a Large Item Pick Up",
    "date_created": "2025-05-28T16:13:22.000",
    "date_modified": "2025-05-28T16:37:52.000",
    "request_status": "Pending",
    "responsible_agency": "Department of Sanitation",
    "final_address": "914 Union St",
    "address_councildis": "B",
    "status": "Assigned to Contractor",
    "contractor": "IV Waste",
    "rowid": "1195907",
    "final_x": "3679914.64738",
    "final_y": "530132.631105",
    "longitude": "-90.07312447386046",
    "latitude": "29.951728925826245",
    "geocoded_column": {
      "latitude": "29.951728925826245",
      "longitude": "-90.07312447386046"
    }
  },
  {
    "service_request": "2025-1195906",
    "request_type": "Drainage",
    "request_reason": "Catch Basin Clogged",
    "date_created": "2025-05-28T16:12:40.000",
    "date_modified": "2025-05-28T16:12:42.000",
    "request_status": "Pending",
    "responsible_agency": "Sewerage & Water Board",
    "final_address": "719 Valmont St",
    "address_councildis": "B",
    "status": "Pending",
    "rowid": "1195906",
    "final_x": "3667456.16877",
    "final_y": "518039.237878",
    "longitude": "-90.112869238472",
    "latitude": "29.91884684358016",
    "geocoded_column": {
      "latitude": "29.91884684358016",
      "longitude": "-90.112869238472"
    }
  },
  {
    "service_request": "2025-1195905",
    "request_type": "Property Maintenance",
    "request_reason": "Property Maintenance",
    "date_created": "2025-05-28T16:04:29.000",
    "date_modified": "2025-05-28T16:04:31.000",
    "request_status": "Pending",
    "responsible_agency": "Department of Code Enforcement",
    "final_address": "2210 Soniat St",
    "address_councildis": "B",
    "status": "Pending",
    "rowid": "1195905",
    "final_x": "3668462.96596",
    "final_y": "523677.945915",
    "longitude": "-90.10950119296126",
    "latitude": "29.934321974652136",
    "geocoded_column": {
      "latitude": "29.934321974652136",
      "longitude": "-90.10950119296126"
    }
  },
  {
    "service_request": "2025-1195904",
    "request_type": "Healthy Homes",
    "request_reason": "Healthy Homes",
    "date_created": "2025-05-28T16:01:06.000",
    "date_modified": "2025-05-28T16:27:22.000",
    "request_status": "Pending",
    "responsible_agency": "Department of Code Enforcement",
    "final_address": "1913 Mirabeau Ave",
    "address_councildis": "D",
    "status": "Pending",
    "rowid": "1195904",
    "final_x": "3681701.93749",
    "final_y": "550665.03906",
    "longitude": "-90.06676445015216",
    "latitude": "30.00813171188393",
    "geocoded_column": {
      "latitude": "30.00813171188393",
      "longitude": "-90.06676445015216"
    }
  },
  {
    "service_request": "2025-1195903",
    "request_type": "Drainage",
    "request_reason": "Street Flooding",
    "date_created": "2025-05-28T15:59:42.000",
    "date_modified": "2025-05-28T15:59:44.000",
    "request_status": "Pending",
    "responsible_agency": "Sewerage & Water Board",
    "final_address": "5720 St Bernard Ave",
    "address_councildis": "D",
    "status": "Pending",
    "rowid": "1195903",
    "final_x": "3676758.17115",
    "final_y": "553475.906711",
    "longitude": "-90.08228637592075",
    "latitude": "30.016009922989028",
    "geocoded_column": {
      "latitude": "30.016009922989028",
      "longitude": "-90.08228637592075"
    }
  },
  {
    "service_request": "2025-1195902",
    "request_type": "Trash/Recycling",
    "request_reason": "Request a Large Item Pick Up",
    "date_created": "2025-05-28T15:59:08.000",
    "date_modified": "2025-05-28T15:59:10.000",
    "request_status": "Pending",
    "responsible_agency": "Department of Sanitation",
    "final_address": "1424 Felicity St",
    "address_councildis": "B",
    "status": "Assigned to Contractor",
    "contractor": "IV Waste",
    "rowid": "1195902",
    "final_x": "3679071.72251",
    "final_y": "523858.205948",
    "longitude": "-90.07600341961461",
    "latitude": "29.934501806290235",
    "geocoded_column": {
      "latitude": "29.934501806290235",
      "longitude": "-90.07600341961461"
    }
  },
  {
    "service_request": "2025-1195901",
    "request_type": "Trash/Recycling",
    "request_reason": "Request a Large Item Pick Up",
    "date_created": "2025-05-28T15:57:36.000",
    "date_modified": "2025-05-28T15:57:38.000",
    "request_status": "Pending",
    "responsible_agency": "Department of Sanitation",
    "final_address": "2220 Nashville Ave",
    "address_councildis": "A",
    "status": "Assigned to Contractor",
    "contractor": "IV Waste",
    "rowid": "1195901",
    "final_x": "3666857.48455",
    "final_y": "524448.91174",
    "longitude": "-90.1145437796419",
    "latitude": "29.936488936950813",
    "geocoded_column": {
      "latitude": "29.936488936950813",
      "longitude": "-90.1145437796419"
    }
  },
  {
    "service_request": "2025-1195900",
    "request_type": "Drainage",
    "request_reason": "Catch Basin Clogged",
    "date_created": "2025-05-28T15:53:23.000",
    "date_modified": "2025-05-28T15:53:25.000",
    "request_status": "Pending",
    "responsible_agency": "Sewerage & Water Board",
    "final_address": "6131 Craigie Rd",
    "address_councildis": "E",
    "status": "Pending",
    "rowid": "1195900",
    "final_x": "3695927.05712",
    "final_y": "558904.968156",
    "longitude": "-90.02152514289642",
    "latitude": "30.030348385462304",
    "geocoded_column": {
      "latitude": "30.030348385462304",
      "longitude": "-90.02152514289642"
    }
  },
  {
    "service_request": "2025-1195899",
    "request_type": "Trash/Recycling",
    "request_reason": "Request a Large Item Pick Up",
    "date_created": "2025-05-28T15:53:03.000",
    "date_modified": "2025-05-28T15:53:05.000",
    "request_status": "Pending",
    "responsible_agency": "Department of Sanitation",
    "final_address": "5409 Zeno Pl",
    "address_councildis": "E",
    "status": "Assigned to Contractor",
    "contractor": "Waste Pro",
    "rowid": "1195899",
    "final_x": "3718266.92057",
    "final_y": "561799.330015",
    "longitude": "-89.95082146825258",
    "latitude": "30.037584555659418",
    "geocoded_column": {
      "latitude": "30.037584555659418",
      "longitude": "-89.95082146825258"
    }
  },
  {
    "service_request": "2025-1195898",
    "request_type": "Trash/Recycling",
    "request_reason": "Replace Trash Cart",
    "date_created": "2025-05-28T15:53:00.000",
    "date_modified": "2025-05-28T15:53:03.000",
    "request_status": "Pending",
    "responsible_agency": "Department of Sanitation",
    "final_address": "6027 Chatham Dr",
    "address_councildis": "D",
    "status": "Assigned to Contractor",
    "contractor": "IV Waste",
    "rowid": "1195898",
    "final_x": "3679669.31938",
    "final_y": "554678.650776",
    "longitude": "-90.07304664500228",
    "latitude": "30.019229315777626",
    "geocoded_column": {
      "latitude": "30.019229315777626",
      "longitude": "-90.07304664500228"
    }
  },
  {
    "service_request": "2025-1195897",
    "request_type": "Trash/Recycling",
    "request_reason": "Change Size of Trash Cart",
    "date_created": "2025-05-28T15:51:54.000",
    "date_modified": "2025-05-28T15:51:55.000",
    "request_status": "Pending",
    "responsible_agency": "Department of Sanitation",
    "final_address": "4139 Annunciation St",
    "address_councildis": "B",
    "status": "Assigned to Contractor",
    "contractor": "IV Waste",
    "rowid": "1195897",
    "final_x": "3671938.77998",
    "final_y": "517899.827894",
    "longitude": "-90.09872467312175",
    "latitude": "29.918331464748515",
    "geocoded_column": {
      "latitude": "29.918331464748515",
      "longitude": "-90.09872467312175"
    }
  },
  {
    "service_request": "2025-1195896",
    "request_type": "Trash/Recycling",
    "request_reason": "Order Trash Cart",
    "date_created": "2025-05-28T15:47:54.000",
    "date_modified": "2025-05-28T15:49:07.000",
    "request_status": "Pending",
    "responsible_agency": "Department of Sanitation",
    "final_address": "2011 Pace Blvd",
    "address_councildis": "C",
    "status": "Assigned to Contractor",
    "contractor": "Richards Disposal",
    "rowid": "1195896",
    "final_x": "3694375.89584",
    "final_y": "523118.908923",
    "longitude": "-90.02771533338588",
    "latitude": "29.93199836119647",
    "geocoded_column": {
      "latitude": "29.93199836119647",
      "longitude": "-90.02771533338588"
    }
  },
  {
    "service_request": "2025-1195895",
    "request_type": "Trash/Recycling",
    "request_reason": "Replace Trash Cart",
    "date_created": "2025-05-28T15:37:58.000",
    "date_modified": "2025-05-28T15:38:01.000",
    "request_status": "Pending",
    "responsible_agency": "Department of Sanitation",
    "final_address": "4201 Mithra St",
    "address_councildis": "D",
    "status": "Assigned to Contractor",
    "contractor": "IV Waste",
    "rowid": "1195895",
    "final_x": "3689382.26787",
    "final_y": "553142.700311",
    "longitude": "-90.0424118222801",
    "latitude": "30.014708699437413",
    "geocoded_column": {
      "latitude": "30.014708699437413",
      "longitude": "-90.0424118222801"
    }
  },
  {
    "service_request": "2025-1195894",
    "request_type": "Trash/Recycling",
    "request_reason": "Request a Large Item Pick Up",
    "date_created": "2025-05-28T15:33:39.000",
    "date_modified": "2025-05-28T15:33:41.000",
    "request_status": "Pending",
    "responsible_agency": "Department of Sanitation",
    "final_address": "3711 Laurel St",
    "address_councildis": "B",
    "status": "Assigned to Contractor",
    "contractor": "IV Waste",
    "rowid": "1195894",
    "final_x": "3673723.09684",
    "final_y": "518414.201462",
    "longitude": "-90.09307495728154",
    "latitude": "29.919692843411145",
    "geocoded_column": {
      "latitude": "29.919692843411145",
      "longitude": "-90.09307495728154"
    }
  },
  {
    "service_request": "2025-1195893",
    "request_type": "Drainage",
    "request_reason": "Catch Basin Clogged",
    "date_created": "2025-05-28T15:32:40.000",
    "date_modified": "2025-05-28T15:32:43.000",
    "request_status": "Pending",
    "responsible_agency": "Sewerage & Water Board",
    "final_address": "6828 Chef Menteur Hwy",
    "address_councildis": "E",
    "status": "Pending",
    "rowid": "1195893",
    "final_x": "3700251.7352",
    "final_y": "551932.89999",
    "longitude": "-90.00811401333279",
    "latitude": "30.01104101544341",
    "geocoded_column": {
      "latitude": "30.01104101544341",
      "longitude": "-90.00811401333279"
    }
  },
  {
    "service_request": "2025-1195892",
    "request_type": "Drainage",
    "request_reason": "Catch Basin Clogged",
    "date_created": "2025-05-28T15:30:41.000",
    "date_modified": "2025-05-28T15:41:55.000",
    "request_status": "Pending",
    "responsible_agency": "Sewerage & Water Board",
    "final_address": "6034 Cameron Blvd",
    "address_councildis": "D",
    "status": "Pending",
    "rowid": "1195892",
    "final_x": "3682259.89487",
    "final_y": "555125.889049",
    "longitude": "-90.06484567679664",
    "latitude": "30.020380456900412",
    "geocoded_column": {
      "latitude": "30.020380456900412",
      "longitude": "-90.06484567679664"
    }
  },
  {
    "service_request": "2025-1195891",
    "request_type": "Trash/Recycling",
    "request_reason": "Request a Large Item Pick Up",
    "date_created": "2025-05-28T15:28:19.000",
    "date_modified": "2025-05-28T15:28:22.000",
    "request_status": "Pending",
    "responsible_agency": "Department of Sanitation",
    "final_address": "5932 Press Dr",
    "address_councildis": "D",
    "status": "Assigned to Contractor",
    "contractor": "IV Waste",
    "rowid": "1195891",
    "final_x": "3688789.24124",
    "final_y": "555310.324761",
    "longitude": "-90.04420844265967",
    "latitude": "30.020687220444",
    "geocoded_column": {
      "latitude": "30.020687220444",
      "longitude": "-90.04420844265967"
    }
  },
  {
    "service_request": "2025-1195890",
    "request_type": "Trash/Recycling",
    "request_reason": "Request a Large Item Pick Up",
    "date_created": "2025-05-28T15:27:07.000",
    "date_modified": "2025-05-28T15:27:09.000",
    "request_status": "Pending",
    "responsible_agency": "Department of Sanitation",
    "final_address": "1122 Spain St",
    "address_councildis": "C",
    "status": "Assigned to Contractor",
    "contractor": "IV Waste",
    "rowid": "1195890",
    "final_x": "3686085.89698",
    "final_y": "536660.713927",
    "longitude": "-90.05340842072972",
    "latitude": "29.969490833797458",
    "geocoded_column": {
      "latitude": "29.969490833797458",
      "longitude": "-90.05340842072972"
    }
  },
  {
    "service_request": "2025-1195889",
    "request_type": "Trash/Recycling",
    "request_reason": "Request a Large Item Pick Up",
    "date_created": "2025-05-28T15:26:25.000",
    "date_modified": "2025-05-28T15:26:27.000",
    "request_status": "Pending",
    "responsible_agency": "Department of Sanitation",
    "final_address": "6643 Coventry St",
    "address_councildis": "E",
    "status": "Assigned to Contractor",
    "contractor": "Waste Pro",
    "rowid": "1195889",
    "final_x": "3697771.64701",
    "final_y": "559422.910877",
    "longitude": "-90.01567743255546",
    "latitude": "30.031714334163297",
    "geocoded_column": {
      "latitude": "30.031714334163297",
      "longitude": "-90.01567743255546"
    }
  },
  {
    "service_request": "2025-1195888",
    "request_type": "Abandoned Vehicles",
    "request_reason": "Abandoned/Junk Vehicles",
    "date_created": "2025-05-28T15:20:22.000",
    "date_modified": "2025-05-28T15:23:45.000",
    "request_status": "Pending",
    "responsible_agency": "Department of Public Works",
    "final_address": "20 Brazillier Island Rd",
    "address_councildis": "E",
    "status": "Pending",
    "rowid": "1195888",
    "final_x": "3772080.66026",
    "final_y": "582026.021042",
    "longitude": "-89.77989588181657",
    "latitude": "30.091303355918622",
    "geocoded_column": {
      "latitude": "30.091303355918622",
      "longitude": "-89.77989588181657"
    }
  },
  {
    "service_request": "2025-1195887",
    "request_type": "Trash/Recycling",
    "request_reason": "Missed Trash Pick-Up",
    "date_created": "2025-05-28T15:19:37.000",
    "date_modified": "2025-05-28T16:01:13.000",
    "case_close_date": "2025-05-28T11:01:10.000",
    "request_status": "Closed",
    "responsible_agency": "Department of Sanitation",
    "final_address": "7102 Camp St",
    "address_councildis": "A",
    "status": "Invalid Request",
    "contractor": "IV Waste",
    "contractor_action": "Invalid",
    "rowid": "1195887",
    "final_x": "3661067.33555",
    "final_y": "521443.468729",
    "longitude": "-90.13292300381269",
    "latitude": "29.92839298819287",
    "geocoded_column": {
      "latitude": "29.92839298819287",
      "longitude": "-90.13292300381269"
    }
  },
  {
    "service_request": "2025-1195886",
    "request_type": "Trash/Recycling",
    "request_reason": "Missed Trash Pick-Up",
    "date_created": "2025-05-28T15:14:02.000",
    "date_modified": "2025-05-28T16:04:16.000",
    "case_close_date": "2025-05-28T11:04:13.000",
    "request_status": "Closed",
    "responsible_agency": "Department of Sanitation",
    "final_address": "1024 Marais St",
    "address_councildis": "C",
    "status": "Invalid Request",
    "contractor": "IV Waste",
    "contractor_action": "Invalid",
    "rowid": "1195886",
    "final_x": "3681390.58844",
    "final_y": "535011.752198",
    "longitude": "-90.0682940769423",
    "latitude": "29.965100132744567",
    "geocoded_column": {
      "latitude": "29.965100132744567",
      "longitude": "-90.0682940769423"
    }
  },
  {
    "service_request": "2025-1195885",
    "request_type": "Drainage",
    "request_reason": "Catch Basin Clogged",
    "date_created": "2025-05-28T15:11:26.000",
    "date_modified": "2025-05-28T15:11:28.000",
    "request_status": "Pending",
    "responsible_agency": "Sewerage & Water Board",
    "final_address": "3114 Gentilly Blvd",
    "address_councildis": "D",
    "status": "Pending",
    "rowid": "1195885",
    "final_x": "3683945.70505",
    "final_y": "547187.920145",
    "longitude": "-90.05979780645913",
    "latitude": "29.998502501301278",
    "geocoded_column": {
      "latitude": "29.998502501301278",
      "longitude": "-90.05979780645913"
    }
  },
  {
    "service_request": "2025-1195884",
    "request_type": "Trash/Recycling",
    "request_reason": "Repair Recycling Cart",
    "date_created": "2025-05-28T15:09:24.000",
    "date_modified": "2025-05-28T15:09:25.000",
    "request_status": "Pending",
    "responsible_agency": "Department of Sanitation",
    "final_address": "7831 Nelson St",
    "address_councildis": "A",
    "status": "Pending",
    "rowid": "1195884",
    "final_x": "3665799.11162",
    "final_y": "531275.99085",
    "longitude": "-90.11765644699884",
    "latitude": "29.955292114343603",
    "geocoded_column": {
      "latitude": "29.955292114343603",
      "longitude": "-90.11765644699884"
    }
  },
  {
    "service_request": "2025-1195883",
    "request_type": "Trash/Recycling",
    "request_reason": "Request a Large Item Pick Up",
    "date_created": "2025-05-28T15:09:16.000",
    "date_modified": "2025-05-28T15:09:19.000",
    "request_status": "Pending",
    "responsible_agency": "Department of Sanitation",
    "final_address": "6963 Bunker Hill Rd",
    "address_councildis": "E",
    "status": "Assigned to Contractor",
    "contractor": "Waste Pro",
    "rowid": "1195883",
    "final_x": "3706039.19531",
    "final_y": "560271.829789",
    "longitude": "-89.98952029676717",
    "latitude": "30.033784523010986",
    "geocoded_column": {
      "latitude": "30.033784523010986",
      "longitude": "-89.98952029676717"
    }
  },
  {
    "service_request": "2025-1195882",
    "request_type": "Roads and Streets",
    "request_reason": "Street Subsidence (Sinking)",
    "date_created": "2025-05-28T15:05:09.000",
    "date_modified": "2025-05-28T15:05:48.000",
    "request_status": "Pending",
    "responsible_agency": "Department of Public Works",
    "final_address": "103 Westpark Ct",
    "address_councildis": "C",
    "status": "Pending",
    "rowid": "1195882",
    "final_x": "3695789.73706",
    "final_y": "521897.866746",
    "longitude": "-90.02329607636439",
    "latitude": "29.92859654006759",
    "geocoded_column": {
      "latitude": "29.92859654006759",
      "longitude": "-90.02329607636439"
    }
  },
  {
    "service_request": "2025-1195881",
    "request_type": "Trash/Recycling",
    "request_reason": "Repair Trash Cart",
    "date_created": "2025-05-28T15:04:55.000",
    "date_modified": "2025-05-28T15:04:57.000",
    "request_status": "Pending",
    "responsible_agency": "Department of Sanitation",
    "final_address": "7831 Nelson St",
    "address_councildis": "A",
    "status": "Assigned to Contractor",
    "contractor": "IV Waste",
    "rowid": "1195881",
    "final_x": "3665799.11162",
    "final_y": "531275.99085",
    "longitude": "-90.11765644699884",
    "latitude": "29.955292114343603",
    "geocoded_column": {
      "latitude": "29.955292114343603",
      "longitude": "-90.11765644699884"
    }
  },
  {
    "service_request": "2025-1195880",
    "request_type": "Streetlights",
    "request_reason": "Streetlight Outage/Malfunction",
    "date_created": "2025-05-28T15:04:00.000",
    "date_modified": "2025-05-28T15:04:02.000",
    "request_status": "Pending",
    "responsible_agency": "Department of Public Works",
    "final_address": "413 Harmony St",
    "address_councildis": "B",
    "status": "Pending",
    "contractor": "Legacy Professional Services",
    "rowid": "1195880",
    "final_x": "3676702.3275",
    "final_y": "518284.042358",
    "longitude": "-90.08367546706965",
    "latitude": "29.919245942192763",
    "geocoded_column": {
      "latitude": "29.919245942192763",
      "longitude": "-90.08367546706965"
    }
  },
  {
    "service_request": "2025-1195879",
    "request_type": "Trash/Recycling",
    "request_reason": "Request a Large Item Pick Up",
    "date_created": "2025-05-28T15:03:25.000",
    "date_modified": "2025-05-28T15:03:27.000",
    "request_status": "Pending",
    "responsible_agency": "Department of Sanitation",
    "final_address": "1833 Robert St",
    "address_councildis": "B",
    "status": "Assigned to Contractor",
    "contractor": "IV Waste",
    "rowid": "1195879",
    "final_x": "3668797.67662",
    "final_y": "522447.550586",
    "longitude": "-90.10848603966619",
    "latitude": "29.930928947194147",
    "geocoded_column": {
      "latitude": "29.930928947194147",
      "longitude": "-90.10848603966619"
    }
  },
  {
    "service_request": "2025-1195878",
    "request_type": "Trash/Recycling",
    "request_reason": "Replace Trash Cart",
    "date_created": "2025-05-28T15:02:20.000",
    "date_modified": "2025-05-28T15:02:22.000",
    "request_status": "Pending",
    "responsible_agency": "Department of Sanitation",
    "final_address": "7720 Hickory St",
    "address_councildis": "A",
    "status": "Assigned to Contractor",
    "contractor": "IV Waste",
    "rowid": "1195878",
    "final_x": "3664326.10983",
    "final_y": "529014.853696",
    "longitude": "-90.12238312290538",
    "latitude": "29.949117608245295",
    "geocoded_column": {
      "latitude": "29.949117608245295",
      "longitude": "-90.12238312290538"
    }
  },
  {
    "service_request": "2025-1195877",
    "request_type": "Utility Poles",
    "request_reason": "Wires Sagging/Hanging Low",
    "date_created": "2025-05-28T15:00:41.000",
    "date_modified": "2025-05-28T15:00:43.000",
    "request_status": "Pending",
    "responsible_agency": "Utility Company Collective",
    "final_address": "421 S Clark St",
    "address_councildis": "B",
    "status": "Pending",
    "rowid": "1195877",
    "final_x": "3671970.4363",
    "final_y": "535892.663495",
    "longitude": "-90.09801246190852",
    "latitude": "29.96780494841848",
    "geocoded_column": {
      "latitude": "29.96780494841848",
      "longitude": "-90.09801246190852"
    }
  },
  {
    "service_request": "2025-1195876",
    "request_type": "Abandoned Vehicles",
    "request_reason": "Abandoned/Junk Vehicles",
    "date_created": "2025-05-28T15:00:26.000",
    "date_modified": "2025-05-28T15:06:42.000",
    "request_status": "Pending",
    "responsible_agency": "Department of Public Works",
    "final_address": "3018 Short St",
    "address_councildis": "B",
    "status": "Pending",
    "rowid": "1195876",
    "final_x": "3666709.0082",
    "final_y": "532990.434436",
    "longitude": "-90.11472574259743",
    "latitude": "29.95997969694813",
    "geocoded_column": {
      "latitude": "29.95997969694813",
      "longitude": "-90.11472574259743"
    }
  },
  {
    "service_request": "2025-1195875",
    "request_type": "Trash/Recycling",
    "request_reason": "Order Second Trash Cart",
    "date_created": "2025-05-28T14:58:26.000",
    "date_modified": "2025-05-28T14:58:28.000",
    "request_status": "Pending",
    "responsible_agency": "Department of Sanitation",
    "final_address": "6044 Milne Blvd",
    "address_councildis": "A",
    "status": "Assigned to Contractor",
    "contractor": "IV Waste",
    "rowid": "1195875",
    "final_x": "3667002.17914",
    "final_y": "547921.97205",
    "longitude": "-90.11329793274484",
    "latitude": "30.001027816036093",
    "geocoded_column": {
      "latitude": "30.001027816036093",
      "longitude": "-90.11329793274484"
    }
  },
  {
    "service_request": "2025-1195874",
    "request_type": "Trash/Recycling",
    "request_reason": "Request a Large Item Pick Up",
    "date_created": "2025-05-28T14:57:03.000",
    "date_modified": "2025-05-28T14:57:05.000",
    "request_status": "Pending",
    "responsible_agency": "Department of Sanitation",
    "final_address": "6042 Milne Blvd",
    "address_councildis": "A",
    "status": "Assigned to Contractor",
    "contractor": "IV Waste",
    "rowid": "1195874",
    "final_x": "3666999.20154",
    "final_y": "547900.732882",
    "longitude": "-90.1133080536628",
    "latitude": "30.00096950283612",
    "geocoded_column": {
      "latitude": "30.00096950283612",
      "longitude": "-90.1133080536628"
    }
  },
  {
    "service_request": "2025-1195873",
    "request_type": "Trash/Recycling",
    "request_reason": "Request a Large Item Pick Up",
    "date_created": "2025-05-28T14:54:12.000",
    "date_modified": "2025-05-28T14:56:16.000",
    "request_status": "Pending",
    "responsible_agency": "Department of Sanitation",
    "final_address": "2412 Jena St",
    "address_councildis": "B",
    "status": "Assigned to Contractor",
    "contractor": "IV Waste",
    "rowid": "1195873",
    "final_x": "3670100.49665",
    "final_y": "523776.303995",
    "longitude": "-90.1043282129793",
    "latitude": "29.934544234655473",
    "geocoded_column": {
      "latitude": "29.934544234655473",
      "longitude": "-90.1043282129793"
    }
  },
  {
    "service_request": "2025-1195872",
    "request_type": "Drainage",
    "request_reason": "Catch Basin Clogged",
    "date_created": "2025-05-28T14:54:11.000",
    "date_modified": "2025-05-28T14:54:12.000",
    "request_status": "Pending",
    "responsible_agency": "Sewerage & Water Board",
    "final_address": "648 S Lopez St",
    "address_councildis": "B",
    "status": "Pending",
    "rowid": "1195872",
    "final_x": "3672410.9035",
    "final_y": "534249.603333",
    "longitude": "-90.09667745153911",
    "latitude": "29.96327401964274",
    "geocoded_column": {
      "latitude": "29.96327401964274",
      "longitude": "-90.09667745153911"
    }
  },
  {
    "service_request": "2025-1195871",
    "request_type": "Streetlights",
    "request_reason": "Streetlight Outage/Malfunction",
    "date_created": "2025-05-28T14:50:01.000",
    "date_modified": "2025-05-28T14:52:12.000",
    "request_status": "Pending",
    "responsible_agency": "Department of Public Works",
    "final_address": "8320 Curran Rd",
    "address_councildis": "E",
    "status": "Pending",
    "contractor": "Legacy Professional Services",
    "rowid": "1195871",
    "final_x": "3703118.63063",
    "final_y": "561984.555615",
    "longitude": "-89.99868651742396",
    "latitude": "30.038587704438676",
    "geocoded_column": {
      "latitude": "30.038587704438676",
      "longitude": "-89.99868651742396"
    }
  },
  {
    "service_request": "2025-1195870",
    "request_type": "Trash/Recycling",
    "request_reason": "Order Trash Cart",
    "date_created": "2025-05-28T14:43:42.000",
    "date_modified": "2025-05-28T14:43:44.000",
    "request_status": "Pending",
    "responsible_agency": "Department of Sanitation",
    "final_address": "21 English Turn Ct",
    "address_councildis": "C",
    "status": "Assigned to Contractor",
    "contractor": "Richards Disposal",
    "rowid": "1195870",
    "final_x": "3717997.13849",
    "final_y": "515416.50162",
    "longitude": "-89.95343924673229",
    "latitude": "29.91005829295786",
    "geocoded_column": {
      "latitude": "29.91005829295786",
      "longitude": "-89.95343924673229"
    }
  },
  {
    "service_request": "2025-1195869",
    "request_type": "Trash/Recycling",
    "request_reason": "Order Recycling Cart",
    "date_created": "2025-05-28T14:41:51.000",
    "date_modified": "2025-05-28T14:41:53.000",
    "request_status": "Pending",
    "responsible_agency": "Department of Sanitation",
    "final_address": "21 English Turn Ct",
    "address_councildis": "C",
    "status": "Pending",
    "rowid": "1195869",
    "final_x": "3717997.13849",
    "final_y": "515416.50162",
    "longitude": "-89.95343924673229",
    "latitude": "29.91005829295786",
    "geocoded_column": {
      "latitude": "29.91005829295786",
      "longitude": "-89.95343924673229"
    }
  },
  {
    "service_request": "2025-1195868",
    "request_type": "Trash/Recycling",
    "request_reason": "Start Trash Service",
    "date_created": "2025-05-28T14:40:14.000",
    "date_modified": "2025-05-28T14:40:16.000",
    "request_status": "Pending",
    "responsible_agency": "Department of Sanitation",
    "final_address": "21 English Turn Ct",
    "address_councildis": "C",
    "status": "Assigned to Contractor",
    "contractor": "Richards Disposal",
    "rowid": "1195868",
    "final_x": "3717997.13849",
    "final_y": "515416.50162",
    "longitude": "-89.95343924673229",
    "latitude": "29.91005829295786",
    "geocoded_column": {
      "latitude": "29.91005829295786",
      "longitude": "-89.95343924673229"
    }
  },
  {
    "service_request": "2025-1195867",
    "request_type": "Streetlights",
    "request_reason": "Streetlight Outage/Malfunction",
    "date_created": "2025-05-28T14:35:07.000",
    "date_modified": "2025-05-28T14:35:09.000",
    "request_status": "Pending",
    "responsible_agency": "Department of Public Works",
    "final_address": "JEWEL ST & SARDONYX ST",
    "address_councildis": "D",
    "status": "Pending",
    "contractor": "Legacy Professional Services",
    "rowid": "1195867",
    "final_x": "3669622.6",
    "final_y": "555903.38",
    "longitude": "-90.10474943990235",
    "latitude": "30.022896898245552",
    "geocoded_column": {
      "latitude": "30.022896898245552",
      "longitude": "-90.10474943990235"
    }
  },
  {
    "service_request": "2025-1195866",
    "request_type": "Streetlights",
    "request_reason": "Streetlight Outage/Malfunction",
    "date_created": "2025-05-28T14:31:19.000",
    "date_modified": "2025-05-28T14:31:20.000",
    "request_status": "Pending",
    "responsible_agency": "Department of Public Works",
    "final_address": "3510 Rue Delphine",
    "address_councildis": "C",
    "status": "Pending",
    "contractor": "Legacy Professional Services",
    "rowid": "1195866",
    "final_x": "3703104.47633",
    "final_y": "517781.247094",
    "longitude": "-90.00035633548376",
    "latitude": "29.917045279159883",
    "geocoded_column": {
      "latitude": "29.917045279159883",
      "longitude": "-90.00035633548376"
    }
  },
  {
    "service_request": "2025-1195865",
    "request_type": "Road Striping",
    "request_reason": "Lane Striping or other Pavement Markings",
    "date_created": "2025-05-28T14:26:50.000",
    "date_modified": "2025-05-28T14:26:52.000",
    "request_status": "Pending",
    "responsible_agency": "Department of Public Works",
    "final_address": "6100 BLK Pontchartrain Blvd",
    "address_councildis": "A",
    "status": "Pending",
    "rowid": "1195865",
    "final_x": "3666154.13058",
    "final_y": "548825.459551",
    "longitude": "-90.11594667336014",
    "latitude": "30.003536895650715",
    "geocoded_column": {
      "latitude": "30.003536895650715",
      "longitude": "-90.11594667336014"
    }
  },
  {
    "service_request": "2025-1195864",
    "request_type": "Trash/Recycling",
    "request_reason": "Repair Trash Cart",
    "date_created": "2025-05-28T14:18:58.000",
    "date_modified": "2025-05-28T14:19:02.000",
    "request_status": "Pending",
    "responsible_agency": "Department of Sanitation",
    "final_address": "4533 Lafon Dr",
    "address_councildis": "E",
    "status": "Assigned to Contractor",
    "contractor": "Waste Pro",
    "rowid": "1195864",
    "final_x": "3701336.29085",
    "final_y": "553141.102551",
    "longitude": "-90.00464323037744",
    "latitude": "30.01432857973379",
    "geocoded_column": {
      "latitude": "30.01432857973379",
      "longitude": "-90.00464323037744"
    }
  },
  {
    "service_request": "2025-1195863",
    "request_type": "Parks & Parkways",
    "request_reason": "Request Tree Service (Right of Way/Public Property)",
    "date_created": "2025-05-28T14:14:47.000",
    "date_modified": "2025-05-28T14:14:50.000",
    "request_status": "Pending",
    "responsible_agency": "Department of Parks & Parkway",
    "final_address": "3211 Ursulines Ave",
    "address_councildis": "A",
    "status": "Pending",
    "rowid": "1195863",
    "final_x": "3675836.51701",
    "final_y": "539636.316362",
    "longitude": "-90.08567452185379",
    "latitude": "29.97798354480583",
    "geocoded_column": {
      "latitude": "29.97798354480583",
      "longitude": "-90.08567452185379"
    }
  },
  {
    "service_request": "2025-1195862",
    "request_type": "Trash/Recycling",
    "request_reason": "Request a Large Item Pick Up",
    "date_created": "2025-05-28T14:12:55.000",
    "date_modified": "2025-05-28T14:34:33.000",
    "request_status": "Pending",
    "responsible_agency": "Department of Sanitation",
    "final_address": "925 Cadiz St",
    "address_councildis": "B",
    "status": "Assigned to Contractor",
    "contractor": "IV Waste",
    "rowid": "1195862",
    "final_x": "3670327.44212",
    "final_y": "518946.419511",
    "longitude": "-90.10377536828777",
    "latitude": "29.9212569009155",
    "geocoded_column": {
      "latitude": "29.9212569009155",
      "longitude": "-90.10377536828777"
    }
  },
  {
    "service_request": "2025-1195861",
    "request_type": "Property Maintenance",
    "request_reason": "Property Maintenance",
    "date_created": "2025-05-28T14:09:37.000",
    "date_modified": "2025-05-28T14:09:39.000",
    "request_status": "Pending",
    "responsible_agency": "Department of Code Enforcement",
    "final_address": "7816 Devine Ave",
    "address_councildis": "E",
    "status": "Pending",
    "rowid": "1195861",
    "final_x": "3705315.265",
    "final_y": "563528.947232",
    "longitude": "-89.99168746666332",
    "latitude": "30.0427636364847",
    "geocoded_column": {
      "latitude": "30.0427636364847",
      "longitude": "-89.99168746666332"
    }
  },
  {
    "service_request": "2025-1195860",
    "request_type": "Trash/Recycling",
    "request_reason": "Request a Large Item Pick Up",
    "date_created": "2025-05-28T14:08:43.000",
    "date_modified": "2025-05-28T14:31:28.000",
    "request_status": "Pending",
    "responsible_agency": "Department of Sanitation",
    "final_address": "4521 Willow St",
    "address_councildis": "B",
    "status": "Assigned to Contractor",
    "contractor": "IV Waste",
    "rowid": "1195860",
    "final_x": "3669799.50823",
    "final_y": "525412.253309",
    "longitude": "-90.10522307445113",
    "latitude": "29.93905144125421",
    "geocoded_column": {
      "latitude": "29.93905144125421",
      "longitude": "-90.10522307445113"
    }
  },
  {
    "service_request": "2025-1195859",
    "request_type": "Parks & Parkways",
    "request_reason": "Request Tree Service (Right of Way/Public Property)",
    "date_created": "2025-05-28T14:07:42.000",
    "date_modified": "2025-05-28T14:07:44.000",
    "request_status": "Pending",
    "responsible_agency": "Department of Parks & Parkway",
    "final_address": "6249 Canal Blvd",
    "address_councildis": "A",
    "status": "Pending",
    "rowid": "1195859",
    "final_x": "3668800.89498",
    "final_y": "549093.002515",
    "longitude": "-90.10757605162142",
    "latitude": "30.004194959285186",
    "geocoded_column": {
      "latitude": "30.004194959285186",
      "longitude": "-90.10757605162142"
    }
  },
  {
    "service_request": "2025-1195858",
    "request_type": "Roads and Streets",
    "request_reason": "Street Subsidence (Sinking)",
    "date_created": "2025-05-28T14:04:24.000",
    "date_modified": "2025-05-28T14:04:25.000",
    "request_status": "Pending",
    "responsible_agency": "Department of Public Works",
    "final_address": "2000 St Bernard Ave",
    "address_councildis": "D",
    "status": "Pending",
    "rowid": "1195858",
    "final_x": "3681381.70888",
    "final_y": "539175.72001",
    "longitude": "-90.06817692973816",
    "latitude": "29.976549877376108",
    "geocoded_column": {
      "latitude": "29.976549877376108",
      "longitude": "-90.06817692973816"
    }
  },
  {
    "service_request": "2025-1195857",
    "request_type": "Drainage",
    "request_reason": "Catch Basin Clogged",
    "date_created": "2025-05-28T14:03:47.000",
    "date_modified": "2025-05-28T14:03:48.000",
    "request_status": "Pending",
    "responsible_agency": "Sewerage & Water Board",
    "final_address": "8947 Bunker Hill Rd",
    "address_councildis": "E",
    "status": "Pending",
    "rowid": "1195857",
    "final_x": "3706046.75422",
    "final_y": "561728.163231",
    "longitude": "-89.98944243363604",
    "latitude": "30.03778862276395",
    "geocoded_column": {
      "latitude": "30.03778862276395",
      "longitude": "-89.98944243363604"
    }
  },
  {
    "service_request": "2025-1195856",
    "request_type": "Traffic Signals",
    "request_reason": "Traffic Signal Malfunctioning or Damaged",
    "date_created": "2025-05-28T14:03:33.000",
    "date_modified": "2025-05-28T14:03:34.000",
    "request_status": "Pending",
    "responsible_agency": "Department of Public Works",
    "final_address": "1001 Loyola Ave",
    "address_councildis": "B",
    "status": "Pending",
    "rowid": "1195856",
    "final_x": "3678160.85288",
    "final_y": "528129.367999",
    "longitude": "-90.07873137550017",
    "latitude": "29.946273541255742",
    "geocoded_column": {
      "latitude": "29.946273541255742",
      "longitude": "-90.07873137550017"
    }
  },
  {
    "service_request": "2025-1195855",
    "request_type": "Drainage",
    "request_reason": "Catch Basin Clogged",
    "date_created": "2025-05-28T14:02:32.000",
    "date_modified": "2025-05-28T14:02:35.000",
    "request_status": "Pending",
    "responsible_agency": "Sewerage & Water Board",
    "final_address": "1825 Sophie Wright Pl",
    "address_councildis": "B",
    "status": "Pending",
    "rowid": "1195855",
    "final_x": "3679582.90997",
    "final_y": "523103.148347",
    "longitude": "-90.07441580270132",
    "latitude": "29.9324102129749",
    "geocoded_column": {
      "latitude": "29.9324102129749",
      "longitude": "-90.07441580270132"
    }
  },
  {
    "service_request": "2025-1195854",
    "request_type": "Property Maintenance",
    "request_reason": "Property Maintenance",
    "date_created": "2025-05-28T14:01:16.000",
    "date_modified": "2025-05-28T14:01:18.000",
    "request_status": "Pending",
    "responsible_agency": "Department of Code Enforcement",
    "final_address": "2135 St Bernard Ave",
    "address_councildis": "D",
    "status": "Pending",
    "rowid": "1195854",
    "final_x": "3681292.15298",
    "final_y": "539747.213194",
    "longitude": "-90.06843984966716",
    "latitude": "29.978124003640428",
    "geocoded_column": {
      "latitude": "29.978124003640428",
      "longitude": "-90.06843984966716"
    }
  },
  {
    "service_request": "2025-1195853",
    "request_type": "Trash/Recycling",
    "request_reason": "Request a Large Item Pick Up",
    "date_created": "2025-05-28T14:00:04.000",
    "date_modified": "2025-05-28T14:22:16.000",
    "request_status": "Pending",
    "responsible_agency": "Department of Sanitation",
    "final_address": "1939 Valence St",
    "address_councildis": "B",
    "status": "Assigned to Contractor",
    "contractor": "IV Waste",
    "rowid": "1195853",
    "final_x": "3669650.36999",
    "final_y": "522139.316794",
    "longitude": "-90.10580462024689",
    "latitude": "29.93005631242006",
    "geocoded_column": {
      "latitude": "29.93005631242006",
      "longitude": "-90.10580462024689"
    }
  },
  {
    "service_request": "2025-1195852",
    "request_type": "Trash/Recycling",
    "request_reason": "Request a Large Item Pick Up",
    "date_created": "2025-05-28T13:59:16.000",
    "date_modified": "2025-05-28T13:59:17.000",
    "request_status": "Pending",
    "responsible_agency": "Department of Sanitation",
    "final_address": "1328 Jackson Ave",
    "address_councildis": "B",
    "status": "Assigned to Contractor",
    "contractor": "IV Waste",
    "rowid": "1195852",
    "final_x": "3678229.22261",
    "final_y": "522804.960827",
    "longitude": "-90.07869957990633",
    "latitude": "29.93163112076764",
    "geocoded_column": {
      "latitude": "29.93163112076764",
      "longitude": "-90.07869957990633"
    }
  },
  {
    "service_request": "2025-1195851",
    "request_type": "Trash/Recycling",
    "request_reason": "Missed Trash Pick-Up",
    "date_created": "2025-05-28T13:57:05.000",
    "date_modified": "2025-05-28T15:29:59.000",
    "case_close_date": "2025-05-28T10:29:58.000",
    "request_status": "Closed",
    "responsible_agency": "Department of Sanitation",
    "final_address": "3520 Monroe St",
    "address_councildis": "A",
    "status": "Invalid Request",
    "contractor": "IV Waste",
    "contractor_action": "Invalid",
    "rowid": "1195851",
    "final_x": "3665983.10285",
    "final_y": "536064.968775",
    "longitude": "-90.11691493499833",
    "latitude": "29.96845486018595",
    "geocoded_column": {
      "latitude": "29.96845486018595",
      "longitude": "-90.11691493499833"
    }
  },
  {
    "service_request": "2025-1195850",
    "request_type": "Trash/Recycling",
    "request_reason": "Request a Large Item Pick Up",
    "date_created": "2025-05-28T13:55:58.000",
    "date_modified": "2025-05-28T13:56:01.000",
    "request_status": "Pending",
    "responsible_agency": "Department of Sanitation",
    "final_address": "5919 Arts St",
    "address_councildis": "D",
    "status": "Assigned to Contractor",
    "contractor": "IV Waste",
    "rowid": "1195850",
    "final_x": "3685762.85026",
    "final_y": "554930.00828",
    "longitude": "-90.05378434230929",
    "latitude": "30.019734763781436",
    "geocoded_column": {
      "latitude": "30.019734763781436",
      "longitude": "-90.05378434230929"
    }
  },
  {
    "service_request": "2025-1195849",
    "request_type": "Street and Traffic Signs",
    "request_reason": "Additional Signage Request",
    "date_created": "2025-05-28T13:55:28.000",
    "date_modified": "2025-05-28T13:55:31.000",
    "request_status": "Pending",
    "responsible_agency": "Department of Public Works",
    "final_address": "9700 BLK Andover Dr",
    "address_councildis": "E",
    "status": "Pending",
    "rowid": "1195849",
    "final_x": "3708595.02733",
    "final_y": "561841.073612",
    "longitude": "-89.98138512827646",
    "latitude": "30.038016656693408",
    "geocoded_column": {
      "latitude": "30.038016656693408",
      "longitude": "-89.98138512827646"
    }
  },
  {
    "service_request": "2025-1195848",
    "request_type": "Roads and Streets",
    "request_reason": "Pothole",
    "date_created": "2025-05-28T13:54:00.000",
    "date_modified": "2025-05-28T14:52:34.000",
    "case_close_date": "2025-05-28T09:52:33.000",
    "request_status": "Closed",
    "responsible_agency": "Department of Public Works",
    "final_address": "2475 Canal St",
    "address_councildis": "B",
    "status": "Duplicate Request",
    "rowid": "1195848",
    "final_x": "3676302.79592",
    "final_y": "534526.621637",
    "longitude": "-90.08437775288529",
    "latitude": "29.963919657063368",
    "geocoded_column": {
      "latitude": "29.963919657063368",
      "longitude": "-90.08437775288529"
    }
  },
  {
    "service_request": "2025-1195847",
    "request_type": "Utility Poles",
    "request_reason": "Utility Pole Leaning",
    "date_created": "2025-05-28T13:52:40.000",
    "date_modified": "2025-05-28T13:52:43.000",
    "request_status": "Pending",
    "responsible_agency": "Utility Company Collective",
    "final_address": "4063 Clematis St",
    "address_councildis": "D",
    "status": "Pending",
    "rowid": "1195847",
    "final_x": "3685469.66575",
    "final_y": "547785.22421",
    "longitude": "-90.0549625706365",
    "latitude": "30.000098211101605",
    "geocoded_column": {
      "latitude": "30.000098211101605",
      "longitude": "-90.0549625706365"
    }
  },
  {
    "service_request": "2025-1195846",
    "request_type": "Trash/Recycling",
    "request_reason": "Request a Large Item Pick Up",
    "date_created": "2025-05-28T13:50:22.000",
    "date_modified": "2025-05-28T13:50:23.000",
    "request_status": "Pending",
    "responsible_agency": "Department of Sanitation",
    "final_address": "8001 Parry St",
    "address_councildis": "E",
    "status": "Assigned to Contractor",
    "contractor": "Waste Pro",
    "rowid": "1195846",
    "final_x": "3713696.91743",
    "final_y": "569535.793766",
    "longitude": "-89.96497164486468",
    "latitude": "30.05900750699938",
    "geocoded_column": {
      "latitude": "30.05900750699938",
      "longitude": "-89.96497164486468"
    }
  },
  {
    "service_request": "2025-1195845",
    "request_type": "Trash/Recycling",
    "request_reason": "Request a Large Item Pick Up",
    "date_created": "2025-05-28T13:49:18.000",
    "date_modified": "2025-05-28T13:49:20.000",
    "request_status": "Pending",
    "responsible_agency": "Department of Sanitation",
    "final_address": "5200 N Derbigny St",
    "address_councildis": "E",
    "status": "Assigned to Contractor",
    "contractor": "Waste Pro",
    "rowid": "1195845",
    "final_x": "3697234.21943",
    "final_y": "536306.025543",
    "longitude": "-90.01821414749652",
    "latitude": "29.968168447047532",
    "geocoded_column": {
      "latitude": "29.968168447047532",
      "longitude": "-90.01821414749652"
    }
  },
  {
    "service_request": "2025-1195844",
    "request_type": "Roads and Streets",
    "request_reason": "Street Subsidence (Sinking)",
    "date_created": "2025-05-28T13:47:03.000",
    "date_modified": "2025-05-28T13:47:05.000",
    "request_status": "Pending",
    "responsible_agency": "Department of Public Works",
    "final_address": "FELICITY ST & CHESTNUT ST",
    "address_councildis": "B",
    "status": "Pending",
    "rowid": "1195844",
    "final_x": "3679482.9",
    "final_y": "523561.48",
    "longitude": "-90.07471563189952",
    "latitude": "29.933673495171274",
    "geocoded_column": {
      "latitude": "29.933673495171274",
      "longitude": "-90.07471563189952"
    }
  },
  {
    "service_request": "2025-1195843",
    "request_type": "Trash/Recycling",
    "request_reason": "Request a Large Item Pick Up",
    "date_created": "2025-05-28T13:42:47.000",
    "date_modified": "2025-05-28T13:42:49.000",
    "request_status": "Pending",
    "responsible_agency": "Department of Sanitation",
    "final_address": "13 Assumption Pl",
    "address_councildis": "E",
    "status": "Assigned to Contractor",
    "contractor": "Waste Pro",
    "rowid": "1195843",
    "final_x": "3726270.62957",
    "final_y": "564490.646369",
    "longitude": "-89.92542370952476",
    "latitude": "30.04471660437021",
    "geocoded_column": {
      "latitude": "30.04471660437021",
      "longitude": "-89.92542370952476"
    }
  },
  {
    "service_request": "2025-1195842",
    "request_type": "Abandoned Vehicles",
    "request_reason": "Abandoned/Junk Vehicles",
    "date_created": "2025-05-28T13:42:43.000",
    "date_modified": "2025-05-28T13:42:46.000",
    "request_status": "Pending",
    "responsible_agency": "Department of Public Works",
    "final_address": "3240 Constance St",
    "address_councildis": "B",
    "status": "Pending",
    "rowid": "1195842",
    "final_x": "3675654.14081",
    "final_y": "519473.131447",
    "longitude": "-90.08694323773106",
    "latitude": "29.922546946414577",
    "geocoded_column": {
      "latitude": "29.922546946414577",
      "longitude": "-90.08694323773106"
    }
  },
  {
    "service_request": "2025-1195841",
    "request_type": "Abandoned Vehicles",
    "request_reason": "Abandoned/Junk Vehicles",
    "date_created": "2025-05-28T13:36:38.000",
    "date_modified": "2025-05-28T13:36:41.000",
    "request_status": "Pending",
    "responsible_agency": "Department of Public Works",
    "final_address": "3240 Constance St",
    "address_councildis": "B",
    "status": "Pending",
    "rowid": "1195841",
    "final_x": "3675654.14081",
    "final_y": "519473.131447",
    "longitude": "-90.08694323773106",
    "latitude": "29.922546946414577",
    "geocoded_column": {
      "latitude": "29.922546946414577",
      "longitude": "-90.08694323773106"
    }
  },
  {
    "service_request": "2025-1195840",
    "request_type": "Parks & Parkways",
    "request_reason": "Request Tree Service (Right of Way/Public Property)",
    "date_created": "2025-05-28T13:36:34.000",
    "date_modified": "2025-05-28T13:36:36.000",
    "request_status": "Pending",
    "responsible_agency": "Department of Parks & Parkway",
    "final_address": "DREUX AVE & PRESS DR",
    "address_councildis": "D",
    "status": "Pending",
    "rowid": "1195840",
    "final_x": "3689326.4",
    "final_y": "552663.28",
    "longitude": "-90.04260539974963",
    "latitude": "30.013392201315746",
    "geocoded_column": {
      "latitude": "30.013392201315746",
      "longitude": "-90.04260539974963"
    }
  },
  {
    "service_request": "2025-1195839",
    "request_type": "Trash/Recycling",
    "request_reason": "Request a Large Item Pick Up",
    "date_created": "2025-05-28T13:35:58.000",
    "date_modified": "2025-05-28T13:36:01.000",
    "request_status": "Pending",
    "responsible_agency": "Department of Sanitation",
    "final_address": "7301 Vanderkloot Ave",
    "address_councildis": "E",
    "status": "Assigned to Contractor",
    "contractor": "Waste Pro",
    "rowid": "1195839",
    "final_x": "3706452.41662",
    "final_y": "562395.451295",
    "longitude": "-89.98813569482301",
    "latitude": "30.039610312725838",
    "geocoded_column": {
      "latitude": "30.039610312725838",
      "longitude": "-89.98813569482301"
    }
  },
  {
    "service_request": "2025-1195838",
    "request_type": "Trash/Recycling",
    "request_reason": "Request a Large Item Pick Up",
    "date_created": "2025-05-28T13:33:48.000",
    "date_modified": "2025-05-28T13:33:50.000",
    "request_status": "Pending",
    "responsible_agency": "Department of Sanitation",
    "final_address": "4042 Baudin St",
    "address_councildis": "A",
    "status": "Assigned to Contractor",
    "contractor": "IV Waste",
    "rowid": "1195838",
    "final_x": "3670239.9058",
    "final_y": "536934.988744",
    "longitude": "-90.10344221127919",
    "latitude": "29.97072217963032",
    "geocoded_column": {
      "latitude": "29.97072217963032",
      "longitude": "-90.10344221127919"
    }
  },
  {
    "service_request": "2025-1195837",
    "request_type": "Trash/Recycling",
    "request_reason": "Replace Recycling Cart",
    "date_created": "2025-05-28T13:32:32.000",
    "date_modified": "2025-05-28T13:32:35.000",
    "request_status": "Pending",
    "responsible_agency": "Department of Sanitation",
    "final_address": "7425 Dominican St",
    "address_councildis": "A",
    "status": "Pending",
    "rowid": "1195837",
    "final_x": "3661991.00826",
    "final_y": "524610.097852",
    "longitude": "-90.12990216706399",
    "latitude": "29.93707358198895",
    "geocoded_column": {
      "latitude": "29.93707358198895",
      "longitude": "-90.12990216706399"
    }
  },
  {
    "service_request": "2025-1195836",
    "request_type": "Mosquito, Termite & Rodent Control",
    "request_reason": "Mosquito Complaint",
    "date_created": "2025-05-28T13:31:17.000",
    "date_modified": "2025-05-28T13:31:19.000",
    "request_status": "Pending",
    "responsible_agency": "Mosquito, Termite & Rodent Control Board",
    "final_address": "5931 Bullard Ave",
    "address_councildis": "E",
    "status": "Pending",
    "rowid": "1195836",
    "final_x": "3716772.1614",
    "final_y": "562687.909664",
    "longitude": "-89.95551144248975",
    "latitude": "30.040077294591374",
    "geocoded_column": {
      "latitude": "30.040077294591374",
      "longitude": "-89.95551144248975"
    }
  },
  {
    "service_request": "2025-1195835",
    "request_type": "Trash/Recycling",
    "request_reason": "Replace Trash Cart",
    "date_created": "2025-05-28T13:29:03.000",
    "date_modified": "2025-05-28T13:29:06.000",
    "request_status": "Pending",
    "responsible_agency": "Department of Sanitation",
    "final_address": "3112 Hollygrove St",
    "address_councildis": "A",
    "status": "Assigned to Contractor",
    "contractor": "IV Waste",
    "rowid": "1195835",
    "final_x": "3664232.75655",
    "final_y": "535645.210758",
    "longitude": "-90.12245664930347",
    "latitude": "29.967351641050545",
    "geocoded_column": {
      "latitude": "29.967351641050545",
      "longitude": "-90.12245664930347"
    }
  },
  {
    "service_request": "2025-1195834",
    "request_type": "Trash/Recycling",
    "request_reason": "Request a Large Item Pick Up",
    "date_created": "2025-05-28T13:28:49.000",
    "date_modified": "2025-05-28T13:28:53.000",
    "request_status": "Pending",
    "responsible_agency": "Department of Sanitation",
    "final_address": "3122 Laurel St",
    "address_councildis": "B",
    "status": "Assigned to Contractor",
    "contractor": "IV Waste",
    "rowid": "1195834",
    "final_x": "3676369.50312",
    "final_y": "519455.358327",
    "longitude": "-90.0846857361322",
    "latitude": "29.92247666045068",
    "geocoded_column": {
      "latitude": "29.92247666045068",
      "longitude": "-90.0846857361322"
    }
  },
  {
    "service_request": "2025-1195833",
    "request_type": "Abandoned Vehicles",
    "request_reason": "Abandoned/Junk Vehicles",
    "date_created": "2025-05-28T13:25:49.000",
    "date_modified": "2025-05-28T13:25:52.000",
    "request_status": "Pending",
    "responsible_agency": "Department of Public Works",
    "final_address": "3617 Lancaster St",
    "address_councildis": "C",
    "status": "Pending",
    "rowid": "1195833",
    "final_x": "3709780.58462",
    "final_y": "517447.229174",
    "longitude": "-89.97929636940583",
    "latitude": "29.915911607213445",
    "geocoded_column": {
      "latitude": "29.915911607213445",
      "longitude": "-89.97929636940583"
    }
  },
  {
    "service_request": "2025-1195832",
    "request_type": "Abandoned Vehicles",
    "request_reason": "Abandoned/Junk Vehicles",
    "date_created": "2025-05-28T13:24:24.000",
    "date_modified": "2025-05-28T13:24:25.000",
    "request_status": "Pending",
    "responsible_agency": "Department of Public Works",
    "final_address": "3624 Lancaster St",
    "address_councildis": "C",
    "status": "Pending",
    "rowid": "1195832",
    "final_x": "3709880.45317",
    "final_y": "517370.450677",
    "longitude": "-89.97898401296679",
    "latitude": "29.915697247767007",
    "geocoded_column": {
      "latitude": "29.915697247767007",
      "longitude": "-89.97898401296679"
    }
  },
  {
    "service_request": "2025-1195831",
    "request_type": "Trash/Recycling",
    "request_reason": "Request a Large Item Pick Up",
    "date_created": "2025-05-28T13:24:15.000",
    "date_modified": "2025-05-28T13:24:16.000",
    "request_status": "Pending",
    "responsible_agency": "Department of Sanitation",
    "final_address": "1810 Deslonde St",
    "address_councildis": "E",
    "status": "Assigned to Contractor",
    "contractor": "Waste Pro",
    "rowid": "1195831",
    "final_x": "3696100.66262",
    "final_y": "537142.63636",
    "longitude": "-90.02176370579599",
    "latitude": "29.970504553062888",
    "geocoded_column": {
      "latitude": "29.970504553062888",
      "longitude": "-90.02176370579599"
    }
  },
  {
    "service_request": "2025-1195830",
    "request_type": "Trash/Recycling",
    "request_reason": "Missed Trash Pick-Up",
    "date_created": "2025-05-28T13:23:37.000",
    "date_modified": "2025-05-28T13:23:38.000",
    "request_status": "Pending",
    "responsible_agency": "Department of Sanitation",
    "final_address": "1810 Deslonde St",
    "address_councildis": "E",
    "status": "Assigned to Contractor",
    "contractor": "Waste Pro",
    "rowid": "1195830",
    "final_x": "3696100.66262",
    "final_y": "537142.63636",
    "longitude": "-90.02176370579599",
    "latitude": "29.970504553062888",
    "geocoded_column": {
      "latitude": "29.970504553062888",
      "longitude": "-90.02176370579599"
    }
  },
  {
    "service_request": "2025-1195829",
    "request_type": "Abandoned Vehicles",
    "request_reason": "Abandoned/Junk Vehicles",
    "date_created": "2025-05-28T13:23:30.000",
    "date_modified": "2025-05-28T13:23:32.000",
    "request_status": "Pending",
    "responsible_agency": "Department of Public Works",
    "final_address": "3624 Lancaster St",
    "address_councildis": "C",
    "status": "Pending",
    "rowid": "1195829",
    "final_x": "3709880.45317",
    "final_y": "517370.450677",
    "longitude": "-89.97898401296679",
    "latitude": "29.915697247767007",
    "geocoded_column": {
      "latitude": "29.915697247767007",
      "longitude": "-89.97898401296679"
    }
  },
  {
    "service_request": "2025-1195828",
    "request_type": "Trash/Recycling",
    "request_reason": "Illegal Dumping",
    "date_created": "2025-05-28T13:22:15.000",
    "date_modified": "2025-05-28T13:22:16.000",
    "request_status": "Pending",
    "responsible_agency": "Department of Sanitation",
    "final_address": "4625 Eastern St",
    "address_councildis": "D",
    "status": "Pending",
    "rowid": "1195828",
    "final_x": "3688120.00995",
    "final_y": "549975.486292",
    "longitude": "-90.04651231435695",
    "latitude": "30.00603906480112",
    "geocoded_column": {
      "latitude": "30.00603906480112",
      "longitude": "-90.04651231435695"
    }
  },
  {
    "service_request": "2025-1195827",
    "request_type": "Property Maintenance",
    "request_reason": "Property Maintenance",
    "date_created": "2025-05-28T13:21:53.000",
    "date_modified": "2025-05-28T13:21:55.000",
    "request_status": "Pending",
    "responsible_agency": "Department of Code Enforcement",
    "final_address": "7820 Placid St",
    "address_councildis": "E",
    "status": "Pending",
    "rowid": "1195827",
    "final_x": "3714115.51877",
    "final_y": "569220.88887",
    "longitude": "-89.96366039301043",
    "latitude": "30.05812789636533",
    "geocoded_column": {
      "latitude": "30.05812789636533",
      "longitude": "-89.96366039301043"
    }
  },
  {
    "service_request": "2025-1195826",
    "request_type": "General Services",
    "request_reason": "General Service Request",
    "date_created": "2025-05-28T13:17:26.000",
    "date_modified": "2025-05-28T14:39:46.000",
    "case_close_date": "2025-05-28T09:39:45.000",
    "request_status": "Closed",
    "responsible_agency": "Orleans Parish Communication District",
    "final_address": "1501 Tulane Ave",
    "address_councildis": "B",
    "status": "Referred to External Agency",
    "rowid": "1195826",
    "final_x": "3678532.81614",
    "final_y": "531447.132675",
    "longitude": "-90.07744214348497",
    "latitude": "29.955385079435693",
    "geocoded_column": {
      "latitude": "29.955385079435693",
      "longitude": "-90.07744214348497"
    }
  },
  {
    "service_request": "2025-1195825",
    "request_type": "Streetlights",
    "request_reason": "New Streetlight Request",
    "date_created": "2025-05-28T13:16:33.000",
    "date_modified": "2025-05-28T13:16:35.000",
    "request_status": "Pending",
    "responsible_agency": "Department of Public Works",
    "final_address": "2334 Barracks St",
    "address_councildis": "D",
    "status": "Pending",
    "contractor": "Legacy Professional Services",
    "rowid": "1195825",
    "final_x": "3679171.2052",
    "final_y": "537795.174024",
    "longitude": "-90.07520625200519",
    "latitude": "29.972820776902832",
    "geocoded_column": {
      "latitude": "29.972820776902832",
      "longitude": "-90.07520625200519"
    }
  },
  {
    "service_request": "2025-1195824",
    "request_type": "Trash/Recycling",
    "request_reason": "Request a Large Item Pick Up",
    "date_created": "2025-05-28T13:16:09.000",
    "date_modified": "2025-05-28T13:16:13.000",
    "request_status": "Pending",
    "responsible_agency": "Department of Sanitation",
    "final_address": "936 Sixth St",
    "address_councildis": "B",
    "status": "Assigned to Contractor",
    "contractor": "IV Waste",
    "rowid": "1195824",
    "final_x": "3676833.86037",
    "final_y": "520150.412728",
    "longitude": "-90.0831960099945",
    "latitude": "29.924373913228873",
    "geocoded_column": {
      "latitude": "29.924373913228873",
      "longitude": "-90.0831960099945"
    }
  },
  {
    "service_request": "2025-1195823",
    "request_type": "Trash/Recycling",
    "request_reason": "Order Second Trash Cart",
    "date_created": "2025-05-28T13:14:24.000",
    "date_modified": "2025-05-28T13:14:25.000",
    "request_status": "Pending",
    "responsible_agency": "Department of Sanitation",
    "final_address": "5001 Columbia St",
    "address_councildis": "D",
    "status": "Assigned to Contractor",
    "contractor": "IV Waste",
    "rowid": "1195823",
    "final_x": "3690504.35728",
    "final_y": "558628.457244",
    "longitude": "-90.03867074244016",
    "latitude": "30.029757670826903",
    "geocoded_column": {
      "latitude": "30.029757670826903",
      "longitude": "-90.03867074244016"
    }
  },
  {
    "service_request": "2025-1195822",
    "request_type": "Trash/Recycling",
    "request_reason": "Order Trash Cart",
    "date_created": "2025-05-28T13:14:23.000",
    "date_modified": "2025-05-28T13:14:25.000",
    "request_status": "Pending",
    "responsible_agency": "Department of Sanitation",
    "final_address": "2335 Louisiana Ave",
    "address_councildis": "B",
    "status": "Assigned to Contractor",
    "contractor": "IV Waste",
    "rowid": "1195822",
    "final_x": "3673164.24129",
    "final_y": "524127.667708",
    "longitude": "-90.09464403241225",
    "latitude": "29.935419658031712",
    "geocoded_column": {
      "latitude": "29.935419658031712",
      "longitude": "-90.09464403241225"
    }
  },
  {
    "service_request": "2025-1195821",
    "request_type": "Trash/Recycling",
    "request_reason": "Request a Large Item Pick Up",
    "date_created": "2025-05-28T13:13:00.000",
    "date_modified": "2025-05-28T14:40:12.000",
    "request_status": "Pending",
    "responsible_agency": "Department of Sanitation",
    "final_address": "3633 Lancaster St",
    "address_councildis": "C",
    "status": "Pending",
    "rowid": "1195821",
    "final_x": "3709767.96241",
    "final_y": "517323.973173",
    "longitude": "-89.97934080676978",
    "latitude": "29.915573106349097",
    "geocoded_column": {
      "latitude": "29.915573106349097",
      "longitude": "-89.97934080676978"
    }
  },
  {
    "service_request": "2025-1195820",
    "request_type": "Trash/Recycling",
    "request_reason": "Request a Large Item Pick Up",
    "date_created": "2025-05-28T13:13:00.000",
    "date_modified": "2025-05-28T13:13:02.000",
    "request_status": "Pending",
    "responsible_agency": "Department of Sanitation",
    "final_address": "4823 Deanne St",
    "address_councildis": "D",
    "status": "Assigned to Contractor",
    "contractor": "Waste Pro",
    "rowid": "1195820",
    "final_x": "3696484.27587",
    "final_y": "554471.568664",
    "longitude": "-90.01992491864705",
    "latitude": "30.018140670057292",
    "geocoded_column": {
      "latitude": "30.018140670057292",
      "longitude": "-90.01992491864705"
    }
  },
  {
    "service_request": "2025-1195819",
    "request_type": "Trash/Recycling",
    "request_reason": "Request a Large Item Pick Up",
    "date_created": "2025-05-28T13:08:15.000",
    "date_modified": "2025-05-28T13:08:16.000",
    "request_status": "Pending",
    "responsible_agency": "Department of Sanitation",
    "final_address": "2523 Governor Nicholls St",
    "address_councildis": "D",
    "status": "Assigned to Contractor",
    "contractor": "IV Waste",
    "rowid": "1195819",
    "final_x": "3678519.39803",
    "final_y": "537952.406985",
    "longitude": "-90.07725933870195",
    "latitude": "29.97327277621095",
    "geocoded_column": {
      "latitude": "29.97327277621095",
      "longitude": "-90.07725933870195"
    }
  },
  {
    "service_request": "2025-1195818",
    "request_type": "Drainage",
    "request_reason": "Ditch and Culvert Maintenance",
    "date_created": "2025-05-28T13:04:55.000",
    "date_modified": "2025-05-28T13:04:58.000",
    "request_status": "Pending",
    "responsible_agency": "Department of Public Works",
    "final_address": "2334 Barracks St",
    "address_councildis": "D",
    "status": "Pending",
    "rowid": "1195818",
    "final_x": "3679171.2052",
    "final_y": "537795.174024",
    "longitude": "-90.07520625200519",
    "latitude": "29.972820776902832",
    "geocoded_column": {
      "latitude": "29.972820776902832",
      "longitude": "-90.07520625200519"
    }
  },
  {
    "service_request": "2025-1195817",
    "request_type": "Trash/Recycling",
    "request_reason": "Request a Large Item Pick Up",
    "date_created": "2025-05-28T13:01:22.000",
    "date_modified": "2025-05-28T13:01:24.000",
    "request_status": "Pending",
    "responsible_agency": "Department of Sanitation",
    "final_address": "4551 Montegut Dr",
    "address_councildis": "D",
    "status": "Assigned to Contractor",
    "contractor": "IV Waste",
    "rowid": "1195817",
    "final_x": "3690096.76368",
    "final_y": "550366.635092",
    "longitude": "-90.04025335063709",
    "latitude": "30.00705339122852",
    "geocoded_column": {
      "latitude": "30.00705339122852",
      "longitude": "-90.04025335063709"
    }
  },
  {
    "service_request": "2025-1195816",
    "request_type": "Trash/Recycling",
    "request_reason": "Return Recycling Cart",
    "date_created": "2025-05-28T13:00:46.000",
    "date_modified": "2025-05-28T13:00:50.000",
    "request_status": "Pending",
    "responsible_agency": "Department of Sanitation",
    "final_address": "310 Webster St",
    "address_councildis": "A",
    "status": "Pending",
    "rowid": "1195816",
    "final_x": "3663504.47315",
    "final_y": "517875.59743",
    "longitude": "-90.12534819300896",
    "latitude": "29.918512027261567",
    "geocoded_column": {
      "latitude": "29.918512027261567",
      "longitude": "-90.12534819300896"
    }
  },
  {
    "service_request": "2025-1195815",
    "request_type": "Streetlights",
    "request_reason": "New Streetlight Request",
    "date_created": "2025-05-28T12:58:41.000",
    "date_modified": "2025-05-28T12:58:43.000",
    "request_status": "Pending",
    "responsible_agency": "Department of Public Works",
    "final_address": "4754 Francisco Verrett Dr",
    "address_councildis": "E",
    "status": "Pending",
    "contractor": "Legacy Professional Services",
    "rowid": "1195815",
    "final_x": "3704149.39114",
    "final_y": "555339.337497",
    "longitude": "-89.99567422231489",
    "latitude": "30.02028288883688",
    "geocoded_column": {
      "latitude": "30.02028288883688",
      "longitude": "-89.99567422231489"
    }
  },
  {
    "service_request": "2025-1195814",
    "request_type": "Trash/Recycling",
    "request_reason": "Request a Large Item Pick Up",
    "date_created": "2025-05-28T12:53:19.000",
    "date_modified": "2025-05-28T12:53:20.000",
    "request_status": "Pending",
    "responsible_agency": "Department of Sanitation",
    "final_address": "3300 Banks St",
    "address_councildis": "B",
    "status": "Assigned to Contractor",
    "contractor": "IV Waste",
    "rowid": "1195814",
    "final_x": "3672781.8996",
    "final_y": "535449.689478",
    "longitude": "-90.09546494478445",
    "latitude": "29.96656283903936",
    "geocoded_column": {
      "latitude": "29.96656283903936",
      "longitude": "-90.09546494478445"
    }
  },
  {
    "service_request": "2025-1195813",
    "request_type": "Streetlights",
    "request_reason": "Streetlight Outage/Malfunction",
    "date_created": "2025-05-28T12:52:49.000",
    "date_modified": "2025-05-28T12:52:50.000",
    "request_status": "Pending",
    "responsible_agency": "Department of Public Works",
    "final_address": "108 Neil Ave",
    "address_councildis": "C",
    "status": "Pending",
    "contractor": "Legacy Professional Services",
    "rowid": "1195813",
    "final_x": "3705948.17387",
    "final_y": "518833.316855",
    "longitude": "-89.99134160368092",
    "latitude": "29.91984683768692",
    "geocoded_column": {
      "latitude": "29.91984683768692",
      "longitude": "-89.99134160368092"
    }
  },
  {
    "service_request": "2025-1195812",
    "request_type": "Streetlights",
    "request_reason": "Streetlight Outage/Malfunction",
    "date_created": "2025-05-28T12:49:48.000",
    "date_modified": "2025-05-28T12:49:50.000",
    "request_status": "Pending",
    "responsible_agency": "Department of Public Works",
    "final_address": "7149 E Hermes St",
    "address_councildis": "D",
    "status": "Pending",
    "contractor": "Legacy Professional Services",
    "rowid": "1195812",
    "final_x": "3697352.42947",
    "final_y": "557514.722843",
    "longitude": "-90.01707144297525",
    "latitude": "30.026480796813004",
    "geocoded_column": {
      "latitude": "30.026480796813004",
      "longitude": "-90.01707144297525"
    }
  },
  {
    "service_request": "2025-1195811",
    "request_type": "Abandoned Vehicles",
    "request_reason": "Abandoned/Junk Vehicles",
    "date_created": "2025-05-28T12:49:42.000",
    "date_modified": "2025-05-28T12:50:48.000",
    "request_status": "Pending",
    "responsible_agency": "Department of Public Works",
    "final_address": "10210 Springwood St",
    "address_councildis": "E",
    "status": "Pending",
    "rowid": "1195811",
    "final_x": "3713343.6483",
    "final_y": "555620.454553",
    "longitude": "-89.96661292746678",
    "latitude": "30.020757516398085",
    "geocoded_column": {
      "latitude": "30.020757516398085",
      "longitude": "-89.96661292746678"
    }
  },
  {
    "service_request": "2025-1195810",
    "request_type": "Streetlights",
    "request_reason": "Streetlight Outage/Malfunction",
    "date_created": "2025-05-28T12:49:35.000",
    "date_modified": "2025-05-28T12:49:37.000",
    "request_status": "Pending",
    "responsible_agency": "Department of Public Works",
    "final_address": "108 Neil Ave",
    "address_councildis": "C",
    "status": "Pending",
    "contractor": "Legacy Professional Services",
    "rowid": "1195810",
    "final_x": "3705948.17387",
    "final_y": "518833.316855",
    "longitude": "-89.99134160368092",
    "latitude": "29.91984683768692",
    "geocoded_column": {
      "latitude": "29.91984683768692",
      "longitude": "-89.99134160368092"
    }
  },
  {
    "service_request": "2025-1195809",
    "request_type": "Safety & Permits",
    "request_reason": "Licenses & Permits",
    "date_created": "2025-05-28T12:48:52.000",
    "date_modified": "2025-05-28T12:48:53.000",
    "request_status": "Pending",
    "responsible_agency": "Safety and Permits",
    "final_address": "1331 First St",
    "address_councildis": "B",
    "status": "Pending",
    "rowid": "1195809",
    "final_x": "3677563.30434",
    "final_y": "522343.09785",
    "longitude": "-90.08081774623167",
    "latitude": "29.930381180752146",
    "geocoded_column": {
      "latitude": "29.930381180752146",
      "longitude": "-90.08081774623167"
    }
  },