[
  {
    "service_request": "2022-855796",
    "request_type": "Traffic Signals/Signs/Striping/Streetlights",
    "request_reason": "Street Light Outage/Malfunction",
    "date_created": "2022-01-22T01:47:29.000",
    "date_modified": "2022-01-22T01:47:29.000",
    "request_status": "Pending",
    "responsible_agency": "Department of Public Works",
    "final_address": "419 Seguin St",
    "address_councildis": "C",
    "status": "Pending",
    "contractor": "Royal Engineering",
    "rowid": "855796",
    "final_x": "3686268.87145",
    "final_y": "530105.985409",
    "longitude": "-90.05306186289025",
    "latitude": "29.951461970746035",
    "geocoded_column": {
      "latitude": "29.951461970746035",
      "longitude": "-90.05306186289025"
    }
  },
  {
    "service_request": "2022-855795",
    "request_type": "Roads/Drainage",
    "request_reason": "Accessibility Ramps, Curbs and Sidewalk Repair",
    "date_created": "2022-01-22T00:03:54.000",
    "date_modified": "2022-01-22T00:03:54.000",
    "request_status": "Pending",
    "responsible_agency": "Department of Public Works",
    "final_address": "4507 Toulouse St",
    "address_councildis": "A",
    "status": "Pending",
    "rowid": "855795",
    "final_x": "3670739.04596",
    "final_y": "540891.916363",
    "longitude": "-90.10173154412418",
    "latitude": "29.981587651147347",
    "geocoded_column": {
      "latitude": "29.981587651147347",
      "longitude": "-90.10173154412418"
    }
  },
  {
    "service_request": "2022-855794",
    "request_type": "Trash/Recycling",
    "request_reason": "MIssed Recycling Pick-Up",
    "date_created": "2022-01-21T21:23:38.000",
    "date_modified": "2022-01-21T21:23:39.000",
    "request_status": "Pending",
    "responsible_agency": "Department of Sanitation",
    "final_address": "1322 Burdette St",
    "address_councildis": "A",
    "status": "Assigned to Contractor",
    "contractor": "Richards Disposal",
    "rowid": "855794",
    "final_x": "3663123.46458",
    "final_y": "528036.821247",
    "longitude": "-90.1262129512925",
    "latitude": "29.94646322612481",
    "geocoded_column": {
      "latitude": "29.94646322612481",
      "longitude": "-90.1262129512925"
    }
  },
  {
    "service_request": "2022-855793",
    "request_type": "Trash/Recycling",
    "request_reason": "Missed Trash Pick-Up",
    "date_created": "2022-01-21T20:36:48.000",
    "date_modified": "2022-01-21T20:36:48.000",
    "request_status": "Pending",
    "responsible_agency": "Department of Sanitation",
    "final_address": "2026 Pine St",
    "address_councildis": "A",
    "status": "Assigned to Contractor",
    "contractor": "Richards Disposal",
    "rowid": "855793",
    "final_x": "3665574.07687",
    "final_y": "529256.314369",
    "longitude": "-90.11843464478146",
    "latitude": "29.94974522309832",
    "geocoded_column": {
      "latitude": "29.94974522309832",
      "longitude": "-90.11843464478146"
    }
  },
  {
    "service_request": "2022-855791",
    "request_type": "Trash/Recycling",
    "request_reason": "MIssed Recycling Pick-Up",
    "date_created": "2022-01-21T18:37:53.000",
    "date_modified": "2022-01-21T18:37:54.000",
    "request_status": "Pending",
    "responsible_agency": "Department of Sanitation",
    "final_address": "4916 Chestnut St",
    "address_councildis": "B",
    "status": "Assigned to Contractor",
    "contractor": "Richards Disposal",
    "rowid": "855791",
    "final_x": "3668854.76378",
    "final_y": "519238.244663",
    "longitude": "-90.10841412828637",
    "latitude": "29.922102698148866",
    "geocoded_column": {
      "latitude": "29.922102698148866",
      "longitude": "-90.10841412828637"
    }
  },
  {
    "service_request": "2022-855790",
    "request_type": "Trash/Recycling",
    "request_reason": "Order Recycling Cart",
    "date_created": "2022-01-21T18:34:59.000",
    "date_modified": "2022-01-21T18:34:59.000",
    "request_status": "Pending",
    "responsible_agency": "Department of Sanitation",
    "final_address": "3108 Upperline St",
    "address_councildis": "B",
    "status": "Pending",
    "rowid": "855790",
    "final_x": "3669216.39975",
    "final_y": "526432.872062",
    "longitude": "-90.10702953829498",
    "latitude": "29.94187498473501",
    "geocoded_column": {
      "latitude": "29.94187498473501",
      "longitude": "-90.10702953829498"
    }
  },
  {
    "service_request": "2022-855789",
    "request_type": "Roads/Drainage",
    "request_reason": "Street Subsidence (Sinking)",
    "date_created": "2022-01-21T18:30:17.000",
    "date_modified": "2022-01-21T18:30:17.000",
    "request_status": "Pending",
    "responsible_agency": "Department of Public Works",
    "final_address": "3318 Law St Apt C",
    "address_councildis": "D",
    "status": "Pending",
    "rowid": "855789",
    "final_x": "3691354.96598",
    "final_y": "541350.2795",
    "longitude": "-90.03660072392954",
    "latitude": "29.982222585556453",
    "geocoded_column": {
      "latitude": "29.982222585556453",
      "longitude": "-90.03660072392954"
    }
  },
  {
    "service_request": "2022-855788",
    "request_type": "Traffic Signals/Signs/Striping/Streetlights",
    "request_reason": "Street Light Knocked Down/Leaning",
    "date_created": "2022-01-21T18:24:37.000",
    "date_modified": "2022-01-21T18:24:38.000",
    "request_status": "Pending",
    "responsible_agency": "Department of Public Works",
    "final_address": "2724 Octavia St",
    "address_councildis": "A",
    "status": "Pending",
    "contractor": "Royal Engineering",
    "rowid": "855788",
    "final_x": "3667879.03162",
    "final_y": "525583.159933",
    "longitude": "-90.11128051480009",
    "latitude": "29.93957783801998",
    "geocoded_column": {
      "latitude": "29.93957783801998",
      "longitude": "-90.11128051480009"
    }
  },
  {
    "service_request": "2022-855787",
    "request_type": "Mosquito, Termite & Rodent Control",
    "request_reason": "Non-Rodent Complaint (Mice, Possums, Snakes)",
    "date_created": "2022-01-21T18:22:20.000",
    "date_modified": "2022-01-21T18:22:20.000",
    "request_status": "Pending",
    "responsible_agency": "Mosquito, Termite & Rodent Control Board",
    "final_address": "3318 Law St Apt A",
    "address_councildis": "D",
    "status": "Pending",
    "rowid": "855787",
    "final_x": "3691352.1014",
    "final_y": "541337.519052",
    "longitude": "-90.03661022773872",
    "latitude": "29.982187588030314",
    "geocoded_column": {
      "latitude": "29.982187588030314",
      "longitude": "-90.03661022773872"
    }
  },
  {
    "service_request": "2022-855786",
    "request_type": "Abandoned Vehicles",
    "request_reason": "Abandoned/Junk Vehicles",
    "date_created": "2022-01-21T17:58:20.000",
    "date_modified": "2022-01-21T17:58:20.000",
    "request_status": "Pending",
    "responsible_agency": "Department of Public Works",
    "final_address": "6410 Pontchartrain Blvd",
    "address_councildis": "A",
    "status": "Pending",
    "rowid": "855786",
    "final_x": "3666160.65953",
    "final_y": "550599.426644",
    "longitude": "-90.11586650151821",
    "latitude": "30.008414499036796",
    "geocoded_column": {
      "latitude": "30.008414499036796",
      "longitude": "-90.11586650151821"
    }
  },
  {
    "service_request": "2022-855785",
    "request_type": "Health Related Questions",
    "request_reason": "Request Health Records (Immunization, Lead and Health)",
    "date_created": "2022-01-21T17:50:28.000",
    "date_modified": "2022-01-21T17:50:28.000",
    "request_status": "Pending",
    "responsible_agency": "Health Department",
    "final_address": "1403 Pace Blvd",
    "address_councildis": "C",
    "status": "Pending",
    "rowid": "855785",
    "final_x": "3694328.88771",
    "final_y": "526083.504574",
    "longitude": "-90.02775709665222",
    "latitude": "29.940151455983614",
    "geocoded_column": {
      "latitude": "29.940151455983614",
      "longitude": "-90.02775709665222"
    }
  },
  {
    "service_request": "2022-855784",
    "request_type": "Safety & Permits",
    "request_reason": "Licenses & Permits",
    "date_created": "2022-01-21T17:47:11.000",
    "date_modified": "2022-01-21T17:47:11.000",
    "request_status": "Pending",
    "responsible_agency": "Safety and Permits",
    "final_address": "5801 Abbey Dr",
    "address_councildis": "C",
    "status": "Pending",
    "rowid": "855784",
    "final_x": "3705079.44081",
    "final_y": "520928.136761",
    "longitude": "-89.99400645953422",
    "latitude": "29.9256348127816",
    "geocoded_column": {
      "latitude": "29.9256348127816",
      "longitude": "-89.99400645953422"
    }
  },
  {
    "service_request": "2022-855783",
    "request_type": "Traffic Signals/Signs/Striping/Streetlights",
    "request_reason": "Street Light Outage/Malfunction",
    "date_created": "2022-01-21T17:44:03.000",
    "date_modified": "2022-01-21T17:44:04.000",
    "request_status": "Pending",
    "responsible_agency": "Department of Public Works",
    "final_address": "35 Plover St",
    "address_councildis": "D",
    "status": "Pending",
    "contractor": "Royal Engineering",
    "rowid": "855783",
    "final_x": "3674047.60449",
    "final_y": "556861.21609",
    "longitude": "-90.09073458286896",
    "latitude": "30.025399401495605",
    "geocoded_column": {
      "latitude": "30.025399401495605",
      "longitude": "-90.09073458286896"
    }
  },
  {
    "service_request": "2022-855782",
    "request_type": "Abandoned Vehicles",
    "request_reason": "Abandoned/Junk Vehicles",
    "date_created": "2022-01-21T17:39:59.000",
    "date_modified": "2022-01-21T17:39:59.000",
    "request_status": "Pending",
    "responsible_agency": "Department of Public Works",
    "final_address": "5801 Abbey Dr",
    "address_councildis": "C",
    "status": "Pending",
    "rowid": "855782",
    "final_x": "3705079.44081",
    "final_y": "520928.136761",
    "longitude": "-89.99400645953422",
    "latitude": "29.9256348127816",
    "geocoded_column": {
      "latitude": "29.9256348127816",
      "longitude": "-89.99400645953422"
    }
  },
  {
    "service_request": "2022-855781",
    "request_type": "Roads/Drainage",
    "request_reason": "Catch Basin - Broken/Damage",
    "date_created": "2022-01-21T17:34:12.000",
    "date_modified": "2022-01-21T17:34:12.000",
    "request_status": "Pending",
    "responsible_agency": "Department of Public Works",
    "final_address": "1 Yellowstone Ct",
    "address_councildis": "C",
    "status": "Pending",
    "rowid": "855781",
    "final_x": "3699465.26154",
    "final_y": "518122.142518",
    "longitude": "-90.01183075771621",
    "latitude": "29.918098532995085",
    "geocoded_column": {
      "latitude": "29.918098532995085",
      "longitude": "-90.01183075771621"
    }
  },
  {
    "service_request": "2022-855780",
    "request_type": "Trash/Recycling",
    "request_reason": "Repair Trash Cart",
    "date_created": "2022-01-21T17:31:34.000",
    "date_modified": "2022-01-21T17:31:34.000",
    "request_status": "Pending",
    "responsible_agency": "Department of Sanitation",
    "final_address": "1 Yellowstone Ct",
    "address_councildis": "C",
    "status": "Assigned to Contractor",
    "contractor": "Richards Disposal",
    "rowid": "855780",
    "final_x": "3699465.26154",
    "final_y": "518122.142518",
    "longitude": "-90.01183075771621",
    "latitude": "29.918098532995085",
    "geocoded_column": {
      "latitude": "29.918098532995085",
      "longitude": "-90.01183075771621"
    }
  },
  {
    "service_request": "2022-855779",
    "request_type": "Traffic Signals/Signs/Striping/Streetlights",
    "request_reason": "Traffic Signal Malfunctioning/Damaged",
    "date_created": "2022-01-21T17:16:49.000",
    "date_modified": "2022-01-21T17:16:49.000",
    "request_status": "Pending",
    "responsible_agency": "Department of Public Works",
    "final_address": "3827 Canal St",
    "address_councildis": "A",
    "status": "Pending",
    "rowid": "855779",
    "final_x": "3671998.41319",
    "final_y": "537899.680905",
    "longitude": "-90.09785576934745",
    "latitude": "29.973322740370623",
    "geocoded_column": {
      "latitude": "29.973322740370623",
      "longitude": "-90.09785576934745"
    }
  },
  {
    "service_request": "2022-855778",
    "request_type": "Traffic Signals/Signs/Striping/Streetlights",
    "request_reason": "Traffic Signal Malfunctioning/Damaged",
    "date_created": "2022-01-21T17:09:01.000",
    "date_modified": "2022-01-21T17:09:01.000",
    "request_status": "Pending",
    "responsible_agency": "Department of Public Works",
    "final_address": "2000 Magazine St",
    "address_councildis": "B",
    "status": "Pending",
    "rowid": "855778",
    "final_x": "3679516.00559",
    "final_y": "522534.31257",
    "longitude": "-90.07464673991954",
    "latitude": "29.93084812248838",
    "geocoded_column": {
      "latitude": "29.93084812248838",
      "longitude": "-90.07464673991954"
    }
  },
  {
    "service_request": "2022-855777",
    "request_type": "Trash/Recycling",
    "request_reason": "Request a Large Item Pick Up",
    "date_created": "2022-01-21T17:05:36.000",
    "date_modified": "2022-01-21T17:05:37.000",
    "request_status": "Pending",
    "responsible_agency": "Department of Sanitation",
    "final_address": "1730 Amelia St",
    "address_councildis": "B",
    "status": "Assigned to Contractor",
    "contractor": "Richards Disposal",
    "rowid": "855777",
    "final_x": "3672959.44987",
    "final_y": "521718.007673",
    "longitude": "-90.09537275017189",
    "latitude": "29.92879995773924",
    "geocoded_column": {
      "latitude": "29.92879995773924",
      "longitude": "-90.09537275017189"
    }
  },
  {
    "service_request": "2022-855776",
    "request_type": "Traffic Signals/Signs/Striping/Streetlights",
    "request_reason": "Street Light Outage/Malfunction",
    "date_created": "2022-01-21T16:51:38.000",
    "date_modified": "2022-01-21T16:51:39.000",
    "request_status": "Pending",
    "responsible_agency": "Department of Public Works",
    "final_address": "2122 N Robertson St",
    "address_councildis": "C",
    "status": "Pending",
    "contractor": "Royal Engineering",
    "rowid": "855776",
    "final_x": "3684660.21737",
    "final_y": "537674.41844",
    "longitude": "-90.05787519246994",
    "latitude": "29.97232188022525",
    "geocoded_column": {
      "latitude": "29.97232188022525",
      "longitude": "-90.05787519246994"
    }
  },
  {
    "service_request": "2022-855775",
    "request_type": "Abandoned Vehicles",
    "request_reason": "Abandoned/Junk Vehicles",
    "date_created": "2022-01-21T16:50:38.000",
    "date_modified": "2022-01-21T16:50:38.000",
    "request_status": "Pending",
    "responsible_agency": "Department of Public Works",
    "final_address": "5243 Canal Blvd",
    "address_councildis": "A",
    "status": "Pending",
    "rowid": "855775",
    "final_x": "3668151.57082",
    "final_y": "542313.111181",
    "longitude": "-90.10985609313417",
    "latitude": "29.985571672776864",
    "geocoded_column": {
      "latitude": "29.985571672776864",
      "longitude": "-90.10985609313417"
    }
  },
  {
    "service_request": "2022-855774",
    "request_type": "Trash/Recycling",
    "request_reason": "Request a Large Item Pick Up",
    "date_created": "2022-01-21T16:49:11.000",
    "date_modified": "2022-01-21T16:49:11.000",
    "request_status": "Pending",
    "responsible_agency": "Department of Sanitation",
    "final_address": "935 Barracks St Unit 4",
    "address_councildis": "C",
    "status": "Assigned to Contractor",
    "contractor": "Empire Services",
    "rowid": "855774",
    "final_x": "3683112.38856",
    "final_y": "534876.144326",
    "longitude": "-90.06286148355042",
    "latitude": "29.964674876771475",
    "geocoded_column": {
      "latitude": "29.964674876771475",
      "longitude": "-90.06286148355042"
    }
  },
  {
    "service_request": "2022-855773",
    "request_type": "Abandoned Vehicles",
    "request_reason": "Abandoned/Junk Vehicles",
    "date_created": "2022-01-21T16:48:44.000",
    "date_modified": "2022-01-21T16:48:44.000",
    "request_status": "Pending",
    "responsible_agency": "Department of Public Works",
    "final_address": "4519 Magazine St, New Orleans, Louisiana, 70115",
    "address_councildis": "B",
    "status": "Pending",
    "rowid": "855773",
    "final_x": "3670488.82471",
    "final_y": "518767.243575",
    "longitude": "-90.10327202513184",
    "latitude": "29.92075946124019",
    "geocoded_column": {
      "latitude": "29.92075946124019",
      "longitude": "-90.10327202513184"
    }
  },
  {
    "service_request": "2022-855772",
    "request_type": "Trash/Recycling",
    "request_reason": "Request a Large Item Pick Up",
    "date_created": "2022-01-21T16:46:12.000",
    "date_modified": "2022-01-21T16:46:12.000",
    "request_status": "Pending",
    "responsible_agency": "Department of Sanitation",
    "final_address": "817 N Tonti St, New Orleans, Louisiana, 70119",
    "address_councildis": "D",
    "status": "Assigned to Contractor",
    "contractor": "Richards Disposal",
    "rowid": "855772",
    "final_x": "3678061.86402",
    "final_y": "536569.407111",
    "longitude": "-90.07875214725344",
    "latitude": "29.96948378308812",
    "geocoded_column": {
      "latitude": "29.96948378308812",
      "longitude": "-90.07875214725344"
    }
  },
  {
    "service_request": "2022-855771",
    "request_type": "Abandoned Vehicles",
    "request_reason": "Abandoned/Junk Vehicles",
    "date_created": "2022-01-21T16:45:27.000",
    "date_modified": "2022-01-21T16:45:27.000",
    "request_status": "Pending",
    "responsible_agency": "Department of Public Works",
    "final_address": "401 N Cortez St",
    "address_councildis": "A",
    "status": "Pending",
    "rowid": "855771",
    "final_x": "3672815.35643",
    "final_y": "538854.864329",
    "longitude": "-90.09524309560808",
    "latitude": "29.97592492493999",
    "geocoded_column": {
      "latitude": "29.97592492493999",
      "longitude": "-90.09524309560808"
    }
  },
  {
    "service_request": "2022-855770",
    "request_type": "Trash/Recycling",
    "request_reason": "Missed Trash Pick-Up",
    "date_created": "2022-01-21T16:37:11.000",
    "date_modified": "2022-01-21T16:37:11.000",
    "request_status": "Pending",
    "responsible_agency": "Department of Sanitation",
    "final_address": "1519 Clio St",
    "address_councildis": "B",
    "status": "Assigned to Contractor",
    "contractor": "Richards Disposal",
    "rowid": "855770",
    "final_x": "3680029.01269",
    "final_y": "526205.63603",
    "longitude": "-90.07289975933006",
    "latitude": "29.940927543440537",
    "geocoded_column": {
      "latitude": "29.940927543440537",
      "longitude": "-90.07289975933006"
    }
  },
  {
    "service_request": "2022-855769",
    "request_type": "Abandoned Vehicles",
    "request_reason": "Abandoned/Junk Vehicles",
    "date_created": "2022-01-21T16:35:50.000",
    "date_modified": "2022-01-21T16:35:50.000",
    "request_status": "Pending",
    "responsible_agency": "Department of Public Works",
    "final_address": "6352 Kingston Ct",
    "address_councildis": "C",
    "status": "Pending",
    "rowid": "855769",
    "final_x": "3707528.19819",
    "final_y": "517833.833526",
    "longitude": "-89.98639136732913",
    "latitude": "29.91704762907668",
    "geocoded_column": {
      "latitude": "29.91704762907668",
      "longitude": "-89.98639136732913"
    }
  },
  {
    "service_request": "2022-855767",
    "request_type": "Trash/Recycling",
    "request_reason": "Request a Large Item Pick Up",
    "date_created": "2022-01-21T16:31:36.000",
    "date_modified": "2022-01-21T16:31:36.000",
    "request_status": "Pending",
    "responsible_agency": "Department of Sanitation",
    "final_address": "2530 St Nick Dr",
    "address_councildis": "C",
    "status": "Assigned to Contractor",
    "contractor": "Richards Disposal",
    "rowid": "855767",
    "final_x": "3699421.74212",
    "final_y": "521857.415162",
    "longitude": "-90.01183214727963",
    "latitude": "29.928370633523507",
    "geocoded_column": {
      "latitude": "29.928370633523507",
      "longitude": "-90.01183214727963"
    }
  },
  {
    "service_request": "2022-855765",
    "request_type": "Safety & Permits",
    "request_reason": "Licenses & Permits",
    "date_created": "2022-01-21T16:26:02.000",
    "date_modified": "2022-01-21T16:26:02.000",
    "request_status": "Pending",
    "responsible_agency": "Safety and Permits",
    "final_address": "6352 Kingston Ct",
    "address_councildis": "C",
    "status": "Pending",
    "rowid": "855765",
    "final_x": "3707528.19819",
    "final_y": "517833.833526",
    "longitude": "-89.98639136732913",
    "latitude": "29.91704762907668",
    "geocoded_column": {
      "latitude": "29.91704762907668",
      "longitude": "-89.98639136732913"
    }
  },
  {
    "service_request": "2022-855764",
    "request_type": "Trash/Recycling",
    "request_reason": "Missed Trash Pick-Up",
    "date_created": "2022-01-21T16:25:08.000",
    "date_modified": "2022-01-21T16:25:09.000",
    "request_status": "Pending",
    "responsible_agency": "Department of Sanitation",
    "final_address": "1422 Tita St",
    "address_councildis": "C",
    "status": "Assigned to Contractor",
    "contractor": "Richards Disposal",
    "rowid": "855764",
    "final_x": "3695708.87555",
    "final_y": "526147.913854",
    "longitude": "-90.02339795936494",
    "latitude": "29.940285252363555",
    "geocoded_column": {
      "latitude": "29.940285252363555",
      "longitude": "-90.02339795936494"
    }
  },
  {
    "service_request": "2022-855763",
    "request_type": "Trash/Recycling",
    "request_reason": "MIssed Recycling Pick-Up",
    "date_created": "2022-01-21T16:21:59.000",
    "date_modified": "2022-01-21T16:21:59.000",
    "request_status": "Pending",
    "responsible_agency": "Department of Sanitation",
    "final_address": "8306 Oleander St",
    "address_councildis": "A",
    "status": "Assigned to Contractor",
    "contractor": "Richards Disposal",
    "rowid": "855763",
    "final_x": "3666155.68743",
    "final_y": "534167.679621",
    "longitude": "-90.11643353534399",
    "latitude": "29.963232903140092",
    "geocoded_column": {
      "latitude": "29.963232903140092",
      "longitude": "-90.11643353534399"
    }
  },
  {
    "service_request": "2022-855762",
    "request_type": "Trash/Recycling",
    "request_reason": "Request a Large Item Pick Up",
    "date_created": "2022-01-21T16:20:56.000",
    "date_modified": "2022-01-21T16:20:57.000",
    "request_status": "Pending",
    "responsible_agency": "Department of Sanitation",
    "final_address": "5313 Timber Haven Ln",
    "address_councildis": "C",
    "status": "Assigned to Contractor",
    "contractor": "Richards Disposal",
    "rowid": "855762",
    "final_x": "3703822.19633",
    "final_y": "511339.661808",
    "longitude": "-89.99832781387074",
    "latitude": "29.899310139188913",
    "geocoded_column": {
      "latitude": "29.899310139188913",
      "longitude": "-89.99832781387074"
    }
  },
  {
    "service_request": "2022-855761",
    "request_type": "Traffic Signals/Signs/Striping/Streetlights",
    "request_reason": "Traffic Signal Malfunctioning/Damaged",
    "date_created": "2022-01-21T16:19:17.000",
    "date_modified": "2022-01-21T16:19:17.000",
    "request_status": "Pending",
    "responsible_agency": "Department of Public Works",
    "final_address": "CANAL ST & MARAIS ST",
    "address_councildis": "C",
    "status": "Pending",
    "rowid": "855761",
    "final_x": "3679223.8",
    "final_y": "532222.78",
    "longitude": "-90.07523337606597",
    "latitude": "29.957497005146642",
    "geocoded_column": {
      "latitude": "29.957497005146642",
      "longitude": "-90.07523337606597"
    }
  },
  {
    "service_request": "2022-855760",
    "request_type": "COVID-19",
    "request_reason": "COVID-19 Business Non-Compliance",
    "date_created": "2022-01-21T16:19:14.000",
    "date_modified": "2022-01-21T16:19:15.000",
    "request_status": "Pending",
    "responsible_agency": "Safety and Permits",
    "final_address": "541 Dumaine St",
    "address_councildis": "C",
    "status": "Pending",
    "rowid": "855760",
    "final_x": "3683357.14812",
    "final_y": "532804.13114",
    "longitude": "-90.06216114059237",
    "latitude": "29.958970087038086",
    "geocoded_column": {
      "latitude": "29.958970087038086",
      "longitude": "-90.06216114059237"
    }
  },
  {
    "service_request": "2022-855759",
    "request_type": "Roads/Drainage",
    "request_reason": "Catch Basin - Clogged",
    "date_created": "2022-01-21T16:19:10.000",
    "date_modified": "2022-01-21T16:19:10.000",
    "request_status": "Pending",
    "responsible_agency": "Department of Public Works",
    "final_address": "601 Herald St",
    "address_councildis": "C",
    "status": "Pending",
    "rowid": "855759",
    "final_x": "3702256.41655",
    "final_y": "520739.104569",
    "longitude": "-90.00292475152581",
    "latitude": "29.925205469063158",
    "geocoded_column": {
      "latitude": "29.925205469063158",
      "longitude": "-90.00292475152581"
    }
  },
  {
    "service_request": "2022-855758",
    "request_type": "Trash/Recycling",
    "request_reason": "Illegal Dumping",
    "date_created": "2022-01-21T16:18:38.000",
    "date_modified": "2022-01-21T16:18:38.000",
    "request_status": "Pending",
    "responsible_agency": "Department of Sanitation",
    "final_address": "2736 Banks St",
    "address_councildis": "B",
    "status": "Pending",
    "rowid": "855758",
    "final_x": "3674303.03464",
    "final_y": "534315.478661",
    "longitude": "-90.09070005222678",
    "latitude": "29.963398868300928",
    "geocoded_column": {
      "latitude": "29.963398868300928",
      "longitude": "-90.09070005222678"
    }
  },
  {
    "service_request": "2022-855757",
    "request_type": "Trash/Recycling",
    "request_reason": "Illegal Dumping",
    "date_created": "2022-01-21T16:18:36.000",
    "date_modified": "2022-01-21T16:18:36.000",
    "request_status": "Pending",
    "responsible_agency": "Department of Sanitation",
    "final_address": "2736 Banks St",
    "address_councildis": "B",
    "status": "Pending",
    "rowid": "855757",
    "final_x": "3674303.03464",
    "final_y": "534315.478661",
    "longitude": "-90.09070005222678",
    "latitude": "29.963398868300928",
    "geocoded_column": {
      "latitude": "29.963398868300928",
      "longitude": "-90.09070005222678"
    }
  },
  {
    "service_request": "2022-855756",
    "request_type": "Abandoned Vehicles",
    "request_reason": "Abandoned/Junk Vehicles",
    "date_created": "2022-01-21T16:15:40.000",
    "date_modified": "2022-01-21T16:15:40.000",
    "request_status": "Pending",
    "responsible_agency": "Department of Public Works",
    "final_address": "5801 Abbey Dr",
    "address_councildis": "C",
    "status": "Pending",
    "rowid": "855756",
    "final_x": "3705079.44081",
    "final_y": "520928.136761",
    "longitude": "-89.99400645953422",
    "latitude": "29.9256348127816",
    "geocoded_column": {
      "latitude": "29.9256348127816",
      "longitude": "-89.99400645953422"
    }
  },
  {
    "service_request": "2022-855755",
    "request_type": "Abandoned Vehicles",
    "request_reason": "Abandoned/Junk Vehicles",
    "date_created": "2022-01-21T16:12:57.000",
    "date_modified": "2022-01-21T16:12:57.000",
    "request_status": "Pending",
    "responsible_agency": "Department of Public Works",
    "final_address": "2736 Banks St",
    "address_councildis": "B",
    "status": "Pending",
    "rowid": "855755",
    "final_x": "3674303.03464",
    "final_y": "534315.478661",
    "longitude": "-90.09070005222678",
    "latitude": "29.963398868300928",
    "geocoded_column": {
      "latitude": "29.963398868300928",
      "longitude": "-90.09070005222678"
    }
  },
  {
    "service_request": "2022-855754",
    "request_type": "Abandoned Vehicles",
    "request_reason": "Abandoned/Junk Vehicles",
    "date_created": "2022-01-21T16:08:55.000",
    "date_modified": "2022-01-21T16:08:55.000",
    "request_status": "Pending",
    "responsible_agency": "Department of Public Works",
    "final_address": "4400 Eden St",
    "address_councildis": "B",
    "status": "Pending",
    "rowid": "855754",
    "final_x": "3669937.09639",
    "final_y": "530607.24557",
    "longitude": "-90.10461281548804",
    "latitude": "29.953331920708518",
    "geocoded_column": {
      "latitude": "29.953331920708518",
      "longitude": "-90.10461281548804"
    }
  },
  {
    "service_request": "2022-855753",
    "request_type": "Traffic Signals/Signs/Striping/Streetlights",
    "request_reason": "Traffic Signal Malfunctioning/Damaged",
    "date_created": "2022-01-21T16:08:16.000",
    "date_modified": "2022-01-21T16:08:16.000",
    "request_status": "Pending",
    "responsible_agency": "Department of Public Works",
    "final_address": "CROWDER BLVD & I 10 W SERVICE RD",
    "address_councildis": "E",
    "status": "Pending",
    "rowid": "855753",
    "final_x": "3704485.5",
    "final_y": "559297.68",
    "longitude": "-89.99446609013799",
    "latitude": "30.031156002202795",
    "geocoded_column": {
      "latitude": "30.031156002202795",
      "longitude": "-89.99446609013799"
    }
  },
  {
    "service_request": "2022-855752",
    "request_type": "Trash/Recycling",
    "request_reason": "Missed Trash Pick-Up",
    "date_created": "2022-01-21T16:03:25.000",
    "date_modified": "2022-01-21T16:03:26.000",
    "request_status": "Pending",
    "responsible_agency": "Department of Sanitation",
    "final_address": "5773 Wickfield Dr",
    "address_councildis": "D",
    "status": "Assigned to Contractor",
    "contractor": "Metro Disposal",
    "rowid": "855752",
    "final_x": "3681073.13423",
    "final_y": "554527.857496",
    "longitude": "-90.06861633182535",
    "latitude": "30.018772159405682",
    "geocoded_column": {
      "latitude": "30.018772159405682",
      "longitude": "-90.06861633182535"
    }
  },
  {
    "service_request": "2022-855751",
    "request_type": "Trash/Recycling",
    "request_reason": "Missed Trash Pick-Up",
    "date_created": "2022-01-21T16:03:16.000",
    "date_modified": "2022-01-21T16:03:17.000",
    "request_status": "Pending",
    "responsible_agency": "Department of Sanitation",
    "final_address": "5773 Wickfield Dr",
    "address_councildis": "D",
    "status": "Assigned to Contractor",
    "contractor": "Metro Disposal",
    "rowid": "855751",
    "final_x": "3681073.13423",
    "final_y": "554527.857496",
    "longitude": "-90.06861633182535",
    "latitude": "30.018772159405682",
    "geocoded_column": {
      "latitude": "30.018772159405682",
      "longitude": "-90.06861633182535"
    }
  },
  {
    "service_request": "2022-855750",
    "request_type": "Trash/Recycling",
    "request_reason": "Illegal Dumping",
    "date_created": "2022-01-21T15:59:42.000",
    "date_modified": "2022-01-21T15:59:42.000",
    "request_status": "Pending",
    "responsible_agency": "Department of Sanitation",
    "final_address": "WOODVINE LN & WRIGHT RD",
    "address_councildis": "E",
    "status": "Pending",
    "rowid": "855750",
    "final_x": "3715954.1",
    "final_y": "559498.48",
    "longitude": "-89.95821771124668",
    "latitude": "30.03133466937418",
    "geocoded_column": {
      "latitude": "30.03133466937418",
      "longitude": "-89.95821771124668"
    }
  },
  {
    "service_request": "2022-855749",
    "request_type": "Trash/Recycling",
    "request_reason": "Illegal Dumping",
    "date_created": "2022-01-21T15:58:51.000",
    "date_modified": "2022-01-21T15:58:51.000",
    "request_status": "Pending",
    "responsible_agency": "Department of Sanitation",
    "final_address": "10710 Dwyer Rd",
    "address_councildis": "E",
    "status": "Pending",
    "rowid": "855749",
    "final_x": "3715041.3877",
    "final_y": "558231.07478",
    "longitude": "-89.96114984886911",
    "latitude": "30.027879896939474",
    "geocoded_column": {
      "latitude": "30.027879896939474",
      "longitude": "-89.96114984886911"
    }
  },
  {
    "service_request": "2022-855748",
    "request_type": "Abandoned Vehicles",
    "request_reason": "Abandoned/Junk Vehicles",
    "date_created": "2022-01-21T15:53:51.000",
    "date_modified": "2022-01-21T15:53:51.000",
    "request_status": "Pending",
    "responsible_agency": "Department of Public Works",
    "final_address": "1126 Ursulines Ave",
    "address_councildis": "C",
    "status": "Pending",
    "rowid": "855748",
    "final_x": "3682042.15586",
    "final_y": "534686.292102",
    "longitude": "-90.06624783077694",
    "latitude": "29.964185433430398",
    "geocoded_column": {
      "latitude": "29.964185433430398",
      "longitude": "-90.06624783077694"
    }
  },
  {
    "service_request": "2022-855747",
    "request_type": "Traffic Signals/Signs/Striping/Streetlights",
    "request_reason": "Street Light Outage/Malfunction",
    "date_created": "2022-01-21T15:53:00.000",
    "date_modified": "2022-01-21T15:53:01.000",
    "request_status": "Pending",
    "responsible_agency": "Department of Public Works",
    "final_address": "1900 Pauline St",
    "address_councildis": "D",
    "status": "Pending",
    "contractor": "Royal Engineering",
    "rowid": "855747",
    "final_x": "3691932.32125",
    "final_y": "538493.056585",
    "longitude": "-90.03487942712322",
    "latitude": "29.974348263788855",
    "geocoded_column": {
      "latitude": "29.974348263788855",
      "longitude": "-90.03487942712322"
    }
  },
  {
    "service_request": "2022-855746",
    "request_type": "Traffic Signals/Signs/Striping/Streetlights",
    "request_reason": "Street Light Outage/Malfunction",
    "date_created": "2022-01-21T15:49:01.000",
    "date_modified": "2022-01-21T15:49:02.000",
    "request_status": "Pending",
    "responsible_agency": "Department of Public Works",
    "final_address": "3025 George Nick Connor Dr",
    "address_councildis": "D",
    "status": "Pending",
    "contractor": "Royal Engineering",
    "rowid": "855746",
    "final_x": "3681058.50255",
    "final_y": "543567.267982",
    "longitude": "-90.06904467761713",
    "latitude": "29.988634908340398",
    "geocoded_column": {
      "latitude": "29.988634908340398",
      "longitude": "-90.06904467761713"
    }
  },
  {
    "service_request": "2022-855745",
    "request_type": "Traffic Signals/Signs/Striping/Streetlights",
    "request_reason": "Street Light Outage/Malfunction",
    "date_created": "2022-01-21T15:47:54.000",
    "date_modified": "2022-01-21T15:47:55.000",
    "request_status": "Pending",
    "responsible_agency": "Department of Public Works",
    "final_address": "1741 Abundance St",
    "address_councildis": "D",
    "status": "Pending",
    "contractor": "Royal Engineering",
    "rowid": "855745",
    "final_x": "3681053.0509",
    "final_y": "543432.347534",
    "longitude": "-90.06906659985174",
    "latitude": "29.98826408996832",
    "geocoded_column": {
      "latitude": "29.98826408996832",
      "longitude": "-90.06906659985174"
    }
  },
  {
    "service_request": "2022-855744",
    "request_type": "Trash/Recycling",
    "request_reason": "Missed Trash Pick-Up",
    "date_created": "2022-01-21T15:44:26.000",
    "date_modified": "2022-01-21T15:44:27.000",
    "request_status": "Pending",
    "responsible_agency": "Department of Sanitation",
    "final_address": "1410 Erato St",
    "address_councildis": "B",
    "status": "Assigned to Contractor",
    "contractor": "Richards Disposal",
    "rowid": "855744",
    "final_x": "3680078.86331",
    "final_y": "525664.248509",
    "longitude": "-90.07276117607097",
    "latitude": "29.9394373996616",
    "geocoded_column": {
      "latitude": "29.9394373996616",
      "longitude": "-90.07276117607097"
    }
  },
  {
    "service_request": "2022-855743",
    "request_type": "Trash/Recycling",
    "request_reason": "Order Recycling Cart",
    "date_created": "2022-01-21T15:39:19.000",
    "date_modified": "2022-01-21T15:39:20.000",
    "request_status": "Pending",
    "responsible_agency": "Department of Sanitation",
    "final_address": "1516 Bodenger Blvd",
    "address_councildis": "C",
    "status": "Pending",
    "rowid": "855743",
    "final_x": "3688557.49468",
    "final_y": "525985.055741",
    "longitude": "-90.04598171590942",
    "latitude": "29.940060310017497",
    "geocoded_column": {
      "latitude": "29.940060310017497",
      "longitude": "-90.04598171590942"
    }
  },
  {
    "service_request": "2022-855742",
    "request_type": "Trash/Recycling",
    "request_reason": "Illegal Dumping",
    "date_created": "2022-01-21T15:33:55.000",
    "date_modified": "2022-01-21T15:33:55.000",
    "request_status": "Pending",
    "responsible_agency": "Department of Sanitation",
    "final_address": "6TH ST & S SARATOGA ST",
    "address_councildis": "B",
    "status": "Pending",
    "rowid": "855742",
    "final_x": "3674514.0",
    "final_y": "523749.28",
    "longitude": "-90.09039578965523",
    "latitude": "29.93433902469066",
    "geocoded_column": {
      "latitude": "29.93433902469066",
      "longitude": "-90.09039578965523"
    }
  },
  {
    "service_request": "2022-855741",
    "request_type": "Trash/Recycling",
    "request_reason": "Missed Trash Pick-Up",
    "date_created": "2022-01-21T15:30:59.000",
    "date_modified": "2022-01-21T15:31:00.000",
    "request_status": "Pending",
    "responsible_agency": "Department of Sanitation",
    "final_address": "1707 S Carrollton Ave",
    "address_councildis": "A",
    "status": "Assigned to Contractor",
    "contractor": "Richards Disposal",
    "rowid": "855741",
    "final_x": "3663343.28448",
    "final_y": "529603.184193",
    "longitude": "-90.12546676594745",
    "latitude": "29.950763851052347",
    "geocoded_column": {
      "latitude": "29.950763851052347",
      "longitude": "-90.12546676594745"
    }
  },
  {
    "service_request": "2022-855740",
    "request_type": "Trash/Recycling",
    "request_reason": "Missed Trash Pick-Up",
    "date_created": "2022-01-21T15:27:36.000",
    "date_modified": "2022-01-21T15:27:37.000",
    "request_status": "Pending",
    "responsible_agency": "Department of Sanitation",
    "final_address": "931 Royal St",
    "address_councildis": "C",
    "status": "Assigned to Contractor",
    "contractor": "Empire Services",
    "rowid": "855740",
    "final_x": "3683128.0694",
    "final_y": "533273.495108",
    "longitude": "-90.06286807967612",
    "latitude": "29.96026766328013",
    "geocoded_column": {
      "latitude": "29.96026766328013",
      "longitude": "-90.06286807967612"
    }
  },
  {
    "service_request": "2022-855739",
    "request_type": "Trash/Recycling",
    "request_reason": "Illegal Dumping",
    "date_created": "2022-01-21T15:22:12.000",
    "date_modified": "2022-01-21T15:22:12.000",
    "request_status": "Pending",
    "responsible_agency": "Department of Sanitation",
    "final_address": "3317 Toledano St",
    "address_councildis": "B",
    "status": "Pending",
    "rowid": "855739",
    "final_x": "3672105.8658",
    "final_y": "527802.636991",
    "longitude": "-90.09786024143823",
    "latitude": "29.94555604432485",
    "geocoded_column": {
      "latitude": "29.94555604432485",
      "longitude": "-90.09786024143823"
    }
  },
  {
    "service_request": "2022-855738",
    "request_type": "Mayor's Request",
    "request_reason": "Requests to the Mayor",
    "date_created": "2022-01-21T15:19:55.000",
    "date_modified": "2022-01-21T15:19:55.000",
    "request_status": "Pending",
    "responsible_agency": "Executive Office of the Mayor",
    "status": "Pending",
    "rowid": "855738",
    "longitude": "0.0",
    "latitude": "0.0",
    "geocoded_column": {
      "latitude": "0.0",
      "longitude": "0.0"
    }
  },
  {
    "service_request": "2022-855737",
    "request_type": "Traffic Signals/Signs/Striping/Streetlights",
    "request_reason": "Street Light Outage/Malfunction",
    "date_created": "2022-01-21T15:16:50.000",
    "date_modified": "2022-01-21T15:16:51.000",
    "request_status": "Pending",
    "responsible_agency": "Department of Public Works",
    "final_address": "21 Honeysuckle Ln",
    "address_councildis": "E",
    "status": "Pending",
    "contractor": "Royal Engineering",
    "rowid": "855737",
    "final_x": "3712925.48555",
    "final_y": "568402.077733",
    "longitude": "-89.96745276961893",
    "latitude": "30.055915560664825",
    "geocoded_column": {
      "latitude": "30.055915560664825",
      "longitude": "-89.96745276961893"
    }
  },
  {
    "service_request": "2022-855736",
    "request_type": "Trash/Recycling",
    "request_reason": "Replace Trash Cart",
    "date_created": "2022-01-21T15:16:45.000",
    "date_modified": "2022-01-21T15:16:46.000",
    "request_status": "Pending",
    "responsible_agency": "Department of Sanitation",
    "final_address": "4910 Frankfort St",
    "address_councildis": "D",
    "status": "Assigned to Contractor",
    "contractor": "Metro Disposal",
    "rowid": "855736",
    "final_x": "3690750.73296",
    "final_y": "557465.595227",
    "longitude": "-90.03793374272558",
    "latitude": "30.026552582084822",
    "geocoded_column": {
      "latitude": "30.026552582084822",
      "longitude": "-90.03793374272558"
    }
  },
  {
    "service_request": "2022-855735",
    "request_type": "Roads/Drainage",
    "request_reason": "Damaged Sidewalk",
    "date_created": "2022-01-21T15:12:33.000",
    "date_modified": "2022-01-21T15:12:33.000",
    "request_status": "Pending",
    "responsible_agency": "Department of Public Works",
    "final_address": "2721 Calhoun St",
    "address_councildis": "A",
    "status": "Pending",
    "rowid": "855735",
    "final_x": "3666555.63572",
    "final_y": "526766.055998",
    "longitude": "-90.11541897703643",
    "latitude": "29.942869164990935",
    "geocoded_column": {
      "latitude": "29.942869164990935",
      "longitude": "-90.11541897703643"
    }
  },
  {
    "service_request": "2022-855734",
    "request_type": "Property Maintenance",
    "request_reason": "Property Maintenance",
    "date_created": "2022-01-21T15:12:02.000",
    "date_modified": "2022-01-21T15:12:05.000",
    "request_status": "Pending",
    "responsible_agency": "Department of Code Enforcement",
    "final_address": "2910 Conti St",
    "address_councildis": "B",
    "status": "Pending",
    "rowid": "855734",
    "final_x": "3675192.5723",
    "final_y": "536637.842055",
    "longitude": "-90.08781126911029",
    "latitude": "29.969758026948078",
    "geocoded_column": {
      "latitude": "29.969758026948078",
      "longitude": "-90.08781126911029"
    }
  },
  {
    "service_request": "2022-855733",
    "request_type": "Trash/Recycling",
    "request_reason": "Replace Trash Cart",
    "date_created": "2022-01-21T15:10:47.000",
    "date_modified": "2022-01-21T15:10:48.000",
    "request_status": "Pending",
    "responsible_agency": "Department of Sanitation",
    "final_address": "1490 Pressburg St",
    "address_councildis": "D",
    "status": "Assigned to Contractor",
    "contractor": "Metro Disposal",
    "rowid": "855733",
    "final_x": "3678197.82747",
    "final_y": "553925.107351",
    "longitude": "-90.07772214764785",
    "latitude": "30.01720176396163",
    "geocoded_column": {
      "latitude": "30.01720176396163",
      "longitude": "-90.07772214764785"
    }
  },
  {
    "service_request": "2022-855732",
    "request_type": "COVID-19",
    "request_reason": "COVID-19 Business Non-Compliance",
    "date_created": "2022-01-21T15:10:43.000",
    "date_modified": "2022-01-21T15:10:48.000",
    "request_status": "Pending",
    "responsible_agency": "Safety and Permits",
    "final_address": "733 St Louis St",
    "address_councildis": "C",
    "status": "Pending",
    "rowid": "855732",
    "final_x": "3681910.96092",
    "final_y": "532054.217283",
    "longitude": "-90.06675400988603",
    "latitude": "29.956952114696733",
    "geocoded_column": {
      "latitude": "29.956952114696733",
      "longitude": "-90.06675400988603"
    }
  },
  {
    "service_request": "2022-855731",
    "request_type": "COVID-19",
    "request_reason": "COVID-19 Business Non-Compliance",
    "date_created": "2022-01-21T15:09:39.000",
    "date_modified": "2022-01-21T15:09:41.000",
    "request_status": "Pending",
    "responsible_agency": "Safety and Permits",
    "final_address": "733 St Louis St",
    "address_councildis": "C",
    "status": "Pending",
    "rowid": "855731",
    "final_x": "3681910.96092",
    "final_y": "532054.217283",
    "longitude": "-90.06675400988603",
    "latitude": "29.956952114696733",
    "geocoded_column": {
      "latitude": "29.956952114696733",
      "longitude": "-90.06675400988603"
    }
  },
  {
    "service_request": "2022-855730",
    "request_type": "Trash/Recycling",
    "request_reason": "Order Recycling Cart",
    "date_created": "2022-01-21T15:09:08.000",
    "date_modified": "2022-01-21T15:09:08.000",
    "request_status": "Pending",
    "responsible_agency": "Department of Sanitation",
    "final_address": "833 N Lopez St",
    "address_councildis": "A",
    "status": "Pending",
    "rowid": "855730",
    "final_x": "3675616.47432",
    "final_y": "538580.889865",
    "longitude": "-90.08640576964707",
    "latitude": "29.975088069577442",
    "geocoded_column": {
      "latitude": "29.975088069577442",
      "longitude": "-90.08640576964707"
    }
  },
  {
    "service_request": "2022-855729",
    "request_type": "Trash/Recycling",
    "request_reason": "Replace Trash Cart",
    "date_created": "2022-01-21T15:07:30.000",
    "date_modified": "2022-01-21T15:07:31.000",
    "request_status": "Pending",
    "responsible_agency": "Department of Sanitation",
    "final_address": "1314 Ursulines Ave",
    "address_councildis": "C",
    "status": "Assigned to Contractor",
    "contractor": "Richards Disposal",
    "rowid": "855729",
    "final_x": "3681576.56335",
    "final_y": "535032.243974",
    "longitude": "-90.06770606427742",
    "latitude": "29.965150831154816",
    "geocoded_column": {
      "latitude": "29.965150831154816",
      "longitude": "-90.06770606427742"
    }
  },
  {
    "service_request": "2022-855728",
    "request_type": "Traffic Signals/Signs/Striping/Streetlights",
    "request_reason": "Street Light Outage/Malfunction",
    "date_created": "2022-01-21T15:07:08.000",
    "date_modified": "2022-01-21T15:07:08.000",
    "request_status": "Pending",
    "responsible_agency": "Department of Public Works",
    "final_address": "41 Honeysuckle Ln",
    "address_councildis": "E",
    "status": "Pending",
    "contractor": "Royal Engineering",
    "rowid": "855728",
    "final_x": "3713213.98962",
    "final_y": "568299.949733",
    "longitude": "-89.96654472036585",
    "latitude": "30.0556252912257",
    "geocoded_column": {
      "latitude": "30.0556252912257",
      "longitude": "-89.96654472036585"
    }
  },
  {
    "service_request": "2022-855727",
    "request_type": "Trash/Recycling",
    "request_reason": "Order Recycling Cart",
    "date_created": "2022-01-21T15:00:58.000",
    "date_modified": "2022-01-21T15:00:59.000",
    "request_status": "Pending",
    "responsible_agency": "Department of Sanitation",
    "final_address": "4563 Owens Blvd",
    "address_councildis": "D",
    "status": "Pending",
    "rowid": "855727",
    "final_x": "3676460.07624",
    "final_y": "549151.158931",
    "longitude": "-90.08337728299317",
    "latitude": "30.004127356530013",
    "geocoded_column": {
      "latitude": "30.004127356530013",
      "longitude": "-90.08337728299317"
    }
  },
  {
    "service_request": "2022-855725",
    "request_type": "COVID-19",
    "request_reason": "COVID-19 Business Non-Compliance",
    "date_created": "2022-01-21T14:50:49.000",
    "date_modified": "2022-01-21T14:50:51.000",
    "request_status": "Pending",
    "responsible_agency": "Safety and Permits",
    "final_address": "1125 St Mary St",
    "address_councildis": "B",
    "status": "Pending",
    "rowid": "855725",
    "final_x": "3679627.88693",
    "final_y": "522996.446651",
    "longitude": "-90.07427751582154",
    "latitude": "29.932115459558396",
    "geocoded_column": {
      "latitude": "29.932115459558396",
      "longitude": "-90.07427751582154"
    }
  },
  {
    "service_request": "2022-855724",
    "request_type": "Trash/Recycling",
    "request_reason": "Repair Trash Cart",
    "date_created": "2022-01-21T14:50:34.000",
    "date_modified": "2022-01-21T14:50:35.000",
    "request_status": "Pending",
    "responsible_agency": "Department of Sanitation",
    "final_address": "216 S Alexander St",
    "address_councildis": "A",
    "status": "Assigned to Contractor",
    "contractor": "Richards Disposal",
    "rowid": "855724",
    "final_x": "3669645.99214",
    "final_y": "538652.074377",
    "longitude": "-90.10525974883589",
    "latitude": "29.97546110299847",
    "geocoded_column": {
      "latitude": "29.97546110299847",
      "longitude": "-90.10525974883589"
    }
  },
  {
    "service_request": "2022-855723",
    "request_type": "Trash/Recycling",
    "request_reason": "Missed Trash Pick-Up",
    "date_created": "2022-01-21T14:49:02.000",
    "date_modified": "2022-01-21T14:49:03.000",
    "request_status": "Pending",
    "responsible_agency": "Department of Sanitation",
    "final_address": "1619 Feliciana St",
    "address_councildis": "D",
    "status": "Assigned to Contractor",
    "contractor": "Metro Disposal",
    "rowid": "855723",
    "final_x": "3689289.14972",
    "final_y": "538137.091529",
    "longitude": "-90.04323981974242",
    "latitude": "29.973451578703376",
    "geocoded_column": {
      "latitude": "29.973451578703376",
      "longitude": "-90.04323981974242"
    }
  },
  {
    "service_request": "2022-855722",
    "request_type": "Trash/Recycling",
    "request_reason": "Missed Trash Pick-Up",
    "date_created": "2022-01-21T14:47:48.000",
    "date_modified": "2022-01-21T14:47:49.000",
    "request_status": "Pending",
    "responsible_agency": "Department of Sanitation",
    "final_address": "933 N Villere St",
    "address_councildis": "C",
    "status": "Assigned to Contractor",
    "contractor": "Richards Disposal",
    "rowid": "855722",
    "final_x": "3680870.94383",
    "final_y": "535019.457414",
    "longitude": "-90.06993481631078",
    "latitude": "29.965137084062658",
    "geocoded_column": {
      "latitude": "29.965137084062658",
      "longitude": "-90.06993481631078"
    }
  },
  {
    "service_request": "2022-855720",
    "request_type": "Roads/Drainage",
    "request_reason": "Pothole",
    "date_created": "2022-01-21T14:41:06.000",
    "date_modified": "2022-01-21T14:41:06.000",
    "request_status": "Pending",
    "responsible_agency": "Department of Public Works",
    "final_address": "11901 Curran Rd",
    "address_councildis": "E",
    "status": "Pending",
    "rowid": "855720",
    "final_x": "3712933.69099",
    "final_y": "567785.166948",
    "longitude": "-89.96745007793196",
    "latitude": "30.054219039254882",
    "geocoded_column": {
      "latitude": "30.054219039254882",
      "longitude": "-89.96745007793196"
    }
  },
  {
    "service_request": "2022-855719",
    "request_type": "Trash/Recycling",
    "request_reason": "Replace Recycling Cart",
    "date_created": "2022-01-21T14:37:37.000",
    "date_modified": "2022-01-21T14:37:37.000",
    "request_status": "Pending",
    "responsible_agency": "Department of Sanitation",
    "final_address": "7501 Zimple St",
    "address_councildis": "A",
    "status": "Pending",
    "rowid": "855719",
    "final_x": "3663300.02714",
    "final_y": "526734.362814",
    "longitude": "-90.12569881916124",
    "latitude": "29.942876766641657",
    "geocoded_column": {
      "latitude": "29.942876766641657",
      "longitude": "-90.12569881916124"
    }
  },
  {
    "service_request": "2022-855718",
    "request_type": "Trash/Recycling",
    "request_reason": "Illegal Dumping",
    "date_created": "2022-01-21T14:35:21.000",
    "date_modified": "2022-01-21T14:35:45.000",
    "case_close_date": "2022-01-21T08:35:45.000",
    "request_status": "Closed",
    "responsible_agency": "Department of Sanitation",
    "final_address": "5390 Tullis Dr",
    "address_councildis": "C",
    "status": "Resolved",
    "rowid": "855718",
    "final_x": "3703899.07991",
    "final_y": "511989.322352",
    "longitude": "-89.998061289869",
    "latitude": "29.901094022547078",
    "geocoded_column": {
      "latitude": "29.901094022547078",
      "longitude": "-89.998061289869"
    }
  },
  {
    "service_request": "2022-855717",
    "request_type": "Trash/Recycling",
    "request_reason": "Missed Trash Pick-Up",
    "date_created": "2022-01-21T14:33:46.000",
    "date_modified": "2022-01-21T14:33:46.000",
    "request_status": "Pending",
    "responsible_agency": "Department of Sanitation",
    "final_address": "2501 Calhoun St",
    "address_councildis": "A",
    "status": "Assigned to Contractor",
    "contractor": "Richards Disposal",
    "rowid": "855717",
    "final_x": "3666239.34465",
    "final_y": "526040.310334",
    "longitude": "-90.11644192222953",
    "latitude": "29.940882837900297",
    "geocoded_column": {
      "latitude": "29.940882837900297",
      "longitude": "-90.11644192222953"
    }
  },
  {
    "service_request": "2022-855716",
    "request_type": "Trash/Recycling",
    "request_reason": "Illegal Dumping",
    "date_created": "2022-01-21T14:30:33.000",
    "date_modified": "2022-01-21T14:31:08.000",
    "case_close_date": "2022-01-21T08:31:08.000",
    "request_status": "Closed",
    "responsible_agency": "Department of Sanitation",
    "final_address": "5410 Tullis Dr",
    "address_councildis": "C",
    "status": "Resolved",
    "rowid": "855716",
    "final_x": "3703998.89015",
    "final_y": "511979.167152",
    "longitude": "-89.99774667277934",
    "latitude": "29.901062900636397",
    "geocoded_column": {
      "latitude": "29.901062900636397",
      "longitude": "-89.99774667277934"
    }
  },
  {
    "service_request": "2022-855715",
    "request_type": "Trash/Recycling",
    "request_reason": "Illegal Dumping",
    "date_created": "2022-01-21T14:29:08.000",
    "date_modified": "2022-01-21T14:29:36.000",
    "case_close_date": "2022-01-21T08:29:36.000",
    "request_status": "Closed",
    "responsible_agency": "Department of Sanitation",
    "final_address": "5797 Tullis Dr",
    "address_councildis": "C",
    "status": "Resolved",
    "rowid": "855715",
    "final_x": "3705509.11479",
    "final_y": "512857.028145",
    "longitude": "-89.99294815774192",
    "latitude": "29.903428230226947",
    "geocoded_column": {
      "latitude": "29.903428230226947",
      "longitude": "-89.99294815774192"
    }
  },
  {
    "service_request": "2022-855714",
    "request_type": "Traffic Signals/Signs/Striping/Streetlights",
    "request_reason": "Street Light Outage/Malfunction",
    "date_created": "2022-01-21T14:24:17.000",
    "date_modified": "2022-01-21T14:24:18.000",
    "request_status": "Pending",
    "responsible_agency": "Department of Public Works",
    "final_address": "DWYER BLVD & MICHOUD BLVD",
    "address_councildis": "E",
    "status": "Pending",
    "contractor": "Royal Engineering",
    "rowid": "855714",
    "final_x": "3724846.6",
    "final_y": "561624.38",
    "longitude": "-89.93003518087264",
    "latitude": "30.036883589779407",
    "geocoded_column": {
      "latitude": "30.036883589779407",
      "longitude": "-89.93003518087264"
    }
  },
  {
    "service_request": "2022-855713",
    "request_type": "Trash/Recycling",
    "request_reason": "Illegal Dumping",
    "date_created": "2022-01-21T14:24:09.000",
    "date_modified": "2022-01-21T14:24:36.000",
    "case_close_date": "2022-01-21T08:24:36.000",
    "request_status": "Closed",
    "responsible_agency": "Department of Sanitation",
    "final_address": "5793 Tullis Dr",
    "address_councildis": "C",
    "status": "Resolved",
    "rowid": "855713",
    "final_x": "3705541.02385",
    "final_y": "512819.333041",
    "longitude": "-89.99284884552856",
    "latitude": "29.903323555142215",
    "geocoded_column": {
      "latitude": "29.903323555142215",
      "longitude": "-89.99284884552856"
    }
  },
  {
    "service_request": "2022-855712",
    "request_type": "Trash/Recycling",
    "request_reason": "Illegal Dumping",
    "date_created": "2022-01-21T14:22:24.000",
    "date_modified": "2022-01-21T14:22:52.000",
    "case_close_date": "2022-01-21T08:22:52.000",
    "request_status": "Closed",
    "responsible_agency": "Department of Sanitation",
    "final_address": "5800 Tullis Dr",
    "address_councildis": "C",
    "status": "Resolved",
    "rowid": "855712",
    "final_x": "3705409.21828",
    "final_y": "513020.201009",
    "longitude": "-89.99325740522217",
    "latitude": "29.903880112789285",
    "geocoded_column": {
      "latitude": "29.903880112789285",
      "longitude": "-89.99325740522217"
    }
  },
  {
    "service_request": "2022-855711",
    "request_type": "Roads/Drainage",
    "request_reason": "Pothole",
    "date_created": "2022-01-21T14:22:15.000",
    "date_modified": "2022-01-21T14:22:15.000",
    "request_status": "Pending",
    "responsible_agency": "Department of Public Works",
    "final_address": "3108 Mistletoe St",
    "address_councildis": "A",
    "status": "Pending",
    "rowid": "855711",
    "final_x": "3663711.56583",
    "final_y": "536109.371527",
    "longitude": "-90.12408711560872",
    "latitude": "29.968643064376522",
    "geocoded_column": {
      "latitude": "29.968643064376522",
      "longitude": "-90.12408711560872"
    }
  },
  {
    "service_request": "2022-855710",
    "request_type": "Trash/Recycling",
    "request_reason": "Request a Large Item Pick Up",
    "date_created": "2022-01-21T14:21:17.000",
    "date_modified": "2022-01-21T14:21:17.000",
    "request_status": "Pending",
    "responsible_agency": "Department of Sanitation",
    "final_address": "5353 Perrier St",
    "address_councildis": "B",
    "status": "Assigned to Contractor",
    "contractor": "Richards Disposal",
    "rowid": "855710",
    "final_x": "3667230.41421",
    "final_y": "520102.297272",
    "longitude": "-90.11351250634239",
    "latitude": "29.924526217147832",
    "geocoded_column": {
      "latitude": "29.924526217147832",
      "longitude": "-90.11351250634239"
    }
  },
  {
    "service_request": "2022-855709",
    "request_type": "Trash/Recycling",
    "request_reason": "Illegal Dumping",
    "date_created": "2022-01-21T14:19:10.000",
    "date_modified": "2022-01-21T14:21:33.000",
    "case_close_date": "2022-01-21T08:21:33.000",
    "request_status": "Closed",
    "responsible_agency": "Department of Sanitation",
    "final_address": "5236 Tullis Dr",
    "address_councildis": "C",
    "status": "Resolved",
    "rowid": "855709",
    "final_x": "3703088.2657",
    "final_y": "511992.872432",
    "longitude": "-90.00062000492383",
    "latitude": "29.901129739725263",
    "geocoded_column": {
      "latitude": "29.901129739725263",
      "longitude": "-90.00062000492383"
    }
  },
  {
    "service_request": "2022-855708",
    "request_type": "Trash/Recycling",
    "request_reason": "Illegal Dumping",
    "date_created": "2022-01-21T14:17:16.000",
    "date_modified": "2022-01-21T14:18:05.000",
    "case_close_date": "2022-01-21T08:18:05.000",
    "request_status": "Closed",
    "responsible_agency": "Department of Sanitation",
    "final_address": "5358 Tullis Dr",
    "address_councildis": "C",
    "status": "Resolved",
    "rowid": "855708",
    "final_x": "3703668.92567",
    "final_y": "511976.316528",
    "longitude": "-89.99878811063947",
    "latitude": "29.901065633655698",
    "geocoded_column": {
      "latitude": "29.901065633655698",
      "longitude": "-89.99878811063947"
    }
  },
  {
    "service_request": "2022-855707",
    "request_type": "Trash/Recycling",
    "request_reason": "Illegal Dumping",
    "date_created": "2022-01-21T14:15:24.000",
    "date_modified": "2022-01-21T14:16:07.000",
    "case_close_date": "2022-01-21T08:16:07.000",
    "request_status": "Closed",
    "responsible_agency": "Department of Sanitation",
    "final_address": "5246 Tullis Dr",
    "address_councildis": "C",
    "status": "Resolved",
    "rowid": "855707",
    "final_x": "3703143.87543",
    "final_y": "511991.588016",
    "longitude": "-90.00044455348885",
    "latitude": "29.90112442943548",
    "geocoded_column": {
      "latitude": "29.90112442943548",
      "longitude": "-90.00044455348885"
    }
  },
  {
    "service_request": "2022-855706",
    "request_type": "Roads/Drainage",
    "request_reason": "Pothole",
    "date_created": "2022-01-21T14:14:55.000",
    "date_modified": "2022-01-21T14:14:55.000",
    "request_status": "Pending",
    "responsible_agency": "Department of Public Works",
    "final_address": "3108 Mistletoe St",
    "address_councildis": "A",
    "status": "Pending",
    "rowid": "855706",
    "final_x": "3663711.56583",
    "final_y": "536109.371527",
    "longitude": "-90.12408711560872",
    "latitude": "29.968643064376522",
    "geocoded_column": {
      "latitude": "29.968643064376522",
      "longitude": "-90.12408711560872"
    }
  },
  {
    "service_request": "2022-855705",
    "request_type": "Trash/Recycling",
    "request_reason": "Illegal Dumping",
    "date_created": "2022-01-21T14:13:48.000",
    "date_modified": "2022-01-21T14:14:15.000",
    "case_close_date": "2022-01-21T08:14:15.000",
    "request_status": "Closed",
    "responsible_agency": "Department of Sanitation",
    "final_address": "5262 Tullis Dr",
    "address_councildis": "C",
    "status": "Resolved",
    "rowid": "855705",
    "final_x": "3703198.93642",
    "final_y": "511991.331696",
    "longitude": "-90.00027079609211",
    "latitude": "29.901121963381964",
    "geocoded_column": {
      "latitude": "29.901121963381964",
      "longitude": "-90.00027079609211"
    }
  },
  {
    "service_request": "2022-855704",
    "request_type": "Trash/Recycling",
    "request_reason": "Illegal Dumping",
    "date_created": "2022-01-21T14:12:55.000",
    "date_modified": "2022-01-21T14:12:55.000",
    "request_status": "Pending",
    "responsible_agency": "Department of Code Enforcement",
    "final_address": "5262 Tullis Dr",
    "address_councildis": "C",
    "status": "Pending",
    "rowid": "855704",
    "final_x": "3703198.93642",
    "final_y": "511991.331696",
    "longitude": "-90.00027079609211",
    "latitude": "29.901121963381964",
    "geocoded_column": {
      "latitude": "29.901121963381964",
      "longitude": "-90.00027079609211"
    }
  },
  {
    "service_request": "2022-855703",
    "request_type": "Trash/Recycling",
    "request_reason": "Order Trash Cart",
    "date_created": "2022-01-21T14:10:38.000",
    "date_modified": "2022-01-21T14:10:39.000",
    "request_status": "Pending",
    "responsible_agency": "Department of Sanitation",
    "final_address": "1749 N Miro St",
    "address_councildis": "D",
    "status": "Assigned to Contractor",
    "contractor": "Metro Disposal",
    "rowid": "855703",
    "final_x": "3681373.35061",
    "final_y": "540126.641611",
    "longitude": "-90.06817016718371",
    "latitude": "29.979164834842535",
    "geocoded_column": {
      "latitude": "29.979164834842535",
      "longitude": "-90.06817016718371"
    }
  },
  {
    "service_request": "2022-855702",
    "request_type": "Trash/Recycling",
    "request_reason": "Order Trash Cart",
    "date_created": "2022-01-21T14:08:39.000",
    "date_modified": "2022-01-21T14:08:40.000",
    "request_status": "Pending",
    "responsible_agency": "Department of Sanitation",
    "final_address": "New Orleans,LA",
    "status": "Assigned to Contractor",
    "rowid": "855702",
    "longitude": "0.0",
    "latitude": "0.0",
    "geocoded_column": {
      "latitude": "0.0",
      "longitude": "0.0"
    }
  },
  {
    "service_request": "2022-855701",
    "request_type": "Trash/Recycling",
    "request_reason": "Order Trash Cart",
    "date_created": "2022-01-21T14:06:15.000",
    "date_modified": "2022-01-21T14:06:16.000",
    "request_status": "Pending",
    "responsible_agency": "Department of Sanitation",
    "final_address": "2710 Danbury Dr",
    "address_councildis": "C",
    "status": "Assigned to Contractor",
    "contractor": "Richards Disposal",
    "rowid": "855701",
    "final_x": "3703716.7089",
    "final_y": "520848.520761",
    "longitude": "-89.99831108432963",
    "latitude": "29.925459623939517",
    "geocoded_column": {
      "latitude": "29.925459623939517",
      "longitude": "-89.99831108432963"
    }
  },
  {
    "service_request": "2022-855699",
    "request_type": "Trash/Recycling",
    "request_reason": "Missed Trash Pick-Up",
    "date_created": "2022-01-21T13:59:36.000",
    "date_modified": "2022-01-21T13:59:36.000",
    "request_status": "Pending",
    "responsible_agency": "Department of Sanitation",
    "final_address": "5335 St Charles Ave",
    "address_councildis": "B",
    "status": "Assigned to Contractor",
    "contractor": "Richards Disposal",
    "rowid": "855699",
    "final_x": "3667657.76039",
    "final_y": "521550.158521",
    "longitude": "-90.1121148042707",
    "latitude": "29.92849486045484",
    "geocoded_column": {
      "latitude": "29.92849486045484",
      "longitude": "-90.1121148042707"
    }
  },
  {
    "service_request": "2022-855696",
    "request_type": "Trash/Recycling",
    "request_reason": "Order Recycling Cart",
    "date_created": "2022-01-21T13:55:56.000",
    "date_modified": "2022-01-21T13:55:56.000",
    "request_status": "Pending",
    "responsible_agency": "Department of Sanitation",
    "final_address": "7430 Malvern Dr",
    "address_councildis": "E",
    "status": "Pending",
    "rowid": "855696",
    "final_x": "3702529.11818",
    "final_y": "561134.675038",
    "longitude": "-90.00058076279387",
    "latitude": "30.036269732582625",
    "geocoded_column": {
      "latitude": "30.036269732582625",
      "longitude": "-90.00058076279387"
    }
  },
  {
    "service_request": "2022-855694",
    "request_type": "Parks & Parkways",
    "request_reason": "Request Tree Service (Right of Way/Public Property)",
    "date_created": "2022-01-21T13:54:32.000",
    "date_modified": "2022-01-21T16:34:52.000",
    "request_status": "Pending",
    "responsible_agency": "Department of Parks & Parkway",
    "final_address": "3701 Gentilly Blvd",
    "address_councildis": "D",
    "status": "Pending",
    "rowid": "855694",
    "final_x": "3687029.89314",
    "final_y": "548966.128531",
    "longitude": "-90.04999196129354",
    "latitude": "30.00329731516087",
    "geocoded_column": {
      "latitude": "30.00329731516087",
      "longitude": "-90.04999196129354"
    }
  },
  {
    "service_request": "2022-855693",
    "request_type": "Trash/Recycling",
    "request_reason": "MIssed Recycling Pick-Up",
    "date_created": "2022-01-21T13:50:30.000",
    "date_modified": "2022-01-21T13:50:31.000",
    "request_status": "Pending",
    "responsible_agency": "Department of Sanitation",
    "final_address": "5826 Clara St",
    "address_councildis": "A",
    "status": "Assigned to Contractor",
    "contractor": "Richards Disposal",
    "rowid": "855693",
    "final_x": "3666914.57978",
    "final_y": "525225.735933",
    "longitude": "-90.11433743670578",
    "latitude": "29.938623284611396",
    "geocoded_column": {
      "latitude": "29.938623284611396",
      "longitude": "-90.11433743670578"
    }
  },
  {
    "service_request": "2022-855692",
    "request_type": "Trash/Recycling",
    "request_reason": "Request a Large Item Pick Up",
    "date_created": "2022-01-21T13:47:31.000",
    "date_modified": "2022-01-21T13:47:32.000",
    "request_status": "Pending",
    "responsible_agency": "Department of Sanitation",
    "final_address": "816 Washington Ave",
    "address_councildis": "B",
    "status": "Assigned to Contractor",
    "contractor": "Richards Disposal",
    "rowid": "855692",
    "final_x": "3677545.26971",
    "final_y": "519976.519928",
    "longitude": "-90.08095633423967",
    "latitude": "29.92387440326418",
    "geocoded_column": {
      "latitude": "29.92387440326418",
      "longitude": "-90.08095633423967"
    }
  },
  {
    "service_request": "2022-855690",
    "request_type": "Traffic Signals/Signs/Striping/Streetlights",
    "request_reason": "Street Light Knocked Down/Leaning",
    "date_created": "2022-01-21T13:39:25.000",
    "date_modified": "2022-01-21T13:39:25.000",
    "request_status": "Pending",
    "responsible_agency": "Department of Public Works",
    "final_address": "429 Park Blvd",
    "address_councildis": "C",
    "status": "Pending",
    "contractor": "Royal Engineering",
    "rowid": "855690",
    "final_x": "3687048.50774",
    "final_y": "525768.302141",
    "longitude": "-90.05075346488404",
    "latitude": "29.939510840963713",
    "geocoded_column": {
      "latitude": "29.939510840963713",
      "longitude": "-90.05075346488404"
    }
  },
  {
    "service_request": "2022-855689",
    "request_type": "Trash/Recycling",
    "request_reason": "Repair Trash Cart",
    "date_created": "2022-01-21T13:32:17.000",
    "date_modified": "2022-01-21T13:32:17.000",
    "request_status": "Pending",
    "responsible_agency": "Department of Sanitation",
    "final_address": "2723 Calhoun St",
    "address_councildis": "A",
    "status": "Assigned to Contractor",
    "contractor": "Richards Disposal",
    "rowid": "855689",
    "final_x": "3666563.96903",
    "final_y": "526785.500414",
    "longitude": "-90.11539201413689",
    "latitude": "29.942922387318557",
    "geocoded_column": {
      "latitude": "29.942922387318557",
      "longitude": "-90.11539201413689"
    }
  },
  {
    "service_request": "2022-855688",
    "request_type": "Trash/Recycling",
    "request_reason": "Missed Trash Pick-Up",
    "date_created": "2022-01-21T13:31:22.000",
    "date_modified": "2022-01-21T13:31:23.000",
    "request_status": "Pending",
    "responsible_agency": "Department of Sanitation",
    "final_address": "1137 Ninth St",
    "address_councildis": "B",
    "status": "Assigned to Contractor",
    "contractor": "Richards Disposal",
    "rowid": "855688",
    "final_x": "3675721.79278",
    "final_y": "520319.115256",
    "longitude": "-90.08670063413273",
    "latitude": "29.92487110541648",
    "geocoded_column": {
      "latitude": "29.92487110541648",
      "longitude": "-90.08670063413273"
    }
  },
  {
    "service_request": "2022-855687",
    "request_type": "Trash/Recycling",
    "request_reason": "Repair Recycling Cart",
    "date_created": "2022-01-21T13:29:24.000",
    "date_modified": "2022-01-21T13:29:25.000",
    "request_status": "Pending",
    "responsible_agency": "Department of Sanitation",
    "final_address": "334 Pine St",
    "address_councildis": "A",
    "status": "Pending",
    "contractor": "Richards Disposal",
    "rowid": "855687",
    "final_x": "3661727.11219",
    "final_y": "523457.096507",
    "longitude": "-90.13077350916909",
    "latitude": "29.93391081035991",
    "geocoded_column": {
      "latitude": "29.93391081035991",
      "longitude": "-90.13077350916909"
    }
  },
  {
    "service_request": "2022-855686",
    "request_type": "Abandoned Vehicles",
    "request_reason": "Abandoned/Junk Vehicles",
    "date_created": "2022-01-21T13:13:59.000",
    "date_modified": "2022-01-21T13:13:59.000",
    "request_status": "Pending",
    "responsible_agency": "Department of Public Works",
    "final_address": "4701 Francis Dr",
    "address_councildis": "D",
    "status": "Pending",
    "rowid": "855686",
    "final_x": "3698329.03472",
    "final_y": "554093.804504",
    "longitude": "-90.01410995213111",
    "latitude": "30.017043690751038",
    "geocoded_column": {
      "latitude": "30.017043690751038",
      "longitude": "-90.01410995213111"
    }
  },
  {
    "service_request": "2022-855685",
    "request_type": "Trash/Recycling",
    "request_reason": "Request a Large Item Pick Up",
    "date_created": "2022-01-21T13:07:31.000",
    "date_modified": "2022-01-21T13:07:32.000",
    "request_status": "Pending",
    "responsible_agency": "Department of Sanitation",
    "final_address": "1524 St Mary St",
    "address_councildis": "B",
    "status": "Assigned to Contractor",
    "contractor": "Richards Disposal",
    "rowid": "855685",
    "final_x": "3678520.29608",
    "final_y": "524047.648188",
    "longitude": "-90.07773770634712",
    "latitude": "29.935039336339152",
    "geocoded_column": {
      "latitude": "29.935039336339152",
      "longitude": "-90.07773770634712"
    }
  },
  {
    "service_request": "2022-855684",
    "request_type": "Roads/Drainage",
    "request_reason": "Accessibility Ramps, Curbs and Sidewalk Repair",
    "date_created": "2022-01-21T13:07:14.000",
    "date_modified": "2022-01-21T13:12:37.000",
    "request_status": "Pending",
    "responsible_agency": "Department of Public Works",
    "final_address": "15 Allard Blvd",
    "address_councildis": "A",
    "status": "Inspected",
    "rowid": "855684",
    "final_x": "3672854.20788",
    "final_y": "541306.611788",
    "longitude": "-90.09503671013593",
    "latitude": "29.982665239370665",
    "geocoded_column": {
      "latitude": "29.982665239370665",
      "longitude": "-90.09503671013593"
    }
  },
  {
    "service_request": "2022-855683",
    "request_type": "Traffic Signals/Signs/Striping/Streetlights",
    "request_reason": "Street Light Outage/Malfunction",
    "date_created": "2022-01-21T13:05:09.000",
    "date_modified": "2022-01-21T13:05:10.000",
    "request_status": "Pending",
    "responsible_agency": "Department of Public Works",
    "final_address": "417 33Rd St",
    "address_councildis": "A",
    "status": "Pending",
    "contractor": "Royal Engineering",
    "rowid": "855683",
    "final_x": "3664744.51796",
    "final_y": "551020.426069",
    "longitude": "-90.12032647797665",
    "latitude": "30.00961339825496",
    "geocoded_column": {
      "latitude": "30.00961339825496",
      "longitude": "-90.12032647797665"
    }
  },
  {
    "service_request": "2022-855682",
    "request_type": "Roads/Drainage",
    "request_reason": "Pothole",
    "date_created": "2022-01-21T13:03:51.000",
    "date_modified": "2022-01-21T13:03:51.000",
    "request_status": "Pending",
    "responsible_agency": "Department of Public Works",
    "final_address": "S CLAIBORNE AVE & WASHINGTON AVE",
    "address_councildis": "B",
    "status": "Pending",
    "rowid": "855682",
    "final_x": "3673121.4",
    "final_y": "526764.58",
    "longitude": "-90.09468929296312",
    "latitude": "29.942671580693215",
    "geocoded_column": {
      "latitude": "29.942671580693215",
      "longitude": "-90.09468929296312"
    }
  },
  {
    "service_request": "2022-855680",
    "request_type": "Trash/Recycling",
    "request_reason": "Request a Large Item Pick Up",
    "date_created": "2022-01-21T13:00:05.000",
    "date_modified": "2022-01-21T13:00:06.000",
    "request_status": "Pending",
    "responsible_agency": "Department of Sanitation",
    "final_address": "5822 Patton St",
    "address_councildis": "A",
    "status": "Assigned to Contractor",
    "contractor": "Richards Disposal",
    "rowid": "855680",
    "final_x": "3665132.2681",
    "final_y": "518361.396278",
    "longitude": "-90.12019385065521",
    "latitude": "29.919800535355538",
    "geocoded_column": {
      "latitude": "29.919800535355538",
      "longitude": "-90.12019385065521"
    }
  },
  {
    "service_request": "2022-855679",
    "request_type": "Trash/Recycling",
    "request_reason": "Replace Trash Cart",
    "date_created": "2022-01-21T12:58:20.000",
    "date_modified": "2022-01-21T12:58:21.000",
    "request_status": "Pending",
    "responsible_agency": "Department of Sanitation",
    "final_address": "149 Pine Valley Dr",
    "address_councildis": "C",
    "status": "Assigned to Contractor",
    "contractor": "Richards Disposal",
    "rowid": "855679",
    "final_x": "3714061.82482",
    "final_y": "515354.253108",
    "longitude": "-89.96586210314703",
    "latitude": "29.91001685598998",
    "geocoded_column": {
      "latitude": "29.91001685598998",
      "longitude": "-89.96586210314703"
    }
  },
  {
    "service_request": "2022-855678",
    "request_type": "Roads/Drainage",
    "request_reason": "Man hole cover issue",
    "date_created": "2022-01-21T12:58:05.000",
    "date_modified": "2022-01-21T12:58:05.000",
    "request_status": "Pending",
    "responsible_agency": "Department of Public Works",
    "final_address": "2341 Easter Ln",
    "address_councildis": "C",
    "status": "Pending",
    "rowid": "855678",
    "final_x": "3699125.772",
    "final_y": "522540.35545",
    "longitude": "-90.01274160779649",
    "latitude": "29.930257866592942",
    "geocoded_column": {
      "latitude": "29.930257866592942",
      "longitude": "-90.01274160779649"
    }
  },
  {
    "service_request": "2022-855677",
    "request_type": "COVID-19",
    "request_reason": "COVID-19 Business Non-Compliance",
    "date_created": "2022-01-21T12:52:37.000",
    "date_modified": "2022-01-21T12:52:41.000",
    "request_status": "Pending",
    "responsible_agency": "Safety and Permits",
    "final_address": "5619 Magazine St",
    "address_councildis": "A",
    "status": "Pending",
    "rowid": "855677",
    "final_x": "3665953.74925",
    "final_y": "518968.003703",
    "longitude": "-90.11758051033121",
    "latitude": "29.921444575284983",
    "geocoded_column": {
      "latitude": "29.921444575284983",
      "longitude": "-90.11758051033121"
    }
  },
  {
    "service_request": "2022-855676",
    "request_type": "Trash/Recycling",
    "request_reason": "Request a Large Item Pick Up",
    "date_created": "2022-01-21T12:52:25.000",
    "date_modified": "2022-01-21T12:52:26.000",
    "request_status": "Pending",
    "responsible_agency": "Department of Sanitation",
    "final_address": "2716 Gallinghouse St",
    "address_councildis": "C",
    "status": "Assigned to Contractor",
    "contractor": "Richards Disposal",
    "rowid": "855676",
    "final_x": "3700127.81885",
    "final_y": "520914.139897",
    "longitude": "-90.00963763054574",
    "latitude": "29.92575454148526",
    "geocoded_column": {
      "latitude": "29.92575454148526",
      "longitude": "-90.00963763054574"
    }
  },
  {
    "service_request": "2022-855675",
    "request_type": "Traffic Signals/Signs/Striping/Streetlights",
    "request_reason": "Street Light Outage/Malfunction",
    "date_created": "2022-01-21T12:50:34.000",
    "date_modified": "2022-01-21T12:50:35.000",
    "request_status": "Pending",
    "responsible_agency": "Department of Public Works",
    "final_address": "6549 Center St",
    "address_councildis": "A",
    "status": "Pending",
    "contractor": "Royal Engineering",
    "rowid": "855675",
    "final_x": "3664977.9257",
    "final_y": "551650.754069",
    "longitude": "-90.11956796254258",
    "latitude": "30.011339784834075",
    "geocoded_column": {
      "latitude": "30.011339784834075",
      "longitude": "-90.11956796254258"
    }
  },
  {
    "service_request": "2022-855674",
    "request_type": "Trash/Recycling",
    "request_reason": "Order Recycling Cart",
    "date_created": "2022-01-21T12:49:01.000",
    "date_modified": "2022-01-21T12:49:01.000",
    "request_status": "Pending",
    "responsible_agency": "Department of Sanitation",
    "final_address": "67 English Turn Dr",
    "address_councildis": "C",
    "status": "Pending",
    "rowid": "855674",
    "final_x": "3721839.6775",
    "final_y": "512793.066481",
    "longitude": "-89.94141216140639",
    "latitude": "29.9027169839568",
    "geocoded_column": {
      "latitude": "29.9027169839568",
      "longitude": "-89.94141216140639"
    }
  },
  {
    "service_request": "2022-855673",
    "request_type": "Health Related Questions",
    "request_reason": "Noise Ordinance Complaint",
    "date_created": "2022-01-21T12:47:04.000",
    "date_modified": "2022-01-21T12:47:04.000",
    "request_status": "Pending",
    "responsible_agency": "Health Department",
    "final_address": "2114 Marais St, New Orleans, Louisiana, 70116",
    "address_councildis": "C",
    "status": "Pending",
    "rowid": "855673",
    "final_x": "3684704.43311",
    "final_y": "536611.304263",
    "longitude": "-90.05777292773605",
    "latitude": "29.96939733256535",
    "geocoded_column": {
      "latitude": "29.96939733256535",
      "longitude": "-90.05777292773605"
    }
  },
  {
    "service_request": "2022-855672",
    "request_type": "Trash/Recycling",
    "request_reason": "Illegal Dumping",
    "date_created": "2022-01-21T12:45:49.000",
    "date_modified": "2022-01-21T12:45:49.000",
    "request_status": "Pending",
    "responsible_agency": "Department of Sanitation",
    "final_address": "139 S Murat St",
    "address_councildis": "A",
    "status": "Pending",
    "rowid": "855672",
    "final_x": "3669429.77294",
    "final_y": "539126.724874",
    "longitude": "-90.10592657194287",
    "latitude": "29.976772601996768",
    "geocoded_column": {
      "latitude": "29.976772601996768",
      "longitude": "-90.10592657194287"
    }
  },
  {
    "service_request": "2022-855671",
    "request_type": "Trash/Recycling",
    "request_reason": "Request a Large Item Pick Up",
    "date_created": "2022-01-21T12:45:45.000",
    "date_modified": "2022-01-21T12:45:46.000",
    "request_status": "Pending",
    "responsible_agency": "Department of Sanitation",
    "final_address": "1017 Wilson Dr",
    "address_councildis": "A",
    "status": "Assigned to Contractor",
    "contractor": "Richards Disposal",
    "rowid": "855671",
    "final_x": "3674355.62932",
    "final_y": "540609.464523",
    "longitude": "-90.09031835065842",
    "latitude": "29.980703623384887",
    "geocoded_column": {
      "latitude": "29.980703623384887",
      "longitude": "-90.09031835065842"
    }
  },
  {
    "service_request": "2022-855670",
    "request_type": "Trash/Recycling",
    "request_reason": "Request a Large Item Pick Up",
    "date_created": "2022-01-21T12:43:27.000",
    "date_modified": "2022-01-21T12:44:43.000",
    "request_status": "Pending",
    "responsible_agency": "Department of Sanitation",
    "final_address": "New Orleans,LA",
    "address_councildis": "C",
    "status": "Assigned to Contractor",
    "contractor": "Metro Disposal",
    "rowid": "855670",
    "final_x": "3684693.59977",
    "final_y": "536609.637639",
    "longitude": "-90.05780719882162",
    "latitude": "29.96939308152586",
    "geocoded_column": {
      "latitude": "29.96939308152586",
      "longitude": "-90.05780719882162"
    }
  },
  {
    "service_request": "2022-855669",
    "request_type": "Trash/Recycling",
    "request_reason": "Missed Trash Pick-Up",
    "date_created": "2022-01-21T12:42:24.000",
    "date_modified": "2022-01-21T12:42:25.000",
    "request_status": "Pending",
    "responsible_agency": "Department of Sanitation",
    "final_address": "Louisiana Dental Center New Orleans",
    "status": "Assigned to Contractor",
    "rowid": "855669",
    "longitude": "0.0",
    "latitude": "0.0",
    "geocoded_column": {
      "latitude": "0.0",
      "longitude": "0.0"
    }
  },
  {
    "service_request": "2022-855668",
    "request_type": "Property Maintenance",
    "request_reason": "Property Maintenance",
    "date_created": "2022-01-21T12:42:12.000",
    "date_modified": "2022-01-21T12:42:12.000",
    "request_status": "Pending",
    "responsible_agency": "Department of Code Enforcement",
    "final_address": "735 Washington Ave",
    "address_councildis": "B",
    "status": "Pending",
    "rowid": "855668",
    "final_x": "3677763.81627",
    "final_y": "519831.099448",
    "longitude": "-90.08027148113962",
    "latitude": "29.923467974233546",
    "geocoded_column": {
      "latitude": "29.923467974233546",
      "longitude": "-90.08027148113962"
    }
  },
  {
    "service_request": "2022-855667",
    "request_type": "Roads/Drainage",
    "request_reason": "Catch Basin - Broken/Damage",
    "date_created": "2022-01-21T12:39:08.000",
    "date_modified": "2022-01-21T12:39:08.000",
    "request_status": "Pending",
    "responsible_agency": "Department of Public Works",
    "final_address": "739 Canal St",
    "address_councildis": "C",
    "status": "Pending",
    "rowid": "855667",
    "final_x": "3681011.37141",
    "final_y": "530920.698434",
    "longitude": "-90.06963410407758",
    "latitude": "29.953862633161567",
    "geocoded_column": {
      "latitude": "29.953862633161567",
      "longitude": "-90.06963410407758"
    }
  },
  {
    "service_request": "2022-855666",
    "request_type": "Trash/Recycling",
    "request_reason": "Order Recycling Cart",
    "date_created": "2022-01-21T12:38:15.000",
    "date_modified": "2022-01-21T12:38:15.000",
    "request_status": "Pending",
    "responsible_agency": "Department of Sanitation",
    "final_address": "2247 N Villere St",
    "address_councildis": "C",
    "status": "Pending",
    "rowid": "855666",
    "final_x": "3685443.79189",
    "final_y": "537489.875272",
    "longitude": "-90.05540703378928",
    "latitude": "29.971790444791715",
    "geocoded_column": {
      "latitude": "29.971790444791715",
      "longitude": "-90.05540703378928"
    }
  },
  {
    "service_request": "2022-855665",
    "request_type": "Trash/Recycling",
    "request_reason": "Request a Large Item Pick Up",
    "date_created": "2022-01-21T12:37:03.000",
    "date_modified": "2022-01-21T12:37:04.000",
    "request_status": "Pending",
    "responsible_agency": "Department of Sanitation",
    "final_address": "1529 Valmont St",
    "address_councildis": "B",
    "status": "Assigned to Contractor",
    "contractor": "Richards Disposal",
    "rowid": "855665",
    "final_x": "3667844.85607",
    "final_y": "520659.496761",
    "longitude": "-90.11155416096132",
    "latitude": "29.926040339007677",
    "geocoded_column": {
      "latitude": "29.926040339007677",
      "longitude": "-90.11155416096132"
    }
  },
  {
    "service_request": "2022-855664",
    "request_type": "Trash/Recycling",
    "request_reason": "MIssed Recycling Pick-Up",
    "date_created": "2022-01-21T12:34:05.000",
    "date_modified": "2022-01-21T12:34:06.000",
    "request_status": "Pending",
    "responsible_agency": "Department of Sanitation",
    "final_address": "1618 S Liberty St",
    "address_councildis": "B",
    "status": "Assigned to Contractor",
    "contractor": "Richards Disposal",
    "rowid": "855664",
    "final_x": "3676745.19873",
    "final_y": "526531.537982",
    "longitude": "-90.08325613022687",
    "latitude": "29.941922581934552",
    "geocoded_column": {
      "latitude": "29.941922581934552",
      "longitude": "-90.08325613022687"
    }
  },
  {
    "service_request": "2022-855663",
    "request_type": "Property Maintenance",
    "request_reason": "Property Maintenance",
    "date_created": "2022-01-21T12:34:01.000",
    "date_modified": "2022-01-21T12:34:01.000",
    "request_status": "Pending",
    "responsible_agency": "Department of Code Enforcement",
    "final_address": "801 Canal St",
    "address_councildis": "C",
    "status": "Pending",
    "rowid": "855663",
    "final_x": "3680951.89391",
    "final_y": "530998.395906",
    "longitude": "-90.0698192041145",
    "latitude": "29.954078078458494",
    "geocoded_column": {
      "latitude": "29.954078078458494",
      "longitude": "-90.0698192041145"
    }
  },
  {
    "service_request": "2022-855662",
    "request_type": "Trash/Recycling",
    "request_reason": "Replace Trash Cart",
    "date_created": "2022-01-21T12:33:59.000",
    "date_modified": "2022-01-21T12:34:01.000",
    "request_status": "Pending",
    "responsible_agency": "Department of Sanitation",
    "final_address": "13 Grand Cypress Ct",
    "address_councildis": "C",
    "status": "Assigned to Contractor",
    "contractor": "Richards Disposal",
    "rowid": "855662",
    "final_x": "3721910.14815",
    "final_y": "513192.202802",
    "longitude": "-89.94117445669653",
    "latitude": "29.903812112828582",
    "geocoded_column": {
      "latitude": "29.903812112828582",
      "longitude": "-89.94117445669653"
    }
  },
  {
    "service_request": "2022-855661",
    "request_type": "Trash/Recycling",
    "request_reason": "Order Recycling Cart",
    "date_created": "2022-01-21T12:30:13.000",
    "date_modified": "2022-01-21T12:40:45.000",
    "request_status": "Pending",
    "responsible_agency": "Department of Sanitation",
    "final_address": "New Orleans,LA",
    "address_councildis": "E",
    "rowid": "855661",
    "final_x": "3710157.69406",
    "final_y": "565545.162594",
    "longitude": "-89.97630812135021",
    "latitude": "30.04815062824446",
    "geocoded_column": {
      "latitude": "30.04815062824446",
      "longitude": "-89.97630812135021"
    }
  },
  {
    "service_request": "2022-855660",
    "request_type": "Roads/Drainage",
    "request_reason": "Pothole",
    "date_created": "2022-01-21T12:29:30.000",
    "date_modified": "2022-01-21T12:29:30.000",
    "request_status": "Pending",
    "responsible_agency": "Department of Public Works",
    "final_address": "1026 Constance St",
    "address_councildis": "B",
    "status": "Pending",
    "rowid": "855660",
    "final_x": "3681225.09788",
    "final_y": "526629.895742",
    "longitude": "-90.06910872806196",
    "latitude": "29.942057884470795",
    "geocoded_column": {
      "latitude": "29.942057884470795",
      "longitude": "-90.06910872806196"
    }
  },
  {
    "service_request": "2022-855659",
    "request_type": "Roads/Drainage",
    "request_reason": "Pothole",
    "date_created": "2022-01-21T12:26:44.000",
    "date_modified": "2022-01-21T12:26:44.000",
    "request_status": "Pending",
    "responsible_agency": "Department of Public Works",
    "final_address": "935 Gravier St",
    "address_councildis": "B",
    "status": "Pending",
    "rowid": "855659",
    "final_x": "3679898.29691",
    "final_y": "530533.113026",
    "longitude": "-90.07316219376503",
    "latitude": "29.952830610787032",
    "geocoded_column": {
      "latitude": "29.952830610787032",
      "longitude": "-90.07316219376503"
    }
  },
  {
    "service_request": "2022-855658",
    "request_type": "Trash/Recycling",
    "request_reason": "Request a Large Item Pick Up",
    "date_created": "2022-01-21T12:24:59.000",
    "date_modified": "2022-01-21T12:25:00.000",
    "request_status": "Pending",
    "responsible_agency": "Department of Sanitation",
    "final_address": "2828 Audubon St",
    "address_councildis": "B",
    "status": "Assigned to Contractor",
    "contractor": "Richards Disposal",
    "rowid": "855658",
    "final_x": "3667632.12429",
    "final_y": "531322.592194",
    "longitude": "-90.11186687626252",
    "latitude": "29.955366651870104",
    "geocoded_column": {
      "latitude": "29.955366651870104",
      "longitude": "-90.11186687626252"
    }
  },
  {
    "service_request": "2022-855657",
    "request_type": "Trash/Recycling",
    "request_reason": "Order Trash Cart",
    "date_created": "2022-01-21T12:22:20.000",
    "date_modified": "2022-01-21T12:22:21.000",
    "request_status": "Pending",
    "responsible_agency": "Department of Sanitation",
    "final_address": "2724 Frankfort St",
    "address_councildis": "D",
    "status": "Assigned to Contractor",
    "contractor": "Metro Disposal",
    "rowid": "855657",
    "final_x": "3687203.40873",
    "final_y": "557141.189722",
    "longitude": "-90.04915435753458",
    "latitude": "30.02577038026691",
    "geocoded_column": {
      "latitude": "30.02577038026691",
      "longitude": "-90.04915435753458"
    }
  },
  {
    "service_request": "2022-855656",
    "request_type": "Traffic Signals/Signs/Striping/Streetlights",
    "request_reason": "Street Light Outage/Malfunction",
    "date_created": "2022-01-21T12:21:31.000",
    "date_modified": "2022-01-21T12:21:32.000",
    "request_status": "Pending",
    "responsible_agency": "Department of Public Works",
    "final_address": "9 Blanc Pl",
    "address_councildis": "B",
    "status": "Pending",
    "contractor": "Royal Engineering",
    "rowid": "855656",
    "final_x": "3667860.3961",
    "final_y": "520958.726393",
    "longitude": "-90.11149503314553",
    "latitude": "29.92686266998376",
    "geocoded_column": {
      "latitude": "29.92686266998376",
      "longitude": "-90.11149503314553"
    }
  },
  {
    "service_request": "2022-855655",
    "request_type": "Trash/Recycling",
    "request_reason": "Order Recycling Cart",
    "date_created": "2022-01-21T12:20:41.000",
    "date_modified": "2022-01-21T12:20:41.000",
    "request_status": "Pending",
    "responsible_agency": "Department of Sanitation",
    "final_address": "8315 Jeannette St",
    "address_councildis": "A",
    "status": "Pending",
    "rowid": "855655",
    "final_x": "3662072.75309",
    "final_y": "529759.411713",
    "longitude": "-90.12947329403777",
    "latitude": "29.95123019186313",
    "geocoded_column": {
      "latitude": "29.95123019186313",
      "longitude": "-90.12947329403777"
    }
  },
  {
    "service_request": "2022-855654",
    "request_type": "Traffic Signals/Signs/Striping/Streetlights",
    "request_reason": "Street Light Outage/Malfunction",
    "date_created": "2022-01-21T12:20:28.000",
    "date_modified": "2022-01-21T12:20:28.000",
    "request_status": "Pending",
    "responsible_agency": "Department of Public Works",
    "final_address": "9 Blanc Pl",
    "address_councildis": "B",
    "status": "Pending",
    "contractor": "Royal Engineering",
    "rowid": "855654",
    "final_x": "3667860.3961",
    "final_y": "520958.726393",
    "longitude": "-90.11149503314553",
    "latitude": "29.92686266998376",
    "geocoded_column": {
      "latitude": "29.92686266998376",
      "longitude": "-90.11149503314553"
    }
  },
  {
    "service_request": "2022-855653",
    "request_type": "Traffic Signals/Signs/Striping/Streetlights",
    "request_reason": "Street Light Outage/Malfunction",
    "date_created": "2022-01-21T12:19:09.000",
    "date_modified": "2022-01-21T12:19:15.000",
    "request_status": "Pending",
    "responsible_agency": "Department of Public Works",
    "final_address": "9 Blanc Pl",
    "address_councildis": "B",
    "status": "Pending",
    "contractor": "Royal Engineering",
    "rowid": "855653",
    "final_x": "3667860.3961",
    "final_y": "520958.726393",
    "longitude": "-90.11149503314553",
    "latitude": "29.92686266998376",
    "geocoded_column": {
      "latitude": "29.92686266998376",
      "longitude": "-90.11149503314553"
    }
  },
  {
    "service_request": "2022-855652",
    "request_type": "Trash/Recycling",
    "request_reason": "Request a Large Item Pick Up",
    "date_created": "2022-01-21T12:18:55.000",
    "date_modified": "2022-01-21T12:18:56.000",
    "request_status": "Pending",
    "responsible_agency": "Department of Sanitation",
    "final_address": "2114 Marais St",
    "address_councildis": "C",
    "status": "Assigned to Contractor",
    "contractor": "Metro Disposal",
    "rowid": "855652",
    "final_x": "3684704.43311",
    "final_y": "536611.304263",
    "longitude": "-90.05777292773605",
    "latitude": "29.96939733256535",
    "geocoded_column": {
      "latitude": "29.96939733256535",
      "longitude": "-90.05777292773605"
    }
  },
  {
    "service_request": "2022-855651",
    "request_type": "Roads/Drainage",
    "request_reason": "Street Subsidence (Sinking)",
    "date_created": "2022-01-21T12:18:45.000",
    "date_modified": "2022-01-21T12:18:45.000",
    "request_status": "Pending",
    "responsible_agency": "Department of Public Works",
    "final_address": "6321 Freret St",
    "address_councildis": "A",
    "status": "Pending",
    "rowid": "855651",
    "final_x": "3665489.18816",
    "final_y": "524920.239548",
    "longitude": "-90.11884779034419",
    "latitude": "29.937824886079497",
    "geocoded_column": {
      "latitude": "29.937824886079497",
      "longitude": "-90.11884779034419"
    }
  },
  {
    "service_request": "2022-855650",
    "request_type": "Trash/Recycling",
    "request_reason": "Request a Large Item Pick Up",
    "date_created": "2022-01-21T12:18:28.000",
    "date_modified": "2022-01-21T12:18:28.000",
    "request_status": "Pending",
    "responsible_agency": "Department of Sanitation",
    "final_address": "4640 Lafon Dr",
    "address_councildis": "E",
    "status": "Assigned to Contractor",
    "contractor": "Metro Disposal",
    "rowid": "855650",
    "final_x": "3701125.84061",
    "final_y": "553669.434007",
    "longitude": "-90.00528879695011",
    "latitude": "30.015787998679638",
    "geocoded_column": {
      "latitude": "30.015787998679638",
      "longitude": "-90.00528879695011"
    }
  },
  {
    "service_request": "2022-855649",
    "request_type": "Trash/Recycling",
    "request_reason": "Order Recycling Cart",
    "date_created": "2022-01-21T12:16:20.000",
    "date_modified": "2022-01-21T12:16:20.000",
    "request_status": "Pending",
    "responsible_agency": "Department of Sanitation",
    "final_address": "2 Harbour Town Ct, New Orleans, Louisiana, 70131",
    "address_councildis": "C",
    "status": "Pending",
    "rowid": "855649",
    "final_x": "3717881.79007",
    "final_y": "512996.624945",
    "longitude": "-89.95389525161877",
    "latitude": "29.903408305838003",
    "geocoded_column": {
      "latitude": "29.903408305838003",
      "longitude": "-89.95389525161877"
    }
  },
  {
    "service_request": "2022-855648",
    "request_type": "Trash/Recycling",
    "request_reason": "Illegal Dumping",
    "date_created": "2022-01-21T12:16:17.000",
    "date_modified": "2022-01-21T12:16:17.000",
    "request_status": "Pending",
    "responsible_agency": "Department of Sanitation",
    "final_address": "2300 BLK Frenchmen St",
    "address_councildis": "D",
    "status": "Pending",
    "rowid": "855648",
    "final_x": "3684220.51013",
    "final_y": "540876.332405",
    "longitude": "-90.05915141338691",
    "latitude": "29.98113947469722",
    "geocoded_column": {
      "latitude": "29.98113947469722",
      "longitude": "-90.05915141338691"
    }
  },
  {
    "service_request": "2022-855647",
    "request_type": "Trash/Recycling",
    "request_reason": "Request a Large Item Pick Up",
    "date_created": "2022-01-21T12:15:16.000",
    "date_modified": "2022-01-21T12:15:16.000",
    "request_status": "Pending",
    "responsible_agency": "Department of Sanitation",
    "final_address": "2524 Almonaster Ave",
    "address_councildis": "D",
    "status": "Assigned to Contractor",
    "contractor": "Metro Disposal",
    "rowid": "855647",
    "final_x": "3688390.53795",
    "final_y": "541960.82926",
    "longitude": "-90.04594213505466",
    "latitude": "29.98399329247319",
    "geocoded_column": {
      "latitude": "29.98399329247319",
      "longitude": "-90.04594213505466"
    }
  },