[
  {
    "service_request": "2023-978660",
    "request_type": "Trash/Recycling",
    "request_reason": "Order Trash Cart",
    "date_created": "2023-02-28T01:15:49.000",
    "date_modified": "2023-02-28T01:15:50.000",
    "request_status": "Pending",
    "responsible_agency": "Department of Sanitation",
    "final_address": "647 South Pierce St",
    "status": "Assigned to Contractor",
    "rowid": "978660",
    "longitude": "0.0",
    "latitude": "0.0",
    "geocoded_column": {
      "latitude": "0.0",
      "longitude": "0.0"
    }
  },
  {
    "service_request": "2023-978659",
    "request_type": "Trash/Recycling",
    "request_reason": "Replace Trash Cart",
    "date_created": "2023-02-28T01:10:49.000",
    "date_modified": "2023-02-28T01:10:49.000",
    "request_status": "Pending",
    "responsible_agency": "Department of Sanitation",
    "final_address": "2312 Saint Bernard Ave",
    "status": "Assigned to Contractor",
    "rowid": "978659",
    "longitude": "0.0",
    "latitude": "0.0",
    "geocoded_column": {
      "latitude": "0.0",
      "longitude": "0.0"
    }
  },
  {
    "service_request": "2023-978658",
    "request_type": "Trash/Recycling",
    "request_reason": "Replace Trash Cart",
    "date_created": "2023-02-27T23:36:31.000",
    "date_modified": "2023-02-27T23:36:32.000",
    "request_status": "Pending",
    "responsible_agency": "Department of Sanitation",
    "final_address": "523 Soniat St",
    "address_councildis": "B",
    "status": "Assigned to Contractor",
    "contractor": "Richards Disposal",
    "rowid": "978658",
    "final_x": "3668332.99649",
    "final_y": "517431.086262",
    "longitude": "-90.11012203209818",
    "latitude": "29.91714890863594",
    "geocoded_column": {
      "latitude": "29.91714890863594",
      "longitude": "-90.11012203209818"
    }
  },
  {
    "service_request": "2023-978657",
    "request_type": "Property Maintenance",
    "request_reason": "Property Maintenance",
    "date_created": "2023-02-27T22:53:09.000",
    "date_modified": "2023-02-27T22:53:09.000",
    "request_status": "Pending",
    "responsible_agency": "Department of Code Enforcement",
    "final_address": "1534 N Dorgenois St",
    "address_councildis": "D",
    "status": "Pending",
    "rowid": "978657",
    "final_x": "3679306.91183",
    "final_y": "539433.557194",
    "longitude": "-90.07472082922534",
    "latitude": "29.97732166769099",
    "geocoded_column": {
      "latitude": "29.97732166769099",
      "longitude": "-90.07472082922534"
    }
  },
  {
    "service_request": "2023-978656",
    "request_type": "Taxi Issues",
    "request_reason": "Taxi Lost & Found Item",
    "date_created": "2023-02-27T22:42:19.000",
    "date_modified": "2023-02-27T22:42:19.000",
    "request_status": "Pending",
    "responsible_agency": "Ground Transportation Bureau",
    "status": "Pending",
    "rowid": "978656",
    "longitude": "0.0",
    "latitude": "0.0",
    "geocoded_column": {
      "latitude": "0.0",
      "longitude": "0.0"
    }
  },
  {
    "service_request": "2023-978655",
    "request_type": "Trash/Recycling",
    "request_reason": "Replace Trash Cart",
    "date_created": "2023-02-27T22:15:29.000",
    "date_modified": "2023-02-27T22:15:30.000",
    "request_status": "Pending",
    "responsible_agency": "Department of Sanitation",
    "final_address": "4320 Cleveland Ave",
    "address_councildis": "A",
    "status": "Assigned to Contractor",
    "contractor": "Richards Disposal",
    "rowid": "978655",
    "final_x": "3669884.88814",
    "final_y": "538684.178185",
    "longitude": "-90.10450416088148",
    "latitude": "29.975542335233705",
    "geocoded_column": {
      "latitude": "29.975542335233705",
      "longitude": "-90.10450416088148"
    }
  },
  {
    "service_request": "2023-978654",
    "request_type": "Traffic Signals/Signs/Striping/Streetlights",
    "request_reason": "Traffic Sign Missing/Damaged",
    "date_created": "2023-02-27T21:18:27.000",
    "date_modified": "2023-02-27T21:18:27.000",
    "request_status": "Pending",
    "responsible_agency": "Department of Public Works",
    "final_address": "6201 Morrison Rd",
    "address_councildis": "E",
    "status": "Pending",
    "rowid": "978654",
    "final_x": "3695874.30947",
    "final_y": "558344.568988",
    "longitude": "-90.02171209588072",
    "latitude": "30.02880916218235",
    "geocoded_column": {
      "latitude": "30.02880916218235",
      "longitude": "-90.02171209588072"
    }
  },
  {
    "service_request": "2023-978653",
    "request_type": "Trash/Recycling",
    "request_reason": "Illegal Dumping",
    "date_created": "2023-02-27T21:17:31.000",
    "date_modified": "2023-02-27T21:17:32.000",
    "request_status": "Pending",
    "responsible_agency": "Department of Sanitation",
    "final_address": "TOURO ST & N GALVEZ ST",
    "address_councildis": "D",
    "status": "Pending",
    "rowid": "978653",
    "final_x": "3683936.8",
    "final_y": "539927.48",
    "longitude": "-90.0600807982313",
    "latitude": "29.978539135109536",
    "geocoded_column": {
      "latitude": "29.978539135109536",
      "longitude": "-90.0600807982313"
    }
  },
  {
    "service_request": "2023-978652",
    "request_type": "Trash/Recycling",
    "request_reason": "Order Recycling Cart",
    "date_created": "2023-02-27T21:11:55.000",
    "date_modified": "2023-02-27T21:11:55.000",
    "request_status": "Pending",
    "responsible_agency": "Department of Sanitation",
    "final_address": "141 26Th St",
    "address_councildis": "A",
    "status": "Pending",
    "rowid": "978652",
    "final_x": "3665889.99533",
    "final_y": "549944.994836",
    "longitude": "-90.11674357062894",
    "latitude": "30.00662294361968",
    "geocoded_column": {
      "latitude": "30.00662294361968",
      "longitude": "-90.11674357062894"
    }
  },
  {
    "service_request": "2023-978651",
    "request_type": "Trash/Recycling",
    "request_reason": "MIssed Recycling Pick-Up",
    "date_created": "2023-02-27T20:44:36.000",
    "date_modified": "2023-02-27T20:44:37.000",
    "request_status": "Pending",
    "responsible_agency": "Department of Sanitation",
    "final_address": "7040 Pinebrook Dr",
    "address_councildis": "E",
    "status": "Assigned to Contractor",
    "contractor": "Waste Pro",
    "rowid": "978651",
    "final_x": "3719515.24729",
    "final_y": "569711.089126",
    "longitude": "-89.94657390819788",
    "latitude": "30.05929716283975",
    "geocoded_column": {
      "latitude": "30.05929716283975",
      "longitude": "-89.94657390819788"
    }
  },
  {
    "service_request": "2023-978650",
    "request_type": "Traffic Signals/Signs/Striping/Streetlights",
    "request_reason": "Street Light Outage/Malfunction",
    "date_created": "2023-02-27T20:25:30.000",
    "date_modified": "2023-02-27T20:25:30.000",
    "request_status": "Pending",
    "responsible_agency": "Department of Public Works",
    "final_address": "5740 Abbey Dr",
    "address_councildis": "C",
    "status": "Assigned to Contractor",
    "contractor": "Legacy Professional Services",
    "rowid": "978650",
    "final_x": "3704897.2163",
    "final_y": "521118.667833",
    "longitude": "-89.99457465509587",
    "latitude": "29.92616456226961",
    "geocoded_column": {
      "latitude": "29.92616456226961",
      "longitude": "-89.99457465509587"
    }
  },
  {
    "service_request": "2023-978649",
    "request_type": "Roads/Drainage",
    "request_reason": "Street Subsidence (Sinking)",
    "date_created": "2023-02-27T20:23:00.000",
    "date_modified": "2023-02-27T20:23:00.000",
    "request_status": "Pending",
    "responsible_agency": "Department of Public Works",
    "final_address": "5740 Abbey Dr",
    "address_councildis": "C",
    "status": "Pending",
    "rowid": "978649",
    "final_x": "3704897.2163",
    "final_y": "521118.667833",
    "longitude": "-89.99457465509587",
    "latitude": "29.92616456226961",
    "geocoded_column": {
      "latitude": "29.92616456226961",
      "longitude": "-89.99457465509587"
    }
  },
  {
    "service_request": "2023-978648",
    "request_type": "Roads/Drainage",
    "request_reason": "Street Subsidence (Sinking)",
    "date_created": "2023-02-27T20:05:55.000",
    "date_modified": "2023-02-27T20:05:55.000",
    "request_status": "Pending",
    "responsible_agency": "Department of Public Works",
    "final_address": "1540 General Collins Ave",
    "address_councildis": "C",
    "status": "Pending",
    "rowid": "978648",
    "final_x": "3698617.95396",
    "final_y": "525383.964861",
    "longitude": "-90.01424135820281",
    "latitude": "29.9380928924185",
    "geocoded_column": {
      "latitude": "29.9380928924185",
      "longitude": "-90.01424135820281"
    }
  },
  {
    "service_request": "2023-978647",
    "request_type": "Trash/Recycling",
    "request_reason": "Replace Trash Cart",
    "date_created": "2023-02-27T19:54:47.000",
    "date_modified": "2023-02-27T19:54:47.000",
    "request_status": "Pending",
    "responsible_agency": "Department of Sanitation",
    "final_address": "5215 Pitt St",
    "address_councildis": "B",
    "status": "Assigned to Contractor",
    "contractor": "Richards Disposal",
    "rowid": "978647",
    "final_x": "3667963.86829",
    "final_y": "520492.665976",
    "longitude": "-90.11118408994136",
    "latitude": "29.92557811736102",
    "geocoded_column": {
      "latitude": "29.92557811736102",
      "longitude": "-90.11118408994136"
    }
  },
  {
    "service_request": "2023-978646",
    "request_type": "Trash/Recycling",
    "request_reason": "Order Recycling Cart",
    "date_created": "2023-02-27T19:54:28.000",
    "date_modified": "2023-02-27T19:54:28.000",
    "request_status": "Pending",
    "responsible_agency": "Department of Sanitation",
    "final_address": "1720 Flood St",
    "address_councildis": "E",
    "status": "Pending",
    "rowid": "978646",
    "final_x": "3698311.51127",
    "final_y": "536261.285319",
    "longitude": "-90.01481366175167",
    "latitude": "29.968011385582795",
    "geocoded_column": {
      "latitude": "29.968011385582795",
      "longitude": "-90.01481366175167"
    }
  },
  {
    "service_request": "2023-978644",
    "request_type": "Trash/Recycling",
    "request_reason": "Replace Trash Cart",
    "date_created": "2023-02-27T19:51:27.000",
    "date_modified": "2023-02-27T19:51:27.000",
    "request_status": "Pending",
    "responsible_agency": "Department of Sanitation",
    "final_address": "25685 Chef Menteur Hwy",
    "address_councildis": "E",
    "status": "Assigned to Contractor",
    "contractor": "Waste Pro",
    "rowid": "978644",
    "final_x": "3781262.94654",
    "final_y": "600883.068675",
    "longitude": "-89.75003916078059",
    "latitude": "30.142805210290774",
    "geocoded_column": {
      "latitude": "30.142805210290774",
      "longitude": "-89.75003916078059"
    }
  },
  {
    "service_request": "2023-978643",
    "request_type": "Trash/Recycling",
    "request_reason": "Missed Trash Pick-Up",
    "date_created": "2023-02-27T19:46:22.000",
    "date_modified": "2023-02-27T19:46:23.000",
    "request_status": "Pending",
    "responsible_agency": "Department of Sanitation",
    "final_address": "14636 Beekman Rd",
    "address_councildis": "E",
    "status": "Assigned to Contractor",
    "contractor": "Waste Pro",
    "rowid": "978643",
    "final_x": "3721314.5493",
    "final_y": "573329.185578",
    "longitude": "-89.94074752884032",
    "latitude": "30.06918540707185",
    "geocoded_column": {
      "latitude": "30.06918540707185",
      "longitude": "-89.94074752884032"
    }
  },
  {
    "service_request": "2023-978642",
    "request_type": "Trash/Recycling",
    "request_reason": "Order Recycling Cart",
    "date_created": "2023-02-27T19:42:19.000",
    "date_modified": "2023-02-27T19:42:19.000",
    "request_status": "Pending",
    "responsible_agency": "Department of Sanitation",
    "final_address": "123 10Th St",
    "address_councildis": "A",
    "status": "Pending",
    "rowid": "978642",
    "final_x": "3665852.45056",
    "final_y": "547543.229138",
    "longitude": "-90.11694273468598",
    "latitude": "30.00002001385546",
    "geocoded_column": {
      "latitude": "30.00002001385546",
      "longitude": "-90.11694273468598"
    }
  },
  {
    "service_request": "2023-978641",
    "request_type": "Trash/Recycling",
    "request_reason": "Order Recycling Cart",
    "date_created": "2023-02-27T19:37:03.000",
    "date_modified": "2023-02-27T19:37:03.000",
    "request_status": "Pending",
    "responsible_agency": "Department of Sanitation",
    "final_address": "6450 Bellaire Dr",
    "address_councildis": "A",
    "status": "Pending",
    "rowid": "978641",
    "final_x": "3664402.54132",
    "final_y": "550879.024853",
    "longitude": "-90.12141163272345",
    "latitude": "30.00923454387101",
    "geocoded_column": {
      "latitude": "30.00923454387101",
      "longitude": "-90.12141163272345"
    }
  },
  {
    "service_request": "2023-978640",
    "request_type": "Trash/Recycling",
    "request_reason": "Order Recycling Cart",
    "date_created": "2023-02-27T19:32:46.000",
    "date_modified": "2023-02-27T19:32:46.000",
    "request_status": "Pending",
    "responsible_agency": "Department of Sanitation",
    "final_address": "6459 Bellaire Dr",
    "address_councildis": "A",
    "status": "Pending",
    "rowid": "978640",
    "final_x": "3664534.83456",
    "final_y": "551122.880341",
    "longitude": "-90.12098552000856",
    "latitude": "30.009901213774985",
    "geocoded_column": {
      "latitude": "30.009901213774985",
      "longitude": "-90.12098552000856"
    }
  },
  {
    "service_request": "2023-978639",
    "request_type": "Trash/Recycling",
    "request_reason": "Request a Large Item Pick Up",
    "date_created": "2023-02-27T19:19:21.000",
    "date_modified": "2023-02-27T19:19:22.000",
    "request_status": "Pending",
    "responsible_agency": "Department of Sanitation",
    "final_address": "5003 Annunciation St",
    "address_councildis": "B",
    "status": "Assigned to Contractor",
    "contractor": "Richards Disposal",
    "rowid": "978639",
    "final_x": "3668562.24103",
    "final_y": "517576.561462",
    "longitude": "-90.10939353134005",
    "latitude": "29.917542188581358",
    "geocoded_column": {
      "latitude": "29.917542188581358",
      "longitude": "-90.10939353134005"
    }
  },
  {
    "service_request": "2023-978638",
    "request_type": "Abandoned Vehicles",
    "request_reason": "Abandoned/Junk Vehicles",
    "date_created": "2023-02-27T18:48:45.000",
    "date_modified": "2023-02-27T18:50:48.000",
    "request_status": "Pending",
    "responsible_agency": "Department of Public Works",
    "final_address": "100 BLK N Olympia St",
    "address_councildis": "A",
    "status": "Pending",
    "rowid": "978638",
    "final_x": "3669559.55389",
    "final_y": "539814.041551",
    "longitude": "-90.10549342077262",
    "latitude": "29.978658667380728",
    "geocoded_column": {
      "latitude": "29.978658667380728",
      "longitude": "-90.10549342077262"
    }
  },
  {
    "service_request": "2023-978637",
    "request_type": "Trash/Recycling",
    "request_reason": "MIssed Recycling Pick-Up",
    "date_created": "2023-02-27T18:45:08.000",
    "date_modified": "2023-02-27T18:45:09.000",
    "request_status": "Pending",
    "responsible_agency": "Department of Sanitation",
    "final_address": "7040 Queensway Dr",
    "address_councildis": "E",
    "status": "Assigned to Contractor",
    "contractor": "Waste Pro",
    "rowid": "978637",
    "final_x": "3719116.17004",
    "final_y": "569416.064678",
    "longitude": "-89.94784662236164",
    "latitude": "30.058499242565798",
    "geocoded_column": {
      "latitude": "30.058499242565798",
      "longitude": "-89.94784662236164"
    }
  },
  {
    "service_request": "2023-978636",
    "request_type": "Trash/Recycling",
    "request_reason": "Illegal Dumping",
    "date_created": "2023-02-27T18:36:49.000",
    "date_modified": "2023-02-27T18:36:49.000",
    "request_status": "Pending",
    "responsible_agency": "Department of Sanitation",
    "final_address": "6045 Pines Blvd",
    "address_councildis": "D",
    "status": "Pending",
    "rowid": "978636",
    "final_x": "3696148.54659",
    "final_y": "556164.707098",
    "longitude": "-90.0209244177289",
    "latitude": "30.02280673734054",
    "geocoded_column": {
      "latitude": "30.02280673734054",
      "longitude": "-90.0209244177289"
    }
  },
  {
    "service_request": "2023-978635",
    "request_type": "Property Maintenance",
    "request_reason": "Property Maintenance",
    "date_created": "2023-02-27T18:33:47.000",
    "date_modified": "2023-02-27T18:37:28.000",
    "request_status": "Pending",
    "responsible_agency": "Department of Code Enforcement",
    "final_address": "1120 Esplanade Ave",
    "address_councildis": "C",
    "status": "Pending",
    "rowid": "978635",
    "final_x": "3682692.63848",
    "final_y": "535388.185414",
    "longitude": "-90.06416911344962",
    "latitude": "29.96609560405481",
    "geocoded_column": {
      "latitude": "29.96609560405481",
      "longitude": "-90.06416911344962"
    }
  },
  {
    "service_request": "2023-978634",
    "request_type": "Traffic Signals/Signs/Striping/Streetlights",
    "request_reason": "Street Light Outage/Malfunction",
    "date_created": "2023-02-27T18:31:58.000",
    "date_modified": "2023-02-27T18:31:59.000",
    "request_status": "Pending",
    "responsible_agency": "Department of Public Works",
    "final_address": "1536 N Roman St",
    "address_councildis": "D",
    "status": "Assigned to Contractor",
    "contractor": "Legacy Professional Services",
    "rowid": "978634",
    "final_x": "3681364.8717",
    "final_y": "537842.982601",
    "longitude": "-90.06827657794906",
    "latitude": "29.9728858224446",
    "geocoded_column": {
      "latitude": "29.9728858224446",
      "longitude": "-90.06827657794906"
    }
  },
  {
    "service_request": "2023-978633",
    "request_type": "Trash/Recycling",
    "request_reason": "Request a Large Item Pick Up",
    "date_created": "2023-02-27T18:23:27.000",
    "date_modified": "2023-02-27T18:37:18.000",
    "request_status": "Pending",
    "responsible_agency": "Department of Sanitation",
    "final_address": "1217 Soniat St",
    "address_councildis": "B",
    "status": "Assigned to Contractor",
    "contractor": "Richards Disposal",
    "rowid": "978633",
    "final_x": "3668431.49306",
    "final_y": "519775.000952",
    "longitude": "-90.10973212901649",
    "latitude": "29.923591043202197",
    "geocoded_column": {
      "latitude": "29.923591043202197",
      "longitude": "-90.10973212901649"
    }
  },
  {
    "service_request": "2023-978632",
    "request_type": "Trash/Recycling",
    "request_reason": "Replace Trash Cart",
    "date_created": "2023-02-27T18:21:16.000",
    "date_modified": "2023-02-27T18:21:17.000",
    "request_status": "Pending",
    "responsible_agency": "Department of Sanitation",
    "final_address": "4123 Coliseum St",
    "address_councildis": "B",
    "status": "Assigned to Contractor",
    "contractor": "Richards Disposal",
    "rowid": "978632",
    "final_x": "3671846.34779",
    "final_y": "519987.452536",
    "longitude": "-90.09894544530805",
    "latitude": "29.924074505849767",
    "geocoded_column": {
      "latitude": "29.924074505849767",
      "longitude": "-90.09894544530805"
    }
  },
  {
    "service_request": "2023-978631",
    "request_type": "Property Maintenance",
    "request_reason": "Property Maintenance",
    "date_created": "2023-02-27T18:17:44.000",
    "date_modified": "2023-02-27T18:17:44.000",
    "request_status": "Pending",
    "responsible_agency": "Department of Code Enforcement",
    "final_address": "14555 Duane Rd",
    "address_councildis": "E",
    "status": "Pending",
    "rowid": "978631",
    "final_x": "3720807.94399",
    "final_y": "573490.833066",
    "longitude": "-89.94234280588137",
    "latitude": "30.06964678882214",
    "geocoded_column": {
      "latitude": "30.06964678882214",
      "longitude": "-89.94234280588137"
    }
  },
  {
    "service_request": "2023-978630",
    "request_type": "Trash/Recycling",
    "request_reason": "Repair Trash Cart",
    "date_created": "2023-02-27T18:10:17.000",
    "date_modified": "2023-02-27T18:10:18.000",
    "request_status": "Pending",
    "responsible_agency": "Department of Sanitation",
    "final_address": "3720 Palmyra St",
    "address_councildis": "A",
    "status": "Assigned to Contractor",
    "contractor": "Richards Disposal",
    "rowid": "978630",
    "final_x": "3671683.82228",
    "final_y": "536826.124936",
    "longitude": "-90.09888584085651",
    "latitude": "29.97038014672976",
    "geocoded_column": {
      "latitude": "29.97038014672976",
      "longitude": "-90.09888584085651"
    }
  },
  {
    "service_request": "2023-978629",
    "request_type": "Trash/Recycling",
    "request_reason": "Missed Trash Pick-Up",
    "date_created": "2023-02-27T18:04:23.000",
    "date_modified": "2023-02-27T18:04:24.000",
    "request_status": "Pending",
    "responsible_agency": "Department of Sanitation",
    "final_address": "7554 Stonewood St",
    "address_councildis": "E",
    "status": "Assigned to Contractor",
    "contractor": "Waste Pro",
    "rowid": "978629",
    "final_x": "3719793.04773",
    "final_y": "572168.033",
    "longitude": "-89.94560175584549",
    "latitude": "30.06604348256588",
    "geocoded_column": {
      "latitude": "30.06604348256588",
      "longitude": "-89.94560175584549"
    }
  },
  {
    "service_request": "2023-978628",
    "request_type": "Trash/Recycling",
    "request_reason": "Order Trash Cart",
    "date_created": "2023-02-27T18:03:47.000",
    "date_modified": "2023-02-27T18:03:48.000",
    "request_status": "Pending",
    "responsible_agency": "Department of Sanitation",
    "final_address": "4622 Papania Dr",
    "address_councildis": "E",
    "status": "Assigned to Contractor",
    "contractor": "Waste Pro",
    "rowid": "978628",
    "final_x": "3715546.0734",
    "final_y": "556348.451418",
    "longitude": "-89.9596264144714",
    "latitude": "30.022686803467106",
    "geocoded_column": {
      "latitude": "30.022686803467106",
      "longitude": "-89.9596264144714"
    }
  },
  {
    "service_request": "2023-978627",
    "request_type": "Trash/Recycling",
    "request_reason": "Request a Large Item Pick Up",
    "date_created": "2023-02-27T17:57:39.000",
    "date_modified": "2023-02-27T17:57:40.000",
    "request_status": "Pending",
    "responsible_agency": "Department of Sanitation",
    "final_address": "1116 Leboeuf St",
    "address_councildis": "C",
    "status": "Assigned to Contractor",
    "contractor": "Richards Disposal",
    "rowid": "978627",
    "final_x": "3689790.9174",
    "final_y": "527295.058047",
    "longitude": "-90.04204101731855",
    "latitude": "29.943624208611702",
    "geocoded_column": {
      "latitude": "29.943624208611702",
      "longitude": "-90.04204101731855"
    }
  },
  {
    "service_request": "2023-978626",
    "request_type": "Property Maintenance",
    "request_reason": "Property Maintenance",
    "date_created": "2023-02-27T17:51:10.000",
    "date_modified": "2023-02-27T17:51:10.000",
    "request_status": "Pending",
    "responsible_agency": "Department of Code Enforcement",
    "final_address": "1229 S Saratoga St",
    "address_councildis": "B",
    "status": "Pending",
    "rowid": "978626",
    "final_x": "3677915.07131",
    "final_y": "527220.493759",
    "longitude": "-90.07953879370473",
    "latitude": "29.943781836322753",
    "geocoded_column": {
      "latitude": "29.943781836322753",
      "longitude": "-90.07953879370473"
    }
  },
  {
    "service_request": "2023-978625",
    "request_type": "Traffic Signals/Signs/Striping/Streetlights",
    "request_reason": "Street Light Outage/Malfunction",
    "date_created": "2023-02-27T17:49:25.000",
    "date_modified": "2023-02-27T17:49:58.000",
    "request_status": "Pending",
    "responsible_agency": "Department of Public Works",
    "final_address": "4718 Cardenas Dr",
    "address_councildis": "E",
    "status": "Assigned to Contractor",
    "contractor": "Legacy Professional Services",
    "rowid": "978625",
    "final_x": "3713630.89842",
    "final_y": "556178.146202",
    "longitude": "-89.96568427890656",
    "latitude": "30.022281524617306",
    "geocoded_column": {
      "latitude": "30.022281524617306",
      "longitude": "-89.96568427890656"
    }
  },
  {
    "service_request": "2023-978624",
    "request_type": "Tax and Revenue",
    "request_reason": "Occupational License Tax",
    "date_created": "2023-02-27T17:30:49.000",
    "date_modified": "2023-02-27T17:30:49.000",
    "request_status": "Pending",
    "responsible_agency": "Bureau of Revenue",
    "final_address": "3500 Magazine St",
    "address_councildis": "B",
    "status": "Pending",
    "rowid": "978624",
    "final_x": "3674431.98196",
    "final_y": "519353.848951",
    "longitude": "-90.09080519008774",
    "latitude": "29.922255455615367",
    "geocoded_column": {
      "latitude": "29.922255455615367",
      "longitude": "-90.09080519008774"
    }
  },
  {
    "service_request": "2023-978623",
    "request_type": "Roads/Drainage",
    "request_reason": "Pothole",
    "date_created": "2023-02-27T17:28:39.000",
    "date_modified": "2023-02-27T17:28:40.000",
    "request_status": "Pending",
    "responsible_agency": "Department of Public Works",
    "final_address": "HOWARD AVE & S RAMPART ST",
    "address_councildis": "B",
    "status": "Pending",
    "rowid": "978623",
    "final_x": "3679013.0",
    "final_y": "527934.78",
    "longitude": "-90.07604759159928",
    "latitude": "29.945712806365606",
    "geocoded_column": {
      "latitude": "29.945712806365606",
      "longitude": "-90.07604759159928"
    }
  },
  {
    "service_request": "2023-978622",
    "request_type": "Property Maintenance",
    "request_reason": "Property Maintenance",
    "date_created": "2023-02-27T17:26:10.000",
    "date_modified": "2023-02-27T17:26:10.000",
    "request_status": "Pending",
    "responsible_agency": "Department of Code Enforcement",
    "final_address": "937 Fats Domino Ave",
    "address_councildis": "E",
    "status": "Pending",
    "rowid": "978622",
    "final_x": "3697942.42627",
    "final_y": "533287.40378",
    "longitude": "-90.01608720362415",
    "latitude": "29.959845944005593",
    "geocoded_column": {
      "latitude": "29.959845944005593",
      "longitude": "-90.01608720362415"
    }
  },
  {
    "service_request": "2023-978621",
    "request_type": "Traffic Signals/Signs/Striping/Streetlights",
    "request_reason": "Street Light Outage/Malfunction",
    "date_created": "2023-02-27T17:24:27.000",
    "date_modified": "2023-02-27T17:24:43.000",
    "request_status": "Pending",
    "responsible_agency": "Department of Public Works",
    "final_address": "11041 Willowbrae Dr",
    "address_councildis": "E",
    "status": "Assigned to Contractor",
    "contractor": "Legacy Professional Services",
    "rowid": "978621",
    "final_x": "3711541.80075",
    "final_y": "564780.067554",
    "longitude": "-89.97196232363352",
    "latitude": "30.04600178137426",
    "geocoded_column": {
      "latitude": "30.04600178137426",
      "longitude": "-89.97196232363352"
    }
  },
  {
    "service_request": "2023-978620",
    "request_type": "Trash/Recycling",
    "request_reason": "Order Trash Cart",
    "date_created": "2023-02-27T17:24:18.000",
    "date_modified": "2023-02-27T17:24:18.000",
    "request_status": "Pending",
    "responsible_agency": "Department of Sanitation",
    "final_address": "13536 St Marie Dr",
    "address_councildis": "E",
    "status": "Assigned to Contractor",
    "contractor": "Waste Pro",
    "rowid": "978620",
    "final_x": "3724221.62611",
    "final_y": "569250.121766",
    "longitude": "-89.93171542258312",
    "latitude": "30.05787224115395",
    "geocoded_column": {
      "latitude": "30.05787224115395",
      "longitude": "-89.93171542258312"
    }
  },
  {
    "service_request": "2023-978619",
    "request_type": "Traffic Signals/Signs/Striping/Streetlights",
    "request_reason": "Traffic Sign Missing/Damaged",
    "date_created": "2023-02-27T17:22:03.000",
    "date_modified": "2023-02-27T17:22:03.000",
    "request_status": "Pending",
    "responsible_agency": "Department of Public Works",
    "final_address": "1221 Soniat St",
    "address_councildis": "B",
    "status": "Pending",
    "rowid": "978619",
    "final_x": "3668428.49498",
    "final_y": "519839.252792",
    "longitude": "-90.10973942705542",
    "latitude": "29.923767803454236",
    "geocoded_column": {
      "latitude": "29.923767803454236",
      "longitude": "-90.10973942705542"
    }
  },
  {
    "service_request": "2023-978618",
    "request_type": "Trash/Recycling",
    "request_reason": "Replace Trash Cart",
    "date_created": "2023-02-27T17:20:52.000",
    "date_modified": "2023-02-27T17:20:53.000",
    "request_status": "Pending",
    "responsible_agency": "Department of Sanitation",
    "final_address": "145 Morrison Ct",
    "address_councildis": "E",
    "status": "Assigned to Contractor",
    "contractor": "Waste Pro",
    "rowid": "978618",
    "final_x": "3703892.45495",
    "final_y": "561671.297567",
    "longitude": "-89.99625259359614",
    "latitude": "30.037701561981834",
    "geocoded_column": {
      "latitude": "30.037701561981834",
      "longitude": "-89.99625259359614"
    }
  },
  {
    "service_request": "2023-978617",
    "request_type": "Trash/Recycling",
    "request_reason": "Repair Trash Cart",
    "date_created": "2023-02-27T17:18:57.000",
    "date_modified": "2023-02-27T17:18:58.000",
    "request_status": "Pending",
    "responsible_agency": "Department of Sanitation",
    "final_address": "5708 Tullis Dr",
    "address_councildis": "C",
    "status": "Assigned to Contractor",
    "contractor": "Richards Disposal",
    "rowid": "978617",
    "final_x": "3705088.69604",
    "final_y": "512790.840817",
    "longitude": "-89.9942774268727",
    "latitude": "29.903259753787538",
    "geocoded_column": {
      "latitude": "29.903259753787538",
      "longitude": "-89.9942774268727"
    }
  },
  {
    "service_request": "2023-978616",
    "request_type": "Trash/Recycling",
    "request_reason": "Repair Trash Cart",
    "date_created": "2023-02-27T17:10:17.000",
    "date_modified": "2023-02-27T17:10:18.000",
    "request_status": "Pending",
    "responsible_agency": "Department of Sanitation",
    "final_address": "3219 Ursulines Ave",
    "address_councildis": "A",
    "status": "Assigned to Contractor",
    "contractor": "Richards Disposal",
    "rowid": "978616",
    "final_x": "3675801.56341",
    "final_y": "539693.106186",
    "longitude": "-90.08578296489273",
    "latitude": "29.978140743791013",
    "geocoded_column": {
      "latitude": "29.978140743791013",
      "longitude": "-90.08578296489273"
    }
  },
  {
    "service_request": "2023-978615",
    "request_type": "Traffic Signals/Signs/Striping/Streetlights",
    "request_reason": "Traffic Sign Missing/Damaged",
    "date_created": "2023-02-27T17:06:00.000",
    "date_modified": "2023-02-27T17:07:09.000",
    "request_status": "Pending",
    "responsible_agency": "Department of Public Works",
    "final_address": "CROWDER BLVD & I 10 E SERVICE RD",
    "address_councildis": "E",
    "status": "Pending",
    "rowid": "978615",
    "final_x": "3705013.6",
    "final_y": "558418.88",
    "longitude": "-89.99282977687913",
    "latitude": "30.028722667641926",
    "geocoded_column": {
      "latitude": "30.028722667641926",
      "longitude": "-89.99282977687913"
    }
  },
  {
    "service_request": "2023-978614",
    "request_type": "Traffic Signals/Signs/Striping/Streetlights",
    "request_reason": "Traffic Sign Missing/Damaged",
    "date_created": "2023-02-27T17:05:18.000",
    "date_modified": "2023-02-27T17:05:19.000",
    "request_status": "Pending",
    "responsible_agency": "Department of Public Works",
    "final_address": "CROWDER BLVD & I 10 E SERVICE RD",
    "address_councildis": "E",
    "status": "Pending",
    "rowid": "978614",
    "final_x": "3704930.5",
    "final_y": "558375.78",
    "longitude": "-89.9930939603255",
    "latitude": "30.02860683229059",
    "geocoded_column": {
      "latitude": "30.02860683229059",
      "longitude": "-89.9930939603255"
    }
  },
  {
    "service_request": "2023-978613",
    "request_type": "Abandoned Vehicles",
    "request_reason": "Abandoned/Junk Vehicles",
    "date_created": "2023-02-27T17:03:27.000",
    "date_modified": "2023-02-27T17:03:27.000",
    "request_status": "Pending",
    "responsible_agency": "Department of Public Works",
    "final_address": "2311 Holiday Dr",
    "address_councildis": "C",
    "status": "Pending",
    "rowid": "978613",
    "final_x": "3698793.88944",
    "final_y": "522869.502587",
    "longitude": "-90.01377733618406",
    "latitude": "29.931173421028447",
    "geocoded_column": {
      "latitude": "29.931173421028447",
      "longitude": "-90.01377733618406"
    }
  },
  {
    "service_request": "2023-978612",
    "request_type": "Traffic Signals/Signs/Striping/Streetlights",
    "request_reason": "Street Name Sign Damaged or Missing",
    "date_created": "2023-02-27T17:02:01.000",
    "date_modified": "2023-02-27T17:02:01.000",
    "request_status": "Pending",
    "responsible_agency": "Department of Public Works",
    "final_address": "2800 Mansfield Ave",
    "address_councildis": "C",
    "status": "Pending",
    "rowid": "978612",
    "final_x": "3709267.03985",
    "final_y": "519603.32556",
    "longitude": "-89.98083697221183",
    "latitude": "29.921856794918607",
    "geocoded_column": {
      "latitude": "29.921856794918607",
      "longitude": "-89.98083697221183"
    }
  },
  {
    "service_request": "2023-978611",
    "request_type": "Trash/Recycling",
    "request_reason": "Request a Large Item Pick Up",
    "date_created": "2023-02-27T17:01:24.000",
    "date_modified": "2023-02-27T17:01:25.000",
    "request_status": "Pending",
    "responsible_agency": "Department of Sanitation",
    "final_address": "1717 Ursulines Ave",
    "address_councildis": "D",
    "status": "Assigned to Contractor",
    "contractor": "Richards Disposal",
    "rowid": "978611",
    "final_x": "3680521.16501",
    "final_y": "535976.168007",
    "longitude": "-90.07100611434275",
    "latitude": "29.967778310326732",
    "geocoded_column": {
      "latitude": "29.967778310326732",
      "longitude": "-90.07100611434275"
    }
  },
  {
    "service_request": "2023-978610",
    "request_type": "Abandoned Vehicles",
    "request_reason": "Abandoned/Junk Vehicles",
    "date_created": "2023-02-27T17:00:51.000",
    "date_modified": "2023-02-27T17:00:51.000",
    "request_status": "Pending",
    "responsible_agency": "Department of Public Works",
    "final_address": "2310 Comet St",
    "address_councildis": "C",
    "status": "Pending",
    "rowid": "978610",
    "final_x": "3700230.97277",
    "final_y": "522537.753786",
    "longitude": "-90.0092527817584",
    "latitude": "29.930215642662784",
    "geocoded_column": {
      "latitude": "29.930215642662784",
      "longitude": "-90.0092527817584"
    }
  },
  {
    "service_request": "2023-978609",
    "request_type": "Trash/Recycling",
    "request_reason": "Request a Large Item Pick Up",
    "date_created": "2023-02-27T16:58:43.000",
    "date_modified": "2023-02-27T16:58:44.000",
    "request_status": "Pending",
    "responsible_agency": "Department of Sanitation",
    "final_address": "1719 Ursulines Ave",
    "address_councildis": "D",
    "status": "Assigned to Contractor",
    "contractor": "Richards Disposal",
    "rowid": "978609",
    "final_x": "3680512.27618",
    "final_y": "535982.279111",
    "longitude": "-90.07103397290565",
    "latitude": "29.967795383022917",
    "geocoded_column": {
      "latitude": "29.967795383022917",
      "longitude": "-90.07103397290565"
    }
  },
  {
    "service_request": "2023-978608",
    "request_type": "Trash/Recycling",
    "request_reason": "Request a Large Item Pick Up",
    "date_created": "2023-02-27T16:58:39.000",
    "date_modified": "2023-02-27T16:58:40.000",
    "request_status": "Pending",
    "responsible_agency": "Department of Sanitation",
    "final_address": "9696 Hayne Blvd",
    "address_councildis": "E",
    "status": "Assigned to Contractor",
    "contractor": "Waste Pro",
    "rowid": "978608",
    "final_x": "3706773.12158",
    "final_y": "565285.425506",
    "longitude": "-89.98701486730513",
    "latitude": "30.047546235439572",
    "geocoded_column": {
      "latitude": "30.047546235439572",
      "longitude": "-89.98701486730513"
    }
  },
  {
    "service_request": "2023-978607",
    "request_type": "Traffic Signals/Signs/Striping/Streetlights",
    "request_reason": "Street Light Outage/Malfunction",
    "date_created": "2023-02-27T16:58:07.000",
    "date_modified": "2023-02-27T16:58:07.000",
    "request_status": "Pending",
    "responsible_agency": "Department of Public Works",
    "final_address": "2931 Mansfield Ave",
    "address_councildis": "C",
    "status": "Assigned to Contractor",
    "contractor": "Legacy Professional Services",
    "rowid": "978607",
    "final_x": "3709095.03153",
    "final_y": "519052.645879",
    "longitude": "-89.98140043345703",
    "latitude": "29.920348200224552",
    "geocoded_column": {
      "latitude": "29.920348200224552",
      "longitude": "-89.98140043345703"
    }
  },
  {
    "service_request": "2023-978606",
    "request_type": "Trash/Recycling",
    "request_reason": "Illegal Dumping",
    "date_created": "2023-02-27T16:57:43.000",
    "date_modified": "2023-02-27T16:57:43.000",
    "request_status": "Pending",
    "responsible_agency": "Department of Sanitation",
    "final_address": "PACIFIC AVE & SOCRATES ST",
    "address_councildis": "C",
    "status": "Pending",
    "rowid": "978606",
    "final_x": "3688356.0",
    "final_y": "526417.38",
    "longitude": "-90.04660253598715",
    "latitude": "29.941255278189054",
    "geocoded_column": {
      "latitude": "29.941255278189054",
      "longitude": "-90.04660253598715"
    }
  },
  {
    "service_request": "2023-978605",
    "request_type": "Abandoned Vehicles",
    "request_reason": "Abandoned/Junk Vehicles",
    "date_created": "2023-02-27T16:54:39.000",
    "date_modified": "2023-02-27T16:54:39.000",
    "request_status": "Pending",
    "responsible_agency": "Department of Public Works",
    "final_address": "4900 Copernicus St",
    "address_councildis": "C",
    "status": "Pending",
    "rowid": "978605",
    "final_x": "3702098.90212",
    "final_y": "522775.28569",
    "longitude": "-90.00334736571706",
    "latitude": "29.93080928936029",
    "geocoded_column": {
      "latitude": "29.93080928936029",
      "longitude": "-90.00334736571706"
    }
  },
  {
    "service_request": "2023-978604",
    "request_type": "Trash/Recycling",
    "request_reason": "Repair Trash Cart",
    "date_created": "2023-02-27T16:54:25.000",
    "date_modified": "2023-02-27T16:54:25.000",
    "request_status": "Pending",
    "responsible_agency": "Department of Sanitation",
    "final_address": "4625 Eastern St",
    "address_councildis": "D",
    "status": "Assigned to Contractor",
    "contractor": "IV Waste",
    "rowid": "978604",
    "final_x": "3688120.00995",
    "final_y": "549975.486292",
    "longitude": "-90.04651231435695",
    "latitude": "30.00603906480112",
    "geocoded_column": {
      "latitude": "30.00603906480112",
      "longitude": "-90.04651231435695"
    }
  },
  {
    "service_request": "2023-978603",
    "request_type": "Trash/Recycling",
    "request_reason": "Request a Large Item Pick Up",
    "date_created": "2023-02-27T16:53:37.000",
    "date_modified": "2023-02-27T16:53:38.000",
    "request_status": "Pending",
    "responsible_agency": "Department of Sanitation",
    "final_address": "6872 Tara Ln Apt B",
    "address_councildis": "E",
    "status": "Assigned to Contractor",
    "contractor": "Waste Pro",
    "rowid": "978603",
    "final_x": "3707025.61182",
    "final_y": "559718.848989",
    "longitude": "-89.9864236716331",
    "latitude": "30.032232197590965",
    "geocoded_column": {
      "latitude": "30.032232197590965",
      "longitude": "-89.9864236716331"
    }
  },
  {
    "service_request": "2023-978602",
    "request_type": "Roads/Drainage",
    "request_reason": "Street Subsidence (Sinking)",
    "date_created": "2023-02-27T16:52:37.000",
    "date_modified": "2023-02-27T16:52:37.000",
    "request_status": "Pending",
    "responsible_agency": "Department of Public Works",
    "final_address": "2622 Constance St",
    "address_councildis": "B",
    "status": "Pending",
    "rowid": "978602",
    "final_x": "3677628.65538",
    "final_y": "520713.924153",
    "longitude": "-90.08066766829985",
    "latitude": "29.925899519299865",
    "geocoded_column": {
      "latitude": "29.925899519299865",
      "longitude": "-90.08066766829985"
    }
  },
  {
    "service_request": "2023-978601",
    "request_type": "Trash/Recycling",
    "request_reason": "Repair Recycling Cart",
    "date_created": "2023-02-27T16:50:16.000",
    "date_modified": "2023-02-27T16:50:16.000",
    "request_status": "Pending",
    "responsible_agency": "Department of Sanitation",
    "final_address": "6014 Canal Blvd",
    "address_councildis": "A",
    "status": "Pending",
    "rowid": "978601",
    "final_x": "3668359.46542",
    "final_y": "547452.091537",
    "longitude": "-90.10902600163746",
    "latitude": "29.99969600035473",
    "geocoded_column": {
      "latitude": "29.99969600035473",
      "longitude": "-90.10902600163746"
    }
  },
  {
    "service_request": "2023-978600",
    "request_type": "Safety & Permits",
    "request_reason": "Licenses & Permits",
    "date_created": "2023-02-27T16:48:49.000",
    "date_modified": "2023-02-27T16:48:49.000",
    "request_status": "Pending",
    "responsible_agency": "Safety and Permits",
    "final_address": "8422 Hickory St",
    "address_councildis": "A",
    "status": "Pending",
    "rowid": "978600",
    "final_x": "3662415.69453",
    "final_y": "530755.013378",
    "longitude": "-90.1283573907547",
    "latitude": "29.953957863791242",
    "geocoded_column": {
      "latitude": "29.953957863791242",
      "longitude": "-90.1283573907547"
    }
  },
  {
    "service_request": "2023-978599",
    "request_type": "Trash/Recycling",
    "request_reason": "Repair Trash Cart",
    "date_created": "2023-02-27T16:48:45.000",
    "date_modified": "2023-02-27T16:48:46.000",
    "request_status": "Pending",
    "responsible_agency": "Department of Sanitation",
    "final_address": "6014 Canal Blvd",
    "address_councildis": "A",
    "status": "Assigned to Contractor",
    "contractor": "IV Waste",
    "rowid": "978599",
    "final_x": "3668359.46542",
    "final_y": "547452.091537",
    "longitude": "-90.10902600163746",
    "latitude": "29.99969600035473",
    "geocoded_column": {
      "latitude": "29.99969600035473",
      "longitude": "-90.10902600163746"
    }
  },
  {
    "service_request": "2023-978598",
    "request_type": "Trash/Recycling",
    "request_reason": "Replace Trash Cart",
    "date_created": "2023-02-27T16:47:15.000",
    "date_modified": "2023-02-27T16:47:16.000",
    "request_status": "Pending",
    "responsible_agency": "Department of Sanitation",
    "final_address": "336 Homer St",
    "address_councildis": "C",
    "status": "Assigned to Contractor",
    "contractor": "Richards Disposal",
    "rowid": "978598",
    "final_x": "3686438.90185",
    "final_y": "528339.542912",
    "longitude": "-90.05258733333504",
    "latitude": "29.94659963098254",
    "geocoded_column": {
      "latitude": "29.94659963098254",
      "longitude": "-90.05258733333504"
    }
  },
  {
    "service_request": "2023-978597",
    "request_type": "Trash/Recycling",
    "request_reason": "Repair Recycling Cart",
    "date_created": "2023-02-27T16:47:00.000",
    "date_modified": "2023-02-27T16:47:00.000",
    "request_status": "Pending",
    "responsible_agency": "Department of Sanitation",
    "final_address": "108 Kingston Ct",
    "address_councildis": "C",
    "status": "Pending",
    "rowid": "978597",
    "final_x": "3705933.97278",
    "final_y": "517846.075126",
    "longitude": "-89.99142292386703",
    "latitude": "29.917132722360662",
    "geocoded_column": {
      "latitude": "29.917132722360662",
      "longitude": "-89.99142292386703"
    }
  },
  {
    "service_request": "2023-978596",
    "request_type": "Trash/Recycling",
    "request_reason": "Replace Trash Cart",
    "date_created": "2023-02-27T16:46:27.000",
    "date_modified": "2023-02-27T16:46:28.000",
    "request_status": "Pending",
    "responsible_agency": "Department of Sanitation",
    "final_address": "332 Homer St",
    "address_councildis": "C",
    "status": "Assigned to Contractor",
    "contractor": "Richards Disposal",
    "rowid": "978596",
    "final_x": "3686436.31695",
    "final_y": "528377.033024",
    "longitude": "-90.05259417172111",
    "latitude": "29.946702795492328",
    "geocoded_column": {
      "latitude": "29.946702795492328",
      "longitude": "-90.05259417172111"
    }
  },
  {
    "service_request": "2023-978595",
    "request_type": "Trash/Recycling",
    "request_reason": "Repair Trash Cart",
    "date_created": "2023-02-27T16:46:23.000",
    "date_modified": "2023-02-27T16:46:24.000",
    "request_status": "Pending",
    "responsible_agency": "Department of Sanitation",
    "final_address": "108 Kingston Ct",
    "address_councildis": "C",
    "status": "Assigned to Contractor",
    "contractor": "Richards Disposal",
    "rowid": "978595",
    "final_x": "3705933.97278",
    "final_y": "517846.075126",
    "longitude": "-89.99142292386703",
    "latitude": "29.917132722360662",
    "geocoded_column": {
      "latitude": "29.917132722360662",
      "longitude": "-89.99142292386703"
    }
  },
  {
    "service_request": "2023-978594",
    "request_type": "Trash/Recycling",
    "request_reason": "Replace Trash Cart",
    "date_created": "2023-02-27T16:45:40.000",
    "date_modified": "2023-02-27T16:45:40.000",
    "request_status": "Pending",
    "responsible_agency": "Department of Sanitation",
    "final_address": "330 Homer St",
    "address_councildis": "C",
    "status": "Assigned to Contractor",
    "contractor": "Richards Disposal",
    "rowid": "978594",
    "final_x": "3686438.90185",
    "final_y": "528339.542912",
    "longitude": "-90.05258733333504",
    "latitude": "29.94659963098254",
    "geocoded_column": {
      "latitude": "29.94659963098254",
      "longitude": "-90.05258733333504"
    }
  },
  {
    "service_request": "2023-978593",
    "request_type": "Roads/Drainage",
    "request_reason": "Man hole cover issue",
    "date_created": "2023-02-27T16:45:26.000",
    "date_modified": "2023-02-27T16:45:27.000",
    "request_status": "Pending",
    "responsible_agency": "Department of Public Works",
    "final_address": "JEFFERSON AVE & CAMP ST",
    "address_councildis": "A",
    "status": "Pending",
    "rowid": "978593",
    "final_x": "3666830.9",
    "final_y": "519162.38",
    "longitude": "-90.1148051938199",
    "latitude": "29.921953429402485",
    "geocoded_column": {
      "latitude": "29.921953429402485",
      "longitude": "-90.1148051938199"
    }
  },
  {
    "service_request": "2023-978592",
    "request_type": "Trash/Recycling",
    "request_reason": "Request a Large Item Pick Up",
    "date_created": "2023-02-27T16:44:52.000",
    "date_modified": "2023-02-27T16:44:52.000",
    "request_status": "Pending",
    "responsible_agency": "Department of Sanitation",
    "final_address": "6558 Louisville St",
    "address_councildis": "A",
    "status": "Assigned to Contractor",
    "contractor": "IV Waste",
    "rowid": "978592",
    "final_x": "3668006.40673",
    "final_y": "551234.006229",
    "longitude": "-90.11001378081009",
    "latitude": "30.010105317830895",
    "geocoded_column": {
      "latitude": "30.010105317830895",
      "longitude": "-90.11001378081009"
    }
  },
  {
    "service_request": "2023-978591",
    "request_type": "Property Maintenance",
    "request_reason": "Property Maintenance",
    "date_created": "2023-02-27T16:42:04.000",
    "date_modified": "2023-02-27T16:42:04.000",
    "request_status": "Pending",
    "responsible_agency": "Department of Code Enforcement",
    "final_address": "6113 Dreux Ave",
    "address_councildis": "D",
    "status": "Pending",
    "rowid": "978591",
    "final_x": "3697106.69795",
    "final_y": "553967.469848",
    "longitude": "-90.0179765941667",
    "latitude": "30.016734956935156",
    "geocoded_column": {
      "latitude": "30.016734956935156",
      "longitude": "-90.0179765941667"
    }
  },
  {
    "service_request": "2023-978590",
    "request_type": "Tax and Revenue",
    "request_reason": "Occupational License Tax",
    "date_created": "2023-02-27T16:40:01.000",
    "date_modified": "2023-02-27T16:40:01.000",
    "request_status": "Pending",
    "responsible_agency": "Bureau of Revenue",
    "status": "Pending",
    "rowid": "978590",
    "longitude": "0.0",
    "latitude": "0.0",
    "geocoded_column": {
      "latitude": "0.0",
      "longitude": "0.0"
    }
  },
  {
    "service_request": "2023-978589",
    "request_type": "Trash/Recycling",
    "request_reason": "Missed Trash Pick-Up",
    "date_created": "2023-02-27T16:39:24.000",
    "date_modified": "2023-02-27T16:39:25.000",
    "request_status": "Pending",
    "responsible_agency": "Department of Sanitation",
    "final_address": "2546 Dumaine St",
    "address_councildis": "D",
    "status": "Assigned to Contractor",
    "contractor": "Richards Disposal",
    "rowid": "978589",
    "final_x": "3677631.4349",
    "final_y": "537108.97012",
    "longitude": "-90.08009284159667",
    "latitude": "29.97098034853283",
    "geocoded_column": {
      "latitude": "29.97098034853283",
      "longitude": "-90.08009284159667"
    }
  },
  {
    "service_request": "2023-978588",
    "request_type": "Trash/Recycling",
    "request_reason": "Request a Large Item Pick Up",
    "date_created": "2023-02-27T16:38:37.000",
    "date_modified": "2023-02-27T16:38:37.000",
    "request_status": "Pending",
    "responsible_agency": "Department of Sanitation",
    "final_address": "721 Upperline St",
    "address_councildis": "B",
    "status": "Assigned to Contractor",
    "contractor": "Richards Disposal",
    "rowid": "978588",
    "final_x": "3669062.88814",
    "final_y": "518077.874614",
    "longitude": "-90.10779634001662",
    "latitude": "29.918905927791354",
    "geocoded_column": {
      "latitude": "29.918905927791354",
      "longitude": "-90.10779634001662"
    }
  },
  {
    "service_request": "2023-978587",
    "request_type": "Traffic Signals/Signs/Striping/Streetlights",
    "request_reason": "Traffic Sign Missing/Damaged",
    "date_created": "2023-02-27T16:35:37.000",
    "date_modified": "2023-02-27T16:35:37.000",
    "request_status": "Pending",
    "responsible_agency": "Department of Public Works",
    "final_address": "WILLOW ST & FERN ST",
    "address_councildis": "A",
    "status": "Pending",
    "rowid": "978587",
    "final_x": "3663011.0",
    "final_y": "528369.78",
    "longitude": "-90.12655697173246",
    "latitude": "29.947382013219606",
    "geocoded_column": {
      "latitude": "29.947382013219606",
      "longitude": "-90.12655697173246"
    }
  },
  {
    "service_request": "2023-978586",
    "request_type": "Parks & Parkways",
    "request_reason": "Request Tree Service (Right of Way/Public Property)",
    "date_created": "2023-02-27T16:33:33.000",
    "date_modified": "2023-02-27T16:33:33.000",
    "request_status": "Pending",
    "responsible_agency": "Department of Parks & Parkway",
    "final_address": "4813 Virgilian St",
    "address_councildis": "D",
    "status": "Pending",
    "rowid": "978586",
    "final_x": "3697525.76087",
    "final_y": "554127.387544",
    "longitude": "-90.01664673329421",
    "latitude": "30.017161436141905",
    "geocoded_column": {
      "latitude": "30.017161436141905",
      "longitude": "-90.01664673329421"
    }
  },
  {
    "service_request": "2023-978585",
    "request_type": "Trash/Recycling",
    "request_reason": "Replace Recycling Cart",
    "date_created": "2023-02-27T16:32:48.000",
    "date_modified": "2023-02-27T16:32:48.000",
    "request_status": "Pending",
    "responsible_agency": "Department of Sanitation",
    "final_address": "3119 Iberville St, New Orleans, Louisiana, 70119",
    "address_councildis": "B",
    "status": "Pending",
    "rowid": "978585",
    "final_x": "3674222.81896",
    "final_y": "536548.324423",
    "longitude": "-90.0908769086551",
    "latitude": "29.969540832733",
    "geocoded_column": {
      "latitude": "29.969540832733",
      "longitude": "-90.0908769086551"
    }
  },
  {
    "service_request": "2023-978584",
    "request_type": "Trash/Recycling",
    "request_reason": "Replace Trash Cart",
    "date_created": "2023-02-27T16:32:14.000",
    "date_modified": "2023-02-27T16:32:15.000",
    "request_status": "Pending",
    "responsible_agency": "Department of Sanitation",
    "final_address": "7822 Willow St",
    "address_councildis": "A",
    "status": "Assigned to Contractor",
    "contractor": "Richards Disposal",
    "rowid": "978584",
    "final_x": "3663105.3712",
    "final_y": "528224.341824",
    "longitude": "-90.12626384169725",
    "latitude": "29.946979371673763",
    "geocoded_column": {
      "latitude": "29.946979371673763",
      "longitude": "-90.12626384169725"
    }
  },
  {
    "service_request": "2023-978583",
    "request_type": "Roads/Drainage",
    "request_reason": "Street Flooding / Drainage",
    "date_created": "2023-02-27T16:30:56.000",
    "date_modified": "2023-02-27T16:30:56.000",
    "request_status": "Pending",
    "responsible_agency": "Department of Public Works",
    "final_address": "103 Westpark Ct",
    "address_councildis": "C",
    "status": "Pending",
    "rowid": "978583",
    "final_x": "3695766.82038",
    "final_y": "521899.25561",
    "longitude": "-90.02336836899482",
    "latitude": "29.928601079379252",
    "geocoded_column": {
      "latitude": "29.928601079379252",
      "longitude": "-90.02336836899482"
    }
  },
  {
    "service_request": "2023-978582",
    "request_type": "Parks & Parkways",
    "request_reason": "Request Tree Service (Right of Way/Public Property)",
    "date_created": "2023-02-27T16:30:07.000",
    "date_modified": "2023-02-27T16:30:07.000",
    "request_status": "Pending",
    "responsible_agency": "Department of Parks & Parkway",
    "final_address": "2433 Palmer Ave",
    "address_councildis": "A",
    "status": "Pending",
    "rowid": "978582",
    "final_x": "3666475.76135",
    "final_y": "525789.877885",
    "longitude": "-90.11570391186079",
    "latitude": "29.940187323188283",
    "geocoded_column": {
      "latitude": "29.940187323188283",
      "longitude": "-90.11570391186079"
    }
  },
  {
    "service_request": "2023-978581",
    "request_type": "Trash/Recycling",
    "request_reason": "Missed Trash Pick-Up",
    "date_created": "2023-02-27T16:28:01.000",
    "date_modified": "2023-02-27T16:28:02.000",
    "request_status": "Pending",
    "responsible_agency": "Department of Sanitation",
    "final_address": "2420 Valentine Ct",
    "address_councildis": "C",
    "status": "Assigned to Contractor",
    "contractor": "Richards Disposal",
    "rowid": "978581",
    "final_x": "3699305.81514",
    "final_y": "522301.990586",
    "longitude": "-90.01218191973277",
    "latitude": "29.92959673857645",
    "geocoded_column": {
      "latitude": "29.92959673857645",
      "longitude": "-90.01218191973277"
    }
  },
  {
    "service_request": "2023-978580",
    "request_type": "Property Maintenance",
    "request_reason": "Property Maintenance",
    "date_created": "2023-02-27T16:27:25.000",
    "date_modified": "2023-02-27T16:27:25.000",
    "request_status": "Pending",
    "responsible_agency": "Department of Code Enforcement",
    "final_address": "4105 Martin Luther King, Jr. Blvd",
    "address_councildis": "B",
    "status": "Pending",
    "rowid": "978580",
    "final_x": "3671371.44468",
    "final_y": "530575.050178",
    "longitude": "-90.10008484180487",
    "latitude": "29.953201023539506",
    "geocoded_column": {
      "latitude": "29.953201023539506",
      "longitude": "-90.10008484180487"
    }
  },
  {
    "service_request": "2023-978579",
    "request_type": "Trash/Recycling",
    "request_reason": "Repair Trash Cart",
    "date_created": "2023-02-27T16:22:36.000",
    "date_modified": "2023-02-27T16:22:37.000",
    "request_status": "Pending",
    "responsible_agency": "Department of Sanitation",
    "final_address": "6220 Stratford Pl",
    "address_councildis": "C",
    "status": "Assigned to Contractor",
    "contractor": "Richards Disposal",
    "rowid": "978579",
    "final_x": "3707077.95505",
    "final_y": "516235.292596",
    "longitude": "-89.98787175992624",
    "latitude": "29.912666740363584",
    "geocoded_column": {
      "latitude": "29.912666740363584",
      "longitude": "-89.98787175992624"
    }
  },
  {
    "service_request": "2023-978578",
    "request_type": "Trash/Recycling",
    "request_reason": "Missed Trash Pick-Up",
    "date_created": "2023-02-27T16:22:06.000",
    "date_modified": "2023-02-27T16:25:36.000",
    "request_status": "Pending",
    "responsible_agency": "Department of Sanitation",
    "final_address": "2213 Leonidas St",
    "address_councildis": "A",
    "status": "Assigned to Contractor",
    "contractor": "Richards Disposal",
    "rowid": "978578",
    "final_x": "3663163.04781",
    "final_y": "532278.598339",
    "longitude": "-90.1259468506687",
    "latitude": "29.958125596902672",
    "geocoded_column": {
      "latitude": "29.958125596902672",
      "longitude": "-90.1259468506687"
    }
  },
  {
    "service_request": "2023-978577",
    "request_type": "Trash/Recycling",
    "request_reason": "Replace Trash Cart",
    "date_created": "2023-02-27T16:21:31.000",
    "date_modified": "2023-02-27T16:21:32.000",
    "request_status": "Pending",
    "responsible_agency": "Department of Sanitation",
    "final_address": "500 Pacific Ave",
    "address_councildis": "C",
    "status": "Assigned to Contractor",
    "contractor": "Richards Disposal",
    "rowid": "978577",
    "final_x": "3688542.18383",
    "final_y": "529859.865537",
    "longitude": "-90.04589260325965",
    "latitude": "29.950715187860883",
    "geocoded_column": {
      "latitude": "29.950715187860883",
      "longitude": "-90.04589260325965"
    }
  },
  {
    "service_request": "2023-978576",
    "request_type": "Trash/Recycling",
    "request_reason": "Illegal Dumping",
    "date_created": "2023-02-27T16:20:19.000",
    "date_modified": "2023-02-27T16:20:19.000",
    "request_status": "Pending",
    "responsible_agency": "Department of Sanitation",
    "final_address": "4200 BLK Martin Luther King, Jr. Blvd",
    "address_councildis": "B",
    "status": "Pending",
    "rowid": "978576",
    "final_x": "3670982.66587",
    "final_y": "530793.066154",
    "longitude": "-90.10130503827493",
    "latitude": "29.953811995472204",
    "geocoded_column": {
      "latitude": "29.953811995472204",
      "longitude": "-90.10130503827493"
    }
  },
  {
    "service_request": "2023-978575",
    "request_type": "Roads/Drainage",
    "request_reason": "Pothole",
    "date_created": "2023-02-27T16:19:39.000",
    "date_modified": "2023-02-27T16:19:39.000",
    "request_status": "Pending",
    "responsible_agency": "Department of Public Works",
    "final_address": "4111 Martin Luther King, Jr. Blvd",
    "address_councildis": "B",
    "status": "Pending",
    "rowid": "978575",
    "final_x": "3671321.67239",
    "final_y": "530605.387586",
    "longitude": "-90.10024097066365",
    "latitude": "29.95328591428227",
    "geocoded_column": {
      "latitude": "29.95328591428227",
      "longitude": "-90.10024097066365"
    }
  },
  {
    "service_request": "2023-978574",
    "request_type": "Trash/Recycling",
    "request_reason": "Illegal Dumping",
    "date_created": "2023-02-27T16:18:53.000",
    "date_modified": "2023-02-27T16:18:53.000",
    "request_status": "Pending",
    "responsible_agency": "Department of Sanitation",
    "final_address": "1400 BLK S White St",
    "address_councildis": "B",
    "status": "Pending",
    "rowid": "978574",
    "final_x": "3671473.9372",
    "final_y": "530625.311897",
    "longitude": "-90.09975950546176",
    "latitude": "29.95333619310279",
    "geocoded_column": {
      "latitude": "29.95333619310279",
      "longitude": "-90.09975950546176"
    }
  },
  {
    "service_request": "2023-978573",
    "request_type": "Trash/Recycling",
    "request_reason": "Request a Large Item Pick Up",
    "date_created": "2023-02-27T16:18:49.000",
    "date_modified": "2023-02-27T16:18:50.000",
    "request_status": "Pending",
    "responsible_agency": "Department of Sanitation",
    "final_address": "2748 Dumaine St",
    "address_councildis": "A",
    "status": "Assigned to Contractor",
    "contractor": "Richards Disposal",
    "rowid": "978573",
    "final_x": "3676772.18497",
    "final_y": "537768.0402",
    "longitude": "-90.08278375015925",
    "latitude": "29.972818379111843",
    "geocoded_column": {
      "latitude": "29.972818379111843",
      "longitude": "-90.08278375015925"
    }
  },
  {
    "service_request": "2023-978572",
    "request_type": "Trash/Recycling",
    "request_reason": "Illegal Dumping",
    "date_created": "2023-02-27T16:18:16.000",
    "date_modified": "2023-02-27T16:18:16.000",
    "request_status": "Pending",
    "responsible_agency": "Department of Sanitation",
    "final_address": "S WHITE ST & MARTIN LUTHER KING JR BLVD",
    "address_councildis": "B",
    "status": "Pending",
    "rowid": "978572",
    "final_x": "3671348.9",
    "final_y": "530431.78",
    "longitude": "-90.10016089696508",
    "latitude": "29.952807744964502",
    "geocoded_column": {
      "latitude": "29.952807744964502",
      "longitude": "-90.10016089696508"
    }
  },
  {
    "service_request": "2023-978571",
    "request_type": "Abandoned Vehicles",
    "request_reason": "Abandoned/Junk Vehicles",
    "date_created": "2023-02-27T16:16:05.000",
    "date_modified": "2023-02-27T16:17:38.000",
    "request_status": "Pending",
    "responsible_agency": "Department of Public Works",
    "final_address": "1200 N Dorgenois St",
    "address_councildis": "D",
    "status": "Pending",
    "rowid": "978571",
    "final_x": "3678382.99317",
    "final_y": "538076.906185",
    "longitude": "-90.07768582423859",
    "latitude": "29.97361921703122",
    "geocoded_column": {
      "latitude": "29.97361921703122",
      "longitude": "-90.07768582423859"
    }
  },
  {
    "service_request": "2023-978569",
    "request_type": "Trash/Recycling",
    "request_reason": "Request a Large Item Pick Up",
    "date_created": "2023-02-27T16:12:31.000",
    "date_modified": "2023-02-27T16:12:31.000",
    "request_status": "Pending",
    "responsible_agency": "Department of Sanitation",
    "final_address": "4765 Western St",
    "address_councildis": "D",
    "status": "Assigned to Contractor",
    "contractor": "IV Waste",
    "rowid": "978569",
    "final_x": "3684183.84405",
    "final_y": "550632.86818",
    "longitude": "-90.05892448955596",
    "latitude": "30.007967586326764",
    "geocoded_column": {
      "latitude": "30.007967586326764",
      "longitude": "-90.05892448955596"
    }
  },
  {
    "service_request": "2023-978568",
    "request_type": "Trash/Recycling",
    "request_reason": "Missed Trash Pick-Up",
    "date_created": "2023-02-27T16:11:49.000",
    "date_modified": "2023-02-27T16:11:50.000",
    "request_status": "Pending",
    "responsible_agency": "Department of Sanitation",
    "final_address": "2923 Hudson St",
    "address_councildis": "C",
    "status": "Assigned to Contractor",
    "contractor": "Richards Disposal",
    "rowid": "978568",
    "final_x": "3693997.31357",
    "final_y": "520299.51756",
    "longitude": "-90.02901178845543",
    "latitude": "29.92425784808203",
    "geocoded_column": {
      "latitude": "29.92425784808203",
      "longitude": "-90.02901178845543"
    }
  },
  {
    "service_request": "2023-978567",
    "request_type": "Trash/Recycling",
    "request_reason": "Replace Trash Cart",
    "date_created": "2023-02-27T16:11:30.000",
    "date_modified": "2023-02-27T16:30:15.000",
    "request_status": "Pending",
    "responsible_agency": "Department of Sanitation",
    "final_address": "3628 Frenchmen St",
    "address_councildis": "D",
    "status": "Assigned to Contractor",
    "contractor": "IV Waste",
    "rowid": "978567",
    "final_x": "3683754.12297",
    "final_y": "546044.562896",
    "longitude": "-90.06044313711568",
    "latitude": "29.995364531200448",
    "geocoded_column": {
      "latitude": "29.995364531200448",
      "longitude": "-90.06044313711568"
    }
  },
  {
    "service_request": "2023-978566",
    "request_type": "Trash/Recycling",
    "request_reason": "MIssed Recycling Pick-Up",
    "date_created": "2023-02-27T16:11:16.000",
    "date_modified": "2023-02-27T16:11:17.000",
    "request_status": "Pending",
    "responsible_agency": "Department of Sanitation",
    "final_address": "3017 Hollygrove St",
    "address_councildis": "A",
    "status": "Assigned to Contractor",
    "contractor": "Richards Disposal",
    "rowid": "978566",
    "final_x": "3664086.72653",
    "final_y": "535376.002182",
    "longitude": "-90.1229267970931",
    "latitude": "29.966615648541083",
    "geocoded_column": {
      "latitude": "29.966615648541083",
      "longitude": "-90.1229267970931"
    }
  },
  {
    "service_request": "2023-978565",
    "request_type": "Trash/Recycling",
    "request_reason": "Repair Trash Cart",
    "date_created": "2023-02-27T16:10:31.000",
    "date_modified": "2023-02-27T16:10:32.000",
    "request_status": "Pending",
    "responsible_agency": "Department of Sanitation",
    "final_address": "3628 Frenchmen St",
    "address_councildis": "D",
    "status": "Assigned to Contractor",
    "contractor": "IV Waste",
    "rowid": "978565",
    "final_x": "3683754.12297",
    "final_y": "546044.562896",
    "longitude": "-90.06044313711568",
    "latitude": "29.995364531200448",
    "geocoded_column": {
      "latitude": "29.995364531200448",
      "longitude": "-90.06044313711568"
    }
  },
  {
    "service_request": "2023-978564",
    "request_type": "Trash/Recycling",
    "request_reason": "Missed Trash Pick-Up",
    "date_created": "2023-02-27T16:09:56.000",
    "date_modified": "2023-02-27T16:09:57.000",
    "request_status": "Pending",
    "responsible_agency": "Department of Sanitation",
    "final_address": "8440 Beechwood Ct",
    "address_councildis": "E",
    "status": "Assigned to Contractor",
    "contractor": "Waste Pro",
    "rowid": "978564",
    "final_x": "3704387.11473",
    "final_y": "560686.28003",
    "longitude": "-89.99472572646263",
    "latitude": "30.03497726981938",
    "geocoded_column": {
      "latitude": "30.03497726981938",
      "longitude": "-89.99472572646263"
    }
  },
  {
    "service_request": "2023-978563",
    "request_type": "Roads/Drainage",
    "request_reason": "Catch Basin - Clogged",
    "date_created": "2023-02-27T16:09:24.000",
    "date_modified": "2023-02-27T16:09:24.000",
    "request_status": "Pending",
    "responsible_agency": "Department of Public Works",
    "final_address": "2473 Leon C Simon Dr",
    "address_councildis": "D",
    "status": "Pending",
    "rowid": "978563",
    "final_x": "3685286.45007",
    "final_y": "557264.421083",
    "longitude": "-90.05520733346636",
    "latitude": "30.026168154381864",
    "geocoded_column": {
      "latitude": "30.026168154381864",
      "longitude": "-90.05520733346636"
    }
  },
  {
    "service_request": "2023-978562",
    "request_type": "Trash/Recycling",
    "request_reason": "Order Trash Cart",
    "date_created": "2023-02-27T16:08:15.000",
    "date_modified": "2023-02-27T16:08:16.000",
    "request_status": "Pending",
    "responsible_agency": "Department of Sanitation",
    "final_address": "1927 Piety St",
    "address_councildis": "D",
    "status": "Assigned to Contractor",
    "contractor": "IV Waste",
    "rowid": "978562",
    "final_x": "3690678.68496",
    "final_y": "539030.827594",
    "longitude": "-90.03881950534543",
    "latitude": "29.975865945597917",
    "geocoded_column": {
      "latitude": "29.975865945597917",
      "longitude": "-90.03881950534543"
    }
  },
  {
    "service_request": "2023-978561",
    "request_type": "Trash/Recycling",
    "request_reason": "Repair Trash Cart",
    "date_created": "2023-02-27T16:07:38.000",
    "date_modified": "2023-02-27T16:07:39.000",
    "request_status": "Pending",
    "responsible_agency": "Department of Sanitation",
    "final_address": "4371 Trieste St",
    "address_councildis": "E",
    "status": "Assigned to Contractor",
    "contractor": "Waste Pro",
    "rowid": "978561",
    "final_x": "3760284.12464",
    "final_y": "573839.504874",
    "longitude": "-89.81753727046852",
    "latitude": "30.069228707413743",
    "geocoded_column": {
      "latitude": "30.069228707413743",
      "longitude": "-89.81753727046852"
    }
  },
  {
    "service_request": "2023-978560",
    "request_type": "Trash/Recycling",
    "request_reason": "Missed Trash Pick-Up",
    "date_created": "2023-02-27T16:03:35.000",
    "date_modified": "2023-02-27T16:03:36.000",
    "request_status": "Pending",
    "responsible_agency": "Department of Sanitation",
    "final_address": "3225 Bringier St",
    "address_councildis": "C",
    "status": "Assigned to Contractor",
    "contractor": "Richards Disposal",
    "rowid": "978560",
    "final_x": "3696105.25219",
    "final_y": "525078.940157",
    "longitude": "-90.02218515998094",
    "latitude": "29.937333477933628",
    "geocoded_column": {
      "latitude": "29.937333477933628",
      "longitude": "-90.02218515998094"
    }
  },
  {
    "service_request": "2023-978558",
    "request_type": "Trash/Recycling",
    "request_reason": "Replace Trash Cart",
    "date_created": "2023-02-27T16:00:53.000",
    "date_modified": "2023-02-27T16:00:54.000",
    "request_status": "Pending",
    "responsible_agency": "Department of Sanitation",
    "final_address": "7391 Read Blvd",
    "address_councildis": "E",
    "status": "Assigned to Contractor",
    "contractor": "Waste Pro",
    "rowid": "978558",
    "final_x": "3709177.94801",
    "final_y": "563659.261921",
    "longitude": "-89.97947507833713",
    "latitude": "30.042997025592914",
    "geocoded_column": {
      "latitude": "30.042997025592914",
      "longitude": "-89.97947507833713"
    }
  },
  {
    "service_request": "2023-978557",
    "request_type": "Trash/Recycling",
    "request_reason": "Dead Animal Pick Up",
    "date_created": "2023-02-27T16:00:23.000",
    "date_modified": "2023-02-27T16:44:58.000",
    "request_status": "Pending",
    "responsible_agency": "Department of Sanitation",
    "final_address": "New Orleans,LA",
    "address_councildis": "B",
    "status": "Assigned to Contractor",
    "contractor": "Richards Disposal",
    "rowid": "978557",
    "final_x": "3668659.47118",
    "final_y": "524662.953276",
    "longitude": "-90.1088475991735",
    "latitude": "29.937024656140526",
    "geocoded_column": {
      "latitude": "29.937024656140526",
      "longitude": "-90.1088475991735"
    }
  },
  {
    "service_request": "2023-978556",
    "request_type": "Trash/Recycling",
    "request_reason": "Order Trash Cart",
    "date_created": "2023-02-27T15:59:03.000",
    "date_modified": "2023-02-27T16:40:44.000",
    "request_status": "Pending",
    "responsible_agency": "Department of Sanitation",
    "final_address": "10 Swan St",
    "address_councildis": "D",
    "status": "Assigned to Contractor",
    "contractor": "IV Waste",
    "rowid": "978556",
    "final_x": "3672806.6379",
    "final_y": "557751.503067",
    "longitude": "-90.0946254509773",
    "latitude": "30.027884314085124",
    "geocoded_column": {
      "latitude": "30.027884314085124",
      "longitude": "-90.0946254509773"
    }
  },
  {
    "service_request": "2023-978554",
    "request_type": "Abandoned Vehicles",
    "request_reason": "Abandoned/Junk Vehicles",
    "date_created": "2023-02-27T15:55:33.000",
    "date_modified": "2023-02-27T15:56:42.000",
    "request_status": "Pending",
    "responsible_agency": "Department of Public Works",
    "final_address": "1620 Mirabeau Ave",
    "address_councildis": "D",
    "status": "Pending",
    "rowid": "978554",
    "final_x": "3680190.18895",
    "final_y": "550277.587156",
    "longitude": "-90.07155400468623",
    "latitude": "30.007112218981938",
    "geocoded_column": {
      "latitude": "30.007112218981938",
      "longitude": "-90.07155400468623"
    }
  },
  {
    "service_request": "2023-978553",
    "request_type": "Trash/Recycling",
    "request_reason": "Request a Large Item Pick Up",
    "date_created": "2023-02-27T15:49:24.000",
    "date_modified": "2023-02-27T15:49:25.000",
    "request_status": "Pending",
    "responsible_agency": "Department of Sanitation",
    "final_address": "7606 Jonlee Dr",
    "address_councildis": "E",
    "status": "Assigned to Contractor",
    "contractor": "Waste Pro",
    "rowid": "978553",
    "final_x": "3717150.20856",
    "final_y": "570322.692647",
    "longitude": "-89.95402626336173",
    "latitude": "30.06105730856802",
    "geocoded_column": {
      "latitude": "30.06105730856802",
      "longitude": "-89.95402626336173"
    }
  },
  {
    "service_request": "2023-978552",
    "request_type": "Roads/Drainage",
    "request_reason": "Debris in Roadway",
    "date_created": "2023-02-27T15:48:12.000",
    "date_modified": "2023-02-27T15:48:12.000",
    "request_status": "Pending",
    "responsible_agency": "Department of Public Works",
    "final_address": "ST CLAUDE AVE & ST BERNARD AVE",
    "address_councildis": "C",
    "status": "Pending",
    "rowid": "978552",
    "final_x": "3683078.0",
    "final_y": "536131.18",
    "longitude": "-90.06292613836104",
    "latitude": "29.96812684071733",
    "geocoded_column": {
      "latitude": "29.96812684071733",
      "longitude": "-90.06292613836104"
    }
  },
  {
    "service_request": "2023-978551",
    "request_type": "Trash/Recycling",
    "request_reason": "MIssed Recycling Pick-Up",
    "date_created": "2023-02-27T15:47:44.000",
    "date_modified": "2023-02-27T15:47:44.000",
    "request_status": "Pending",
    "responsible_agency": "Department of Sanitation",
    "final_address": "2643 Jefferson Ave",
    "address_councildis": "B",
    "status": "Assigned to Contractor",
    "contractor": "Richards Disposal",
    "rowid": "978551",
    "final_x": "3668294.60948",
    "final_y": "525221.917117",
    "longitude": "-90.10998065101649",
    "latitude": "29.938572343002797",
    "geocoded_column": {
      "latitude": "29.938572343002797",
      "longitude": "-90.10998065101649"
    }
  },
  {
    "service_request": "2023-978550",
    "request_type": "Trash/Recycling",
    "request_reason": "Missed Trash Pick-Up",
    "date_created": "2023-02-27T15:47:14.000",
    "date_modified": "2023-02-27T15:47:15.000",
    "request_status": "Pending",
    "responsible_agency": "Department of Sanitation",
    "final_address": "2643 Jefferson Ave",
    "address_councildis": "B",
    "status": "Assigned to Contractor",
    "contractor": "Richards Disposal",
    "rowid": "978550",
    "final_x": "3668294.60948",
    "final_y": "525221.917117",
    "longitude": "-90.10998065101649",
    "latitude": "29.938572343002797",
    "geocoded_column": {
      "latitude": "29.938572343002797",
      "longitude": "-90.10998065101649"
    }
  },
  {
    "service_request": "2023-978549",
    "request_type": "Property Maintenance",
    "request_reason": "Property Maintenance",
    "date_created": "2023-02-27T15:47:01.000",
    "date_modified": "2023-02-27T15:47:01.000",
    "request_status": "Pending",
    "responsible_agency": "Department of Code Enforcement",
    "final_address": "5226 Wildair Dr",
    "address_councildis": "D",
    "status": "Pending",
    "rowid": "978549",
    "final_x": "3681537.47176",
    "final_y": "551780.212886",
    "longitude": "-90.06724511832155",
    "latitude": "30.01120303486813",
    "geocoded_column": {
      "latitude": "30.01120303486813",
      "longitude": "-90.06724511832155"
    }
  },
  {
    "service_request": "2023-978548",
    "request_type": "Tax and Revenue",
    "request_reason": "General Tax Question",
    "date_created": "2023-02-27T15:45:28.000",
    "date_modified": "2023-02-27T15:45:28.000",
    "request_status": "Pending",
    "responsible_agency": "Bureau of Revenue",
    "final_address": "111 Iberville St",
    "address_councildis": "C",
    "status": "Pending",
    "rowid": "978548",
    "final_x": "3682510.40828",
    "final_y": "530267.007105",
    "longitude": "-90.06492361644493",
    "latitude": "29.95201966033352",
    "geocoded_column": {
      "latitude": "29.95201966033352",
      "longitude": "-90.06492361644493"
    }
  },
  {
    "service_request": "2023-978547",
    "request_type": "Trash/Recycling",
    "request_reason": "Request a Large Item Pick Up",
    "date_created": "2023-02-27T15:43:26.000",
    "date_modified": "2023-02-27T15:43:26.000",
    "request_status": "Pending",
    "responsible_agency": "Department of Sanitation",
    "final_address": "608 Olivier St",
    "address_councildis": "C",
    "status": "Assigned to Contractor",
    "contractor": "Richards Disposal",
    "rowid": "978547",
    "final_x": "3687332.66895",
    "final_y": "529406.840257",
    "longitude": "-90.04972764729848",
    "latitude": "29.949506835297015",
    "geocoded_column": {
      "latitude": "29.949506835297015",
      "longitude": "-90.04972764729848"
    }
  },
  {
    "service_request": "2023-978546",
    "request_type": "Roads/Drainage",
    "request_reason": "Pothole",
    "date_created": "2023-02-27T15:37:11.000",
    "date_modified": "2023-02-27T15:37:11.000",
    "request_status": "Pending",
    "responsible_agency": "Department of Public Works",
    "final_address": "NASHVILLE AVE & S CLAIBORNE AVE",
    "address_councildis": "A",
    "status": "Pending",
    "rowid": "978546",
    "final_x": "3667687.8",
    "final_y": "526816.48",
    "longitude": "-90.1118427528031",
    "latitude": "29.94297467722136",
    "geocoded_column": {
      "latitude": "29.94297467722136",
      "longitude": "-90.1118427528031"
    }
  },
  {
    "service_request": "2023-978545",
    "request_type": "Trash/Recycling",
    "request_reason": "Request a Large Item Pick Up",
    "date_created": "2023-02-27T15:33:18.000",
    "date_modified": "2023-02-27T15:33:19.000",
    "request_status": "Pending",
    "responsible_agency": "Department of Sanitation",
    "final_address": "8125 Cohn St",
    "address_councildis": "A",
    "status": "Assigned to Contractor",
    "contractor": "Richards Disposal",
    "rowid": "978545",
    "final_x": "3663505.05543",
    "final_y": "530363.416834",
    "longitude": "-90.12493065845379",
    "latitude": "29.952849555351897",
    "geocoded_column": {
      "latitude": "29.952849555351897",
      "longitude": "-90.12493065845379"
    }
  },
  {
    "service_request": "2023-978544",
    "request_type": "Trash/Recycling",
    "request_reason": "Replace Trash Cart",
    "date_created": "2023-02-27T15:31:59.000",
    "date_modified": "2023-02-27T15:31:59.000",
    "request_status": "Pending",
    "responsible_agency": "Department of Sanitation",
    "final_address": "2621 Joliet St",
    "address_councildis": "A",
    "status": "Assigned to Contractor",
    "contractor": "Richards Disposal",
    "rowid": "978544",
    "final_x": "3664452.79712",
    "final_y": "533172.96666",
    "longitude": "-90.12184430185675",
    "latitude": "29.96054738601903",
    "geocoded_column": {
      "latitude": "29.96054738601903",
      "longitude": "-90.12184430185675"
    }
  },
  {
    "service_request": "2023-978543",
    "request_type": "Roads/Drainage",
    "request_reason": "Pothole",
    "date_created": "2023-02-27T15:31:30.000",
    "date_modified": "2023-02-27T15:31:31.000",
    "request_status": "Pending",
    "responsible_agency": "Department of Public Works",
    "final_address": "339 Burgundy St",
    "address_councildis": "C",
    "status": "Pending",
    "rowid": "978543",
    "final_x": "3680979.80392",
    "final_y": "532220.034243",
    "longitude": "-90.06968853542008",
    "latitude": "29.957436323786073",
    "geocoded_column": {
      "latitude": "29.957436323786073",
      "longitude": "-90.06968853542008"
    }
  },
  {
    "service_request": "2023-978542",
    "request_type": "Trash/Recycling",
    "request_reason": "Request a Large Item Pick Up",
    "date_created": "2023-02-27T15:29:07.000",
    "date_modified": "2023-02-27T15:29:08.000",
    "request_status": "Pending",
    "responsible_agency": "Department of Sanitation",
    "final_address": "1801 Flanders St",
    "address_councildis": "C",
    "status": "Assigned to Contractor",
    "contractor": "Richards Disposal",
    "rowid": "978542",
    "final_x": "3696604.29328",
    "final_y": "524642.419836",
    "longitude": "-90.02062545127312",
    "latitude": "29.936117486584152",
    "geocoded_column": {
      "latitude": "29.936117486584152",
      "longitude": "-90.02062545127312"
    }
  },
  {
    "service_request": "2023-978541",
    "request_type": "Roads/Drainage",
    "request_reason": "Street Flooding / Drainage",
    "date_created": "2023-02-27T15:28:02.000",
    "date_modified": "2023-02-27T15:28:02.000",
    "request_status": "Pending",
    "responsible_agency": "Department of Public Works",
    "final_address": "1545 N Dorgenois St",
    "address_councildis": "D",
    "status": "Pending",
    "rowid": "978541",
    "final_x": "3679324.51663",
    "final_y": "539558.329546",
    "longitude": "-90.07466089867779",
    "latitude": "29.9776642167759",
    "geocoded_column": {
      "latitude": "29.9776642167759",
      "longitude": "-90.07466089867779"
    }
  },
  {
    "service_request": "2023-978540",
    "request_type": "Trash/Recycling",
    "request_reason": "Missed Trash Pick-Up",
    "date_created": "2023-02-27T15:27:13.000",
    "date_modified": "2023-02-27T15:27:13.000",
    "request_status": "Pending",
    "responsible_agency": "Department of Sanitation",
    "final_address": "1801 Flanders St",
    "address_councildis": "C",
    "status": "Assigned to Contractor",
    "contractor": "Richards Disposal",
    "rowid": "978540",
    "final_x": "3696604.29328",
    "final_y": "524642.419836",
    "longitude": "-90.02062545127312",
    "latitude": "29.936117486584152",
    "geocoded_column": {
      "latitude": "29.936117486584152",
      "longitude": "-90.02062545127312"
    }
  },
  {
    "service_request": "2023-978539",
    "request_type": "Trash/Recycling",
    "request_reason": "Request a Large Item Pick Up",
    "date_created": "2023-02-27T15:22:36.000",
    "date_modified": "2023-02-27T15:22:37.000",
    "request_status": "Pending",
    "responsible_agency": "Department of Sanitation",
    "final_address": "2311 Octavia St",
    "address_councildis": "A",
    "status": "Assigned to Contractor",
    "contractor": "Richards Disposal",
    "rowid": "978539",
    "final_x": "3667673.35738",
    "final_y": "524169.378172",
    "longitude": "-90.11197743534515",
    "latitude": "29.935696421926075",
    "geocoded_column": {
      "latitude": "29.935696421926075",
      "longitude": "-90.11197743534515"
    }
  },
  {
    "service_request": "2023-978538",
    "request_type": "Trash/Recycling",
    "request_reason": "Request a Large Item Pick Up",
    "date_created": "2023-02-27T15:17:09.000",
    "date_modified": "2023-02-27T15:17:10.000",
    "request_status": "Pending",
    "responsible_agency": "Department of Sanitation",
    "final_address": "4916 Baronne St",
    "address_councildis": "B",
    "status": "Assigned to Contractor",
    "contractor": "Richards Disposal",
    "rowid": "978538",
    "final_x": "3668936.39834",
    "final_y": "521391.117817",
    "longitude": "-90.10808377428931",
    "latitude": "29.92802001600356",
    "geocoded_column": {
      "latitude": "29.92802001600356",
      "longitude": "-90.10808377428931"
    }
  },
  {
    "service_request": "2023-978537",
    "request_type": "Traffic Signals/Signs/Striping/Streetlights",
    "request_reason": "Striping/Road Surface Markings",
    "date_created": "2023-02-27T15:17:00.000",
    "date_modified": "2023-02-27T15:17:00.000",
    "request_status": "Pending",
    "responsible_agency": "Department of Public Works",
    "final_address": "8300 Earhart Blvd",
    "address_councildis": "A",
    "status": "Pending",
    "rowid": "978537",
    "final_x": "3665736.89562",
    "final_y": "533855.513669",
    "longitude": "-90.11776649462983",
    "latitude": "29.96238677231319",
    "geocoded_column": {
      "latitude": "29.96238677231319",
      "longitude": "-90.11776649462983"
    }
  },
  {
    "service_request": "2023-978536",
    "request_type": "Trash/Recycling",
    "request_reason": "Request a Large Item Pick Up",
    "date_created": "2023-02-27T15:15:43.000",
    "date_modified": "2023-02-27T15:17:36.000",
    "request_status": "Pending",
    "responsible_agency": "Department of Sanitation",
    "final_address": "108 Portage Pl",
    "address_councildis": "D",
    "status": "Assigned to Contractor",
    "contractor": "IV Waste",
    "rowid": "978536",
    "final_x": "3677882.52462",
    "final_y": "544415.600015",
    "longitude": "-90.07904727533398",
    "latitude": "29.99106349803686",
    "geocoded_column": {
      "latitude": "29.99106349803686",
      "longitude": "-90.07904727533398"
    }
  },
  {
    "service_request": "2023-978535",
    "request_type": "Trash/Recycling",
    "request_reason": "Replace Trash Cart",
    "date_created": "2023-02-27T15:12:53.000",
    "date_modified": "2023-02-27T15:12:53.000",
    "request_status": "Pending",
    "responsible_agency": "Department of Sanitation",
    "final_address": "4407 Lonely Oak Dr",
    "address_councildis": "E",
    "status": "Assigned to Contractor",
    "contractor": "Waste Pro",
    "rowid": "978535",
    "final_x": "3702515.00119",
    "final_y": "552924.406807",
    "longitude": "-90.00092708035764",
    "latitude": "30.013695114211068",
    "geocoded_column": {
      "latitude": "30.013695114211068",
      "longitude": "-90.00092708035764"
    }
  },
  {
    "service_request": "2023-978534",
    "request_type": "Trash/Recycling",
    "request_reason": "Missed Trash Pick-Up",
    "date_created": "2023-02-27T15:09:18.000",
    "date_modified": "2023-02-27T15:09:19.000",
    "request_status": "Pending",
    "responsible_agency": "Department of Sanitation",
    "final_address": "2626 St Nick Dr",
    "address_councildis": "C",
    "status": "Assigned to Contractor",
    "contractor": "Richards Disposal",
    "rowid": "978534",
    "final_x": "3699385.42084",
    "final_y": "521235.026681",
    "longitude": "-90.01196946197649",
    "latitude": "29.92666043105982",
    "geocoded_column": {
      "latitude": "29.92666043105982",
      "longitude": "-90.01196946197649"
    }
  },
  {
    "service_request": "2023-978533",
    "request_type": "Trash/Recycling",
    "request_reason": "Order Recycling Cart",
    "date_created": "2023-02-27T15:09:06.000",
    "date_modified": "2023-02-27T15:09:06.000",
    "request_status": "Pending",
    "responsible_agency": "Department of Sanitation",
    "final_address": "5012 Perrier St",
    "address_councildis": "B",
    "status": "Pending",
    "rowid": "978533",
    "final_x": "3668540.08628",
    "final_y": "519856.046712",
    "longitude": "-90.10938660652499",
    "latitude": "29.923810704330485",
    "geocoded_column": {
      "latitude": "29.923810704330485",
      "longitude": "-90.10938660652499"
    }
  },
  {
    "service_request": "2023-978532",
    "request_type": "Trash/Recycling",
    "request_reason": "Request a Large Item Pick Up",
    "date_created": "2023-02-27T15:07:18.000",
    "date_modified": "2023-02-27T15:07:35.000",
    "request_status": "Pending",
    "responsible_agency": "Department of Sanitation",
    "final_address": "3513 Broadway St",
    "address_councildis": "B",
    "status": "Assigned to Contractor",
    "contractor": "Richards Disposal",
    "rowid": "978532",
    "final_x": "3668835.32078",
    "final_y": "533360.641348",
    "longitude": "-90.10799878929707",
    "latitude": "29.960935292885985",
    "geocoded_column": {
      "latitude": "29.960935292885985",
      "longitude": "-90.10799878929707"
    }
  },
  {
    "service_request": "2023-978531",
    "request_type": "Roads/Drainage",
    "request_reason": "Street Flooding / Drainage",
    "date_created": "2023-02-27T15:05:59.000",
    "date_modified": "2023-02-27T15:05:59.000",
    "request_status": "Pending",
    "responsible_agency": "Department of Public Works",
    "final_address": "2515 Laharpe St",
    "address_councildis": "D",
    "status": "Pending",
    "rowid": "978531",
    "final_x": "3679234.23317",
    "final_y": "539618.349002",
    "longitude": "-90.07494396285878",
    "latitude": "29.977831976143964",
    "geocoded_column": {
      "latitude": "29.977831976143964",
      "longitude": "-90.07494396285878"
    }
  },
  {
    "service_request": "2023-978530",
    "request_type": "Traffic Signals/Signs/Striping/Streetlights",
    "request_reason": "Traffic Sign Missing/Damaged",
    "date_created": "2023-02-27T15:05:17.000",
    "date_modified": "2023-02-27T15:05:18.000",
    "request_status": "Pending",
    "responsible_agency": "Department of Public Works",
    "final_address": "EARHART BLVD & WASHINGTON AVE",
    "address_councildis": "B",
    "status": "Pending",
    "rowid": "978530",
    "final_x": "3670169.7",
    "final_y": "531931.18",
    "longitude": "-90.10383349459518",
    "latitude": "29.95696544353101",
    "geocoded_column": {
      "latitude": "29.95696544353101",
      "longitude": "-90.10383349459518"
    }
  },
  {
    "service_request": "2023-978529",
    "request_type": "Trash/Recycling",
    "request_reason": "Order Trash Cart",
    "date_created": "2023-02-27T15:00:50.000",
    "date_modified": "2023-02-27T15:00:50.000",
    "request_status": "Pending",
    "responsible_agency": "Department of Sanitation",
    "final_address": "2114 First St",
    "address_councildis": "B",
    "status": "Assigned to Contractor",
    "contractor": "Richards Disposal",
    "rowid": "978529",
    "final_x": "3675863.29819",
    "final_y": "524796.660412",
    "longitude": "-90.08610009924051",
    "latitude": "29.937178664188522",
    "geocoded_column": {
      "latitude": "29.937178664188522",
      "longitude": "-90.08610009924051"
    }
  },
  {
    "service_request": "2023-978528",
    "request_type": "Trash/Recycling",
    "request_reason": "Missed Trash Pick-Up",
    "date_created": "2023-02-27T14:59:53.000",
    "date_modified": "2023-02-27T14:59:53.000",
    "request_status": "Pending",
    "responsible_agency": "Department of Sanitation",
    "final_address": "2031 Simon Bolivar Ave",
    "address_councildis": "B",
    "status": "Assigned to Contractor",
    "contractor": "Richards Disposal",
    "rowid": "978528",
    "final_x": "3676485.40161",
    "final_y": "525861.607229",
    "longitude": "-90.08409942476875",
    "latitude": "29.94008828392248",
    "geocoded_column": {
      "latitude": "29.94008828392248",
      "longitude": "-90.08409942476875"
    }
  },
  {
    "service_request": "2023-978527",
    "request_type": "Roads/Drainage",
    "request_reason": "Pothole",
    "date_created": "2023-02-27T14:59:43.000",
    "date_modified": "2023-02-27T14:59:43.000",
    "request_status": "Pending",
    "responsible_agency": "Department of Public Works",
    "final_address": "DREUX AVE & SPAIN ST",
    "address_councildis": "D",
    "status": "Pending",
    "rowid": "978527",
    "final_x": "3684857.3",
    "final_y": "552081.68",
    "longitude": "-90.05674584795771",
    "latitude": "30.011930678871675",
    "geocoded_column": {
      "latitude": "30.011930678871675",
      "longitude": "-90.05674584795771"
    }
  },
  {
    "service_request": "2023-978525",
    "request_type": "Roads/Drainage",
    "request_reason": "Pothole",
    "date_created": "2023-02-27T14:57:35.000",
    "date_modified": "2023-02-27T14:57:35.000",
    "request_status": "Pending",
    "responsible_agency": "Department of Public Works",
    "final_address": "5133 Venus St",
    "address_councildis": "D",
    "status": "Pending",
    "rowid": "978525",
    "final_x": "3686478.4191",
    "final_y": "551812.92527",
    "longitude": "-90.05163355042636",
    "latitude": "30.01114194095873",
    "geocoded_column": {
      "latitude": "30.01114194095873",
      "longitude": "-90.05163355042636"
    }
  },
  {
    "service_request": "2023-978524",
    "request_type": "Trash/Recycling",
    "request_reason": "Missed Trash Pick-Up",
    "date_created": "2023-02-27T14:56:50.000",
    "date_modified": "2023-02-27T14:56:50.000",
    "request_status": "Pending",
    "responsible_agency": "Department of Sanitation",
    "final_address": "8419 Beechwood Ct",
    "address_councildis": "E",
    "status": "Assigned to Contractor",
    "contractor": "Waste Pro",
    "rowid": "978524",
    "final_x": "3704155.51671",
    "final_y": "560668.513054",
    "longitude": "-89.99545826237454",
    "latitude": "30.03493585494704",
    "geocoded_column": {
      "latitude": "30.03493585494704",
      "longitude": "-89.99545826237454"
    }
  },
  {
    "service_request": "2023-978523",
    "request_type": "Roads/Drainage",
    "request_reason": "Pothole",
    "date_created": "2023-02-27T14:54:58.000",
    "date_modified": "2023-02-27T14:54:58.000",
    "request_status": "Pending",
    "responsible_agency": "Department of Public Works",
    "final_address": "VENUS ST & SELMA ST",
    "address_councildis": "D",
    "status": "Pending",
    "rowid": "978523",
    "final_x": "3686411.3",
    "final_y": "551560.18",
    "longitude": "-90.05185453663218",
    "latitude": "30.010449048077184",
    "geocoded_column": {
      "latitude": "30.010449048077184",
      "longitude": "-90.05185453663218"
    }
  },
  {
    "service_request": "2023-978522",
    "request_type": "Trash/Recycling",
    "request_reason": "Order Trash Cart",
    "date_created": "2023-02-27T14:54:46.000",
    "date_modified": "2023-02-27T14:54:46.000",
    "request_status": "Pending",
    "responsible_agency": "Department of Sanitation",
    "final_address": "5222 Wildair Dr",
    "address_councildis": "D",
    "status": "Assigned to Contractor",
    "contractor": "IV Waste",
    "rowid": "978522",
    "final_x": "3681542.31554",
    "final_y": "551720.519765",
    "longitude": "-90.06723189876126",
    "latitude": "30.01103875321425",
    "geocoded_column": {
      "latitude": "30.01103875321425",
      "longitude": "-90.06723189876126"
    }
  },
  {
    "service_request": "2023-978521",
    "request_type": "Mosquito, Termite & Rodent Control",
    "request_reason": "Rodent Complaint (Rats)",
    "date_created": "2023-02-27T14:54:15.000",
    "date_modified": "2023-02-27T14:54:15.000",
    "request_status": "Pending",
    "responsible_agency": "Mosquito, Termite & Rodent Control Board",
    "final_address": "2317 N Claiborne Ave",
    "address_councildis": "D",
    "status": "Pending",
    "rowid": "978521",
    "final_x": "3685766.82031",
    "final_y": "538250.010313",
    "longitude": "-90.05436006636566",
    "latitude": "29.973870640528183",
    "geocoded_column": {
      "latitude": "29.973870640528183",
      "longitude": "-90.05436006636566"
    }
  },
  {
    "service_request": "2023-978520",
    "request_type": "Trash/Recycling",
    "request_reason": "Replace Trash Cart",
    "date_created": "2023-02-27T14:52:24.000",
    "date_modified": "2023-02-27T14:52:25.000",
    "request_status": "Pending",
    "responsible_agency": "Department of Sanitation",
    "final_address": "2836 Law St",
    "address_councildis": "D",
    "status": "Assigned to Contractor",
    "contractor": "IV Waste",
    "rowid": "978520",
    "final_x": "3688148.88201",
    "final_y": "541982.318668",
    "longitude": "-90.0467046512173",
    "latitude": "29.984059844020678",
    "geocoded_column": {
      "latitude": "29.984059844020678",
      "longitude": "-90.0467046512173"
    }
  },
  {
    "service_request": "2023-978519",
    "request_type": "Trash/Recycling",
    "request_reason": "Missed Trash Pick-Up",
    "date_created": "2023-02-27T14:51:34.000",
    "date_modified": "2023-02-27T14:51:35.000",
    "request_status": "Pending",
    "responsible_agency": "Department of Sanitation",
    "final_address": "7724 Vincent Rd",
    "address_councildis": "E",
    "status": "Assigned to Contractor",
    "contractor": "Waste Pro",
    "rowid": "978519",
    "final_x": "3717991.40517",
    "final_y": "572021.8506",
    "longitude": "-89.95130250650108",
    "latitude": "30.065701414732306",
    "geocoded_column": {
      "latitude": "30.065701414732306",
      "longitude": "-89.95130250650108"
    }
  },
  {
    "service_request": "2023-978518",
    "request_type": "Traffic Signals/Signs/Striping/Streetlights",
    "request_reason": "Traffic Sign Missing/Damaged",
    "date_created": "2023-02-27T14:51:07.000",
    "date_modified": "2023-02-27T14:51:07.000",
    "request_status": "Pending",
    "responsible_agency": "Department of Public Works",
    "final_address": "4900 BLK Marigny St",
    "address_councildis": "D",
    "status": "Pending",
    "rowid": "978518",
    "final_x": "3684356.44654",
    "final_y": "551067.460317",
    "longitude": "-90.05836390982628",
    "latitude": "30.009157277351648",
    "geocoded_column": {
      "latitude": "30.009157277351648",
      "longitude": "-90.05836390982628"
    }
  },
  {
    "service_request": "2023-978517",
    "request_type": "Traffic Signals/Signs/Striping/Streetlights",
    "request_reason": "Traffic Sign Missing/Damaged",
    "date_created": "2023-02-27T14:48:55.000",
    "date_modified": "2023-02-27T14:48:55.000",
    "request_status": "Pending",
    "responsible_agency": "Department of Public Works",
    "final_address": "MARIGNY ST & DREUX AVE",
    "address_councildis": "D",
    "status": "Pending",
    "rowid": "978517",
    "final_x": "3684281.8",
    "final_y": "552031.38",
    "longitude": "-90.05856586314636",
    "latitude": "30.01180998944286",
    "geocoded_column": {
      "latitude": "30.01180998944286",
      "longitude": "-90.05856586314636"
    }
  },
  {
    "service_request": "2023-978516",
    "request_type": "Roads/Drainage",
    "request_reason": "Street Flooding / Drainage",
    "date_created": "2023-02-27T14:48:31.000",
    "date_modified": "2023-02-27T14:48:31.000",
    "request_status": "Pending",
    "responsible_agency": "Department of Public Works",
    "final_address": "1545 N Dorgenois St",
    "address_councildis": "D",
    "status": "Pending",
    "rowid": "978516",
    "final_x": "3679324.51663",
    "final_y": "539558.329546",
    "longitude": "-90.07466089867779",
    "latitude": "29.9776642167759",
    "geocoded_column": {
      "latitude": "29.9776642167759",
      "longitude": "-90.07466089867779"
    }
  },