[
  {
    "service_request": "2023-996917",
    "request_type": "Health Related Request",
    "request_reason": "Noise Ordinance Complaint",
    "date_created": "2023-05-05T00:14:01.000",
    "date_modified": "2023-05-05T00:14:01.000",
    "request_status": "Pending",
    "responsible_agency": "Health Department",
    "final_address": "600 BLK N Broad St",
    "address_councildis": "A",
    "status": "Pending",
    "rowid": "996917",
    "final_x": "3676359.9435",
    "final_y": "536531.150807",
    "longitude": "-90.08412827453832",
    "latitude": "29.969429719559482",
    "geocoded_column": {
      "latitude": "29.969429719559482",
      "longitude": "-90.08412827453832"
    }
  },
  {
    "service_request": "2023-996916",
    "request_type": "Trash/Recycling",
    "request_reason": "Replace Trash Cart",
    "date_created": "2023-05-04T23:52:09.000",
    "date_modified": "2023-05-04T23:52:10.000",
    "request_status": "Pending",
    "responsible_agency": "Department of Sanitation",
    "final_address": "1106 Crete St",
    "address_councildis": "A",
    "status": "Assigned to Contractor",
    "contractor": "Richards Disposal",
    "rowid": "996916",
    "final_x": "3677681.85902",
    "final_y": "538779.173449",
    "longitude": "-90.0798758944018",
    "latitude": "29.975571318518593",
    "geocoded_column": {
      "latitude": "29.975571318518593",
      "longitude": "-90.0798758944018"
    }
  },
  {
    "service_request": "2023-996914",
    "request_type": "Trash/Recycling",
    "request_reason": "Replace Trash Cart",
    "date_created": "2023-05-04T23:18:01.000",
    "date_modified": "2023-05-04T23:18:02.000",
    "request_status": "Pending",
    "responsible_agency": "Department of Sanitation",
    "final_address": "2084 Westbend Prkwy",
    "address_councildis": "C",
    "status": "Assigned to Contractor",
    "contractor": "Richards Disposal",
    "rowid": "996914",
    "final_x": "3696953.10493",
    "final_y": "523271.952571",
    "longitude": "-90.01957385597363",
    "latitude": "29.93233818093989",
    "geocoded_column": {
      "latitude": "29.93233818093989",
      "longitude": "-90.01957385597363"
    }
  },
  {
    "service_request": "2023-996913",
    "request_type": "Trash/Recycling",
    "request_reason": "Request a Large Item Pick Up",
    "date_created": "2023-05-04T22:49:02.000",
    "date_modified": "2023-05-04T22:49:03.000",
    "request_status": "Pending",
    "responsible_agency": "Department of Sanitation",
    "final_address": "720 Independence St",
    "address_councildis": "C",
    "status": "Assigned to Contractor",
    "contractor": "IV Waste",
    "rowid": "996913",
    "final_x": "3690595.40457",
    "final_y": "534185.139333",
    "longitude": "-90.03925536690886",
    "latitude": "29.962544595922633",
    "geocoded_column": {
      "latitude": "29.962544595922633",
      "longitude": "-90.03925536690886"
    }
  },
  {
    "service_request": "2023-996912",
    "request_type": "Abandoned Vehicles",
    "request_reason": "Abandoned/Junk Vehicles",
    "date_created": "2023-05-04T22:39:38.000",
    "date_modified": "2023-05-04T22:39:38.000",
    "request_status": "Pending",
    "responsible_agency": "Department of Public Works",
    "final_address": "1801 Pauger St",
    "address_councildis": "C",
    "status": "Pending",
    "rowid": "996912",
    "final_x": "3683901.41698",
    "final_y": "536348.537607",
    "longitude": "-90.06031813255186",
    "latitude": "29.96869937070865",
    "geocoded_column": {
      "latitude": "29.96869937070865",
      "longitude": "-90.06031813255186"
    }
  },
  {
    "service_request": "2023-996911",
    "request_type": "Abandoned Vehicles",
    "request_reason": "Abandoned/Junk Vehicles",
    "date_created": "2023-05-04T22:35:05.000",
    "date_modified": "2023-05-04T22:35:05.000",
    "request_status": "Pending",
    "responsible_agency": "Department of Public Works",
    "final_address": "1801 Pauger St",
    "address_councildis": "C",
    "status": "Pending",
    "rowid": "996911",
    "final_x": "3683901.41698",
    "final_y": "536348.537607",
    "longitude": "-90.06031813255186",
    "latitude": "29.96869937070865",
    "geocoded_column": {
      "latitude": "29.96869937070865",
      "longitude": "-90.06031813255186"
    }
  },
  {
    "service_request": "2023-996910",
    "request_type": "Abandoned Vehicles",
    "request_reason": "Abandoned/Junk Vehicles",
    "date_created": "2023-05-04T22:29:43.000",
    "date_modified": "2023-05-04T22:29:43.000",
    "request_status": "Pending",
    "responsible_agency": "Department of Public Works",
    "final_address": "1727 Marais St",
    "address_councildis": "C",
    "status": "Pending",
    "rowid": "996910",
    "final_x": "3683342.17929",
    "final_y": "536570.803911",
    "longitude": "-90.06207644765836",
    "latitude": "29.969327598108237",
    "geocoded_column": {
      "latitude": "29.969327598108237",
      "longitude": "-90.06207644765836"
    }
  },
  {
    "service_request": "2023-996909",
    "request_type": "Traffic Signals/Signs/Striping/Streetlights",
    "request_reason": "Street Light Outage/Malfunction",
    "date_created": "2023-05-04T22:06:30.000",
    "date_modified": "2023-05-04T22:06:30.000",
    "request_status": "Pending",
    "responsible_agency": "Department of Public Works",
    "final_address": "1819 Pauger St",
    "address_councildis": "C",
    "status": "Assigned to Contractor",
    "contractor": "Legacy Professional Services",
    "rowid": "996909",
    "final_x": "3683895.30626",
    "final_y": "536376.394503",
    "longitude": "-90.06033645316815",
    "latitude": "29.968776154198494",
    "geocoded_column": {
      "latitude": "29.968776154198494",
      "longitude": "-90.06033645316815"
    }
  },
  {
    "service_request": "2023-996908",
    "request_type": "Safety & Permits",
    "request_reason": "Licenses & Permits",
    "date_created": "2023-05-04T22:05:56.000",
    "date_modified": "2023-05-04T22:05:56.000",
    "request_status": "Pending",
    "responsible_agency": "Safety and Permits",
    "final_address": "600 BLK S Broad St",
    "address_councildis": "B",
    "status": "Pending",
    "rowid": "996908",
    "final_x": "3673931.9313",
    "final_y": "533263.224928",
    "longitude": "-90.0919079585769",
    "latitude": "29.96051658419824",
    "geocoded_column": {
      "latitude": "29.96051658419824",
      "longitude": "-90.0919079585769"
    }
  },
  {
    "service_request": "2023-996907",
    "request_type": "Trash/Recycling",
    "request_reason": "Request a Large Item Pick Up",
    "date_created": "2023-05-04T20:51:08.000",
    "date_modified": "2023-05-04T20:51:08.000",
    "request_status": "Pending",
    "responsible_agency": "Department of Sanitation",
    "final_address": "4420 Pauger St",
    "address_councildis": "D",
    "status": "Assigned to Contractor",
    "contractor": "IV Waste",
    "rowid": "996907",
    "final_x": "3682803.378",
    "final_y": "548937.690195",
    "longitude": "-90.06334515098254",
    "latitude": "30.00334860257981",
    "geocoded_column": {
      "latitude": "30.00334860257981",
      "longitude": "-90.06334515098254"
    }
  },
  {
    "service_request": "2023-996906",
    "request_type": "Traffic Signals/Signs/Striping/Streetlights",
    "request_reason": "Street Light Outage/Malfunction",
    "date_created": "2023-05-04T20:45:44.000",
    "date_modified": "2023-05-04T20:45:45.000",
    "request_status": "Pending",
    "responsible_agency": "Department of Public Works",
    "final_address": "3338 Trafalgar St",
    "address_councildis": "A",
    "status": "Assigned to Contractor",
    "contractor": "Legacy Professional Services",
    "rowid": "996906",
    "final_x": "3677832.79048",
    "final_y": "543141.865741",
    "longitude": "-90.07924840900866",
    "latitude": "29.9875626707573",
    "geocoded_column": {
      "latitude": "29.9875626707573",
      "longitude": "-90.07924840900866"
    }
  },
  {
    "service_request": "2023-996905",
    "request_type": "Trash/Recycling",
    "request_reason": "Order Recycling Cart",
    "date_created": "2023-05-04T20:37:12.000",
    "date_modified": "2023-05-04T20:37:12.000",
    "request_status": "Pending",
    "responsible_agency": "Department of Sanitation",
    "final_address": "916 Sumner St",
    "address_councildis": "C",
    "status": "Pending",
    "rowid": "996905",
    "final_x": "3691183.95017",
    "final_y": "528046.740031",
    "longitude": "-90.03761602405005",
    "latitude": "29.94564783664947",
    "geocoded_column": {
      "latitude": "29.94564783664947",
      "longitude": "-90.03761602405005"
    }
  },
  {
    "service_request": "2023-996904",
    "request_type": "Trash/Recycling",
    "request_reason": "Illegal Dumping",
    "date_created": "2023-05-04T20:31:55.000",
    "date_modified": "2023-05-04T20:31:55.000",
    "request_status": "Pending",
    "responsible_agency": "Department of Sanitation",
    "final_address": "121 N Lopez St",
    "address_councildis": "B",
    "status": "Pending",
    "rowid": "996904",
    "final_x": "3674002.41057",
    "final_y": "536460.035655",
    "longitude": "-90.09157599967031",
    "latitude": "29.969304638138276",
    "geocoded_column": {
      "latitude": "29.969304638138276",
      "longitude": "-90.09157599967031"
    }
  },
  {
    "service_request": "2023-996903",
    "request_type": "Trash/Recycling",
    "request_reason": "Order Recycling Cart",
    "date_created": "2023-05-04T19:40:34.000",
    "date_modified": "2023-05-04T19:40:34.000",
    "request_status": "Pending",
    "responsible_agency": "Department of Sanitation",
    "final_address": "Canal Street & South Scott Street",
    "address_councildis": "A",
    "status": "Pending",
    "rowid": "996903",
    "final_x": "3671756.19214",
    "final_y": "537801.949769",
    "longitude": "-90.09862408049945",
    "latitude": "29.973061191820562",
    "geocoded_column": {
      "latitude": "29.973061191820562",
      "longitude": "-90.09862408049945"
    }
  },
  {
    "service_request": "2023-996902",
    "request_type": "Trash/Recycling",
    "request_reason": "Missed Trash Pick-Up",
    "date_created": "2023-05-04T19:35:45.000",
    "date_modified": "2023-05-04T19:35:46.000",
    "request_status": "Pending",
    "responsible_agency": "Department of Sanitation",
    "final_address": "1815 Dumaine St",
    "address_councildis": "D",
    "status": "Assigned to Contractor",
    "contractor": "Richards Disposal",
    "rowid": "996902",
    "final_x": "3679827.44815",
    "final_y": "535532.284422",
    "longitude": "-90.0732123076612",
    "latitude": "29.96657877813849",
    "geocoded_column": {
      "latitude": "29.96657877813849",
      "longitude": "-90.0732123076612"
    }
  },
  {
    "service_request": "2023-996901",
    "request_type": "Trash/Recycling",
    "request_reason": "Missed Trash Pick-Up",
    "date_created": "2023-05-04T19:24:39.000",
    "date_modified": "2023-05-04T19:24:40.000",
    "request_status": "Pending",
    "responsible_agency": "Department of Sanitation",
    "final_address": "6356 Marshal Foch St",
    "address_councildis": "A",
    "status": "Assigned to Contractor",
    "contractor": "IV Waste",
    "rowid": "996901",
    "final_x": "3669979.31783",
    "final_y": "549657.040084",
    "longitude": "-90.10383406964185",
    "latitude": "30.00571115043383",
    "geocoded_column": {
      "latitude": "30.00571115043383",
      "longitude": "-90.10383406964185"
    }
  },
  {
    "service_request": "2023-996900",
    "request_type": "Trash/Recycling",
    "request_reason": "Order Recycling Cart",
    "date_created": "2023-05-04T19:19:34.000",
    "date_modified": "2023-05-04T19:19:34.000",
    "request_status": "Pending",
    "responsible_agency": "Department of Sanitation",
    "final_address": "6118 Laurel St",
    "address_councildis": "A",
    "status": "Pending",
    "rowid": "996900",
    "final_x": "3663557.45395",
    "final_y": "518464.371702",
    "longitude": "-90.12516136444715",
    "latitude": "29.92012943742256",
    "geocoded_column": {
      "latitude": "29.92012943742256",
      "longitude": "-90.12516136444715"
    }
  },
  {
    "service_request": "2023-996899",
    "request_type": "Trash/Recycling",
    "request_reason": "Order Trash Cart",
    "date_created": "2023-05-04T19:17:48.000",
    "date_modified": "2023-05-04T19:17:49.000",
    "request_status": "Pending",
    "responsible_agency": "Department of Sanitation",
    "final_address": "616 Seventh St",
    "address_councildis": "B",
    "status": "Assigned to Contractor",
    "contractor": "Richards Disposal",
    "rowid": "996899",
    "final_x": "3677258.05",
    "final_y": "518966.761911",
    "longitude": "-90.0818977957304",
    "latitude": "29.921106524014785",
    "geocoded_column": {
      "latitude": "29.921106524014785",
      "longitude": "-90.0818977957304"
    }
  },
  {
    "service_request": "2023-996898",
    "request_type": "Trash/Recycling",
    "request_reason": "Replace Trash Cart",
    "date_created": "2023-05-04T19:16:17.000",
    "date_modified": "2023-05-04T19:16:18.000",
    "request_status": "Pending",
    "responsible_agency": "Department of Sanitation",
    "final_address": "6118 Laurel St",
    "address_councildis": "A",
    "status": "Assigned to Contractor",
    "contractor": "Richards Disposal",
    "rowid": "996898",
    "final_x": "3663557.45395",
    "final_y": "518464.371702",
    "longitude": "-90.12516136444715",
    "latitude": "29.92012943742256",
    "geocoded_column": {
      "latitude": "29.92012943742256",
      "longitude": "-90.12516136444715"
    }
  },
  {
    "service_request": "2023-996896",
    "request_type": "Trash/Recycling",
    "request_reason": "Order Trash Cart",
    "date_created": "2023-05-04T19:05:42.000",
    "date_modified": "2023-05-04T19:05:43.000",
    "request_status": "Pending",
    "responsible_agency": "Department of Sanitation",
    "final_address": "5800 N Rampart St",
    "address_councildis": "E",
    "status": "Assigned to Contractor",
    "contractor": "Waste Pro",
    "rowid": "996896",
    "final_x": "3698560.51965",
    "final_y": "533127.95034",
    "longitude": "-90.0141412108656",
    "latitude": "29.959387951436877",
    "geocoded_column": {
      "latitude": "29.959387951436877",
      "longitude": "-90.0141412108656"
    }
  },
  {
    "service_request": "2023-996895",
    "request_type": "Trash/Recycling",
    "request_reason": "Request a Large Item Pick Up",
    "date_created": "2023-05-04T18:41:53.000",
    "date_modified": "2023-05-04T18:41:54.000",
    "request_status": "Pending",
    "responsible_agency": "Department of Sanitation",
    "final_address": "431 Atlantic Ave",
    "address_councildis": "C",
    "status": "Assigned to Contractor",
    "contractor": "Richards Disposal",
    "rowid": "996895",
    "final_x": "3688760.06684",
    "final_y": "530035.319937",
    "longitude": "-90.04519841422469",
    "latitude": "29.95119089399211",
    "geocoded_column": {
      "latitude": "29.95119089399211",
      "longitude": "-90.04519841422469"
    }
  },
  {
    "service_request": "2023-996894",
    "request_type": "Trash/Recycling",
    "request_reason": "MIssed Recycling Pick-Up",
    "date_created": "2023-05-04T18:31:32.000",
    "date_modified": "2023-05-04T18:31:33.000",
    "request_status": "Pending",
    "responsible_agency": "Department of Sanitation",
    "final_address": "5317 Douglass St",
    "address_councildis": "E",
    "status": "Assigned to Contractor",
    "contractor": "Waste Pro",
    "rowid": "996894",
    "final_x": "3696381.23191",
    "final_y": "531917.787075",
    "longitude": "-90.02106661305902",
    "latitude": "29.956129237803463",
    "geocoded_column": {
      "latitude": "29.956129237803463",
      "longitude": "-90.02106661305902"
    }
  },
  {
    "service_request": "2023-996893",
    "request_type": "Trash/Recycling",
    "request_reason": "Repair Trash Cart",
    "date_created": "2023-05-04T18:30:14.000",
    "date_modified": "2023-05-04T18:30:15.000",
    "request_status": "Pending",
    "responsible_agency": "Department of Sanitation",
    "final_address": "2320 Lowerline St",
    "address_councildis": "A",
    "status": "Assigned to Contractor",
    "contractor": "Richards Disposal",
    "rowid": "996893",
    "final_x": "3665907.86106",
    "final_y": "530219.933697",
    "longitude": "-90.11734844258233",
    "latitude": "29.952385128138477",
    "geocoded_column": {
      "latitude": "29.952385128138477",
      "longitude": "-90.11734844258233"
    }
  },
  {
    "service_request": "2023-996892",
    "request_type": "Trash/Recycling",
    "request_reason": "Request a Large Item Pick Up",
    "date_created": "2023-05-04T18:17:05.000",
    "date_modified": "2023-05-04T18:17:05.000",
    "request_status": "Pending",
    "responsible_agency": "Department of Sanitation",
    "final_address": "2417 Chelsea Dr",
    "address_councildis": "C",
    "status": "Assigned to Contractor",
    "contractor": "Richards Disposal",
    "rowid": "996892",
    "final_x": "3704715.27524",
    "final_y": "522591.334714",
    "longitude": "-89.99509469257933",
    "latitude": "29.930219726167703",
    "geocoded_column": {
      "latitude": "29.930219726167703",
      "longitude": "-89.99509469257933"
    }
  },
  {
    "service_request": "2023-996891",
    "request_type": "Trash/Recycling",
    "request_reason": "Request a Large Item Pick Up",
    "date_created": "2023-05-04T18:16:59.000",
    "date_modified": "2023-05-04T18:17:00.000",
    "request_status": "Pending",
    "responsible_agency": "Department of Sanitation",
    "final_address": "2417 Chelsea Dr",
    "address_councildis": "C",
    "status": "Assigned to Contractor",
    "contractor": "Richards Disposal",
    "rowid": "996891",
    "final_x": "3704715.27524",
    "final_y": "522591.334714",
    "longitude": "-89.99509469257933",
    "latitude": "29.930219726167703",
    "geocoded_column": {
      "latitude": "29.930219726167703",
      "longitude": "-89.99509469257933"
    }
  },
  {
    "service_request": "2023-996890",
    "request_type": "Trash/Recycling",
    "request_reason": "Request a Large Item Pick Up",
    "date_created": "2023-05-04T18:14:58.000",
    "date_modified": "2023-05-04T18:14:59.000",
    "request_status": "Pending",
    "responsible_agency": "Department of Sanitation",
    "final_address": "2417 Chelsea Dr",
    "address_councildis": "C",
    "status": "Assigned to Contractor",
    "contractor": "Richards Disposal",
    "rowid": "996890",
    "final_x": "3704715.27524",
    "final_y": "522591.334714",
    "longitude": "-89.99509469257933",
    "latitude": "29.930219726167703",
    "geocoded_column": {
      "latitude": "29.930219726167703",
      "longitude": "-89.99509469257933"
    }
  },
  {
    "service_request": "2023-996889",
    "request_type": "Trash/Recycling",
    "request_reason": "Order Recycling Cart",
    "date_created": "2023-05-04T18:05:22.000",
    "date_modified": "2023-05-04T18:05:22.000",
    "request_status": "Pending",
    "responsible_agency": "Department of Sanitation",
    "final_address": "4222 DHemecourt St",
    "address_councildis": "A",
    "status": "Pending",
    "rowid": "996889",
    "final_x": "3669202.2178",
    "final_y": "537252.391176",
    "longitude": "-90.10670863544847",
    "latitude": "29.97162551502088",
    "geocoded_column": {
      "latitude": "29.97162551502088",
      "longitude": "-90.10670863544847"
    }
  },
  {
    "service_request": "2023-996888",
    "request_type": "Trash/Recycling",
    "request_reason": "Start Trash Service",
    "date_created": "2023-05-04T18:01:24.000",
    "date_modified": "2023-05-04T18:01:25.000",
    "request_status": "Pending",
    "responsible_agency": "Department of Sanitation",
    "final_address": "3419 S Saratoga St",
    "address_councildis": "B",
    "status": "Assigned to Contractor",
    "contractor": "Richards Disposal",
    "rowid": "996888",
    "final_x": "3673268.49595",
    "final_y": "523203.796155",
    "longitude": "-90.09434643703533",
    "latitude": "29.932876211489514",
    "geocoded_column": {
      "latitude": "29.932876211489514",
      "longitude": "-90.09434643703533"
    }
  },
  {
    "service_request": "2023-996887",
    "request_type": "Property Maintenance",
    "request_reason": "Property Maintenance",
    "date_created": "2023-05-04T17:29:33.000",
    "date_modified": "2023-05-04T17:29:33.000",
    "request_status": "Pending",
    "responsible_agency": "Department of Code Enforcement",
    "final_address": "3519 Live Oak St",
    "address_councildis": "A",
    "status": "Pending",
    "rowid": "996887",
    "final_x": "3664247.81882",
    "final_y": "537621.533512",
    "longitude": "-90.12234312091876",
    "latitude": "29.972785437520905",
    "geocoded_column": {
      "latitude": "29.972785437520905",
      "longitude": "-90.12234312091876"
    }
  },
  {
    "service_request": "2023-996886",
    "request_type": "Trash/Recycling",
    "request_reason": "Illegal Dumping",
    "date_created": "2023-05-04T17:24:40.000",
    "date_modified": "2023-05-04T17:24:41.000",
    "request_status": "Pending",
    "responsible_agency": "Department of Sanitation",
    "final_address": "1218 Murl St",
    "address_councildis": "C",
    "status": "Pending",
    "rowid": "996886",
    "final_x": "3695492.97494",
    "final_y": "526859.57011",
    "longitude": "-90.02405391557248",
    "latitude": "29.942248846044063",
    "geocoded_column": {
      "latitude": "29.942248846044063",
      "longitude": "-90.02405391557248"
    }
  },
  {
    "service_request": "2023-996885",
    "request_type": "Roads/Drainage",
    "request_reason": "Street Subsidence (Sinking)",
    "date_created": "2023-05-04T17:24:13.000",
    "date_modified": "2023-05-04T17:24:13.000",
    "request_status": "Pending",
    "responsible_agency": "Department of Public Works",
    "final_address": "6335 Wales St",
    "address_councildis": "E",
    "status": "Pending",
    "rowid": "996885",
    "final_x": "3696341.71344",
    "final_y": "559924.159453",
    "longitude": "-90.02017792242059",
    "latitude": "30.03313771129868",
    "geocoded_column": {
      "latitude": "30.03313771129868",
      "longitude": "-90.02017792242059"
    }
  },
  {
    "service_request": "2023-996884",
    "request_type": "Roads/Drainage",
    "request_reason": "Catch Basin - Broken/Damage",
    "date_created": "2023-05-04T17:17:38.000",
    "date_modified": "2023-05-04T17:17:38.000",
    "request_status": "Pending",
    "responsible_agency": "Department of Public Works",
    "final_address": "501 Tchoupitoulas St",
    "address_councildis": "B",
    "status": "Pending",
    "rowid": "996884",
    "final_x": "3681811.71298",
    "final_y": "528981.979328",
    "longitude": "-90.06717460171518",
    "latitude": "29.948507515789377",
    "geocoded_column": {
      "latitude": "29.948507515789377",
      "longitude": "-90.06717460171518"
    }
  },
  {
    "service_request": "2023-996883",
    "request_type": "Abandoned Vehicles",
    "request_reason": "Abandoned/Junk Vehicles",
    "date_created": "2023-05-04T17:13:02.000",
    "date_modified": "2023-05-04T17:13:02.000",
    "request_status": "Pending",
    "responsible_agency": "Department of Public Works",
    "final_address": "2032 Esplanade Ave",
    "address_councildis": "D",
    "status": "Pending",
    "rowid": "996883",
    "final_x": "3679993.99266",
    "final_y": "537447.99828",
    "longitude": "-90.07261979866448",
    "latitude": "29.9718412966715",
    "geocoded_column": {
      "latitude": "29.9718412966715",
      "longitude": "-90.07261979866448"
    }
  },
  {
    "service_request": "2023-996882",
    "request_type": "Utility Poles",
    "request_reason": "Utility Pole Leaning",
    "date_created": "2023-05-04T16:56:16.000",
    "date_modified": "2023-05-04T16:56:21.000",
    "request_status": "Pending",
    "responsible_agency": "Utility Company Collective",
    "final_address": "AMELIA ST & S SARATOGA ST",
    "address_councildis": "B",
    "status": "Pending",
    "rowid": "996882",
    "final_x": "3672706.6",
    "final_y": "522916.08",
    "longitude": "-90.09613011071936",
    "latitude": "29.932101779368548",
    "geocoded_column": {
      "latitude": "29.932101779368548",
      "longitude": "-90.09613011071936"
    }
  },
  {
    "service_request": "2023-996881",
    "request_type": "Trash/Recycling",
    "request_reason": "Request a Large Item Pick Up",
    "date_created": "2023-05-04T16:49:27.000",
    "date_modified": "2023-05-04T16:49:28.000",
    "request_status": "Pending",
    "responsible_agency": "Department of Sanitation",
    "final_address": "1306 Independence St",
    "address_councildis": "D",
    "status": "Assigned to Contractor",
    "contractor": "IV Waste",
    "rowid": "996881",
    "final_x": "3691124.91907",
    "final_y": "536329.371399",
    "longitude": "-90.03750666377019",
    "latitude": "29.968424027198573",
    "geocoded_column": {
      "latitude": "29.968424027198573",
      "longitude": "-90.03750666377019"
    }
  },
  {
    "service_request": "2023-996880",
    "request_type": "Trash/Recycling",
    "request_reason": "Missed Trash Pick-Up",
    "date_created": "2023-05-04T16:46:02.000",
    "date_modified": "2023-05-04T16:46:03.000",
    "request_status": "Pending",
    "responsible_agency": "Department of Sanitation",
    "final_address": "6335 N Tonti St",
    "address_councildis": "E",
    "status": "Assigned to Contractor",
    "contractor": "Waste Pro",
    "rowid": "996880",
    "final_x": "3702026.87633",
    "final_y": "537318.694536",
    "longitude": "-90.00304171991374",
    "latitude": "29.970800799845",
    "geocoded_column": {
      "latitude": "29.970800799845",
      "longitude": "-90.00304171991374"
    }
  },
  {
    "service_request": "2023-996879",
    "request_type": "Traffic Signals/Signs/Striping/Streetlights",
    "request_reason": "Street Light Outage/Malfunction",
    "date_created": "2023-05-04T16:45:31.000",
    "date_modified": "2023-05-04T16:45:32.000",
    "request_status": "Pending",
    "responsible_agency": "Department of Public Works",
    "final_address": "3521 Live Oak St",
    "address_councildis": "A",
    "status": "Assigned to Contractor",
    "contractor": "Legacy Professional Services",
    "rowid": "996879",
    "final_x": "3664270.80845",
    "final_y": "537639.089288",
    "longitude": "-90.12226992903973",
    "latitude": "29.972833041982607",
    "geocoded_column": {
      "latitude": "29.972833041982607",
      "longitude": "-90.12226992903973"
    }
  },
  {
    "service_request": "2023-996878",
    "request_type": "Trash/Recycling",
    "request_reason": "Request a Large Item Pick Up",
    "date_created": "2023-05-04T16:44:32.000",
    "date_modified": "2023-05-04T16:44:33.000",
    "request_status": "Pending",
    "responsible_agency": "Department of Sanitation",
    "final_address": "2832 Gentilly Blvd",
    "address_councildis": "D",
    "status": "Assigned to Contractor",
    "contractor": "IV Waste",
    "rowid": "996878",
    "final_x": "3683014.66453",
    "final_y": "545969.047504",
    "longitude": "-90.06278165616793",
    "latitude": "29.995179456986804",
    "geocoded_column": {
      "latitude": "29.995179456986804",
      "longitude": "-90.06278165616793"
    }
  },
  {
    "service_request": "2023-996877",
    "request_type": "Trash/Recycling",
    "request_reason": "Request a Large Item Pick Up",
    "date_created": "2023-05-04T16:42:06.000",
    "date_modified": "2023-05-04T21:45:44.000",
    "request_status": "Pending",
    "responsible_agency": "Department of Sanitation",
    "final_address": "3807 Peachtree Ct 70131",
    "address_councildis": "C",
    "status": "Assigned to Contractor",
    "contractor": "Richards Disposal",
    "rowid": "996877",
    "final_x": "3703825.85079",
    "final_y": "512603.100081",
    "longitude": "-89.99826982423347",
    "latitude": "29.902784049509137",
    "geocoded_column": {
      "latitude": "29.902784049509137",
      "longitude": "-89.99826982423347"
    }
  },
  {
    "service_request": "2023-996876",
    "request_type": "Trash/Recycling",
    "request_reason": "Repair Trash Cart",
    "date_created": "2023-05-04T16:41:10.000",
    "date_modified": "2023-05-04T16:41:11.000",
    "request_status": "Pending",
    "responsible_agency": "Department of Sanitation",
    "final_address": "4869 Feliciana Dr",
    "address_councildis": "D",
    "status": "Assigned to Contractor",
    "contractor": "IV Waste",
    "rowid": "996876",
    "final_x": "3690144.97507",
    "final_y": "551317.976725",
    "longitude": "-90.04006711582906",
    "latitude": "30.009667734709847",
    "geocoded_column": {
      "latitude": "30.009667734709847",
      "longitude": "-90.04006711582906"
    }
  },
  {
    "service_request": "2023-996874",
    "request_type": "Trash/Recycling",
    "request_reason": "Missed Trash Pick-Up",
    "date_created": "2023-05-04T16:35:33.000",
    "date_modified": "2023-05-04T16:35:34.000",
    "request_status": "Pending",
    "responsible_agency": "Department of Sanitation",
    "final_address": "1472 Camp St",
    "address_councildis": "B",
    "status": "Assigned to Contractor",
    "contractor": "Richards Disposal",
    "rowid": "996874",
    "final_x": "3679870.3028",
    "final_y": "524004.554876",
    "longitude": "-90.07347724156756",
    "latitude": "29.934880098544948",
    "geocoded_column": {
      "latitude": "29.934880098544948",
      "longitude": "-90.07347724156756"
    }
  },
  {
    "service_request": "2023-996873",
    "request_type": "Trash/Recycling",
    "request_reason": "Missed Trash Pick-Up",
    "date_created": "2023-05-04T16:33:31.000",
    "date_modified": "2023-05-04T16:33:32.000",
    "request_status": "Pending",
    "responsible_agency": "Department of Sanitation",
    "final_address": "2135 Bienville Ave",
    "address_councildis": "B",
    "status": "Assigned to Contractor",
    "contractor": "Richards Disposal",
    "rowid": "996873",
    "final_x": "3677544.79483",
    "final_y": "534498.542981",
    "longitude": "-90.0804566040531",
    "latitude": "29.96380516782716",
    "geocoded_column": {
      "latitude": "29.96380516782716",
      "longitude": "-90.0804566040531"
    }
  },
  {
    "service_request": "2023-996872",
    "request_type": "Trash/Recycling",
    "request_reason": "Order Trash Cart",
    "date_created": "2023-05-04T16:33:13.000",
    "date_modified": "2023-05-04T16:33:13.000",
    "request_status": "Pending",
    "responsible_agency": "Department of Sanitation",
    "final_address": "620 Hagan St",
    "address_councildis": "A",
    "status": "Assigned to Contractor",
    "contractor": "Richards Disposal",
    "rowid": "996872",
    "final_x": "3674536.42484",
    "final_y": "538244.596937",
    "longitude": "-90.08982837773942",
    "latitude": "29.97419565203333",
    "geocoded_column": {
      "latitude": "29.97419565203333",
      "longitude": "-90.08982837773942"
    }
  },
  {
    "service_request": "2023-996871",
    "request_type": "Trash/Recycling",
    "request_reason": "Order Recycling Cart",
    "date_created": "2023-05-04T16:29:02.000",
    "date_modified": "2023-05-04T16:29:02.000",
    "request_status": "Pending",
    "responsible_agency": "Department of Sanitation",
    "final_address": "2120 Third St",
    "address_councildis": "B",
    "status": "Pending",
    "rowid": "996871",
    "final_x": "3675328.54555",
    "final_y": "524498.900988",
    "longitude": "-90.08779856595386",
    "latitude": "29.936375917342183",
    "geocoded_column": {
      "latitude": "29.936375917342183",
      "longitude": "-90.08779856595386"
    }
  },
  {
    "service_request": "2023-996870",
    "request_type": "Trash/Recycling",
    "request_reason": "Missed Trash Pick-Up",
    "date_created": "2023-05-04T16:27:28.000",
    "date_modified": "2023-05-04T16:27:29.000",
    "request_status": "Pending",
    "responsible_agency": "Department of Sanitation",
    "final_address": "2120 Third St",
    "address_councildis": "B",
    "status": "Assigned to Contractor",
    "contractor": "Richards Disposal",
    "rowid": "996870",
    "final_x": "3675328.54555",
    "final_y": "524498.900988",
    "longitude": "-90.08779856595386",
    "latitude": "29.936375917342183",
    "geocoded_column": {
      "latitude": "29.936375917342183",
      "longitude": "-90.08779856595386"
    }
  },
  {
    "service_request": "2023-996869",
    "request_type": "Trash/Recycling",
    "request_reason": "Request a Large Item Pick Up",
    "date_created": "2023-05-04T16:22:46.000",
    "date_modified": "2023-05-04T16:22:47.000",
    "request_status": "Pending",
    "responsible_agency": "Department of Sanitation",
    "final_address": "2713 Third St",
    "address_councildis": "B",
    "status": "Assigned to Contractor",
    "contractor": "Richards Disposal",
    "rowid": "996869",
    "final_x": "3674220.72417",
    "final_y": "526291.262462",
    "longitude": "-90.09123466303137",
    "latitude": "29.941337390928872",
    "geocoded_column": {
      "latitude": "29.941337390928872",
      "longitude": "-90.09123466303137"
    }
  },
  {
    "service_request": "2023-996867",
    "request_type": "Traffic Signals/Signs/Striping/Streetlights",
    "request_reason": "Additional signage",
    "date_created": "2023-05-04T16:22:03.000",
    "date_modified": "2023-05-04T16:22:03.000",
    "request_status": "Pending",
    "responsible_agency": "Department of Public Works",
    "final_address": "FRERET ST & UPPERLINE ST",
    "address_councildis": "B",
    "status": "Pending",
    "rowid": "996867",
    "final_x": "3669167.8",
    "final_y": "523908.18",
    "longitude": "-90.10726826899554",
    "latitude": "29.934934325859306",
    "geocoded_column": {
      "latitude": "29.934934325859306",
      "longitude": "-90.10726826899554"
    }
  },
  {
    "service_request": "2023-996868",
    "request_type": "Roads/Drainage",
    "request_reason": "Road Shoulder Repair",
    "date_created": "2023-05-04T16:22:03.000",
    "date_modified": "2023-05-04T22:09:33.000",
    "request_status": "Pending",
    "responsible_agency": "Department of Public Works",
    "final_address": "6360 Pratt Dr, New Orleans, Louisiana, 70122",
    "address_councildis": "D",
    "rowid": "996868",
    "final_x": "3679172.79432",
    "final_y": "557408.021915",
    "longitude": "-90.07452075293",
    "latitude": "30.026749097302783",
    "geocoded_column": {
      "latitude": "30.026749097302783",
      "longitude": "-90.07452075293"
    }
  },
  {
    "service_request": "2023-996866",
    "request_type": "Trash/Recycling",
    "request_reason": "Request a Large Item Pick Up",
    "date_created": "2023-05-04T16:18:03.000",
    "date_modified": "2023-05-04T16:18:04.000",
    "request_status": "Pending",
    "responsible_agency": "Department of Sanitation",
    "final_address": "7601 Ebbtide Dr",
    "address_councildis": "E",
    "status": "Assigned to Contractor",
    "contractor": "Waste Pro",
    "rowid": "996866",
    "final_x": "3702308.20285",
    "final_y": "561374.145502",
    "longitude": "-90.00127009626208",
    "latitude": "30.036935246114254",
    "geocoded_column": {
      "latitude": "30.036935246114254",
      "longitude": "-90.00127009626208"
    }
  },
  {
    "service_request": "2023-996865",
    "request_type": "Abandoned Vehicles",
    "request_reason": "Abandoned/Junk Vehicles",
    "date_created": "2023-05-04T16:16:18.000",
    "date_modified": "2023-05-04T16:16:18.000",
    "request_status": "Pending",
    "responsible_agency": "Department of Public Works",
    "final_address": "EDINBURGH ST & AIRLINE HWY",
    "address_councildis": "A",
    "status": "Pending",
    "rowid": "996865",
    "final_x": "3664299.0",
    "final_y": "537258.08",
    "longitude": "-90.12219361316228",
    "latitude": "29.97178457344008",
    "geocoded_column": {
      "latitude": "29.97178457344008",
      "longitude": "-90.12219361316228"
    }
  },
  {
    "service_request": "2023-996864",
    "request_type": "Trash/Recycling",
    "request_reason": "Missed Trash Pick-Up",
    "date_created": "2023-05-04T16:15:29.000",
    "date_modified": "2023-05-04T16:15:30.000",
    "request_status": "Pending",
    "responsible_agency": "Department of Sanitation",
    "final_address": "2818 Martin Luther King, Jr. Blvd",
    "address_councildis": "B",
    "status": "Assigned to Contractor",
    "contractor": "Richards Disposal",
    "rowid": "996864",
    "final_x": "3675449.27118",
    "final_y": "527794.248255",
    "longitude": "-90.0873042986679",
    "latitude": "29.945433430685195",
    "geocoded_column": {
      "latitude": "29.945433430685195",
      "longitude": "-90.0873042986679"
    }
  },
  {
    "service_request": "2023-996863",
    "request_type": "Roads/Drainage",
    "request_reason": "Street Flooding / Drainage",
    "date_created": "2023-05-04T16:11:09.000",
    "date_modified": "2023-05-04T16:11:09.000",
    "request_status": "Pending",
    "responsible_agency": "Department of Public Works",
    "final_address": "7361 Poitevent Ave",
    "address_councildis": "E",
    "status": "Pending",
    "rowid": "996863",
    "final_x": "3707427.34923",
    "final_y": "563400.00208",
    "longitude": "-89.98501728247237",
    "latitude": "30.042340921289092",
    "geocoded_column": {
      "latitude": "30.042340921289092",
      "longitude": "-89.98501728247237"
    }
  },
  {
    "service_request": "2023-996862",
    "request_type": "Trash/Recycling",
    "request_reason": "Order Recycling Cart",
    "date_created": "2023-05-04T16:00:58.000",
    "date_modified": "2023-05-04T16:00:58.000",
    "request_status": "Pending",
    "responsible_agency": "Department of Sanitation",
    "final_address": "3159 Chippewa St",
    "address_councildis": "B",
    "status": "Pending",
    "rowid": "996862",
    "final_x": "3676492.50977",
    "final_y": "518699.442039",
    "longitude": "-90.08432346322398",
    "latitude": "29.920394448009272",
    "geocoded_column": {
      "latitude": "29.920394448009272",
      "longitude": "-90.08432346322398"
    }
  },
  {
    "service_request": "2023-996861",
    "request_type": "Trash/Recycling",
    "request_reason": "Order Trash Cart",
    "date_created": "2023-05-04T16:00:30.000",
    "date_modified": "2023-05-04T16:00:31.000",
    "request_status": "Pending",
    "responsible_agency": "Department of Sanitation",
    "final_address": "3159 Chippewa St",
    "address_councildis": "B",
    "status": "Assigned to Contractor",
    "contractor": "Richards Disposal",
    "rowid": "996861",
    "final_x": "3676492.50977",
    "final_y": "518699.442039",
    "longitude": "-90.08432346322398",
    "latitude": "29.920394448009272",
    "geocoded_column": {
      "latitude": "29.920394448009272",
      "longitude": "-90.08432346322398"
    }
  },
  {
    "service_request": "2023-996860",
    "request_type": "Traffic Signals/Signs/Striping/Streetlights",
    "request_reason": "Street Light Outage/Malfunction",
    "date_created": "2023-05-04T16:00:09.000",
    "date_modified": "2023-05-04T16:00:10.000",
    "request_status": "Pending",
    "responsible_agency": "Department of Public Works",
    "final_address": "2029 Mazant St",
    "address_councildis": "D",
    "status": "Assigned to Contractor",
    "contractor": "Legacy Professional Services",
    "rowid": "996860",
    "final_x": "3693040.76726",
    "final_y": "538822.636681",
    "longitude": "-90.03136688019498",
    "latitude": "29.97521990722888",
    "geocoded_column": {
      "latitude": "29.97521990722888",
      "longitude": "-90.03136688019498"
    }
  },
  {
    "service_request": "2023-996859",
    "request_type": "Trash/Recycling",
    "request_reason": "Order Recycling Cart",
    "date_created": "2023-05-04T15:59:24.000",
    "date_modified": "2023-05-04T15:59:24.000",
    "request_status": "Pending",
    "responsible_agency": "Department of Sanitation",
    "final_address": "3159 Chippewa St",
    "address_councildis": "B",
    "status": "Pending",
    "rowid": "996859",
    "final_x": "3676492.50977",
    "final_y": "518699.442039",
    "longitude": "-90.08432346322398",
    "latitude": "29.920394448009272",
    "geocoded_column": {
      "latitude": "29.920394448009272",
      "longitude": "-90.08432346322398"
    }
  },
  {
    "service_request": "2023-996858",
    "request_type": "Roads/Drainage",
    "request_reason": "Pothole",
    "date_created": "2023-05-04T15:58:53.000",
    "date_modified": "2023-05-04T15:58:54.000",
    "request_status": "Pending",
    "responsible_agency": "Department of Public Works",
    "final_address": "150 Broadway St",
    "address_councildis": "A",
    "status": "Pending",
    "rowid": "996858",
    "final_x": "3661002.06816",
    "final_y": "521908.841978",
    "longitude": "-90.13311365183544",
    "latitude": "29.929674499134514",
    "geocoded_column": {
      "latitude": "29.929674499134514",
      "longitude": "-90.13311365183544"
    }
  },
  {
    "service_request": "2023-996857",
    "request_type": "Trash/Recycling",
    "request_reason": "Order Trash Cart",
    "date_created": "2023-05-04T15:58:45.000",
    "date_modified": "2023-05-04T15:58:46.000",
    "request_status": "Pending",
    "responsible_agency": "Department of Sanitation",
    "final_address": "3159 Chippewa St",
    "address_councildis": "B",
    "status": "Assigned to Contractor",
    "contractor": "Richards Disposal",
    "rowid": "996857",
    "final_x": "3676492.50977",
    "final_y": "518699.442039",
    "longitude": "-90.08432346322398",
    "latitude": "29.920394448009272",
    "geocoded_column": {
      "latitude": "29.920394448009272",
      "longitude": "-90.08432346322398"
    }
  },
  {
    "service_request": "2023-996856",
    "request_type": "Trash/Recycling",
    "request_reason": "MIssed Recycling Pick-Up",
    "date_created": "2023-05-04T15:42:34.000",
    "date_modified": "2023-05-04T15:42:35.000",
    "request_status": "Pending",
    "responsible_agency": "Department of Sanitation",
    "final_address": "2835 Kent Dr",
    "address_councildis": "C",
    "status": "Assigned to Contractor",
    "contractor": "Richards Disposal",
    "rowid": "996856",
    "final_x": "3708903.27544",
    "final_y": "519540.349559",
    "longitude": "-89.98198755588604",
    "latitude": "29.921695434222908",
    "geocoded_column": {
      "latitude": "29.921695434222908",
      "longitude": "-89.98198755588604"
    }
  },
  {
    "service_request": "2023-996855",
    "request_type": "Trash/Recycling",
    "request_reason": "Repair Recycling Cart",
    "date_created": "2023-05-04T15:42:12.000",
    "date_modified": "2023-05-04T15:42:12.000",
    "request_status": "Pending",
    "responsible_agency": "Department of Sanitation",
    "final_address": "2835 Kent Dr",
    "address_councildis": "C",
    "status": "Pending",
    "rowid": "996855",
    "final_x": "3708903.27544",
    "final_y": "519540.349559",
    "longitude": "-89.98198755588604",
    "latitude": "29.921695434222908",
    "geocoded_column": {
      "latitude": "29.921695434222908",
      "longitude": "-89.98198755588604"
    }
  },
  {
    "service_request": "2023-996854",
    "request_type": "Traffic Signals/Signs/Striping/Streetlights",
    "request_reason": "Street Light Outage/Malfunction",
    "date_created": "2023-05-04T15:31:23.000",
    "date_modified": "2023-05-04T15:31:24.000",
    "request_status": "Pending",
    "responsible_agency": "Department of Public Works",
    "final_address": "4330 Canal St",
    "address_councildis": "A",
    "status": "Assigned to Contractor",
    "contractor": "Legacy Professional Services",
    "rowid": "996854",
    "final_x": "3670032.02606",
    "final_y": "539016.096778",
    "longitude": "-90.10402821119153",
    "latitude": "29.976450659661825",
    "geocoded_column": {
      "latitude": "29.976450659661825",
      "longitude": "-90.10402821119153"
    }
  },
  {
    "service_request": "2023-996853",
    "request_type": "Roads/Drainage",
    "request_reason": "Man hole cover issue",
    "date_created": "2023-05-04T15:30:23.000",
    "date_modified": "2023-05-04T15:30:24.000",
    "request_status": "Pending",
    "responsible_agency": "Department of Public Works",
    "final_address": "4435 DHemecourt St",
    "address_councildis": "A",
    "status": "Pending",
    "rowid": "996853",
    "final_x": "3668604.51374",
    "final_y": "537836.267273",
    "longitude": "-90.10857657102403",
    "latitude": "29.97324855862302",
    "geocoded_column": {
      "latitude": "29.97324855862302",
      "longitude": "-90.10857657102403"
    }
  },
  {
    "service_request": "2023-996852",
    "request_type": "Traffic Signals/Signs/Striping/Streetlights",
    "request_reason": "Street Light Outage/Malfunction",
    "date_created": "2023-05-04T15:27:53.000",
    "date_modified": "2023-05-04T15:27:53.000",
    "request_status": "Pending",
    "responsible_agency": "Department of Public Works",
    "final_address": "4412 Canal St",
    "address_councildis": "A",
    "status": "Assigned to Contractor",
    "contractor": "Legacy Professional Services",
    "rowid": "996852",
    "final_x": "3669837.80526",
    "final_y": "539190.04865",
    "longitude": "-90.10463572985543",
    "latitude": "29.976934696532883",
    "geocoded_column": {
      "latitude": "29.976934696532883",
      "longitude": "-90.10463572985543"
    }
  },
  {
    "service_request": "2023-996851",
    "request_type": "Trash/Recycling",
    "request_reason": "MIssed Recycling Pick-Up",
    "date_created": "2023-05-04T15:25:27.000",
    "date_modified": "2023-05-04T15:25:28.000",
    "request_status": "Pending",
    "responsible_agency": "Department of Sanitation",
    "final_address": "5223 S Derbigny St",
    "address_councildis": "B",
    "status": "Assigned to Contractor",
    "contractor": "Richards Disposal",
    "rowid": "996851",
    "final_x": "3668665.11527",
    "final_y": "526314.708158",
    "longitude": "-90.10877405106785",
    "latitude": "29.94156628366126",
    "geocoded_column": {
      "latitude": "29.94156628366126",
      "longitude": "-90.10877405106785"
    }
  },
  {
    "service_request": "2023-996850",
    "request_type": "Trash/Recycling",
    "request_reason": "Missed Trash Pick-Up",
    "date_created": "2023-05-04T15:24:58.000",
    "date_modified": "2023-05-04T15:25:00.000",
    "request_status": "Pending",
    "responsible_agency": "Department of Sanitation",
    "final_address": "2314 Delery St",
    "address_councildis": "E",
    "status": "Assigned to Contractor",
    "contractor": "Waste Pro",
    "rowid": "996850",
    "final_x": "3702208.70065",
    "final_y": "537434.866696",
    "longitude": "-90.00246323893724",
    "latitude": "29.971114425544155",
    "geocoded_column": {
      "latitude": "29.971114425544155",
      "longitude": "-90.00246323893724"
    }
  },
  {
    "service_request": "2023-996849",
    "request_type": "Trash/Recycling",
    "request_reason": "MIssed Recycling Pick-Up",
    "date_created": "2023-05-04T15:23:58.000",
    "date_modified": "2023-05-04T15:23:59.000",
    "request_status": "Pending",
    "responsible_agency": "Department of Sanitation",
    "final_address": "1305 Charbonnet St",
    "address_councildis": "E",
    "status": "Assigned to Contractor",
    "contractor": "Waste Pro",
    "rowid": "996849",
    "final_x": "3698876.30071",
    "final_y": "534391.205701",
    "longitude": "-90.01309809339149",
    "latitude": "29.962851453541646",
    "geocoded_column": {
      "latitude": "29.962851453541646",
      "longitude": "-90.01309809339149"
    }
  },
  {
    "service_request": "2023-996848",
    "request_type": "Traffic Signals/Signs/Striping/Streetlights",
    "request_reason": "Street Light Outage/Malfunction",
    "date_created": "2023-05-04T15:22:45.000",
    "date_modified": "2023-05-04T15:22:46.000",
    "request_status": "Pending",
    "responsible_agency": "Department of Public Works",
    "final_address": "6851 General Haig St",
    "address_councildis": "A",
    "status": "Assigned to Contractor",
    "contractor": "Legacy Professional Services",
    "rowid": "996848",
    "final_x": "3671154.75636",
    "final_y": "552884.051351",
    "longitude": "-90.10001084823105",
    "latitude": "30.014549560698025",
    "geocoded_column": {
      "latitude": "30.014549560698025",
      "longitude": "-90.10001084823105"
    }
  },
  {
    "service_request": "2023-996847",
    "request_type": "Property Maintenance",
    "request_reason": "Property Maintenance",
    "date_created": "2023-05-04T15:21:30.000",
    "date_modified": "2023-05-04T15:21:31.000",
    "request_status": "Pending",
    "responsible_agency": "Department of Code Enforcement",
    "final_address": "2718 Palmyra St",
    "address_councildis": "B",
    "status": "Pending",
    "rowid": "996847",
    "final_x": "3674660.50721",
    "final_y": "534530.861765",
    "longitude": "-90.08956380877531",
    "latitude": "29.963980434907782",
    "geocoded_column": {
      "latitude": "29.963980434907782",
      "longitude": "-90.08956380877531"
    }
  },
  {
    "service_request": "2023-996846",
    "request_type": "Trash/Recycling",
    "request_reason": "Request a Large Item Pick Up",
    "date_created": "2023-05-04T15:18:46.000",
    "date_modified": "2023-05-04T15:18:47.000",
    "request_status": "Pending",
    "responsible_agency": "Department of Sanitation",
    "final_address": "2215 Baronne St",
    "address_councildis": "B",
    "status": "Assigned to Contractor",
    "contractor": "Richards Disposal",
    "rowid": "996846",
    "final_x": "3676863.87387",
    "final_y": "524438.52998",
    "longitude": "-90.08295355703329",
    "latitude": "29.93616393804509",
    "geocoded_column": {
      "latitude": "29.93616393804509",
      "longitude": "-90.08295355703329"
    }
  },
  {
    "service_request": "2023-996845",
    "request_type": "Trash/Recycling",
    "request_reason": "Request a Large Item Pick Up",
    "date_created": "2023-05-04T15:12:56.000",
    "date_modified": "2023-05-04T15:12:57.000",
    "request_status": "Pending",
    "responsible_agency": "Department of Sanitation",
    "final_address": "4942 Hauck Dr",
    "address_councildis": "E",
    "status": "Assigned to Contractor",
    "contractor": "Waste Pro",
    "rowid": "996845",
    "final_x": "3714398.63557",
    "final_y": "557655.842971",
    "longitude": "-89.96320261407375",
    "latitude": "30.026319386727298",
    "geocoded_column": {
      "latitude": "30.026319386727298",
      "longitude": "-89.96320261407375"
    }
  },
  {
    "service_request": "2023-996844",
    "request_type": "Trash/Recycling",
    "request_reason": "MIssed Recycling Pick-Up",
    "date_created": "2023-05-04T15:08:35.000",
    "date_modified": "2023-05-04T15:08:36.000",
    "request_status": "Pending",
    "responsible_agency": "Department of Sanitation",
    "final_address": "4900 BLK Dauphine St",
    "address_councildis": "E",
    "status": "Assigned to Contractor",
    "contractor": "Waste Pro",
    "rowid": "996844",
    "final_x": "3695356.39534",
    "final_y": "533208.785732",
    "longitude": "-90.02425610958609",
    "latitude": "29.959711262522433",
    "geocoded_column": {
      "latitude": "29.959711262522433",
      "longitude": "-90.02425610958609"
    }
  },
  {
    "service_request": "2023-996843",
    "request_type": "Trash/Recycling",
    "request_reason": "Request a Large Item Pick Up",
    "date_created": "2023-05-04T15:06:42.000",
    "date_modified": "2023-05-04T15:06:43.000",
    "request_status": "Pending",
    "responsible_agency": "Department of Sanitation",
    "final_address": "4510 Arthur Dr",
    "address_councildis": "E",
    "status": "Assigned to Contractor",
    "contractor": "Waste Pro",
    "rowid": "996843",
    "final_x": "3707763.11979",
    "final_y": "554022.3574",
    "longitude": "-89.98430504937915",
    "latitude": "30.016545210799524",
    "geocoded_column": {
      "latitude": "30.016545210799524",
      "longitude": "-89.98430504937915"
    }
  },
  {
    "service_request": "2023-996842",
    "request_type": "Abandoned Vehicles",
    "request_reason": "Abandoned/Junk Vehicles",
    "date_created": "2023-05-04T15:05:24.000",
    "date_modified": "2023-05-04T15:05:24.000",
    "request_status": "Pending",
    "responsible_agency": "Department of Public Works",
    "final_address": "1600 BLK Dublin St",
    "address_councildis": "A",
    "status": "Pending",
    "rowid": "996842",
    "final_x": "3662768.16754",
    "final_y": "529776.106246",
    "longitude": "-90.12727695394733",
    "latitude": "29.95125598831277",
    "geocoded_column": {
      "latitude": "29.95125598831277",
      "longitude": "-90.12727695394733"
    }
  },
  {
    "service_request": "2023-996841",
    "request_type": "Trash/Recycling",
    "request_reason": "Missed Trash Pick-Up",
    "date_created": "2023-05-04T15:00:43.000",
    "date_modified": "2023-05-04T15:00:44.000",
    "request_status": "Pending",
    "responsible_agency": "Department of Sanitation",
    "final_address": "5333 Prytania St",
    "address_councildis": "B",
    "status": "Assigned to Contractor",
    "contractor": "Richards Disposal",
    "rowid": "996841",
    "final_x": "3667432.11693",
    "final_y": "520288.170424",
    "longitude": "-90.11286954763428",
    "latitude": "29.925031403752644",
    "geocoded_column": {
      "latitude": "29.925031403752644",
      "longitude": "-90.11286954763428"
    }
  },
  {
    "service_request": "2023-996840",
    "request_type": "Trash/Recycling",
    "request_reason": "Repair Trash Cart",
    "date_created": "2023-05-04T15:00:15.000",
    "date_modified": "2023-05-04T15:00:16.000",
    "request_status": "Pending",
    "responsible_agency": "Department of Sanitation",
    "final_address": "3441 Vespasian St",
    "address_councildis": "C",
    "status": "Assigned to Contractor",
    "contractor": "Richards Disposal",
    "rowid": "996840",
    "final_x": "3695899.12451",
    "final_y": "522574.917818",
    "longitude": "-90.02292632239515",
    "latitude": "29.930454759931084",
    "geocoded_column": {
      "latitude": "29.930454759931084",
      "longitude": "-90.02292632239515"
    }
  },
  {
    "service_request": "2023-996839",
    "request_type": "Trash/Recycling",
    "request_reason": "Missed Trash Pick-Up",
    "date_created": "2023-05-04T14:56:49.000",
    "date_modified": "2023-05-04T14:56:50.000",
    "request_status": "Pending",
    "responsible_agency": "Department of Sanitation",
    "final_address": "612 Moss St",
    "address_councildis": "A",
    "status": "Assigned to Contractor",
    "contractor": "Richards Disposal",
    "rowid": "996839",
    "final_x": "3674346.33147",
    "final_y": "538326.226953",
    "longitude": "-90.09042594106351",
    "latitude": "29.974425777838345",
    "geocoded_column": {
      "latitude": "29.974425777838345",
      "longitude": "-90.09042594106351"
    }
  },
  {
    "service_request": "2023-996838",
    "request_type": "Trash/Recycling",
    "request_reason": "Order Recycling Cart",
    "date_created": "2023-05-04T14:53:46.000",
    "date_modified": "2023-05-04T14:53:47.000",
    "request_status": "Pending",
    "responsible_agency": "Department of Sanitation",
    "final_address": "212 Warrington Dr",
    "address_councildis": "D",
    "status": "Pending",
    "rowid": "996838",
    "final_x": "3682422.9117",
    "final_y": "547121.242129",
    "longitude": "-90.06461064013932",
    "latitude": "29.99836561032332",
    "geocoded_column": {
      "latitude": "29.99836561032332",
      "longitude": "-90.06461064013932"
    }
  },
  {
    "service_request": "2023-996837",
    "request_type": "Traffic Signals/Signs/Striping/Streetlights",
    "request_reason": "Traffic Signal Malfunctioning/Damaged",
    "date_created": "2023-05-04T14:50:45.000",
    "date_modified": "2023-05-04T14:50:46.000",
    "request_status": "Pending",
    "responsible_agency": "Department of Public Works",
    "final_address": "LUCERNE ST & ZENITH ST",
    "address_councildis": "E",
    "status": "Pending",
    "rowid": "996837",
    "final_x": "3710958.5",
    "final_y": "565675.58",
    "longitude": "-89.97377224922869",
    "latitude": "30.04848312180249",
    "geocoded_column": {
      "latitude": "30.04848312180249",
      "longitude": "-89.97377224922869"
    }
  },
  {
    "service_request": "2023-996836",
    "request_type": "Trash/Recycling",
    "request_reason": "Request a Large Item Pick Up",
    "date_created": "2023-05-04T14:49:31.000",
    "date_modified": "2023-05-04T14:49:32.000",
    "request_status": "Pending",
    "responsible_agency": "Department of Sanitation",
    "final_address": "5918 Babylon St",
    "address_councildis": "D",
    "status": "Assigned to Contractor",
    "contractor": "Waste Pro",
    "rowid": "996836",
    "final_x": "3695927.19568",
    "final_y": "555141.864473",
    "longitude": "-90.02166082920172",
    "latitude": "30.020001276475117",
    "geocoded_column": {
      "latitude": "30.020001276475117",
      "longitude": "-90.02166082920172"
    }
  },
  {
    "service_request": "2023-996835",
    "request_type": "Abandoned Vehicles",
    "request_reason": "Abandoned/Junk Vehicles",
    "date_created": "2023-05-04T14:46:12.000",
    "date_modified": "2023-05-04T14:46:13.000",
    "request_status": "Pending",
    "responsible_agency": "Department of Public Works",
    "final_address": "2601 Dryades St",
    "address_councildis": "B",
    "status": "Pending",
    "rowid": "996835",
    "final_x": "3675774.35137",
    "final_y": "523778.458299",
    "longitude": "-90.08641589088562",
    "latitude": "29.934381603126628",
    "geocoded_column": {
      "latitude": "29.934381603126628",
      "longitude": "-90.08641589088562"
    }
  },
  {
    "service_request": "2023-996834",
    "request_type": "Trash/Recycling",
    "request_reason": "Repair Trash Cart",
    "date_created": "2023-05-04T14:43:43.000",
    "date_modified": "2023-05-04T14:43:44.000",
    "request_status": "Pending",
    "responsible_agency": "Department of Sanitation",
    "final_address": "4626 Anson St",
    "address_councildis": "C",
    "status": "Assigned to Contractor",
    "contractor": "Richards Disposal",
    "rowid": "996834",
    "final_x": "3702184.78244",
    "final_y": "521632.275321",
    "longitude": "-90.00311814479304",
    "latitude": "29.927663666331934",
    "geocoded_column": {
      "latitude": "29.927663666331934",
      "longitude": "-90.00311814479304"
    }
  },
  {
    "service_request": "2023-996833",
    "request_type": "Abandoned Vehicles",
    "request_reason": "Abandoned/Junk Vehicles",
    "date_created": "2023-05-04T14:42:35.000",
    "date_modified": "2023-05-04T14:42:35.000",
    "request_status": "Pending",
    "responsible_agency": "Department of Public Works",
    "final_address": "4901 Pecan St",
    "address_councildis": "E",
    "status": "Pending",
    "rowid": "996833",
    "final_x": "3701810.23761",
    "final_y": "555082.665689",
    "longitude": "-90.00307458834556",
    "latitude": "30.019652017415027",
    "geocoded_column": {
      "latitude": "30.019652017415027",
      "longitude": "-90.00307458834556"
    }
  },
  {
    "service_request": "2023-996832",
    "request_type": "Property Maintenance",
    "request_reason": "Property Maintenance",
    "date_created": "2023-05-04T14:41:34.000",
    "date_modified": "2023-05-04T14:41:34.000",
    "request_status": "Pending",
    "responsible_agency": "Department of Code Enforcement",
    "final_address": "3011 St Claude Ave",
    "address_councildis": "C",
    "status": "Pending",
    "rowid": "996832",
    "final_x": "3688558.73481",
    "final_y": "536217.302279",
    "longitude": "-90.04561475367828",
    "latitude": "29.96819542422598",
    "geocoded_column": {
      "latitude": "29.96819542422598",
      "longitude": "-90.04561475367828"
    }
  },
  {
    "service_request": "2023-996831",
    "request_type": "Trash/Recycling",
    "request_reason": "Request a Large Item Pick Up",
    "date_created": "2023-05-04T14:39:04.000",
    "date_modified": "2023-05-04T14:39:06.000",
    "request_status": "Pending",
    "responsible_agency": "Department of Sanitation",
    "final_address": "7411 Farwood Dr",
    "address_councildis": "E",
    "status": "Assigned to Contractor",
    "contractor": "Waste Pro",
    "rowid": "996831",
    "final_x": "3701538.31805",
    "final_y": "556971.87209",
    "longitude": "-90.00386450006715",
    "latitude": "30.02485528736384",
    "geocoded_column": {
      "latitude": "30.02485528736384",
      "longitude": "-90.00386450006715"
    }
  },
  {
    "service_request": "2023-996830",
    "request_type": "Abandoned Vehicles",
    "request_reason": "Abandoned/Junk Vehicles",
    "date_created": "2023-05-04T14:38:57.000",
    "date_modified": "2023-05-04T14:38:58.000",
    "request_status": "Pending",
    "responsible_agency": "Department of Public Works",
    "final_address": "1530 Burdette St",
    "address_councildis": "A",
    "status": "Pending",
    "rowid": "996830",
    "final_x": "3663672.45626",
    "final_y": "528631.824192",
    "longitude": "-90.12445976233667",
    "latitude": "29.948083378815664",
    "geocoded_column": {
      "latitude": "29.948083378815664",
      "longitude": "-90.12445976233667"
    }
  },
  {
    "service_request": "2023-996829",
    "request_type": "Trash/Recycling",
    "request_reason": "Order Recycling Cart",
    "date_created": "2023-05-04T14:35:39.000",
    "date_modified": "2023-05-04T14:35:40.000",
    "request_status": "Pending",
    "responsible_agency": "Department of Sanitation",
    "final_address": "1529 Burdette St",
    "address_councildis": "A",
    "status": "Pending",
    "rowid": "996829",
    "final_x": "3663697.06906",
    "final_y": "528538.737472",
    "longitude": "-90.12438515039544",
    "latitude": "29.94782670625401",
    "geocoded_column": {
      "latitude": "29.94782670625401",
      "longitude": "-90.12438515039544"
    }
  },
  {
    "service_request": "2023-996828",
    "request_type": "Trash/Recycling",
    "request_reason": "Request a Large Item Pick Up",
    "date_created": "2023-05-04T14:30:39.000",
    "date_modified": "2023-05-04T14:30:40.000",
    "request_status": "Pending",
    "responsible_agency": "Department of Sanitation",
    "final_address": "4900 Laine Ave",
    "address_councildis": "E",
    "status": "Assigned to Contractor",
    "contractor": "Waste Pro",
    "rowid": "996828",
    "final_x": "3705557.45655",
    "final_y": "556146.434522",
    "longitude": "-89.99119533668149",
    "latitude": "30.022456820324344",
    "geocoded_column": {
      "latitude": "30.022456820324344",
      "longitude": "-89.99119533668149"
    }
  },
  {
    "service_request": "2023-996827",
    "request_type": "Trash/Recycling",
    "request_reason": "Request a Large Item Pick Up",
    "date_created": "2023-05-04T14:29:48.000",
    "date_modified": "2023-05-04T14:29:49.000",
    "request_status": "Pending",
    "responsible_agency": "Department of Sanitation",
    "final_address": "4420 Laine Ave",
    "address_councildis": "E",
    "status": "Assigned to Contractor",
    "contractor": "Waste Pro",
    "rowid": "996827",
    "final_x": "3705832.67377",
    "final_y": "553560.961047",
    "longitude": "-89.99042146860113",
    "latitude": "30.015338899735745",
    "geocoded_column": {
      "latitude": "30.015338899735745",
      "longitude": "-89.99042146860113"
    }
  },
  {
    "service_request": "2023-996825",
    "request_type": "Trash/Recycling",
    "request_reason": "MIssed Recycling Pick-Up",
    "date_created": "2023-05-04T14:29:28.000",
    "date_modified": "2023-05-04T14:29:28.000",
    "request_status": "Pending",
    "responsible_agency": "Department of Sanitation",
    "final_address": "719 S Dupre St",
    "address_councildis": "B",
    "status": "Assigned to Contractor",
    "contractor": "Richards Disposal",
    "rowid": "996825",
    "final_x": "3672957.52788",
    "final_y": "533648.490629",
    "longitude": "-90.0949717860096",
    "latitude": "29.96160492799689",
    "geocoded_column": {
      "latitude": "29.96160492799689",
      "longitude": "-90.0949717860096"
    }
  },
  {
    "service_request": "2023-996824",
    "request_type": "Taxi Issues",
    "request_reason": "Taxi Complaint",
    "date_created": "2023-05-04T14:25:03.000",
    "date_modified": "2023-05-04T14:25:03.000",
    "request_status": "Pending",
    "responsible_agency": "Ground Transportation Bureau",
    "status": "Pending",
    "rowid": "996824",
    "longitude": "0.0",
    "latitude": "0.0",
    "geocoded_column": {
      "latitude": "0.0",
      "longitude": "0.0"
    }
  },
  {
    "service_request": "2023-996823",
    "request_type": "Abandoned Vehicles",
    "request_reason": "Abandoned/Junk Vehicles",
    "date_created": "2023-05-04T14:24:34.000",
    "date_modified": "2023-05-04T14:26:07.000",
    "request_status": "Pending",
    "responsible_agency": "Department of Public Works",
    "final_address": "3100 BLK Constance St",
    "address_councildis": "B",
    "status": "Pending",
    "rowid": "996823",
    "final_x": "3676193.41234",
    "final_y": "519815.595655",
    "longitude": "-90.08522919790227",
    "latitude": "29.923472472048523",
    "geocoded_column": {
      "latitude": "29.923472472048523",
      "longitude": "-90.08522919790227"
    }
  },
  {
    "service_request": "2023-996822",
    "request_type": "Parks & Parkways",
    "request_reason": "Request Tree Service (Right of Way/Public Property)",
    "date_created": "2023-05-04T14:24:28.000",
    "date_modified": "2023-05-04T14:24:28.000",
    "request_status": "Pending",
    "responsible_agency": "Department of Parks & Parkway",
    "final_address": "2501 Napoleon Ave",
    "address_councildis": "B",
    "status": "Pending",
    "rowid": "996822",
    "final_x": "3670618.87527",
    "final_y": "524085.494268",
    "longitude": "-90.10268121577735",
    "latitude": "29.935379109795438",
    "geocoded_column": {
      "latitude": "29.935379109795438",
      "longitude": "-90.10268121577735"
    }
  },
  {
    "service_request": "2023-996821",
    "request_type": "Parks & Parkways",
    "request_reason": "Request Tree Service (Right of Way/Public Property)",
    "date_created": "2023-05-04T14:19:15.000",
    "date_modified": "2023-05-04T14:19:15.000",
    "request_status": "Pending",
    "responsible_agency": "Department of Parks & Parkway",
    "final_address": "1473 N Roman St",
    "address_councildis": "D",
    "status": "Pending",
    "rowid": "996821",
    "final_x": "3681065.60987",
    "final_y": "537557.557896",
    "longitude": "-90.06923164781463",
    "latitude": "29.972110084487774",
    "geocoded_column": {
      "latitude": "29.972110084487774",
      "longitude": "-90.06923164781463"
    }
  },
  {
    "service_request": "2023-996820",
    "request_type": "Traffic Signals/Signs/Striping/Streetlights",
    "request_reason": "Street Light Outage/Malfunction",
    "date_created": "2023-05-04T14:18:35.000",
    "date_modified": "2023-05-04T14:18:36.000",
    "request_status": "Pending",
    "responsible_agency": "Department of Public Works",
    "final_address": "2958 Seine St",
    "address_councildis": "C",
    "status": "Assigned to Contractor",
    "contractor": "Legacy Professional Services",
    "rowid": "996820",
    "final_x": "3694363.30038",
    "final_y": "520570.111672",
    "longitude": "-90.0278467691387",
    "latitude": "29.92499042989757",
    "geocoded_column": {
      "latitude": "29.92499042989757",
      "longitude": "-90.0278467691387"
    }
  },
  {
    "service_request": "2023-996819",
    "request_type": "Roads/Drainage",
    "request_reason": "Damaged Sidewalk",
    "date_created": "2023-05-04T14:18:33.000",
    "date_modified": "2023-05-04T14:20:50.000",
    "request_status": "Pending",
    "responsible_agency": "Department of Public Works",
    "final_address": "619 Olivier St",
    "address_councildis": "C",
    "status": "Pending",
    "rowid": "996819",
    "final_x": "3687245.62844",
    "final_y": "529328.734657",
    "longitude": "-90.05000523477037",
    "latitude": "29.94929475236231",
    "geocoded_column": {
      "latitude": "29.94929475236231",
      "longitude": "-90.05000523477037"
    }
  },
  {
    "service_request": "2023-996818",
    "request_type": "Trash/Recycling",
    "request_reason": "Missed Trash Pick-Up",
    "date_created": "2023-05-04T14:16:53.000",
    "date_modified": "2023-05-04T14:16:54.000",
    "request_status": "Pending",
    "responsible_agency": "Department of Sanitation",
    "final_address": "1015 First St",
    "address_councildis": "B",
    "status": "Assigned to Contractor",
    "contractor": "Richards Disposal",
    "rowid": "996818",
    "final_x": "3678240.54843",
    "final_y": "521309.816185",
    "longitude": "-90.07871550639318",
    "latitude": "29.927519620493378",
    "geocoded_column": {
      "latitude": "29.927519620493378",
      "longitude": "-90.07871550639318"
    }
  },
  {
    "service_request": "2023-996817",
    "request_type": "Trash/Recycling",
    "request_reason": "Repair Trash Cart",
    "date_created": "2023-05-04T14:16:25.000",
    "date_modified": "2023-05-04T14:16:26.000",
    "request_status": "Pending",
    "responsible_agency": "Department of Sanitation",
    "final_address": "2741 St Philip St",
    "address_councildis": "A",
    "status": "Assigned to Contractor",
    "contractor": "Richards Disposal",
    "rowid": "996817",
    "final_x": "3677106.61749",
    "final_y": "538123.513353",
    "longitude": "-90.08171528580198",
    "latitude": "29.973785768266378",
    "geocoded_column": {
      "latitude": "29.973785768266378",
      "longitude": "-90.08171528580198"
    }
  },
  {
    "service_request": "2023-996816",
    "request_type": "Trash/Recycling",
    "request_reason": "Order Trash Cart",
    "date_created": "2023-05-04T14:13:45.000",
    "date_modified": "2023-05-04T14:13:46.000",
    "request_status": "Pending",
    "responsible_agency": "Department of Sanitation",
    "final_address": "7900 W Laverne St",
    "address_councildis": "D",
    "status": "Assigned to Contractor",
    "contractor": "Waste Pro",
    "rowid": "996816",
    "final_x": "3694849.51638",
    "final_y": "559391.049885",
    "longitude": "-90.02491262644251",
    "latitude": "30.031718800436394",
    "geocoded_column": {
      "latitude": "30.031718800436394",
      "longitude": "-90.02491262644251"
    }
  },
  {
    "service_request": "2023-996815",
    "request_type": "Trash/Recycling",
    "request_reason": "Repair Trash Cart",
    "date_created": "2023-05-04T14:12:37.000",
    "date_modified": "2023-05-04T14:12:38.000",
    "request_status": "Pending",
    "responsible_agency": "Department of Sanitation",
    "final_address": "4168 Orleans Ave, New Orleans, Louisiana, 70119",
    "address_councildis": "A",
    "status": "Assigned to Contractor",
    "contractor": "Richards Disposal",
    "rowid": "996815",
    "final_x": "3672175.96084",
    "final_y": "540385.834251",
    "longitude": "-90.09721033206395",
    "latitude": "29.980153552476356",
    "geocoded_column": {
      "latitude": "29.980153552476356",
      "longitude": "-90.09721033206395"
    }
  },
  {
    "service_request": "2023-996814",
    "request_type": "Trash/Recycling",
    "request_reason": "Illegal Dumping",
    "date_created": "2023-05-04T14:12:15.000",
    "date_modified": "2023-05-04T14:12:15.000",
    "request_status": "Pending",
    "responsible_agency": "Department of Sanitation",
    "final_address": "4256 Vincennes Pl",
    "address_councildis": "B",
    "status": "Pending",
    "rowid": "996814",
    "final_x": "3668819.6146",
    "final_y": "531759.910531",
    "longitude": "-90.10810243700307",
    "latitude": "29.95653427301452",
    "geocoded_column": {
      "latitude": "29.95653427301452",
      "longitude": "-90.10810243700307"
    }
  },
  {
    "service_request": "2023-996813",
    "request_type": "Trash/Recycling",
    "request_reason": "Missed Trash Pick-Up",
    "date_created": "2023-05-04T14:11:29.000",
    "date_modified": "2023-05-04T14:11:30.000",
    "request_status": "Pending",
    "responsible_agency": "Department of Sanitation",
    "final_address": "7900 W Laverne St",
    "address_councildis": "D",
    "status": "Assigned to Contractor",
    "contractor": "Waste Pro",
    "rowid": "996813",
    "final_x": "3694849.51638",
    "final_y": "559391.049885",
    "longitude": "-90.02491262644251",
    "latitude": "30.031718800436394",
    "geocoded_column": {
      "latitude": "30.031718800436394",
      "longitude": "-90.02491262644251"
    }
  },
  {
    "service_request": "2023-996810",
    "request_type": "Trash/Recycling",
    "request_reason": "Order Recycling Cart",
    "date_created": "2023-05-04T14:02:13.000",
    "date_modified": "2023-05-04T22:04:40.000",
    "request_status": "Pending",
    "responsible_agency": "Department of Sanitation",
    "final_address": "807 Voisin St, New Orleans, Louisiana, 70124",
    "address_councildis": "A",
    "rowid": "996810",
    "final_x": "3668723.05095",
    "final_y": "543265.705486",
    "longitude": "-90.1080188395133",
    "latitude": "29.98817419149916",
    "geocoded_column": {
      "latitude": "29.98817419149916",
      "longitude": "-90.1080188395133"
    }
  },
  {
    "service_request": "2023-996809",
    "request_type": "Parks & Parkways",
    "request_reason": "Request Tree Service (Right of Way/Public Property)",
    "date_created": "2023-05-04T14:02:12.000",
    "date_modified": "2023-05-04T14:03:35.000",
    "request_status": "Pending",
    "responsible_agency": "Department of Parks & Parkway",
    "final_address": "1524 Owens Blvd",
    "address_councildis": "D",
    "status": "Pending",
    "rowid": "996809",
    "final_x": "3679054.4797",
    "final_y": "548964.223635",
    "longitude": "-90.07518758103444",
    "latitude": "30.00353527717865",
    "geocoded_column": {
      "latitude": "30.00353527717865",
      "longitude": "-90.07518758103444"
    }
  },
  {
    "service_request": "2023-996808",
    "request_type": "Parks & Parkways",
    "request_reason": "Request Tree Service (Right of Way/Public Property)",
    "date_created": "2023-05-04T14:02:00.000",
    "date_modified": "2023-05-04T14:02:00.000",
    "request_status": "Pending",
    "responsible_agency": "Department of Parks & Parkway",
    "final_address": "8502 Pritchard Pl",
    "address_councildis": "A",
    "status": "Pending",
    "rowid": "996808",
    "final_x": "3664953.65037",
    "final_y": "533842.774597",
    "longitude": "-90.12024030824577",
    "latitude": "29.962374567954047",
    "geocoded_column": {
      "latitude": "29.962374567954047",
      "longitude": "-90.12024030824577"
    }
  },
  {
    "service_request": "2023-996807",
    "request_type": "Trash/Recycling",
    "request_reason": "Repair Recycling Cart",
    "date_created": "2023-05-04T14:01:15.000",
    "date_modified": "2023-05-04T14:01:16.000",
    "request_status": "Pending",
    "responsible_agency": "Department of Sanitation",
    "final_address": "1835 Octavia St",
    "address_councildis": "A",
    "status": "Pending",
    "rowid": "996807",
    "final_x": "3667355.00628",
    "final_y": "522624.402618",
    "longitude": "-90.11303442226357",
    "latitude": "29.93145755908129",
    "geocoded_column": {
      "latitude": "29.93145755908129",
      "longitude": "-90.11303442226357"
    }
  },
  {
    "service_request": "2023-996806",
    "request_type": "Trash/Recycling",
    "request_reason": "Missed Trash Pick-Up",
    "date_created": "2023-05-04T13:53:23.000",
    "date_modified": "2023-05-04T13:53:23.000",
    "request_status": "Pending",
    "responsible_agency": "Department of Sanitation",
    "final_address": "538 Lowerline St",
    "address_councildis": "A",
    "status": "Assigned to Contractor",
    "contractor": "Richards Disposal",
    "rowid": "996806",
    "final_x": "3662218.18874",
    "final_y": "524729.031804",
    "longitude": "-90.12918099580533",
    "latitude": "29.93739405007376",
    "geocoded_column": {
      "latitude": "29.93739405007376",
      "longitude": "-90.12918099580533"
    }
  },
  {
    "service_request": "2023-996804",
    "request_type": "Trash/Recycling",
    "request_reason": "Request a Large Item Pick Up",
    "date_created": "2023-05-04T13:43:13.000",
    "date_modified": "2023-05-04T13:43:14.000",
    "request_status": "Pending",
    "responsible_agency": "Department of Sanitation",
    "final_address": "4908 Pecan St",
    "address_councildis": "E",
    "status": "Assigned to Contractor",
    "contractor": "Waste Pro",
    "rowid": "996804",
    "final_x": "3701654.75191",
    "final_y": "555110.973529",
    "longitude": "-90.0035648305922",
    "latitude": "30.019734815594887",
    "geocoded_column": {
      "latitude": "30.019734815594887",
      "longitude": "-90.0035648305922"
    }
  },
  {
    "service_request": "2023-996803",
    "request_type": "Roads/Drainage",
    "request_reason": "Pothole",
    "date_created": "2023-05-04T13:42:19.000",
    "date_modified": "2023-05-04T13:42:19.000",
    "request_status": "Pending",
    "responsible_agency": "Department of Public Works",
    "final_address": "1900 BLK Pauger St",
    "address_councildis": "C",
    "status": "Pending",
    "rowid": "996803",
    "final_x": "3683829.9138",
    "final_y": "536763.497455",
    "longitude": "-90.06052938669212",
    "latitude": "29.969842550660875",
    "geocoded_column": {
      "latitude": "29.969842550660875",
      "longitude": "-90.06052938669212"
    }
  },
  {
    "service_request": "2023-996802",
    "request_type": "Tax and Revenue",
    "request_reason": "Sales Tax Question",
    "date_created": "2023-05-04T13:36:30.000",
    "date_modified": "2023-05-04T13:36:30.000",
    "request_status": "Pending",
    "responsible_agency": "Bureau of Revenue",
    "status": "Pending",
    "rowid": "996802",
    "longitude": "0.0",
    "latitude": "0.0",
    "geocoded_column": {
      "latitude": "0.0",
      "longitude": "0.0"
    }
  },
  {
    "service_request": "2023-996801",
    "request_type": "Trash/Recycling",
    "request_reason": "Replace Trash Cart",
    "date_created": "2023-05-04T13:30:06.000",
    "date_modified": "2023-05-04T13:30:07.000",
    "request_status": "Pending",
    "responsible_agency": "Department of Sanitation",
    "final_address": "1446 N Derbigny St",
    "address_councildis": "D",
    "status": "Assigned to Contractor",
    "contractor": "IV Waste",
    "rowid": "996801",
    "final_x": "3681276.24002",
    "final_y": "537148.105096",
    "longitude": "-90.06858071647815",
    "latitude": "29.970977839579188",
    "geocoded_column": {
      "latitude": "29.970977839579188",
      "longitude": "-90.06858071647815"
    }
  },
  {
    "service_request": "2023-996800",
    "request_type": "Abandoned Vehicles",
    "request_reason": "Abandoned/Junk Vehicles",
    "date_created": "2023-05-04T13:28:32.000",
    "date_modified": "2023-05-04T13:28:32.000",
    "request_status": "Pending",
    "responsible_agency": "Department of Public Works",
    "final_address": "5000 BLK S Prieur St",
    "address_councildis": "B",
    "status": "Pending",
    "rowid": "996800",
    "final_x": "3668710.08512",
    "final_y": "526610.266121",
    "longitude": "-90.1086220981858",
    "latitude": "29.942377650914146",
    "geocoded_column": {
      "latitude": "29.942377650914146",
      "longitude": "-90.1086220981858"
    }
  },
  {
    "service_request": "2023-996799",
    "request_type": "Roads/Drainage",
    "request_reason": "Damaged Sidewalk",
    "date_created": "2023-05-04T13:21:35.000",
    "date_modified": "2023-05-04T13:59:19.000",
    "case_close_date": "2023-05-04T08:59:19.000",
    "request_status": "Closed",
    "responsible_agency": "Department of Public Works",
    "final_address": "7500 BLK Scottwood Dr",
    "address_councildis": "E",
    "status": "Resolved",
    "rowid": "996799",
    "final_x": "3717430.9191",
    "final_y": "570513.097935",
    "longitude": "-89.95313170307645",
    "latitude": "30.0615715498675",
    "geocoded_column": {
      "latitude": "30.0615715498675",
      "longitude": "-89.95313170307645"
    }
  },
  {
    "service_request": "2023-996798",
    "request_type": "Trash/Recycling",
    "request_reason": "Request a Large Item Pick Up",
    "date_created": "2023-05-04T13:21:18.000",
    "date_modified": "2023-05-04T13:21:19.000",
    "request_status": "Pending",
    "responsible_agency": "Department of Sanitation",
    "final_address": "320 Eliza St",
    "address_councildis": "C",
    "status": "Assigned to Contractor",
    "contractor": "Richards Disposal",
    "rowid": "996798",
    "final_x": "3686491.69743",
    "final_y": "529589.432577",
    "longitude": "-90.05237652217703",
    "latitude": "29.950034779183103",
    "geocoded_column": {
      "latitude": "29.950034779183103",
      "longitude": "-90.05237652217703"
    }
  },
  {
    "service_request": "2023-996797",
    "request_type": "Trash/Recycling",
    "request_reason": "Missed Trash Pick-Up",
    "date_created": "2023-05-04T13:18:00.000",
    "date_modified": "2023-05-04T13:18:01.000",
    "request_status": "Pending",
    "responsible_agency": "Department of Sanitation",
    "final_address": "7343 Read Blvd",
    "address_councildis": "E",
    "status": "Assigned to Contractor",
    "contractor": "Waste Pro",
    "rowid": "996797",
    "final_x": "3709306.2364",
    "final_y": "563243.791136",
    "longitude": "-89.97908515689079",
    "latitude": "30.041850478552938",
    "geocoded_column": {
      "latitude": "30.041850478552938",
      "longitude": "-89.97908515689079"
    }
  },
  {
    "service_request": "2023-996796",
    "request_type": "Abandoned Vehicles",
    "request_reason": "Abandoned/Junk Vehicles",
    "date_created": "2023-05-04T13:13:08.000",
    "date_modified": "2023-05-04T13:13:08.000",
    "request_status": "Pending",
    "responsible_agency": "Department of Public Works",
    "final_address": "2157 Humanity St",
    "address_councildis": "D",
    "status": "Pending",
    "rowid": "996796",
    "final_x": "3684046.2742",
    "final_y": "544790.738703",
    "longitude": "-90.05956429042625",
    "latitude": "29.9919080345291",
    "geocoded_column": {
      "latitude": "29.9919080345291",
      "longitude": "-90.05956429042625"
    }
  },
  {
    "service_request": "2023-996795",
    "request_type": "Traffic Signals/Signs/Striping/Streetlights",
    "request_reason": "Street Name Sign Damaged or Missing",
    "date_created": "2023-05-04T13:10:12.000",
    "date_modified": "2023-05-04T13:10:12.000",
    "request_status": "Pending",
    "responsible_agency": "Department of Public Works",
    "final_address": "4800 Redwood St",
    "address_councildis": "E",
    "status": "Pending",
    "rowid": "996795",
    "final_x": "3712387.7669",
    "final_y": "556423.85929",
    "longitude": "-89.9696029879221",
    "latitude": "30.022997878525725",
    "geocoded_column": {
      "latitude": "30.022997878525725",
      "longitude": "-89.9696029879221"
    }
  },
  {
    "service_request": "2023-996794",
    "request_type": "Traffic Signals/Signs/Striping/Streetlights",
    "request_reason": "Disabled Parking Sign ",
    "date_created": "2023-05-04T12:55:31.000",
    "date_modified": "2023-05-04T12:58:01.000",
    "request_status": "Pending",
    "responsible_agency": "Department of Public Works",
    "final_address": "1520 Gentilly Blvd",
    "address_councildis": "D",
    "status": "Pending",
    "rowid": "996794",
    "final_x": "3678384.32213",
    "final_y": "540024.272395",
    "longitude": "-90.07761422747083",
    "latitude": "29.978973762928522",
    "geocoded_column": {
      "latitude": "29.978973762928522",
      "longitude": "-90.07761422747083"
    }
  },
  {
    "service_request": "2023-996793",
    "request_type": "Roads/Drainage",
    "request_reason": "Catch Basin - Clogged",
    "date_created": "2023-05-04T12:52:36.000",
    "date_modified": "2023-05-04T12:52:36.000",
    "request_status": "Pending",
    "responsible_agency": "Department of Public Works",
    "final_address": "616 Girod St",
    "address_councildis": "B",
    "status": "Pending",
    "rowid": "996793",
    "final_x": "3680749.7684",
    "final_y": "528449.54208",
    "longitude": "-90.07054613099928",
    "latitude": "29.947075715320903",
    "geocoded_column": {
      "latitude": "29.947075715320903",
      "longitude": "-90.07054613099928"
    }
  },
  {
    "service_request": "2023-996792",
    "request_type": "Trash/Recycling",
    "request_reason": "Request a Large Item Pick Up",
    "date_created": "2023-05-04T12:50:27.000",
    "date_modified": "2023-05-04T12:50:27.000",
    "request_status": "Pending",
    "responsible_agency": "Department of Sanitation",
    "final_address": "3747 Pin Oak Ave",
    "address_councildis": "C",
    "status": "Assigned to Contractor",
    "contractor": "Richards Disposal",
    "rowid": "996792",
    "final_x": "3704642.50679",
    "final_y": "514368.936819",
    "longitude": "-89.99562743970773",
    "latitude": "29.907613309895346",
    "geocoded_column": {
      "latitude": "29.907613309895346",
      "longitude": "-89.99562743970773"
    }
  },
  {
    "service_request": "2023-996791",
    "request_type": "Property Maintenance",
    "request_reason": "Property Maintenance",
    "date_created": "2023-05-04T12:49:07.000",
    "date_modified": "2023-05-04T13:59:24.000",
    "request_status": "Pending",
    "responsible_agency": "Department of Code Enforcement",
    "final_address": "7915 Edward St",
    "address_councildis": "E",
    "status": "Pending",
    "rowid": "996791",
    "final_x": "3700723.71415",
    "final_y": "561790.108831",
    "longitude": "-90.00626216935078",
    "latitude": "30.038129535978392",
    "geocoded_column": {
      "latitude": "30.038129535978392",
      "longitude": "-90.00626216935078"
    }
  },
  {
    "service_request": "2023-996790",
    "request_type": "Trash/Recycling",
    "request_reason": "Order Recycling Cart",
    "date_created": "2023-05-04T12:45:37.000",
    "date_modified": "2023-05-04T12:45:38.000",
    "request_status": "Pending",
    "responsible_agency": "Department of Sanitation",
    "final_address": "5728 Wildair Dr",
    "address_councildis": "D",
    "status": "Pending",
    "rowid": "996790",
    "final_x": "3681468.44021",
    "final_y": "554054.467288",
    "longitude": "-90.06738383208824",
    "latitude": "30.017458505911662",
    "geocoded_column": {
      "latitude": "30.017458505911662",
      "longitude": "-90.06738383208824"
    }
  },
  {
    "service_request": "2023-996789",
    "request_type": "Trash/Recycling",
    "request_reason": "Order Trash Cart",
    "date_created": "2023-05-04T12:45:02.000",
    "date_modified": "2023-05-04T12:45:03.000",
    "request_status": "Pending",
    "responsible_agency": "Department of Sanitation",
    "final_address": "5728 Wildair Dr",
    "address_councildis": "D",
    "status": "Assigned to Contractor",
    "contractor": "IV Waste",
    "rowid": "996789",
    "final_x": "3681468.44021",
    "final_y": "554054.467288",
    "longitude": "-90.06738383208824",
    "latitude": "30.017458505911662",
    "geocoded_column": {
      "latitude": "30.017458505911662",
      "longitude": "-90.06738383208824"
    }
  },
  {
    "service_request": "2023-996788",
    "request_type": "Abandoned Vehicles",
    "request_reason": "Abandoned/Junk Vehicles",
    "date_created": "2023-05-04T12:44:19.000",
    "date_modified": "2023-05-04T12:44:20.000",
    "request_status": "Pending",
    "responsible_agency": "Department of Public Works",
    "final_address": "4818 Allen St",
    "address_councildis": "D",
    "status": "Pending",
    "rowid": "996788",
    "final_x": "3681588.17084",
    "final_y": "550314.86914",
    "longitude": "-90.06713609854724",
    "latitude": "30.007172328041843",
    "geocoded_column": {
      "latitude": "30.007172328041843",
      "longitude": "-90.06713609854724"
    }
  },
  {
    "service_request": "2023-996787",
    "request_type": "Trash/Recycling",
    "request_reason": "Order Trash Cart",
    "date_created": "2023-05-04T12:43:43.000",
    "date_modified": "2023-05-04T12:43:44.000",
    "request_status": "Pending",
    "responsible_agency": "Department of Sanitation",
    "final_address": "415 Cherokee St",
    "address_councildis": "A",
    "status": "Assigned to Contractor",
    "contractor": "Richards Disposal",
    "rowid": "996787",
    "final_x": "3661804.77216",
    "final_y": "524916.513788",
    "longitude": "-90.13047997302154",
    "latitude": "29.937921505860167",
    "geocoded_column": {
      "latitude": "29.937921505860167",
      "longitude": "-90.13047997302154"
    }
  },
  {
    "service_request": "2023-996786",
    "request_type": "Roads/Drainage",
    "request_reason": "Drainage Issue (Catch Basins, Culverts, Ditches, and Manhole Covers)",
    "date_created": "2023-05-04T12:42:04.000",
    "date_modified": "2023-05-04T12:42:04.000",
    "request_status": "Pending",
    "responsible_agency": "Department of Public Works",
    "final_address": "600 BLK S Maestri Pl",
    "address_councildis": "B",
    "status": "Pending",
    "rowid": "996786",
    "final_x": "3680768.05969",
    "final_y": "528690.668128",
    "longitude": "-90.07047998788093",
    "latitude": "29.947738176786",
    "geocoded_column": {
      "latitude": "29.947738176786",
      "longitude": "-90.07047998788093"
    }
  },
  {
    "service_request": "2023-996785",
    "request_type": "Trash/Recycling",
    "request_reason": "Order Recycling Cart",
    "date_created": "2023-05-04T12:40:44.000",
    "date_modified": "2023-05-04T12:40:44.000",
    "request_status": "Pending",
    "responsible_agency": "Department of Sanitation",
    "final_address": "7047 Louis Xiv St",
    "address_councildis": "A",
    "status": "Pending",
    "rowid": "996785",
    "final_x": "3668803.45447",
    "final_y": "554442.844952",
    "longitude": "-90.10738713869574",
    "latitude": "30.018905070627447",
    "geocoded_column": {
      "latitude": "30.018905070627447",
      "longitude": "-90.10738713869574"
    }
  },
  {
    "service_request": "2023-996784",
    "request_type": "Trash/Recycling",
    "request_reason": "Request a Large Item Pick Up",
    "date_created": "2023-05-04T12:39:44.000",
    "date_modified": "2023-05-04T12:39:45.000",
    "request_status": "Pending",
    "responsible_agency": "Department of Sanitation",
    "final_address": "2226 Burgundy St",
    "address_councildis": "C",
    "status": "Assigned to Contractor",
    "contractor": "IV Waste",
    "rowid": "996784",
    "final_x": "3685343.30722",
    "final_y": "535574.711238",
    "longitude": "-90.05579181515296",
    "latitude": "29.966527490566225",
    "geocoded_column": {
      "latitude": "29.966527490566225",
      "longitude": "-90.05579181515296"
    }
  },
  {
    "service_request": "2023-996783",
    "request_type": "Trash/Recycling",
    "request_reason": "Order Trash Cart",
    "date_created": "2023-05-04T12:38:45.000",
    "date_modified": "2023-05-04T12:38:46.000",
    "request_status": "Pending",
    "responsible_agency": "Department of Sanitation",
    "final_address": "2627 Orleans Ave",
    "address_councildis": "D",
    "status": "Assigned to Contractor",
    "contractor": "Richards Disposal",
    "rowid": "996783",
    "final_x": "3677062.18914",
    "final_y": "536878.414152",
    "longitude": "-90.08189854709236",
    "latitude": "29.97036350543574",
    "geocoded_column": {
      "latitude": "29.97036350543574",
      "longitude": "-90.08189854709236"
    }
  },
  {
    "service_request": "2023-996782",
    "request_type": "Traffic Signals/Signs/Striping/Streetlights",
    "request_reason": "Street Light Outage/Malfunction",
    "date_created": "2023-05-04T12:38:21.000",
    "date_modified": "2023-05-04T12:38:21.000",
    "request_status": "Pending",
    "responsible_agency": "Department of Public Works",
    "final_address": "3012 St Roch Ave",
    "address_councildis": "D",
    "status": "Assigned to Contractor",
    "contractor": "Legacy Professional Services",
    "rowid": "996782",
    "final_x": "3685778.29052",
    "final_y": "543887.295246",
    "longitude": "-90.054125080802",
    "latitude": "29.989370832147866",
    "geocoded_column": {
      "latitude": "29.989370832147866",
      "longitude": "-90.054125080802"
    }
  },
  {
    "service_request": "2023-996781",
    "request_type": "Traffic Signals/Signs/Striping/Streetlights",
    "request_reason": "Street Light Knocked Down/Leaning",
    "date_created": "2023-05-04T12:37:13.000",
    "date_modified": "2023-05-04T12:37:14.000",
    "request_status": "Pending",
    "responsible_agency": "Department of Public Works",
    "final_address": "600 BLK N Maestri Pl",
    "address_councildis": "B",
    "status": "Pending",
    "contractor": "Legacy Professional Services",
    "rowid": "996781",
    "final_x": "3680864.01652",
    "final_y": "529078.689334",
    "longitude": "-90.0701635086232",
    "latitude": "29.948802196521758",
    "geocoded_column": {
      "latitude": "29.948802196521758",
      "longitude": "-90.0701635086232"
    }
  },
  {
    "service_request": "2023-996780",
    "request_type": "Trash/Recycling",
    "request_reason": "Illegal Dumping",
    "date_created": "2023-05-04T12:33:50.000",
    "date_modified": "2023-05-04T12:33:52.000",
    "request_status": "Pending",
    "responsible_agency": "Department of Sanitation",
    "final_address": "1916 St Ann St",
    "address_councildis": "D",
    "status": "Pending",
    "rowid": "996780",
    "final_x": "3679253.37999",
    "final_y": "535397.214406",
    "longitude": "-90.0750298936537",
    "latitude": "29.96622472844983",
    "geocoded_column": {
      "latitude": "29.96622472844983",
      "longitude": "-90.0750298936537"
    }
  },
  {
    "service_request": "2023-996779",
    "request_type": "Property Maintenance",
    "request_reason": "Property Maintenance",
    "date_created": "2023-05-04T12:32:50.000",
    "date_modified": "2023-05-04T12:32:50.000",
    "request_status": "Pending",
    "responsible_agency": "Department of Code Enforcement",
    "final_address": "700 BLK Girod St",
    "address_councildis": "B",
    "status": "Pending",
    "rowid": "996779",
    "final_x": "3680326.75512",
    "final_y": "528598.118444",
    "longitude": "-90.07187657702087",
    "latitude": "29.9474970623516",
    "geocoded_column": {
      "latitude": "29.9474970623516",
      "longitude": "-90.07187657702087"
    }
  },
  {
    "service_request": "2023-996778",
    "request_type": "Traffic Signals/Signs/Striping/Streetlights",
    "request_reason": "Street Name Sign Damaged or Missing",
    "date_created": "2023-05-04T12:27:58.000",
    "date_modified": "2023-05-04T12:27:58.000",
    "request_status": "Pending",
    "responsible_agency": "Department of Public Works",
    "final_address": "616 Girod St",
    "address_councildis": "B",
    "status": "Pending",
    "rowid": "996778",
    "final_x": "3680749.7684",
    "final_y": "528449.54208",
    "longitude": "-90.07054613099928",
    "latitude": "29.947075715320903",
    "geocoded_column": {
      "latitude": "29.947075715320903",
      "longitude": "-90.07054613099928"
    }
  },
  {
    "service_request": "2023-996777",
    "request_type": "Trash/Recycling",
    "request_reason": "Missed Trash Pick-Up",
    "date_created": "2023-05-04T12:27:15.000",
    "date_modified": "2023-05-04T12:27:15.000",
    "request_status": "Pending",
    "responsible_agency": "Department of Sanitation",
    "final_address": "143 Alvin Callender St",
    "address_councildis": "A",
    "status": "Assigned to Contractor",
    "contractor": "Richards Disposal",
    "rowid": "996777",
    "final_x": "3661170.24134",
    "final_y": "523405.139323",
    "longitude": "-90.13253325485792",
    "latitude": "29.93378400279007",
    "geocoded_column": {
      "latitude": "29.93378400279007",
      "longitude": "-90.13253325485792"
    }
  },
  {
    "service_request": "2023-996776",
    "request_type": "Trash/Recycling",
    "request_reason": "Return Recycling Cart",
    "date_created": "2023-05-04T12:26:42.000",
    "date_modified": "2023-05-04T12:26:43.000",
    "request_status": "Pending",
    "responsible_agency": "Department of Sanitation",
    "final_address": "7511 Dalewood Rd",
    "address_councildis": "E",
    "status": "Pending",
    "rowid": "996776",
    "final_x": "3700134.48592",
    "final_y": "560132.789725",
    "longitude": "-90.00818484115923",
    "latitude": "30.033591303334504",
    "geocoded_column": {
      "latitude": "30.033591303334504",
      "longitude": "-90.00818484115923"
    }
  },
  {
    "service_request": "2023-996775",
    "request_type": "Trash/Recycling",
    "request_reason": "Request a Large Item Pick Up",
    "date_created": "2023-05-04T12:25:37.000",
    "date_modified": "2023-05-04T12:25:37.000",
    "request_status": "Pending",
    "responsible_agency": "Department of Sanitation",
    "final_address": "11 Richmond Pl",
    "address_councildis": "A",
    "status": "Assigned to Contractor",
    "contractor": "Richards Disposal",
    "rowid": "996775",
    "final_x": "3666614.04365",
    "final_y": "523737.125115",
    "longitude": "-90.11533622133872",
    "latitude": "29.93453886879972",
    "geocoded_column": {
      "latitude": "29.93453886879972",
      "longitude": "-90.11533622133872"
    }
  },
  {
    "service_request": "2023-996774",
    "request_type": "Traffic Signals/Signs/Striping/Streetlights",
    "request_reason": "Street Name Sign Damaged or Missing",
    "date_created": "2023-05-04T12:25:08.000",
    "date_modified": "2023-05-04T12:25:08.000",
    "request_status": "Pending",
    "responsible_agency": "Department of Public Works",
    "final_address": "616 Girod St",
    "address_councildis": "B",
    "status": "Pending",
    "rowid": "996774",
    "final_x": "3680749.7684",
    "final_y": "528449.54208",
    "longitude": "-90.07054613099928",
    "latitude": "29.947075715320903",
    "geocoded_column": {
      "latitude": "29.947075715320903",
      "longitude": "-90.07054613099928"
    }
  },
  {
    "service_request": "2023-996773",
    "request_type": "Trash/Recycling",
    "request_reason": "Illegal Dumping",
    "date_created": "2023-05-04T12:18:49.000",
    "date_modified": "2023-05-04T12:18:49.000",
    "request_status": "Pending",
    "responsible_agency": "Department of Sanitation",
    "final_address": "ANNETTE ST & N ROMAN ST",
    "address_councildis": "D",
    "status": "Pending",
    "rowid": "996773",
    "final_x": "3682939.8",
    "final_y": "538727.28",
    "longitude": "-90.06327170497366",
    "latitude": "29.97526942829095",
    "geocoded_column": {
      "latitude": "29.97526942829095",
      "longitude": "-90.06327170497366"
    }
  },
  {
    "service_request": "2023-996772",
    "request_type": "Trash/Recycling",
    "request_reason": "MIssed Recycling Pick-Up",
    "date_created": "2023-05-04T12:16:56.000",
    "date_modified": "2023-05-04T12:16:57.000",
    "request_status": "Pending",
    "responsible_agency": "Department of Sanitation",
    "final_address": "1131 Ninth St",
    "address_councildis": "B",
    "status": "Assigned to Contractor",
    "contractor": "Richards Disposal",
    "rowid": "996772",
    "final_x": "3675745.47016",
    "final_y": "520282.000376",
    "longitude": "-90.08662716707913",
    "latitude": "29.92476834314144",
    "geocoded_column": {
      "latitude": "29.92476834314144",
      "longitude": "-90.08662716707913"
    }
  },