[
  {
    "service_request": "2025-1229913",
    "request_type": "Streetlights",
    "request_reason": "Streetlight Outage/Malfunction",
    "date_created": "2025-09-29T22:57:44.000",
    "date_modified": "2025-09-29T22:57:46.000",
    "request_status": "Pending",
    "responsible_agency": "Department of Public Works",
    "final_address": "81 Yosemite Dr",
    "address_councildis": "C",
    "status": "Pending",
    "rowid": "1229913",
    "final_x": "3699372.69815",
    "final_y": "516019.04594",
    "longitude": "-90.01219946691747",
    "latitude": "29.912318666675368",
    "geocoded_column": {
      "latitude": "29.912318666675368",
      "longitude": "-90.01219946691747"
    }
  },
  {
    "service_request": "2025-1229912",
    "request_type": "Trash/Recycling",
    "request_reason": "Order Recycling Cart",
    "date_created": "2025-09-29T22:45:13.000",
    "date_modified": "2025-09-29T22:45:15.000",
    "request_status": "Pending",
    "responsible_agency": "Department of Sanitation",
    "final_address": "7641 Branch Dr",
    "address_councildis": "E",
    "status": "Pending",
    "rowid": "1229912",
    "final_x": "3714763.30661",
    "final_y": "568716.664549",
    "longitude": "-89.96163190903437",
    "latitude": "30.05672018006747",
    "geocoded_column": {
      "latitude": "30.05672018006747",
      "longitude": "-89.96163190903437"
    }
  },
  {
    "service_request": "2025-1229911",
    "request_type": "Streetlights",
    "request_reason": "Streetlight Outage/Malfunction",
    "date_created": "2025-09-29T22:34:33.000",
    "date_modified": "2025-09-29T22:34:35.000",
    "request_status": "Pending",
    "responsible_agency": "Department of Public Works",
    "final_address": "4751 Sandalwood St",
    "address_councildis": "E",
    "status": "Pending",
    "rowid": "1229911",
    "final_x": "3712301.65323",
    "final_y": "556219.613914",
    "longitude": "-89.96988276440605",
    "latitude": "30.022439101899312",
    "geocoded_column": {
      "latitude": "30.022439101899312",
      "longitude": "-89.96988276440605"
    }
  },
  {
    "service_request": "2025-1229910",
    "request_type": "Trash/Recycling",
    "request_reason": "Replace Recycling Cart",
    "date_created": "2025-09-29T22:01:15.000",
    "date_modified": "2025-09-29T22:01:16.000",
    "request_status": "Pending",
    "responsible_agency": "Department of Sanitation",
    "final_address": "624 Jena St",
    "address_councildis": "B",
    "status": "Pending",
    "rowid": "1229910",
    "final_x": "3670708.11259",
    "final_y": "517904.297142",
    "longitude": "-90.10260908930992",
    "latitude": "29.91838015733904",
    "geocoded_column": {
      "latitude": "29.91838015733904",
      "longitude": "-90.10260908930992"
    }
  },
  {
    "service_request": "2025-1229909",
    "request_type": "Alley Ways",
    "request_reason": "Alley Way Issues",
    "date_created": "2025-09-29T21:40:13.000",
    "date_modified": "2025-09-29T21:40:15.000",
    "request_status": "Pending",
    "responsible_agency": "Department of Public Works",
    "final_address": "6419 Canal Blvd",
    "address_councildis": "A",
    "status": "Pending",
    "rowid": "1229909",
    "final_x": "3668883.66138",
    "final_y": "550183.471956",
    "longitude": "-90.10727771509868",
    "latitude": "30.00719093493055",
    "geocoded_column": {
      "latitude": "30.00719093493055",
      "longitude": "-90.10727771509868"
    }
  },
  {
    "service_request": "2025-1229908",
    "request_type": "Streetlights",
    "request_reason": "Streetlight Outage/Malfunction",
    "date_created": "2025-09-29T21:08:56.000",
    "date_modified": "2025-09-29T21:08:58.000",
    "request_status": "Pending",
    "responsible_agency": "Department of Public Works",
    "final_address": "8500 BLK Fordham Ct",
    "address_councildis": "E",
    "status": "Pending",
    "rowid": "1229908",
    "final_x": "3705082.58061",
    "final_y": "560382.820295",
    "longitude": "-89.99253918440745",
    "latitude": "30.03412051653485",
    "geocoded_column": {
      "latitude": "30.03412051653485",
      "longitude": "-89.99253918440745"
    }
  },
  {
    "service_request": "2025-1229907",
    "request_type": "Trash/Recycling",
    "request_reason": "Repair Recycling Cart",
    "date_created": "2025-09-29T20:31:46.000",
    "date_modified": "2025-09-29T20:31:48.000",
    "request_status": "Pending",
    "responsible_agency": "Department of Sanitation",
    "final_address": "8123 Green St",
    "address_councildis": "A",
    "status": "Pending",
    "rowid": "1229907",
    "final_x": "3663035.27047",
    "final_y": "529828.996545",
    "longitude": "-90.12643181185469",
    "latitude": "29.951393686471008",
    "geocoded_column": {
      "latitude": "29.951393686471008",
      "longitude": "-90.12643181185469"
    }
  },
  {
    "service_request": "2025-1229906",
    "request_type": "Parks & Parkways",
    "request_reason": "Request Tree Service (Right of Way/Public Property)",
    "date_created": "2025-09-29T20:17:40.000",
    "date_modified": "2025-09-29T20:17:42.000",
    "request_status": "Pending",
    "responsible_agency": "Department of Parks & Parkway",
    "final_address": "1624 Governor Nicholls St",
    "address_councildis": "D",
    "status": "Pending",
    "rowid": "1229906",
    "final_x": "3681053.66491",
    "final_y": "535996.985415",
    "longitude": "-90.06932374016128",
    "latitude": "29.96781940987393",
    "geocoded_column": {
      "latitude": "29.96781940987393",
      "longitude": "-90.06932374016128"
    }
  },
  {
    "service_request": "2025-1229905",
    "request_type": "Parks & Parkways",
    "request_reason": "Request Tree Service (Right of Way/Public Property)",
    "date_created": "2025-09-29T20:15:37.000",
    "date_modified": "2025-09-29T20:15:39.000",
    "request_status": "Pending",
    "responsible_agency": "Department of Parks & Parkway",
    "final_address": "1438 N Claiborne Ave",
    "address_councildis": "C",
    "status": "Pending",
    "rowid": "1229905",
    "final_x": "3681577.60373",
    "final_y": "536780.478856",
    "longitude": "-90.06764179592403",
    "latitude": "29.969957844387842",
    "geocoded_column": {
      "latitude": "29.969957844387842",
      "longitude": "-90.06764179592403"
    }
  },
  {
    "service_request": "2025-1229904",
    "request_type": "Trash/Recycling",
    "request_reason": "MIssed Recycling Pick-Up",
    "date_created": "2025-09-29T19:36:28.000",
    "date_modified": "2025-09-29T19:36:30.000",
    "request_status": "Pending",
    "responsible_agency": "Department of Sanitation",
    "final_address": "1988 Hope St",
    "address_councildis": "D",
    "status": "Assigned to Contractor",
    "contractor": "IV Waste",
    "rowid": "1229904",
    "final_x": "3682200.15503",
    "final_y": "541980.268876",
    "longitude": "-90.06549402152879",
    "latitude": "29.984236533459626",
    "geocoded_column": {
      "latitude": "29.984236533459626",
      "longitude": "-90.06549402152879"
    }
  },
  {
    "service_request": "2025-1229903",
    "request_type": "Trash/Recycling",
    "request_reason": "Request a Large Item Pick Up",
    "date_created": "2025-09-29T19:19:46.000",
    "date_modified": "2025-09-29T19:19:48.000",
    "request_status": "Pending",
    "responsible_agency": "Department of Sanitation",
    "final_address": "7701 Edward St",
    "address_councildis": "E",
    "status": "Assigned to Contractor",
    "contractor": "Waste Pro",
    "rowid": "1229903",
    "final_x": "3701017.54129",
    "final_y": "561149.76483",
    "longitude": "-90.0053570595996",
    "latitude": "30.036359479457367",
    "geocoded_column": {
      "latitude": "30.036359479457367",
      "longitude": "-90.0053570595996"
    }
  },
  {
    "service_request": "2025-1229902",
    "request_type": "Trash/Recycling",
    "request_reason": "Replace Trash Cart",
    "date_created": "2025-09-29T19:17:19.000",
    "date_modified": "2025-09-29T19:17:22.000",
    "request_status": "Pending",
    "responsible_agency": "Department of Sanitation",
    "final_address": "731 Pacific Ave",
    "address_councildis": "C",
    "status": "Assigned to Contractor",
    "contractor": "Richards Disposal",
    "rowid": "1229902",
    "final_x": "3688415.99356",
    "final_y": "528816.208256",
    "longitude": "-90.04632805958335",
    "latitude": "29.94784938583992",
    "geocoded_column": {
      "latitude": "29.94784938583992",
      "longitude": "-90.04632805958335"
    }
  },
  {
    "service_request": "2025-1229901",
    "request_type": "Trash/Recycling",
    "request_reason": "Request a Large Item Pick Up",
    "date_created": "2025-09-29T19:13:07.000",
    "date_modified": "2025-09-29T19:13:10.000",
    "request_status": "Pending",
    "responsible_agency": "Department of Sanitation",
    "final_address": "7701 Edward St",
    "address_councildis": "E",
    "status": "Assigned to Contractor",
    "contractor": "Waste Pro",
    "rowid": "1229901",
    "final_x": "3701017.54129",
    "final_y": "561149.76483",
    "longitude": "-90.0053570595996",
    "latitude": "30.036359479457367",
    "geocoded_column": {
      "latitude": "30.036359479457367",
      "longitude": "-90.0053570595996"
    }
  },
  {
    "service_request": "2025-1229900",
    "request_type": "Abandoned Vehicles",
    "request_reason": "Abandoned/Junk Vehicles",
    "date_created": "2025-09-29T18:46:43.000",
    "date_modified": "2025-09-29T18:46:45.000",
    "request_status": "Pending",
    "responsible_agency": "Department of Public Works",
    "final_address": "3103 Banks St",
    "address_councildis": "B",
    "status": "Pending",
    "rowid": "1229900",
    "final_x": "3673350.72456",
    "final_y": "535185.996422",
    "longitude": "-90.09367760722988",
    "latitude": "29.96582086266371",
    "geocoded_column": {
      "latitude": "29.96582086266371",
      "longitude": "-90.09367760722988"
    }
  },
  {
    "service_request": "2025-1229899",
    "request_type": "Abandoned Vehicles",
    "request_reason": "Abandoned/Junk Vehicles",
    "date_created": "2025-09-29T18:36:18.000",
    "date_modified": "2025-09-29T18:36:20.000",
    "request_status": "Pending",
    "responsible_agency": "Department of Public Works",
    "final_address": "3103 Banks St",
    "address_councildis": "B",
    "status": "Pending",
    "rowid": "1229899",
    "final_x": "3673350.72456",
    "final_y": "535185.996422",
    "longitude": "-90.09367760722988",
    "latitude": "29.96582086266371",
    "geocoded_column": {
      "latitude": "29.96582086266371",
      "longitude": "-90.09367760722988"
    }
  },
  {
    "service_request": "2025-1229898",
    "request_type": "Trash/Recycling",
    "request_reason": "Repair Recycling Cart",
    "date_created": "2025-09-29T18:33:30.000",
    "date_modified": "2025-09-29T18:33:32.000",
    "request_status": "Pending",
    "responsible_agency": "Department of Sanitation",
    "final_address": "4728 Palmyra St",
    "address_councildis": "A",
    "status": "Pending",
    "rowid": "1229898",
    "final_x": "3668406.49249",
    "final_y": "539346.607946",
    "longitude": "-90.10915100317675",
    "latitude": "29.977407306321822",
    "geocoded_column": {
      "latitude": "29.977407306321822",
      "longitude": "-90.10915100317675"
    }
  },
  {
    "service_request": "2025-1229897",
    "request_type": "Streetlights",
    "request_reason": "Streetlight Outage/Malfunction",
    "date_created": "2025-09-29T18:31:48.000",
    "date_modified": "2025-09-29T18:31:50.000",
    "request_status": "Pending",
    "responsible_agency": "Department of Public Works",
    "final_address": "1306 Octavia St",
    "address_councildis": "A",
    "status": "Pending",
    "rowid": "1229897",
    "final_x": "3666786.62401",
    "final_y": "520699.964217",
    "longitude": "-90.11489334473012",
    "latitude": "29.926182595686623",
    "geocoded_column": {
      "latitude": "29.926182595686623",
      "longitude": "-90.11489334473012"
    }
  },
  {
    "service_request": "2025-1229896",
    "request_type": "Trash/Recycling",
    "request_reason": "Order Second Trash Cart",
    "date_created": "2025-09-29T18:29:48.000",
    "date_modified": "2025-09-29T18:29:50.000",
    "request_status": "Pending",
    "responsible_agency": "Department of Sanitation",
    "final_address": "619 Lizardi St",
    "address_councildis": "E",
    "status": "Assigned to Contractor",
    "contractor": "Waste Pro",
    "rowid": "1229896",
    "final_x": "3696104.28035",
    "final_y": "532471.608132",
    "longitude": "-90.02192111263686",
    "latitude": "29.957660769107626",
    "geocoded_column": {
      "latitude": "29.957660769107626",
      "longitude": "-90.02192111263686"
    }
  },
  {
    "service_request": "2025-1229895",
    "request_type": "Utility Poles",
    "request_reason": "Utility Pole Leaning",
    "date_created": "2025-09-29T18:29:12.000",
    "date_modified": "2025-09-29T18:29:23.000",
    "request_status": "Pending",
    "responsible_agency": "Utility Company Collective",
    "final_address": "5187 St Anthony Ave",
    "address_councildis": "D",
    "status": "Pending",
    "rowid": "1229895",
    "final_x": "3682313.64188",
    "final_y": "552054.154774",
    "longitude": "-90.06478330422533",
    "latitude": "30.011932671341732",
    "geocoded_column": {
      "latitude": "30.011932671341732",
      "longitude": "-90.06478330422533"
    }
  },
  {
    "service_request": "2025-1229894",
    "request_type": "Trash/Recycling",
    "request_reason": "Request a Large Item Pick Up",
    "date_created": "2025-09-29T18:25:05.000",
    "date_modified": "2025-09-29T18:25:07.000",
    "request_status": "Pending",
    "responsible_agency": "Department of Sanitation",
    "final_address": "619 Lizardi St",
    "address_councildis": "E",
    "status": "Assigned to Contractor",
    "contractor": "Waste Pro",
    "rowid": "1229894",
    "final_x": "3696104.28035",
    "final_y": "532471.608132",
    "longitude": "-90.02192111263686",
    "latitude": "29.957660769107626",
    "geocoded_column": {
      "latitude": "29.957660769107626",
      "longitude": "-90.02192111263686"
    }
  },
  {
    "service_request": "2025-1229893",
    "request_type": "Trash/Recycling",
    "request_reason": "Replace Trash Cart",
    "date_created": "2025-09-29T18:24:32.000",
    "date_modified": "2025-09-29T18:24:35.000",
    "request_status": "Pending",
    "responsible_agency": "Department of Sanitation",
    "final_address": "9040 Morrison Rd",
    "address_councildis": "E",
    "status": "Assigned to Contractor",
    "contractor": "Waste Pro",
    "rowid": "1229893",
    "final_x": "3706157.37623",
    "final_y": "561993.844959",
    "longitude": "-89.98908299380862",
    "latitude": "30.038515574704853",
    "geocoded_column": {
      "latitude": "30.038515574704853",
      "longitude": "-89.98908299380862"
    }
  },
  {
    "service_request": "2025-1229892",
    "request_type": "Roads and Streets",
    "request_reason": "Pothole",
    "date_created": "2025-09-29T18:09:33.000",
    "date_modified": "2025-09-29T18:09:35.000",
    "request_status": "Pending",
    "responsible_agency": "Department of Public Works",
    "final_address": "2435 Napoleon Ave Apt 1A",
    "address_councildis": "B",
    "status": "Pending",
    "rowid": "1229892",
    "final_x": "3670629.56859",
    "final_y": "524005.901308",
    "longitude": "-90.10265015565112",
    "latitude": "29.93515993902783",
    "geocoded_column": {
      "latitude": "29.93515993902783",
      "longitude": "-90.10265015565112"
    }
  },
  {
    "service_request": "2025-1229891",
    "request_type": "Trash/Recycling",
    "request_reason": "Request a Large Item Pick Up",
    "date_created": "2025-09-29T17:32:47.000",
    "date_modified": "2025-09-29T17:32:49.000",
    "request_status": "Pending",
    "responsible_agency": "Department of Sanitation",
    "final_address": "5168 Wildair Dr",
    "address_councildis": "D",
    "status": "Assigned to Contractor",
    "contractor": "IV Waste",
    "rowid": "1229891",
    "final_x": "3681589.75503",
    "final_y": "551604.209941",
    "longitude": "-90.06708607945654",
    "latitude": "30.010717501859776",
    "geocoded_column": {
      "latitude": "30.010717501859776",
      "longitude": "-90.06708607945654"
    }
  },
  {
    "service_request": "2025-1229890",
    "request_type": "Trash/Recycling",
    "request_reason": "Replace Trash Cart",
    "date_created": "2025-09-29T17:21:29.000",
    "date_modified": "2025-09-29T17:21:31.000",
    "request_status": "Pending",
    "responsible_agency": "Department of Sanitation",
    "final_address": "1112 Jena St",
    "address_councildis": "B",
    "status": "Assigned to Contractor",
    "contractor": "IV Waste",
    "rowid": "1229890",
    "final_x": "3670530.669",
    "final_y": "519608.829496",
    "longitude": "-90.10311142024668",
    "latitude": "29.923072319983156",
    "geocoded_column": {
      "latitude": "29.923072319983156",
      "longitude": "-90.10311142024668"
    }
  },
  {
    "service_request": "2025-1229889",
    "request_type": "Trash/Recycling",
    "request_reason": "Replace Recycling Cart",
    "date_created": "2025-09-29T17:18:28.000",
    "date_modified": "2025-09-29T17:18:30.000",
    "request_status": "Pending",
    "responsible_agency": "Department of Sanitation",
    "final_address": "883 Hidalgo St",
    "address_councildis": "A",
    "status": "Pending",
    "rowid": "1229889",
    "final_x": "3669402.88526",
    "final_y": "544101.052174",
    "longitude": "-90.10584319201104",
    "latitude": "29.990451101622863",
    "geocoded_column": {
      "latitude": "29.990451101622863",
      "longitude": "-90.10584319201104"
    }
  },
  {
    "service_request": "2025-1229888",
    "request_type": "General Services",
    "request_reason": "General Service Request",
    "date_created": "2025-09-29T17:09:08.000",
    "date_modified": "2025-09-29T17:09:09.000",
    "request_status": "Pending",
    "responsible_agency": "Orleans Parish Communication District",
    "final_address": "5949 Magazine St",
    "address_councildis": "A",
    "status": "Pending",
    "rowid": "1229888",
    "final_x": "3664855.517",
    "final_y": "519201.666807",
    "longitude": "-90.1210393607357",
    "latitude": "29.922119070355947",
    "geocoded_column": {
      "latitude": "29.922119070355947",
      "longitude": "-90.1210393607357"
    }
  },
  {
    "service_request": "2025-1229887",
    "request_type": "Streetlights",
    "request_reason": "Streetlight Outage/Malfunction",
    "date_created": "2025-09-29T17:08:46.000",
    "date_modified": "2025-09-29T17:08:47.000",
    "request_status": "Pending",
    "responsible_agency": "Department of Public Works",
    "final_address": "1806 Palmer Ave",
    "address_councildis": "A",
    "status": "Pending",
    "rowid": "1229887",
    "final_x": "3665472.28493",
    "final_y": "523735.156603",
    "longitude": "-90.11894080787121",
    "latitude": "29.934566778288115",
    "geocoded_column": {
      "latitude": "29.934566778288115",
      "longitude": "-90.11894080787121"
    }
  },
  {
    "service_request": "2025-1229886",
    "request_type": "Roads and Streets",
    "request_reason": "Curb Damage",
    "date_created": "2025-09-29T17:06:04.000",
    "date_modified": "2025-09-29T17:06:06.000",
    "request_status": "Pending",
    "responsible_agency": "Department of Public Works",
    "final_address": "1806 Palmer Ave",
    "address_councildis": "A",
    "status": "Pending",
    "rowid": "1229886",
    "final_x": "3665472.28493",
    "final_y": "523735.156603",
    "longitude": "-90.11894080787121",
    "latitude": "29.934566778288115",
    "geocoded_column": {
      "latitude": "29.934566778288115",
      "longitude": "-90.11894080787121"
    }
  },
  {
    "service_request": "2025-1229885",
    "request_type": "Property Maintenance",
    "request_reason": "Property Maintenance",
    "date_created": "2025-09-29T17:01:25.000",
    "date_modified": "2025-09-29T17:01:28.000",
    "request_status": "Pending",
    "responsible_agency": "Department of Code Enforcement",
    "final_address": "210 Allen Toussaint Blvd",
    "address_councildis": "A",
    "status": "Pending",
    "rowid": "1229885",
    "final_x": "3667283.47469",
    "final_y": "554771.346264",
    "longitude": "-90.11217869441263",
    "latitude": "30.019852961283306",
    "geocoded_column": {
      "latitude": "30.019852961283306",
      "longitude": "-90.11217869441263"
    }
  },
  {
    "service_request": "2025-1229884",
    "request_type": "Trash/Recycling",
    "request_reason": "Request a Large Item Pick Up",
    "date_created": "2025-09-29T16:58:59.000",
    "date_modified": "2025-09-29T16:59:00.000",
    "request_status": "Pending",
    "responsible_agency": "Department of Sanitation",
    "final_address": "13020 Ashland Dr",
    "address_councildis": "E",
    "status": "Assigned to Contractor",
    "contractor": "Waste Pro",
    "rowid": "1229884",
    "final_x": "3717576.75954",
    "final_y": "567553.200996",
    "longitude": "-89.95278343391202",
    "latitude": "30.053428228146448",
    "geocoded_column": {
      "latitude": "30.053428228146448",
      "longitude": "-89.95278343391202"
    }
  },
  {
    "service_request": "2025-1229883",
    "request_type": "General Services",
    "request_reason": "General Service Request",
    "date_created": "2025-09-29T16:54:15.000",
    "date_modified": "2025-09-29T16:55:55.000",
    "case_close_date": "2025-09-29T11:55:53.000",
    "request_status": "Closed",
    "responsible_agency": "Orleans Parish Communication District",
    "final_address": "8333 Jeannette St",
    "address_councildis": "A",
    "status": "Referred to External Agency",
    "rowid": "1229883",
    "final_x": "3661933.34554",
    "final_y": "529872.838721",
    "longitude": "-90.12990971486317",
    "latitude": "29.95154610626974",
    "geocoded_column": {
      "latitude": "29.95154610626974",
      "longitude": "-90.12990971486317"
    }
  },
  {
    "service_request": "2025-1229882",
    "request_type": "Trash/Recycling",
    "request_reason": "Request a Large Item Pick Up",
    "date_created": "2025-09-29T16:48:21.000",
    "date_modified": "2025-09-29T16:48:23.000",
    "request_status": "Pending",
    "responsible_agency": "Department of Sanitation",
    "final_address": "6 Rail St",
    "address_councildis": "D",
    "status": "Assigned to Contractor",
    "contractor": "IV Waste",
    "rowid": "1229882",
    "final_x": "3674572.41025",
    "final_y": "557150.312923",
    "longitude": "-90.08906635161529",
    "latitude": "30.02617865381279",
    "geocoded_column": {
      "latitude": "30.02617865381279",
      "longitude": "-90.08906635161529"
    }
  },
  {
    "service_request": "2025-1229881",
    "request_type": "Trash/Recycling",
    "request_reason": "Order Recycling Cart",
    "date_created": "2025-09-29T16:43:00.000",
    "date_modified": "2025-09-29T16:43:02.000",
    "request_status": "Pending",
    "responsible_agency": "Department of Sanitation",
    "final_address": "4850 Redwood St",
    "address_councildis": "E",
    "status": "Pending",
    "rowid": "1229881",
    "final_x": "3712350.46424",
    "final_y": "556791.048538",
    "longitude": "-89.96970704724926",
    "latitude": "30.02400872498034",
    "geocoded_column": {
      "latitude": "30.02400872498034",
      "longitude": "-89.96970704724926"
    }
  },
  {
    "service_request": "2025-1229880",
    "request_type": "Trash/Recycling",
    "request_reason": "Repair Trash Cart",
    "date_created": "2025-09-29T16:40:52.000",
    "date_modified": "2025-09-29T16:40:54.000",
    "request_status": "Pending",
    "responsible_agency": "Department of Sanitation",
    "final_address": "4850 Redwood St",
    "address_councildis": "E",
    "status": "Assigned to Contractor",
    "contractor": "Waste Pro",
    "rowid": "1229880",
    "final_x": "3712350.46424",
    "final_y": "556791.048538",
    "longitude": "-89.96970704724926",
    "latitude": "30.02400872498034",
    "geocoded_column": {
      "latitude": "30.02400872498034",
      "longitude": "-89.96970704724926"
    }
  },
  {
    "service_request": "2025-1229879",
    "request_type": "Trash/Recycling",
    "request_reason": "Replace Trash Cart",
    "date_created": "2025-09-29T16:39:19.000",
    "date_modified": "2025-09-29T16:39:21.000",
    "request_status": "Pending",
    "responsible_agency": "Department of Sanitation",
    "final_address": "15025 Emory Rd",
    "address_councildis": "E",
    "status": "Assigned to Contractor",
    "contractor": "Waste Pro",
    "rowid": "1229879",
    "final_x": "3721090.02022",
    "final_y": "574184.010794",
    "longitude": "-89.94142448381731",
    "latitude": "30.071543315572608",
    "geocoded_column": {
      "latitude": "30.071543315572608",
      "longitude": "-89.94142448381731"
    }
  },
  {
    "service_request": "2025-1229878",
    "request_type": "Trash/Recycling",
    "request_reason": "Request a Large Item Pick Up",
    "date_created": "2025-09-29T16:37:15.000",
    "date_modified": "2025-09-29T16:37:18.000",
    "request_status": "Pending",
    "responsible_agency": "Department of Sanitation",
    "final_address": "10941 Kinneil Rd",
    "address_councildis": "E",
    "status": "Assigned to Contractor",
    "contractor": "Waste Pro",
    "rowid": "1229878",
    "final_x": "3711434.95467",
    "final_y": "564383.954081",
    "longitude": "-89.97231487803055",
    "latitude": "30.044916118985302",
    "geocoded_column": {
      "latitude": "30.044916118985302",
      "longitude": "-89.97231487803055"
    }
  },
  {
    "service_request": "2025-1229877",
    "request_type": "Trash/Recycling",
    "request_reason": "Request a Large Item Pick Up",
    "date_created": "2025-09-29T16:32:53.000",
    "date_modified": "2025-09-29T16:32:55.000",
    "request_status": "Pending",
    "responsible_agency": "Department of Sanitation",
    "final_address": "1895 Saltus St",
    "address_councildis": "A",
    "status": "Assigned to Contractor",
    "contractor": "IV Waste",
    "rowid": "1229877",
    "final_x": "3677998.0157",
    "final_y": "543092.503501",
    "longitude": "-90.07872822655578",
    "latitude": "29.987421968490832",
    "geocoded_column": {
      "latitude": "29.987421968490832",
      "longitude": "-90.07872822655578"
    }
  },
  {
    "service_request": "2025-1229876",
    "request_type": "Trash/Recycling",
    "request_reason": "Request a Large Item Pick Up",
    "date_created": "2025-09-29T16:23:41.000",
    "date_modified": "2025-09-29T16:23:42.000",
    "request_status": "Pending",
    "responsible_agency": "Department of Sanitation",
    "final_address": "7231 Boston Dr",
    "address_councildis": "E",
    "status": "Assigned to Contractor",
    "contractor": "Waste Pro",
    "rowid": "1229876",
    "final_x": "3706081.2915",
    "final_y": "561501.200671",
    "longitude": "-89.98934170116867",
    "latitude": "30.037163451446105",
    "geocoded_column": {
      "latitude": "30.037163451446105",
      "longitude": "-89.98934170116867"
    }
  },
  {
    "service_request": "2025-1229875",
    "request_type": "Trash/Recycling",
    "request_reason": "Illegal Dumping",
    "date_created": "2025-09-29T16:23:14.000",
    "date_modified": "2025-09-29T16:23:16.000",
    "request_status": "Pending",
    "responsible_agency": "Department of Sanitation",
    "final_address": "6046 Pines Blvd",
    "address_councildis": "D",
    "status": "Pending",
    "rowid": "1229875",
    "final_x": "3696179.09315",
    "final_y": "556071.181913",
    "longitude": "-90.02083128310183",
    "latitude": "30.022548616501496",
    "geocoded_column": {
      "latitude": "30.022548616501496",
      "longitude": "-90.02083128310183"
    }
  },
  {
    "service_request": "2025-1229874",
    "request_type": "Streetlights",
    "request_reason": "Streetlight Outage/Malfunction",
    "date_created": "2025-09-29T16:21:45.000",
    "date_modified": "2025-09-29T16:21:46.000",
    "request_status": "Pending",
    "responsible_agency": "Department of Public Works",
    "final_address": "4653 Citrus Dr",
    "address_councildis": "E",
    "status": "Pending",
    "rowid": "1229874",
    "final_x": "3710893.12011",
    "final_y": "555413.095641",
    "longitude": "-89.97436356993092",
    "latitude": "30.02026750194943",
    "geocoded_column": {
      "latitude": "30.02026750194943",
      "longitude": "-89.97436356993092"
    }
  },
  {
    "service_request": "2025-1229873",
    "request_type": "Roads and Streets",
    "request_reason": "Pothole",
    "date_created": "2025-09-29T16:18:48.000",
    "date_modified": "2025-09-29T16:18:49.000",
    "request_status": "Pending",
    "responsible_agency": "Department of Public Works",
    "final_address": "FILMORE ST & FRANKLIN AVE",
    "address_councildis": "D",
    "status": "Pending",
    "rowid": "1229873",
    "final_x": "3686672.3",
    "final_y": "552564.88",
    "longitude": "-90.0509944168611",
    "latitude": "30.013203576330486",
    "geocoded_column": {
      "latitude": "30.013203576330486",
      "longitude": "-90.0509944168611"
    }
  },
  {
    "service_request": "2025-1229872",
    "request_type": "Abandoned Vehicles",
    "request_reason": "Abandoned/Junk Vehicles",
    "date_created": "2025-09-29T16:18:38.000",
    "date_modified": "2025-09-29T16:18:40.000",
    "request_status": "Pending",
    "responsible_agency": "Department of Public Works",
    "final_address": "200 BLK Pine St",
    "address_councildis": "A",
    "status": "Pending",
    "rowid": "1229872",
    "final_x": "3661509.78816",
    "final_y": "523066.966449",
    "longitude": "-90.1314725137994",
    "latitude": "29.932844345115406",
    "geocoded_column": {
      "latitude": "29.932844345115406",
      "longitude": "-90.1314725137994"
    }
  },
  {
    "service_request": "2025-1229871",
    "request_type": "Trash/Recycling",
    "request_reason": "Illegal Dumping",
    "date_created": "2025-09-29T16:18:38.000",
    "date_modified": "2025-09-29T16:18:39.000",
    "request_status": "Pending",
    "responsible_agency": "Department of Sanitation",
    "final_address": "6045 Pines Blvd",
    "address_councildis": "D",
    "status": "Pending",
    "rowid": "1229871",
    "final_x": "3696160.49968",
    "final_y": "556142.66857",
    "longitude": "-90.02088744651574",
    "latitude": "30.022745763298637",
    "geocoded_column": {
      "latitude": "30.022745763298637",
      "longitude": "-90.02088744651574"
    }
  },
  {
    "service_request": "2025-1229870",
    "request_type": "Drainage",
    "request_reason": "Catch Basin Frame and Cover Missing or Damaged",
    "date_created": "2025-09-29T16:17:42.000",
    "date_modified": "2025-09-29T16:17:43.000",
    "request_status": "Pending",
    "responsible_agency": "Sewerage & Water Board",
    "final_address": "204 S Norman C Francis Prkwy",
    "address_councildis": "B",
    "status": "Pending",
    "rowid": "1229870",
    "final_x": "3673024.07553",
    "final_y": "536253.260679",
    "longitude": "-90.09467272178783",
    "latitude": "29.968765193155082",
    "geocoded_column": {
      "latitude": "29.968765193155082",
      "longitude": "-90.09467272178783"
    }
  },
  {
    "service_request": "2025-1229869",
    "request_type": "General Services",
    "request_reason": "General Service Request",
    "date_created": "2025-09-29T16:17:34.000",
    "date_modified": "2025-09-29T16:19:57.000",
    "case_close_date": "2025-09-29T11:19:40.000",
    "request_status": "Closed",
    "responsible_agency": "Orleans Parish Communication District",
    "final_address": "FRANKLIN AVE & FILMORE ST",
    "address_councildis": "D",
    "status": "Referred to Risk Management",
    "rowid": "1229869",
    "final_x": "3686616.6",
    "final_y": "552564.28",
    "longitude": "-90.05117041998118",
    "latitude": "30.013203640426944",
    "geocoded_column": {
      "latitude": "30.013203640426944",
      "longitude": "-90.05117041998118"
    }
  },
  {
    "service_request": "2025-1229868",
    "request_type": "Roads and Streets",
    "request_reason": "Pothole",
    "date_created": "2025-09-29T16:16:59.000",
    "date_modified": "2025-09-29T16:17:01.000",
    "request_status": "Pending",
    "responsible_agency": "Department of Public Works",
    "final_address": "209 Cambridge Ct",
    "address_councildis": "C",
    "status": "Pending",
    "rowid": "1229868",
    "final_x": "3706415.0586",
    "final_y": "518346.053238",
    "longitude": "-89.98988592175506",
    "latitude": "29.918491988236745",
    "geocoded_column": {
      "latitude": "29.918491988236745",
      "longitude": "-89.98988592175506"
    }
  },
  {
    "service_request": "2025-1229867",
    "request_type": "Trash/Recycling",
    "request_reason": "Request a Large Item Pick Up",
    "date_created": "2025-09-29T16:11:46.000",
    "date_modified": "2025-09-29T16:11:48.000",
    "request_status": "Pending",
    "responsible_agency": "Department of Sanitation",
    "final_address": "10311 Brookfield Dr",
    "address_councildis": "E",
    "status": "Assigned to Contractor",
    "contractor": "Waste Pro",
    "rowid": "1229867",
    "final_x": "3710438.59787",
    "final_y": "563194.590688",
    "longitude": "-89.9755083481934",
    "latitude": "30.04167834977917",
    "geocoded_column": {
      "latitude": "30.04167834977917",
      "longitude": "-89.9755083481934"
    }
  },
  {
    "service_request": "2025-1229866",
    "request_type": "Roads and Streets",
    "request_reason": "Curb Damage",
    "date_created": "2025-09-29T16:11:32.000",
    "date_modified": "2025-09-29T16:11:34.000",
    "request_status": "Pending",
    "responsible_agency": "Department of Public Works",
    "final_address": "209 Cambridge Ct",
    "address_councildis": "C",
    "status": "Pending",
    "rowid": "1229866",
    "final_x": "3706415.0586",
    "final_y": "518346.053238",
    "longitude": "-89.98988592175506",
    "latitude": "29.918491988236745",
    "geocoded_column": {
      "latitude": "29.918491988236745",
      "longitude": "-89.98988592175506"
    }
  },
  {
    "service_request": "2025-1229865",
    "request_type": "Property Maintenance",
    "request_reason": "Property Maintenance",
    "date_created": "2025-09-29T16:11:03.000",
    "date_modified": "2025-09-29T16:11:05.000",
    "request_status": "Pending",
    "responsible_agency": "Department of Code Enforcement",
    "final_address": "3420 Dryades St",
    "address_councildis": "B",
    "status": "Pending",
    "rowid": "1229865",
    "final_x": "3673623.44891",
    "final_y": "522383.595194",
    "longitude": "-90.0932538982117",
    "latitude": "29.930610366117964",
    "geocoded_column": {
      "latitude": "29.930610366117964",
      "longitude": "-90.0932538982117"
    }
  },
  {
    "service_request": "2025-1229864",
    "request_type": "Trash/Recycling",
    "request_reason": "Request a Large Item Pick Up",
    "date_created": "2025-09-29T16:07:38.000",
    "date_modified": "2025-09-29T16:07:40.000",
    "request_status": "Pending",
    "responsible_agency": "Department of Sanitation",
    "final_address": "318 Calhoun St",
    "address_councildis": "A",
    "status": "Assigned to Contractor",
    "contractor": "IV Waste",
    "rowid": "1229864",
    "final_x": "3662779.06003",
    "final_y": "518252.184438",
    "longitude": "-90.12762544105557",
    "latitude": "29.91956853306251",
    "geocoded_column": {
      "latitude": "29.91956853306251",
      "longitude": "-90.12762544105557"
    }
  },
  {
    "service_request": "2025-1229863",
    "request_type": "Streetlights",
    "request_reason": "Streetlight Outage/Malfunction",
    "date_created": "2025-09-29T16:06:33.000",
    "date_modified": "2025-09-29T16:06:35.000",
    "request_status": "Pending",
    "responsible_agency": "Department of Public Works",
    "final_address": "6750 Louisville St",
    "address_councildis": "A",
    "status": "Pending",
    "rowid": "1229863",
    "final_x": "3668114.85633",
    "final_y": "552499.595478",
    "longitude": "-90.10962844560264",
    "latitude": "30.0135820600029",
    "geocoded_column": {
      "latitude": "30.0135820600029",
      "longitude": "-90.10962844560264"
    }
  },
  {
    "service_request": "2025-1229862",
    "request_type": "Trash/Recycling",
    "request_reason": "Order Recycling Cart",
    "date_created": "2025-09-29T16:00:36.000",
    "date_modified": "2025-09-29T16:00:38.000",
    "request_status": "Pending",
    "responsible_agency": "Department of Sanitation",
    "final_address": "3106 Mistletoe St",
    "address_councildis": "A",
    "status": "Pending",
    "rowid": "1229862",
    "final_x": "3663695.10016",
    "final_y": "536091.560327",
    "longitude": "-90.12413970894359",
    "latitude": "29.968594567240498",
    "geocoded_column": {
      "latitude": "29.968594567240498",
      "longitude": "-90.12413970894359"
    }
  },
  {
    "service_request": "2025-1229861",
    "request_type": "Abandoned Vehicles",
    "request_reason": "Abandoned/Junk Vehicles",
    "date_created": "2025-09-29T15:57:36.000",
    "date_modified": "2025-09-29T15:57:38.000",
    "request_status": "Pending",
    "responsible_agency": "Department of Public Works",
    "final_address": "7719 Coolidge Ct",
    "address_councildis": "B",
    "status": "Pending",
    "rowid": "1229861",
    "final_x": "3668316.95649",
    "final_y": "533464.935428",
    "longitude": "-90.10963217440063",
    "latitude": "29.961237299080228",
    "geocoded_column": {
      "latitude": "29.961237299080228",
      "longitude": "-90.10963217440063"
    }
  },
  {
    "service_request": "2025-1229860",
    "request_type": "Streetlights",
    "request_reason": "Streetlight Outage/Malfunction",
    "date_created": "2025-09-29T15:57:05.000",
    "date_modified": "2025-09-29T15:57:07.000",
    "request_status": "Pending",
    "responsible_agency": "Department of Public Works",
    "final_address": "8020 Berg Rd",
    "address_councildis": "E",
    "status": "Pending",
    "rowid": "1229860",
    "final_x": "3711158.88133",
    "final_y": "567849.530468",
    "longitude": "-89.9730573656488",
    "latitude": "30.054454065098465",
    "geocoded_column": {
      "latitude": "30.054454065098465",
      "longitude": "-89.9730573656488"
    }
  },
  {
    "service_request": "2025-1229859",
    "request_type": "Safety & Permits",
    "request_reason": "Licenses & Permits",
    "date_created": "2025-09-29T15:56:22.000",
    "date_modified": "2025-09-29T15:56:23.000",
    "request_status": "Pending",
    "responsible_agency": "Safety and Permits",
    "final_address": "9226 Forshey St",
    "address_councildis": "A",
    "status": "Pending",
    "rowid": "1229859",
    "final_x": "3663969.33843",
    "final_y": "536642.126791",
    "longitude": "-90.12325528367833",
    "latitude": "29.970100482871334",
    "geocoded_column": {
      "latitude": "29.970100482871334",
      "longitude": "-90.12325528367833"
    }
  },
  {
    "service_request": "2025-1229858",
    "request_type": "Trash/Recycling",
    "request_reason": "Illegal Dumping",
    "date_created": "2025-09-29T15:55:08.000",
    "date_modified": "2025-09-29T15:55:11.000",
    "request_status": "Pending",
    "responsible_agency": "Department of Sanitation",
    "final_address": "715 River Oaks Dr",
    "address_councildis": "C",
    "status": "Pending",
    "rowid": "1229858",
    "final_x": "3701417.01047",
    "final_y": "519735.946296",
    "longitude": "-90.00561116404145",
    "latitude": "29.922473901325105",
    "geocoded_column": {
      "latitude": "29.922473901325105",
      "longitude": "-90.00561116404145"
    }
  },
  {
    "service_request": "2025-1229857",
    "request_type": "Healthy Homes",
    "request_reason": "Healthy Homes",
    "date_created": "2025-09-29T15:54:57.000",
    "date_modified": "2025-09-29T15:54:58.000",
    "request_status": "Pending",
    "responsible_agency": "Department of Code Enforcement",
    "final_address": "1436 N Villere St",
    "address_councildis": "C",
    "status": "Pending",
    "rowid": "1229857",
    "final_x": "3682041.07727",
    "final_y": "536388.424903",
    "longitude": "-90.06619179469214",
    "latitude": "29.968865746212487",
    "geocoded_column": {
      "latitude": "29.968865746212487",
      "longitude": "-90.06619179469214"
    }
  },
  {
    "service_request": "2025-1229856",
    "request_type": "Trash/Recycling",
    "request_reason": "Repair Trash Cart",
    "date_created": "2025-09-29T15:54:48.000",
    "date_modified": "2025-09-29T15:54:49.000",
    "request_status": "Pending",
    "responsible_agency": "Department of Sanitation",
    "final_address": "2299 Mercedes Blvd",
    "address_councildis": "C",
    "status": "Assigned to Contractor",
    "contractor": "Richards Disposal",
    "rowid": "1229856",
    "final_x": "3698000.79722",
    "final_y": "522427.280698",
    "longitude": "-90.01629705716772",
    "latitude": "29.929982552588324",
    "geocoded_column": {
      "latitude": "29.929982552588324",
      "longitude": "-90.01629705716772"
    }
  },
  {
    "service_request": "2025-1229855",
    "request_type": "Trash/Recycling",
    "request_reason": "Request a Large Item Pick Up",
    "date_created": "2025-09-29T15:53:03.000",
    "date_modified": "2025-09-29T15:53:06.000",
    "request_status": "Pending",
    "responsible_agency": "Department of Sanitation",
    "final_address": "2118 Stephen Girard St",
    "address_councildis": "D",
    "status": "Assigned to Contractor",
    "contractor": "IV Waste",
    "rowid": "1229855",
    "final_x": "3683376.0477",
    "final_y": "548726.129555",
    "longitude": "-90.06154341924471",
    "latitude": "30.00274942208197",
    "geocoded_column": {
      "latitude": "30.00274942208197",
      "longitude": "-90.06154341924471"
    }
  },
  {
    "service_request": "2025-1229854",
    "request_type": "Trash/Recycling",
    "request_reason": "Request a Large Item Pick Up",
    "date_created": "2025-09-29T15:52:57.000",
    "date_modified": "2025-09-29T15:53:08.000",
    "request_status": "Pending",
    "responsible_agency": "Department of Sanitation",
    "final_address": "6720 W Laverne St",
    "address_councildis": "D",
    "status": "Assigned to Contractor",
    "contractor": "Waste Pro",
    "rowid": "1229854",
    "final_x": "3696172.11773",
    "final_y": "555671.531161",
    "longitude": "-90.02086778798444",
    "latitude": "30.02144994807379",
    "geocoded_column": {
      "latitude": "30.02144994807379",
      "longitude": "-90.02086778798444"
    }
  },
  {
    "service_request": "2025-1229852",
    "request_type": "Streetlights",
    "request_reason": "Streetlight Outage/Malfunction",
    "date_created": "2025-09-29T15:45:04.000",
    "date_modified": "2025-09-29T15:45:05.000",
    "request_status": "Pending",
    "responsible_agency": "Department of Public Works",
    "final_address": "N CLAIBORNE AVE & LOUISA ST",
    "address_councildis": "D",
    "status": "Pending",
    "rowid": "1229852",
    "final_x": "3690029.4",
    "final_y": "537727.98",
    "longitude": "-90.04091653642077",
    "latitude": "29.972303728909132",
    "geocoded_column": {
      "latitude": "29.972303728909132",
      "longitude": "-90.04091653642077"
    }
  },
  {
    "service_request": "2025-1229851",
    "request_type": "Streetlights",
    "request_reason": "Streetlight Outage/Malfunction",
    "date_created": "2025-09-29T15:43:11.000",
    "date_modified": "2025-09-29T15:43:13.000",
    "request_status": "Pending",
    "responsible_agency": "Department of Public Works",
    "final_address": "N CLAIBORNE AVE & PIETY ST",
    "address_councildis": "D",
    "status": "Pending",
    "rowid": "1229851",
    "final_x": "3690305.7",
    "final_y": "537661.98",
    "longitude": "-90.04004628913043",
    "latitude": "29.972113680177713",
    "geocoded_column": {
      "latitude": "29.972113680177713",
      "longitude": "-90.04004628913043"
    }
  },
  {
    "service_request": "2025-1229850",
    "request_type": "Trash/Recycling",
    "request_reason": "Request a Large Item Pick Up",
    "date_created": "2025-09-29T15:38:36.000",
    "date_modified": "2025-09-29T15:38:38.000",
    "request_status": "Pending",
    "responsible_agency": "Department of Sanitation",
    "final_address": "5118 Cunningham Ct",
    "address_councildis": "D",
    "status": "Assigned to Contractor",
    "contractor": "IV Waste",
    "rowid": "1229850",
    "final_x": "3690807.2527",
    "final_y": "552688.053526",
    "longitude": "-90.03792581760297",
    "latitude": "30.01341436948372",
    "geocoded_column": {
      "latitude": "30.01341436948372",
      "longitude": "-90.03792581760297"
    }
  },
  {
    "service_request": "2025-1229849",
    "request_type": "Healthy Homes",
    "request_reason": "Healthy Homes",
    "date_created": "2025-09-29T15:38:17.000",
    "date_modified": "2025-09-29T15:38:20.000",
    "request_status": "Pending",
    "responsible_agency": "Department of Code Enforcement",
    "final_address": "936 N Rampart St",
    "address_councildis": "C",
    "status": "Pending",
    "rowid": "1229849",
    "final_x": "3682056.74408",
    "final_y": "534152.878149",
    "longitude": "-90.0662203900141",
    "latitude": "29.962718284240946",
    "geocoded_column": {
      "latitude": "29.962718284240946",
      "longitude": "-90.0662203900141"
    }
  },
  {
    "service_request": "2025-1229848",
    "request_type": "Trash/Recycling",
    "request_reason": "Request a Large Item Pick Up",
    "date_created": "2025-09-29T15:35:51.000",
    "date_modified": "2025-09-29T15:35:53.000",
    "request_status": "Pending",
    "responsible_agency": "Department of Sanitation",
    "final_address": "327 N Murat St",
    "address_councildis": "A",
    "status": "Assigned to Contractor",
    "contractor": "IV Waste",
    "rowid": "1229848",
    "final_x": "3670307.92615",
    "final_y": "540257.689483",
    "longitude": "-90.10311473186046",
    "latitude": "29.979856477233803",
    "geocoded_column": {
      "latitude": "29.979856477233803",
      "longitude": "-90.10311473186046"
    }
  },
  {
    "service_request": "2025-1229847",
    "request_type": "Trash/Recycling",
    "request_reason": "Repair Trash Cart",
    "date_created": "2025-09-29T15:33:58.000",
    "date_modified": "2025-09-29T15:34:00.000",
    "request_status": "Pending",
    "responsible_agency": "Department of Sanitation",
    "final_address": "2344 Beck St",
    "address_councildis": "C",
    "status": "Assigned to Contractor",
    "contractor": "Richards Disposal",
    "rowid": "1229847",
    "final_x": "3700452.35562",
    "final_y": "522016.269626",
    "longitude": "-90.00857294902578",
    "latitude": "29.92877470541312",
    "geocoded_column": {
      "latitude": "29.92877470541312",
      "longitude": "-90.00857294902578"
    }
  },
  {
    "service_request": "2025-1229846",
    "request_type": "Safety & Permits",
    "request_reason": "Zoning Enforcement",
    "date_created": "2025-09-29T15:33:46.000",
    "date_modified": "2025-09-29T15:50:07.000",
    "request_status": "Pending",
    "responsible_agency": "Safety and Permits",
    "final_address": "4516 Palmyra St",
    "address_councildis": "A",
    "status": "Pending",
    "rowid": "1229846",
    "final_x": "3669094.16212",
    "final_y": "538807.130249",
    "longitude": "-90.10699734215574",
    "latitude": "29.975903705272543",
    "geocoded_column": {
      "latitude": "29.975903705272543",
      "longitude": "-90.10699734215574"
    }
  },
  {
    "service_request": "2025-1229845",
    "request_type": "Abandoned Vehicles",
    "request_reason": "Abandoned/Junk Vehicles",
    "date_created": "2025-09-29T15:33:27.000",
    "date_modified": "2025-09-29T15:34:09.000",
    "request_status": "Pending",
    "responsible_agency": "Department of Public Works",
    "final_address": "1952 Florida Ave",
    "address_councildis": "D",
    "status": "Pending",
    "rowid": "1229845",
    "final_x": "3682658.05928",
    "final_y": "543032.252621",
    "longitude": "-90.06401090160298",
    "latitude": "29.987115179195207",
    "geocoded_column": {
      "latitude": "29.987115179195207",
      "longitude": "-90.06401090160298"
    }
  },
  {
    "service_request": "2025-1229844",
    "request_type": "Abandoned Vehicles",
    "request_reason": "Abandoned/Junk Vehicles",
    "date_created": "2025-09-29T15:28:31.000",
    "date_modified": "2025-09-29T15:29:07.000",
    "request_status": "Pending",
    "responsible_agency": "Department of Public Works",
    "final_address": "1228 Carondelet St",
    "address_councildis": "B",
    "status": "Inspected",
    "rowid": "1229844",
    "final_x": "3679278.08341",
    "final_y": "526367.51827",
    "longitude": "-90.07526496594873",
    "latitude": "29.94139535755576",
    "geocoded_column": {
      "latitude": "29.94139535755576",
      "longitude": "-90.07526496594873"
    }
  },
  {
    "service_request": "2025-1229843",
    "request_type": "Trash/Recycling",
    "request_reason": "Request a Large Item Pick Up",
    "date_created": "2025-09-29T15:28:08.000",
    "date_modified": "2025-09-29T15:28:09.000",
    "request_status": "Pending",
    "responsible_agency": "Department of Sanitation",
    "final_address": "2836 Annunciation St",
    "address_councildis": "B",
    "status": "Assigned to Contractor",
    "contractor": "IV Waste",
    "rowid": "1229843",
    "final_x": "3677423.93467",
    "final_y": "519697.974328",
    "longitude": "-90.08134895263323",
    "latitude": "29.923112139034817",
    "geocoded_column": {
      "latitude": "29.923112139034817",
      "longitude": "-90.08134895263323"
    }
  },
  {
    "service_request": "2025-1229842",
    "request_type": "Drainage",
    "request_reason": "Catch Basin Not Draining",
    "date_created": "2025-09-29T15:27:12.000",
    "date_modified": "2025-09-29T15:27:13.000",
    "request_status": "Pending",
    "responsible_agency": "Sewerage & Water Board",
    "final_address": "2107 Clouet St",
    "address_councildis": "D",
    "status": "Pending",
    "rowid": "1229842",
    "final_x": "3689992.94064",
    "final_y": "539822.26721",
    "longitude": "-90.0409570813908",
    "latitude": "29.978063408106085",
    "geocoded_column": {
      "latitude": "29.978063408106085",
      "longitude": "-90.0409570813908"
    }
  },
  {
    "service_request": "2025-1229841",
    "request_type": "Abandoned Vehicles",
    "request_reason": "Abandoned/Junk Vehicles",
    "date_created": "2025-09-29T15:25:44.000",
    "date_modified": "2025-09-29T15:25:45.000",
    "request_status": "Pending",
    "responsible_agency": "Department of Public Works",
    "final_address": "7700 BLK Lucerne St",
    "address_councildis": "E",
    "status": "Pending",
    "rowid": "1229841",
    "final_x": "3710471.47928",
    "final_y": "566480.96361",
    "longitude": "-89.97528133537911",
    "latitude": "30.05071348122656",
    "geocoded_column": {
      "latitude": "30.05071348122656",
      "longitude": "-89.97528133537911"
    }
  },
  {
    "service_request": "2025-1229840",
    "request_type": "Abandoned Vehicles",
    "request_reason": "Abandoned/Junk Vehicles",
    "date_created": "2025-09-29T15:24:25.000",
    "date_modified": "2025-09-29T15:24:27.000",
    "request_status": "Pending",
    "responsible_agency": "Department of Public Works",
    "final_address": "1635 Frenchmen St",
    "address_councildis": "D",
    "status": "Pending",
    "rowid": "1229840",
    "final_x": "3684456.40668",
    "final_y": "538409.977993",
    "longitude": "-90.05849301522434",
    "latitude": "29.97435064907782",
    "geocoded_column": {
      "latitude": "29.97435064907782",
      "longitude": "-90.05849301522434"
    }
  },
  {
    "service_request": "2025-1229839",
    "request_type": "Roads and Streets",
    "request_reason": "Pothole",
    "date_created": "2025-09-29T15:24:13.000",
    "date_modified": "2025-09-29T15:24:15.000",
    "request_status": "Pending",
    "responsible_agency": "Department of Public Works",
    "final_address": "3207 Coliseum St",
    "address_councildis": "B",
    "status": "Pending",
    "rowid": "1229839",
    "final_x": "3675229.34504",
    "final_y": "520932.269753",
    "longitude": "-90.08823409965463",
    "latitude": "29.92657180494806",
    "geocoded_column": {
      "latitude": "29.92657180494806",
      "longitude": "-90.08823409965463"
    }
  },
  {
    "service_request": "2025-1229838",
    "request_type": "Trash/Recycling",
    "request_reason": "Request a Large Item Pick Up",
    "date_created": "2025-09-29T15:22:08.000",
    "date_modified": "2025-09-29T15:22:10.000",
    "request_status": "Pending",
    "responsible_agency": "Department of Sanitation",
    "final_address": "913 Eighth St",
    "address_councildis": "B",
    "status": "Assigned to Contractor",
    "contractor": "IV Waste",
    "rowid": "1229838",
    "final_x": "3676477.1739",
    "final_y": "519717.380472",
    "longitude": "-90.08433684716569",
    "latitude": "29.923193910091346",
    "geocoded_column": {
      "latitude": "29.923193910091346",
      "longitude": "-90.08433684716569"
    }
  },
  {
    "service_request": "2025-1229837",
    "request_type": "Trash/Recycling",
    "request_reason": "Order Trash Cart",
    "date_created": "2025-09-29T15:21:56.000",
    "date_modified": "2025-09-29T15:21:58.000",
    "request_status": "Pending",
    "responsible_agency": "Department of Sanitation",
    "final_address": "4938 Lonely Oak Dr",
    "address_councildis": "E",
    "status": "Assigned to Contractor",
    "contractor": "Waste Pro",
    "rowid": "1229837",
    "final_x": "3702172.29399",
    "final_y": "555384.616409",
    "longitude": "-90.0019195316522",
    "latitude": "30.02047070371294",
    "geocoded_column": {
      "latitude": "30.02047070371294",
      "longitude": "-90.0019195316522"
    }
  },
  {
    "service_request": "2025-1229836",
    "request_type": "Trash/Recycling",
    "request_reason": "Request a Large Item Pick Up",
    "date_created": "2025-09-29T15:20:56.000",
    "date_modified": "2025-09-29T15:20:58.000",
    "request_status": "Pending",
    "responsible_agency": "Department of Sanitation",
    "final_address": "2035 Forstall St",
    "address_councildis": "E",
    "status": "Assigned to Contractor",
    "contractor": "Waste Pro",
    "rowid": "1229836",
    "final_x": "3697354.23191",
    "final_y": "537847.885129",
    "longitude": "-90.0177792408608",
    "latitude": "29.972404220364663",
    "geocoded_column": {
      "latitude": "29.972404220364663",
      "longitude": "-90.0177792408608"
    }
  },
  {
    "service_request": "2025-1229835",
    "request_type": "Trash/Recycling",
    "request_reason": "Replace Trash Cart",
    "date_created": "2025-09-29T15:20:32.000",
    "date_modified": "2025-09-29T15:20:34.000",
    "request_status": "Pending",
    "responsible_agency": "Department of Sanitation",
    "final_address": "1545 Harrison Ave",
    "address_councildis": "D",
    "status": "Assigned to Contractor",
    "contractor": "IV Waste",
    "rowid": "1229835",
    "final_x": "3679133.36802",
    "final_y": "547745.11797",
    "longitude": "-90.07498065537202",
    "latitude": "30.000180788345695",
    "geocoded_column": {
      "latitude": "30.000180788345695",
      "longitude": "-90.07498065537202"
    }
  },
  {
    "service_request": "2025-1229834",
    "request_type": "Trash/Recycling",
    "request_reason": "Request a Large Item Pick Up",
    "date_created": "2025-09-29T15:19:44.000",
    "date_modified": "2025-09-29T15:19:46.000",
    "request_status": "Pending",
    "responsible_agency": "Department of Sanitation",
    "final_address": "3464 Annunciation St",
    "address_councildis": "B",
    "status": "Assigned to Contractor",
    "contractor": "IV Waste",
    "rowid": "1229834",
    "final_x": "3674936.32475",
    "final_y": "518360.52671",
    "longitude": "-90.0892472289196",
    "latitude": "29.919509090571676",
    "geocoded_column": {
      "latitude": "29.919509090571676",
      "longitude": "-90.0892472289196"
    }
  },
  {
    "service_request": "2025-1229833",
    "request_type": "Trash/Recycling",
    "request_reason": "Request a Large Item Pick Up",
    "date_created": "2025-09-29T15:18:51.000",
    "date_modified": "2025-09-29T15:18:53.000",
    "request_status": "Pending",
    "responsible_agency": "Department of Sanitation",
    "final_address": "825 Atlantic Ave",
    "address_councildis": "C",
    "status": "Assigned to Contractor",
    "contractor": "Richards Disposal",
    "rowid": "1229833",
    "final_x": "3688694.51292",
    "final_y": "528482.119744",
    "longitude": "-90.04546052170087",
    "latitude": "29.94692215194199",
    "geocoded_column": {
      "latitude": "29.94692215194199",
      "longitude": "-90.04546052170087"
    }
  },
  {
    "service_request": "2025-1229832",
    "request_type": "Trash/Recycling",
    "request_reason": "Request a Large Item Pick Up",
    "date_created": "2025-09-29T15:17:39.000",
    "date_modified": "2025-09-29T15:17:41.000",
    "request_status": "Pending",
    "responsible_agency": "Department of Sanitation",
    "final_address": "7327 Hickman St",
    "address_councildis": "E",
    "status": "Assigned to Contractor",
    "contractor": "Waste Pro",
    "rowid": "1229832",
    "final_x": "3706593.72663",
    "final_y": "562656.691296",
    "longitude": "-89.98767942047823",
    "latitude": "30.04032405698312",
    "geocoded_column": {
      "latitude": "30.04032405698312",
      "longitude": "-89.98767942047823"
    }
  },
  {
    "service_request": "2025-1229831",
    "request_type": "Abandoned Vehicles",
    "request_reason": "Abandoned/Junk Vehicles",
    "date_created": "2025-09-29T15:12:39.000",
    "date_modified": "2025-09-29T15:12:41.000",
    "request_status": "Pending",
    "responsible_agency": "Department of Public Works",
    "final_address": "2400 BLK Saint Roch Ave",
    "address_councildis": "D",
    "status": "Pending",
    "rowid": "1229831",
    "final_x": "3686130.89575",
    "final_y": "541397.203411",
    "longitude": "-90.05309918480089",
    "latitude": "29.982513135091317",
    "geocoded_column": {
      "latitude": "29.982513135091317",
      "longitude": "-90.05309918480089"
    }
  },
  {
    "service_request": "2025-1229830",
    "request_type": "Streetlights",
    "request_reason": "Streetlight Outage/Malfunction",
    "date_created": "2025-09-29T15:11:07.000",
    "date_modified": "2025-09-29T15:11:09.000",
    "request_status": "Pending",
    "responsible_agency": "Department of Public Works",
    "final_address": "5945 Canal Blvd",
    "address_councildis": "A",
    "status": "Pending",
    "rowid": "1229830",
    "final_x": "3668616.8546",
    "final_y": "547022.604753",
    "longitude": "-90.10822740282387",
    "latitude": "29.998507495831355",
    "geocoded_column": {
      "latitude": "29.998507495831355",
      "longitude": "-90.10822740282387"
    }
  },
  {
    "service_request": "2025-1229829",
    "request_type": "Abandoned Vehicles",
    "request_reason": "Abandoned/Junk Vehicles",
    "date_created": "2025-09-29T15:07:44.000",
    "date_modified": "2025-09-29T15:07:45.000",
    "request_status": "Pending",
    "responsible_agency": "Department of Public Works",
    "final_address": "2746 N Dorgenois St",
    "address_councildis": "D",
    "status": "Pending",
    "rowid": "1229829",
    "final_x": "3687712.26787",
    "final_y": "541665.66126",
    "longitude": "-90.04809493111021",
    "latitude": "29.983202621919983",
    "geocoded_column": {
      "latitude": "29.983202621919983",
      "longitude": "-90.04809493111021"
    }
  },
  {
    "service_request": "2025-1229828",
    "request_type": "Trash/Recycling",
    "request_reason": "Request a Large Item Pick Up",
    "date_created": "2025-09-29T15:03:51.000",
    "date_modified": "2025-09-29T15:03:53.000",
    "request_status": "Pending",
    "responsible_agency": "Department of Sanitation",
    "final_address": "1228 Seville Dr",
    "address_councildis": "D",
    "status": "Assigned to Contractor",
    "contractor": "IV Waste",
    "rowid": "1229828",
    "final_x": "3677050.0964",
    "final_y": "551017.671381",
    "longitude": "-90.08144887858765",
    "latitude": "30.0092418903405",
    "geocoded_column": {
      "latitude": "30.0092418903405",
      "longitude": "-90.08144887858765"
    }
  },
  {
    "service_request": "2025-1229827",
    "request_type": "Abandoned Vehicles",
    "request_reason": "Abandoned/Junk Vehicles",
    "date_created": "2025-09-29T14:59:11.000",
    "date_modified": "2025-09-29T15:06:52.000",
    "request_status": "Pending",
    "responsible_agency": "Department of Public Works",
    "final_address": "4300 BLK Baronne St",
    "address_councildis": "B",
    "status": "Inspected",
    "rowid": "1229827",
    "final_x": "3670994.52379",
    "final_y": "521617.991001",
    "longitude": "-90.10157902917797",
    "latitude": "29.92858317045635",
    "geocoded_column": {
      "latitude": "29.92858317045635",
      "longitude": "-90.10157902917797"
    }
  },
  {
    "service_request": "2025-1229826",
    "request_type": "Traffic Signals",
    "request_reason": "Traffic Signal Malfunctioning or Damaged",
    "date_created": "2025-09-29T14:56:31.000",
    "date_modified": "2025-09-29T14:56:33.000",
    "request_status": "Pending",
    "responsible_agency": "Department of Public Works",
    "final_address": "ELYSIAN FIELDS AVE & N CLAIBORNE AVE",
    "address_councildis": "D",
    "status": "Pending",
    "rowid": "1229826",
    "final_x": "3684815.6",
    "final_y": "538136.98",
    "longitude": "-90.05736820071654",
    "latitude": "29.973589006521028",
    "geocoded_column": {
      "latitude": "29.973589006521028",
      "longitude": "-90.05736820071654"
    }
  },
  {
    "service_request": "2025-1229825",
    "request_type": "Trash/Recycling",
    "request_reason": "Repair Trash Cart",
    "date_created": "2025-09-29T14:55:22.000",
    "date_modified": "2025-09-29T14:55:24.000",
    "request_status": "Pending",
    "responsible_agency": "Department of Sanitation",
    "final_address": "3139 St Peter St",
    "address_councildis": "A",
    "status": "Assigned to Contractor",
    "contractor": "IV Waste",
    "rowid": "1229825",
    "final_x": "3674970.69685",
    "final_y": "538191.352265",
    "longitude": "-90.0884586712913",
    "latitude": "29.974036281424777",
    "geocoded_column": {
      "latitude": "29.974036281424777",
      "longitude": "-90.0884586712913"
    }
  },
  {
    "service_request": "2025-1229824",
    "request_type": "Streetlights",
    "request_reason": "Streetlight Outage/Malfunction",
    "date_created": "2025-09-29T14:53:56.000",
    "date_modified": "2025-09-29T14:53:58.000",
    "request_status": "Pending",
    "responsible_agency": "Department of Public Works",
    "final_address": "4700 Charlene Dr",
    "address_councildis": "E",
    "status": "Pending",
    "rowid": "1229824",
    "final_x": "3707874.30148",
    "final_y": "555235.476697",
    "longitude": "-89.98390862657341",
    "latitude": "30.019877219010986",
    "geocoded_column": {
      "latitude": "30.019877219010986",
      "longitude": "-89.98390862657341"
    }
  },
  {
    "service_request": "2025-1229823",
    "request_type": "Trash/Recycling",
    "request_reason": "Request a Large Item Pick Up",
    "date_created": "2025-09-29T14:50:11.000",
    "date_modified": "2025-09-29T14:50:13.000",
    "request_status": "Pending",
    "responsible_agency": "Department of Sanitation",
    "final_address": "4700 Charlene Dr",
    "address_councildis": "E",
    "status": "Assigned to Contractor",
    "contractor": "Waste Pro",
    "rowid": "1229823",
    "final_x": "3707874.30148",
    "final_y": "555235.476697",
    "longitude": "-89.98390862657341",
    "latitude": "30.019877219010986",
    "geocoded_column": {
      "latitude": "30.019877219010986",
      "longitude": "-89.98390862657341"
    }
  },
  {
    "service_request": "2025-1229822",
    "request_type": "Trash/Recycling",
    "request_reason": "Repair Recycling Cart",
    "date_created": "2025-09-29T14:49:13.000",
    "date_modified": "2025-09-29T14:49:15.000",
    "request_status": "Pending",
    "responsible_agency": "Department of Sanitation",
    "final_address": "264 Lowerline St",
    "address_councildis": "A",
    "status": "Pending",
    "rowid": "1229822",
    "final_x": "3661223.08781",
    "final_y": "523222.965243",
    "longitude": "-90.13237244796392",
    "latitude": "29.933281558424163",
    "geocoded_column": {
      "latitude": "29.933281558424163",
      "longitude": "-90.13237244796392"
    }
  },
  {
    "service_request": "2025-1229821",
    "request_type": "Trash/Recycling",
    "request_reason": "Request a Large Item Pick Up",
    "date_created": "2025-09-29T14:48:50.000",
    "date_modified": "2025-09-29T14:48:51.000",
    "request_status": "Pending",
    "responsible_agency": "Department of Sanitation",
    "final_address": "4539 Reynes St",
    "address_councildis": "E",
    "status": "Assigned to Contractor",
    "contractor": "Waste Pro",
    "rowid": "1229821",
    "final_x": "3699284.50064",
    "final_y": "553932.19836",
    "longitude": "-90.0110969838977",
    "latitude": "30.016569053440275",
    "geocoded_column": {
      "latitude": "30.016569053440275",
      "longitude": "-90.0110969838977"
    }
  },
  {
    "service_request": "2025-1229820",
    "request_type": "Trash/Recycling",
    "request_reason": "Order Trash Cart",
    "date_created": "2025-09-29T14:45:45.000",
    "date_modified": "2025-09-29T14:45:46.000",
    "request_status": "Pending",
    "responsible_agency": "Department of Sanitation",
    "final_address": "3139 St Peter St",
    "address_councildis": "A",
    "status": "Assigned to Contractor",
    "contractor": "IV Waste",
    "rowid": "1229820",
    "final_x": "3674970.69685",
    "final_y": "538191.352265",
    "longitude": "-90.0884586712913",
    "latitude": "29.974036281424777",
    "geocoded_column": {
      "latitude": "29.974036281424777",
      "longitude": "-90.0884586712913"
    }
  },
  {
    "service_request": "2025-1229819",
    "request_type": "Roads and Streets",
    "request_reason": "Street Subsidence (Sinking)",
    "date_created": "2025-09-29T14:43:38.000",
    "date_modified": "2025-09-29T14:43:40.000",
    "request_status": "Pending",
    "responsible_agency": "Sewerage & Water Board",
    "final_address": "7821 Leake Ave",
    "address_councildis": "A",
    "status": "Pending",
    "rowid": "1229819",
    "final_x": "3660625.86541",
    "final_y": "525516.670077",
    "longitude": "-90.13418207199017",
    "latitude": "29.939605722489926",
    "geocoded_column": {
      "latitude": "29.939605722489926",
      "longitude": "-90.13418207199017"
    }
  },
  {
    "service_request": "2025-1229818",
    "request_type": "Drainage",
    "request_reason": "Drainage Manhole Cover Missing or Damaged",
    "date_created": "2025-09-29T14:43:20.000",
    "date_modified": "2025-09-29T14:43:23.000",
    "request_status": "Pending",
    "responsible_agency": "Sewerage & Water Board",
    "final_address": "5929 Camp St",
    "address_councildis": "A",
    "status": "Pending",
    "rowid": "1229818",
    "final_x": "3665081.97088",
    "final_y": "519490.934007",
    "longitude": "-90.12031487069862",
    "latitude": "29.922907874664983",
    "geocoded_column": {
      "latitude": "29.922907874664983",
      "longitude": "-90.12031487069862"
    }
  },
  {
    "service_request": "2025-1229817",
    "request_type": "Parks & Parkways",
    "request_reason": "Request Tree Service (Right of Way/Public Property)",
    "date_created": "2025-09-29T14:42:09.000",
    "date_modified": "2025-09-29T15:16:31.000",
    "request_status": "Pending",
    "responsible_agency": "Department of Parks & Parkway",
    "final_address": "908 Fern St",
    "address_councildis": "A",
    "status": "Pending",
    "rowid": "1229817",
    "final_x": "3661854.66298",
    "final_y": "527171.849215",
    "longitude": "-90.13024770251916",
    "latitude": "29.944121521820318",
    "geocoded_column": {
      "latitude": "29.944121521820318",
      "longitude": "-90.13024770251916"
    }
  },
  {
    "service_request": "2025-1229816",
    "request_type": "Trash/Recycling",
    "request_reason": "MIssed Recycling Pick-Up",
    "date_created": "2025-09-29T14:40:57.000",
    "date_modified": "2025-09-29T14:46:30.000",
    "request_status": "Pending",
    "responsible_agency": "Department of Sanitation",
    "final_address": "4628 Bonita Dr",
    "address_councildis": "E",
    "status": "Assigned to Contractor",
    "contractor": "Waste Pro",
    "rowid": "1229816",
    "final_x": "3704506.8042",
    "final_y": "554535.770584",
    "longitude": "-89.9945745813066",
    "latitude": "30.01806191166592",
    "geocoded_column": {
      "latitude": "30.01806191166592",
      "longitude": "-89.9945745813066"
    }
  },
  {
    "service_request": "2025-1229815",
    "request_type": "Abandoned Vehicles",
    "request_reason": "Abandoned/Junk Vehicles",
    "date_created": "2025-09-29T14:36:51.000",
    "date_modified": "2025-09-29T14:36:53.000",
    "request_status": "Pending",
    "responsible_agency": "Department of Public Works",
    "final_address": "3306 St Claude Ave",
    "address_councildis": "C",
    "status": "Pending",
    "rowid": "1229815",
    "final_x": "3689903.54377",
    "final_y": "535735.412167",
    "longitude": "-90.0413849634953",
    "latitude": "29.966828770779955",
    "geocoded_column": {
      "latitude": "29.966828770779955",
      "longitude": "-90.0413849634953"
    }
  },
  {
    "service_request": "2025-1229814",
    "request_type": "Trash/Recycling",
    "request_reason": "Request a Large Item Pick Up",
    "date_created": "2025-09-29T14:27:21.000",
    "date_modified": "2025-09-29T14:27:23.000",
    "request_status": "Pending",
    "responsible_agency": "Department of Sanitation",
    "final_address": "24 Morrison Ct",
    "address_councildis": "E",
    "status": "Assigned to Contractor",
    "contractor": "Waste Pro",
    "rowid": "1229814",
    "final_x": "3704088.18743",
    "final_y": "561280.22915",
    "longitude": "-89.9956484640333",
    "latitude": "30.0366199957958",
    "geocoded_column": {
      "latitude": "30.0366199957958",
      "longitude": "-89.9956484640333"
    }
  },
  {
    "service_request": "2025-1229813",
    "request_type": "Trash/Recycling",
    "request_reason": "Request a Large Item Pick Up",
    "date_created": "2025-09-29T14:25:48.000",
    "date_modified": "2025-09-29T14:25:50.000",
    "request_status": "Pending",
    "responsible_agency": "Department of Sanitation",
    "final_address": "6019 Chestnut St",
    "address_councildis": "A",
    "status": "Assigned to Contractor",
    "contractor": "IV Waste",
    "rowid": "1229813",
    "final_x": "3664762.62535",
    "final_y": "519948.884408",
    "longitude": "-90.12130763332809",
    "latitude": "29.92417638659354",
    "geocoded_column": {
      "latitude": "29.92417638659354",
      "longitude": "-90.12130763332809"
    }
  },
  {
    "service_request": "2025-1229812",
    "request_type": "Trash/Recycling",
    "request_reason": "Request a Large Item Pick Up",
    "date_created": "2025-09-29T14:23:42.000",
    "date_modified": "2025-09-29T14:23:44.000",
    "request_status": "Pending",
    "responsible_agency": "Department of Sanitation",
    "final_address": "6621 Pauline Dr",
    "address_councildis": "D",
    "status": "Assigned to Contractor",
    "contractor": "IV Waste",
    "rowid": "1229812",
    "final_x": "3690949.97801",
    "final_y": "558124.244699",
    "longitude": "-90.03728061162535",
    "latitude": "30.028357424840358",
    "geocoded_column": {
      "latitude": "30.028357424840358",
      "longitude": "-90.03728061162535"
    }
  },
  {
    "service_request": "2025-1229811",
    "request_type": "Roads and Streets",
    "request_reason": "Pothole",
    "date_created": "2025-09-29T14:22:50.000",
    "date_modified": "2025-09-29T14:22:52.000",
    "request_status": "Pending",
    "responsible_agency": "Department of Public Works",
    "final_address": "MARAIS ST & POLAND AVE",
    "address_councildis": "D",
    "status": "Pending",
    "rowid": "1229811",
    "final_x": "3693105.5",
    "final_y": "535352.08",
    "longitude": "-90.0312869895635",
    "latitude": "29.96567508497548",
    "geocoded_column": {
      "latitude": "29.96567508497548",
      "longitude": "-90.0312869895635"
    }
  },
  {
    "service_request": "2025-1229810",
    "request_type": "Safety & Permits",
    "request_reason": "Licenses & Permits",
    "date_created": "2025-09-29T14:22:21.000",
    "date_modified": "2025-09-29T14:23:21.000",
    "request_status": "Pending",
    "responsible_agency": "Safety and Permits",
    "final_address": "12510 N Lake Carmel Dr",
    "address_councildis": "E",
    "status": "Pending",
    "rowid": "1229810",
    "final_x": "3715659.10015",
    "final_y": "567789.516516",
    "longitude": "-89.95883562996076",
    "latitude": "30.054141388110036",
    "geocoded_column": {
      "latitude": "30.054141388110036",
      "longitude": "-89.95883562996076"
    }
  },
  {
    "service_request": "2025-1229809",
    "request_type": "Trash/Recycling",
    "request_reason": "Request a Large Item Pick Up",
    "date_created": "2025-09-29T14:21:31.000",
    "date_modified": "2025-09-29T14:21:33.000",
    "request_status": "Pending",
    "responsible_agency": "Department of Sanitation",
    "final_address": "10940 Harrow Rd",
    "address_councildis": "E",
    "status": "Assigned to Contractor",
    "contractor": "Waste Pro",
    "rowid": "1229809",
    "final_x": "3711778.88235",
    "final_y": "563817.623201",
    "longitude": "-89.97124919197346",
    "latitude": "30.043347700071017",
    "geocoded_column": {
      "latitude": "30.043347700071017",
      "longitude": "-89.97124919197346"
    }
  },
  {
    "service_request": "2025-1229807",
    "request_type": "Property Maintenance",
    "request_reason": "Property Maintenance",
    "date_created": "2025-09-29T14:16:54.000",
    "date_modified": "2025-09-29T14:16:55.000",
    "request_status": "Pending",
    "responsible_agency": "Department of Code Enforcement",
    "final_address": "921 N Roman St",
    "address_councildis": "D",
    "status": "Pending",
    "rowid": "1229807",
    "final_x": "3679735.92424",
    "final_y": "535812.010375",
    "longitude": "-90.0734916266662",
    "latitude": "29.967350696096744",
    "geocoded_column": {
      "latitude": "29.967350696096744",
      "longitude": "-90.0734916266662"
    }
  },
  {
    "service_request": "2025-1229806",
    "request_type": "Abandoned Vehicles",
    "request_reason": "Abandoned/Junk Vehicles",
    "date_created": "2025-09-29T14:16:47.000",
    "date_modified": "2025-09-29T14:20:05.000",
    "request_status": "Pending",
    "responsible_agency": "Department of Public Works",
    "final_address": "12510 N Lake Carmel Dr",
    "address_councildis": "E",
    "status": "Pending",
    "rowid": "1229806",
    "final_x": "3715659.10015",
    "final_y": "567789.516516",
    "longitude": "-89.95883562996076",
    "latitude": "30.054141388110036",
    "geocoded_column": {
      "latitude": "30.054141388110036",
      "longitude": "-89.95883562996076"
    }
  },
  {
    "service_request": "2025-1229805",
    "request_type": "Trash/Recycling",
    "request_reason": "Request a Large Item Pick Up",
    "date_created": "2025-09-29T14:14:41.000",
    "date_modified": "2025-09-29T14:14:43.000",
    "request_status": "Pending",
    "responsible_agency": "Department of Sanitation",
    "final_address": "1824 Short St",
    "address_councildis": "A",
    "status": "Assigned to Contractor",
    "contractor": "IV Waste",
    "rowid": "1229805",
    "final_x": "3663820.99847",
    "final_y": "529798.084545",
    "longitude": "-90.12395188659853",
    "latitude": "29.951285908839175",
    "geocoded_column": {
      "latitude": "29.951285908839175",
      "longitude": "-90.12395188659853"
    }
  },
  {
    "service_request": "2025-1229804",
    "request_type": "Trash/Recycling",
    "request_reason": "Repair Recycling Cart",
    "date_created": "2025-09-29T14:13:13.000",
    "date_modified": "2025-09-29T14:13:15.000",
    "request_status": "Pending",
    "responsible_agency": "Department of Sanitation",
    "final_address": "5181 Metropolitan Dr",
    "address_councildis": "D",
    "status": "Pending",
    "rowid": "1229804",
    "final_x": "3690388.83248",
    "final_y": "552748.116182",
    "longitude": "-90.03924565751525",
    "latitude": "30.01359251970259",
    "geocoded_column": {
      "latitude": "30.01359251970259",
      "longitude": "-90.03924565751525"
    }
  },
  {
    "service_request": "2025-1229803",
    "request_type": "Trash/Recycling",
    "request_reason": "Request a Large Item Pick Up",
    "date_created": "2025-09-29T14:11:25.000",
    "date_modified": "2025-09-29T14:11:27.000",
    "request_status": "Pending",
    "responsible_agency": "Department of Sanitation",
    "final_address": "2757 Iberville St",
    "address_councildis": "B",
    "status": "Assigned to Contractor",
    "contractor": "IV Waste",
    "rowid": "1229803",
    "final_x": "3675230.90952",
    "final_y": "535792.349575",
    "longitude": "-90.08771922297892",
    "latitude": "29.967432063319887",
    "geocoded_column": {
      "latitude": "29.967432063319887",
      "longitude": "-90.08771922297892"
    }
  },
  {
    "service_request": "2025-1229802",
    "request_type": "Trash/Recycling",
    "request_reason": "Request a Large Item Pick Up",
    "date_created": "2025-09-29T14:11:13.000",
    "date_modified": "2025-09-29T14:11:17.000",
    "request_status": "Pending",
    "responsible_agency": "Department of Sanitation",
    "final_address": "7220 Voyageur Ct",
    "address_councildis": "E",
    "status": "Assigned to Contractor",
    "contractor": "Waste Pro",
    "rowid": "1229802",
    "final_x": "3726406.93952",
    "final_y": "568707.062693",
    "longitude": "-89.92482910846316",
    "latitude": "30.0563053764278",
    "geocoded_column": {
      "latitude": "30.0563053764278",
      "longitude": "-89.92482910846316"
    }
  },
  {
    "service_request": "2025-1229801",
    "request_type": "Roads and Streets",
    "request_reason": "Street Subsidence (Sinking)",
    "date_created": "2025-09-29T14:07:09.000",
    "date_modified": "2025-09-29T14:07:11.000",
    "request_status": "Pending",
    "responsible_agency": "Sewerage & Water Board",
    "final_address": "255 Walnut St",
    "address_councildis": "A",
    "status": "Pending",
    "rowid": "1229801",
    "final_x": "3661528.27488",
    "final_y": "521444.286521",
    "longitude": "-90.13146788388293",
    "latitude": "29.92838195086469",
    "geocoded_column": {
      "latitude": "29.92838195086469",
      "longitude": "-90.13146788388293"
    }
  },
  {
    "service_request": "2025-1229800",
    "request_type": "Trash/Recycling",
    "request_reason": "Request a Large Item Pick Up",
    "date_created": "2025-09-29T14:06:53.000",
    "date_modified": "2025-09-29T14:06:55.000",
    "request_status": "Pending",
    "responsible_agency": "Department of Sanitation",
    "final_address": "2101 Allen St",
    "address_councildis": "D",
    "status": "Assigned to Contractor",
    "contractor": "IV Waste",
    "rowid": "1229800",
    "final_x": "3682517.88296",
    "final_y": "539839.915402",
    "longitude": "-90.06456531989676",
    "latitude": "29.978341640333007",
    "geocoded_column": {
      "latitude": "29.978341640333007",
      "longitude": "-90.06456531989676"
    }
  },
  {
    "service_request": "2025-1229799",
    "request_type": "Trash/Recycling",
    "request_reason": "Request a Large Item Pick Up",
    "date_created": "2025-09-29T14:05:14.000",
    "date_modified": "2025-09-29T14:09:32.000",
    "request_status": "Pending",
    "responsible_agency": "Department of Sanitation",
    "final_address": "5634 Chamberlain Dr",
    "address_councildis": "D",
    "status": "Assigned to Contractor",
    "contractor": "IV Waste",
    "rowid": "1229799",
    "final_x": "3679312.0772",
    "final_y": "553247.768599",
    "longitude": "-90.07422508815736",
    "latitude": "30.015305707665224",
    "geocoded_column": {
      "latitude": "30.015305707665224",
      "longitude": "-90.07422508815736"
    }
  },
  {
    "service_request": "2025-1229798",
    "request_type": "Trash/Recycling",
    "request_reason": "Request a Large Item Pick Up",
    "date_created": "2025-09-29T14:04:38.000",
    "date_modified": "2025-09-29T14:04:40.000",
    "request_status": "Pending",
    "responsible_agency": "Department of Sanitation",
    "final_address": "5108 Pauline Dr",
    "address_councildis": "D",
    "status": "Assigned to Contractor",
    "contractor": "IV Waste",
    "rowid": "1229798",
    "final_x": "3692438.87389",
    "final_y": "552861.441495",
    "longitude": "-90.0327645566834",
    "latitude": "30.013840301257122",
    "geocoded_column": {
      "latitude": "30.013840301257122",
      "longitude": "-90.0327645566834"
    }
  },
  {
    "service_request": "2025-1229797",
    "request_type": "Roads and Streets",
    "request_reason": "Sidewalk Damaged or Missing",
    "date_created": "2025-09-29T14:04:38.000",
    "date_modified": "2025-09-29T14:04:39.000",
    "request_status": "Pending",
    "responsible_agency": "Department of Public Works",
    "final_address": "2234 Constance St",
    "address_councildis": "B",
    "status": "Pending",
    "rowid": "1229797",
    "final_x": "3678855.60296",
    "final_y": "521567.782969",
    "longitude": "-90.07676499944124",
    "latitude": "29.928210413081743",
    "geocoded_column": {
      "latitude": "29.928210413081743",
      "longitude": "-90.07676499944124"
    }
  },
  {
    "service_request": "2025-1229796",
    "request_type": "Drainage",
    "request_reason": "Drainage Manhole Cover Missing or Damaged",
    "date_created": "2025-09-29T14:02:26.000",
    "date_modified": "2025-09-29T14:02:28.000",
    "request_status": "Pending",
    "responsible_agency": "Sewerage & Water Board",
    "final_address": "206 S Norman C Francis Prkwy",
    "address_councildis": "B",
    "status": "Pending",
    "rowid": "1229796",
    "final_x": "3673011.05473",
    "final_y": "536240.500295",
    "longitude": "-90.09471427793976",
    "latitude": "29.9687304934256",
    "geocoded_column": {
      "latitude": "29.9687304934256",
      "longitude": "-90.09471427793976"
    }
  },
  {
    "service_request": "2025-1229795",
    "request_type": "Trash/Recycling",
    "request_reason": "Request a Large Item Pick Up",
    "date_created": "2025-09-29T14:02:12.000",
    "date_modified": "2025-09-29T14:02:15.000",
    "request_status": "Pending",
    "responsible_agency": "Department of Sanitation",
    "final_address": "4420 Venus St",
    "address_councildis": "D",
    "status": "Assigned to Contractor",
    "contractor": "IV Waste",
    "rowid": "1229795",
    "final_x": "3686528.8127",
    "final_y": "549057.648211",
    "longitude": "-90.05157171338098",
    "latitude": "30.0035643828395",
    "geocoded_column": {
      "latitude": "30.0035643828395",
      "longitude": "-90.05157171338098"
    }
  },
  {
    "service_request": "2025-1229794",
    "request_type": "Trash/Recycling",
    "request_reason": "Repair Trash Cart",
    "date_created": "2025-09-29T14:00:58.000",
    "date_modified": "2025-09-29T14:00:59.000",
    "request_status": "Pending",
    "responsible_agency": "Department of Sanitation",
    "final_address": "1363 Terry St",
    "address_councildis": "C",
    "status": "Assigned to Contractor",
    "contractor": "Richards Disposal",
    "rowid": "1229794",
    "final_x": "3697024.40605",
    "final_y": "526072.907838",
    "longitude": "-90.01924735944628",
    "latitude": "29.94003759333151",
    "geocoded_column": {
      "latitude": "29.94003759333151",
      "longitude": "-90.01924735944628"
    }
  },
  {
    "service_request": "2025-1229793",
    "request_type": "Trash/Recycling",
    "request_reason": "Replace Trash Cart",
    "date_created": "2025-09-29T13:59:35.000",
    "date_modified": "2025-09-29T13:59:37.000",
    "request_status": "Pending",
    "responsible_agency": "Department of Sanitation",
    "final_address": "6721 Bamberry St",
    "address_councildis": "E",
    "status": "Assigned to Contractor",
    "contractor": "Waste Pro",
    "rowid": "1229793",
    "final_x": "3698314.60855",
    "final_y": "558904.096796",
    "longitude": "-90.01398053266317",
    "latitude": "30.03027061586761",
    "geocoded_column": {
      "latitude": "30.03027061586761",
      "longitude": "-90.01398053266317"
    }
  },
  {
    "service_request": "2025-1229792",
    "request_type": "Trash/Recycling",
    "request_reason": "Request a Large Item Pick Up",
    "date_created": "2025-09-29T13:59:34.000",
    "date_modified": "2025-09-29T13:59:35.000",
    "request_status": "Pending",
    "responsible_agency": "Department of Sanitation",
    "final_address": "202 Fairfax Pl",
    "address_councildis": "C",
    "status": "Assigned to Contractor",
    "contractor": "Richards Disposal",
    "rowid": "1229792",
    "final_x": "3706147.04196",
    "final_y": "517505.955702",
    "longitude": "-89.99076297110616",
    "latitude": "29.916190648726104",
    "geocoded_column": {
      "latitude": "29.916190648726104",
      "longitude": "-89.99076297110616"
    }
  },
  {
    "service_request": "2025-1229791",
    "request_type": "Abandoned Vehicles",
    "request_reason": "Abandoned/Junk Vehicles",
    "date_created": "2025-09-29T13:59:28.000",
    "date_modified": "2025-09-29T13:59:31.000",
    "request_status": "Pending",
    "responsible_agency": "Department of Public Works",
    "final_address": "5411 St Charles Ave",
    "address_councildis": "A",
    "status": "Pending",
    "rowid": "1229791",
    "final_x": "3667258.16756",
    "final_y": "521800.94585",
    "longitude": "-90.1133678087575",
    "latitude": "29.929196150255596",
    "geocoded_column": {
      "latitude": "29.929196150255596",
      "longitude": "-90.1133678087575"
    }
  },
  {
    "service_request": "2025-1229790",
    "request_type": "Trash/Recycling",
    "request_reason": "Replace Recycling Cart",
    "date_created": "2025-09-29T13:57:31.000",
    "date_modified": "2025-09-29T13:57:32.000",
    "request_status": "Pending",
    "responsible_agency": "Department of Sanitation",
    "final_address": "1562 De Battista Pl",
    "address_councildis": "C",
    "status": "Pending",
    "rowid": "1229790",
    "final_x": "3699814.68304",
    "final_y": "525292.962301",
    "longitude": "-90.01046651861732",
    "latitude": "29.937804731383093",
    "geocoded_column": {
      "latitude": "29.937804731383093",
      "longitude": "-90.01046651861732"
    }
  },
  {
    "service_request": "2025-1229789",
    "request_type": "Trash/Recycling",
    "request_reason": "Replace Trash Cart",
    "date_created": "2025-09-29T13:57:19.000",
    "date_modified": "2025-09-29T13:57:22.000",
    "request_status": "Pending",
    "responsible_agency": "Department of Sanitation",
    "final_address": "180 Pinewood Ct",
    "address_councildis": "C",
    "status": "Assigned to Contractor",
    "contractor": "Richards Disposal",
    "rowid": "1229789",
    "final_x": "3696002.7816",
    "final_y": "523527.415931",
    "longitude": "-90.02256469757224",
    "latitude": "29.93307054345892",
    "geocoded_column": {
      "latitude": "29.93307054345892",
      "longitude": "-90.02256469757224"
    }
  },
  {
    "service_request": "2025-1229788",
    "request_type": "Trash/Recycling",
    "request_reason": "Repair Trash Cart",
    "date_created": "2025-09-29T13:54:32.000",
    "date_modified": "2025-09-29T13:54:33.000",
    "request_status": "Pending",
    "responsible_agency": "Department of Sanitation",
    "final_address": "145 Mary Jane Ln",
    "address_councildis": "E",
    "status": "Assigned to Contractor",
    "contractor": "Waste Pro",
    "rowid": "1229788",
    "final_x": "3718341.32575",
    "final_y": "571461.534696",
    "longitude": "-89.95021775555527",
    "latitude": "30.064149171090477",
    "geocoded_column": {
      "latitude": "30.064149171090477",
      "longitude": "-89.95021775555527"
    }
  },
  {
    "service_request": "2025-1229787",
    "request_type": "Trash/Recycling",
    "request_reason": "Illegal Dumping",
    "date_created": "2025-09-29T13:52:10.000",
    "date_modified": "2025-09-29T13:52:11.000",
    "request_status": "Pending",
    "responsible_agency": "Department of Sanitation",
    "final_address": "3901 St Claude Ave",
    "address_councildis": "C",
    "status": "Pending",
    "rowid": "1229787",
    "final_x": "3691581.30793",
    "final_y": "535476.098822",
    "longitude": "-90.03609587799095",
    "latitude": "29.96606362847908",
    "geocoded_column": {
      "latitude": "29.96606362847908",
      "longitude": "-90.03609587799095"
    }
  },
  {
    "service_request": "2025-1229786",
    "request_type": "Mosquito, Termite & Rodent Control",
    "request_reason": "Rodent Complaint (Mice & Rats)",
    "date_created": "2025-09-29T13:52:03.000",
    "date_modified": "2025-09-29T13:52:30.000",
    "request_status": "Pending",
    "responsible_agency": "Mosquito, Termite & Rodent Control Board",
    "final_address": "2524 N Prieur St",
    "address_councildis": "D",
    "status": "Pending",
    "rowid": "1229786",
    "final_x": "3687151.2175",
    "final_y": "539407.298954",
    "longitude": "-90.04994690704052",
    "latitude": "29.97701021575574",
    "geocoded_column": {
      "latitude": "29.97701021575574",
      "longitude": "-90.04994690704052"
    }
  },
  {
    "service_request": "2025-1229785",
    "request_type": "Abandoned Vehicles",
    "request_reason": "Abandoned/Junk Vehicles",
    "date_created": "2025-09-29T13:51:33.000",
    "date_modified": "2025-09-29T13:53:00.000",
    "request_status": "Pending",
    "responsible_agency": "Department of Public Works",
    "final_address": "1928 Pauger St",
    "address_councildis": "C",
    "status": "Inspected",
    "rowid": "1229785",
    "final_x": "3683800.84892",
    "final_y": "536818.7058",
    "longitude": "-90.06061923960077",
    "latitude": "29.96999524217774",
    "geocoded_column": {
      "latitude": "29.96999524217774",
      "longitude": "-90.06061923960077"
    }
  },
  {
    "service_request": "2025-1229784",
    "request_type": "Streetlights",
    "request_reason": "Streetlight Outage/Malfunction",
    "date_created": "2025-09-29T13:48:53.000",
    "date_modified": "2025-09-29T13:48:55.000",
    "request_status": "Pending",
    "responsible_agency": "Department of Public Works",
    "final_address": "1300 BLK Florida Ave",
    "address_councildis": "D",
    "status": "Pending",
    "rowid": "1229784",
    "final_x": "3677820.33592",
    "final_y": "544740.484454",
    "longitude": "-90.079232483011",
    "latitude": "29.9919586880776",
    "geocoded_column": {
      "latitude": "29.9919586880776",
      "longitude": "-90.079232483011"
    }
  },
  {
    "service_request": "2025-1229783",
    "request_type": "Trash/Recycling",
    "request_reason": "Order Recycling Cart",
    "date_created": "2025-09-29T13:45:13.000",
    "date_modified": "2025-09-29T13:45:15.000",
    "request_status": "Pending",
    "responsible_agency": "Department of Sanitation",
    "final_address": "8802 Forshey St",
    "address_councildis": "A",
    "status": "Pending",
    "rowid": "1229783",
    "final_x": "3665066.2226",
    "final_y": "535630.174406",
    "longitude": "-90.11982504277698",
    "latitude": "29.967286051460878",
    "geocoded_column": {
      "latitude": "29.967286051460878",
      "longitude": "-90.11982504277698"
    }
  },
  {
    "service_request": "2025-1229782",
    "request_type": "Trash/Recycling",
    "request_reason": "Order Trash Cart",
    "date_created": "2025-09-29T13:42:59.000",
    "date_modified": "2025-09-29T13:43:02.000",
    "request_status": "Pending",
    "responsible_agency": "Department of Sanitation",
    "final_address": "8802 Forshey St",
    "address_councildis": "A",
    "status": "Assigned to Contractor",
    "contractor": "IV Waste",
    "rowid": "1229782",
    "final_x": "3665066.2226",
    "final_y": "535630.174406",
    "longitude": "-90.11982504277698",
    "latitude": "29.967286051460878",
    "geocoded_column": {
      "latitude": "29.967286051460878",
      "longitude": "-90.11982504277698"
    }
  },
  {
    "service_request": "2025-1229781",
    "request_type": "Safety & Permits",
    "request_reason": "Zoning Enforcement",
    "date_created": "2025-09-29T13:41:57.000",
    "date_modified": "2025-09-29T13:41:59.000",
    "request_status": "Pending",
    "responsible_agency": "Safety and Permits",
    "final_address": "638 Huntlee Dr",
    "address_councildis": "C",
    "status": "Pending",
    "rowid": "1229781",
    "final_x": "3701849.08842",
    "final_y": "520309.99372",
    "longitude": "-90.00422625988942",
    "latitude": "29.92403856028581",
    "geocoded_column": {
      "latitude": "29.92403856028581",
      "longitude": "-90.00422625988942"
    }
  },
  {
    "service_request": "2025-1229780",
    "request_type": "Trash/Recycling",
    "request_reason": "Order Recycling Cart",
    "date_created": "2025-09-29T13:41:05.000",
    "date_modified": "2025-09-29T13:41:06.000",
    "request_status": "Pending",
    "responsible_agency": "Department of Sanitation",
    "final_address": "8800 Forshey St",
    "address_councildis": "A",
    "status": "Pending",
    "rowid": "1229780",
    "final_x": "3665085.24628",
    "final_y": "535624.66407",
    "longitude": "-90.11976514979902",
    "latitude": "29.967270345864762",
    "geocoded_column": {
      "latitude": "29.967270345864762",
      "longitude": "-90.11976514979902"
    }
  },
  {
    "service_request": "2025-1229779",
    "request_type": "Trash/Recycling",
    "request_reason": "Order Trash Cart",
    "date_created": "2025-09-29T13:38:04.000",
    "date_modified": "2025-09-29T13:38:07.000",
    "request_status": "Pending",
    "responsible_agency": "Department of Sanitation",
    "final_address": "8800 Forshey St",
    "address_councildis": "A",
    "status": "Assigned to Contractor",
    "contractor": "IV Waste",
    "rowid": "1229779",
    "final_x": "3665085.24628",
    "final_y": "535624.66407",
    "longitude": "-90.11976514979902",
    "latitude": "29.967270345864762",
    "geocoded_column": {
      "latitude": "29.967270345864762",
      "longitude": "-90.11976514979902"
    }
  },
  {
    "service_request": "2025-1229778",
    "request_type": "Trash/Recycling",
    "request_reason": "Request a Large Item Pick Up",
    "date_created": "2025-09-29T13:35:44.000",
    "date_modified": "2025-09-29T13:35:46.000",
    "request_status": "Pending",
    "responsible_agency": "Department of Sanitation",
    "final_address": "540 Audubon St",
    "address_councildis": "A",
    "status": "Assigned to Contractor",
    "contractor": "IV Waste",
    "rowid": "1229778",
    "final_x": "3662849.61095",
    "final_y": "524071.19782",
    "longitude": "-90.12720940469075",
    "latitude": "29.93556695424618",
    "geocoded_column": {
      "latitude": "29.93556695424618",
      "longitude": "-90.12720940469075"
    }
  },
  {
    "service_request": "2025-1229777",
    "request_type": "Trash/Recycling",
    "request_reason": "Request a Large Item Pick Up",
    "date_created": "2025-09-29T13:30:48.000",
    "date_modified": "2025-09-29T13:30:50.000",
    "request_status": "Pending",
    "responsible_agency": "Department of Sanitation",
    "final_address": "36 Fontainebleau Dr",
    "address_councildis": "A",
    "status": "Assigned to Contractor",
    "contractor": "IV Waste",
    "rowid": "1229777",
    "final_x": "3666024.12327",
    "final_y": "531424.331011",
    "longitude": "-90.11694096744584",
    "latitude": "29.955693435294833",
    "geocoded_column": {
      "latitude": "29.955693435294833",
      "longitude": "-90.11694096744584"
    }
  },
  {
    "service_request": "2025-1229776",
    "request_type": "Trash/Recycling",
    "request_reason": "Request a Large Item Pick Up",
    "date_created": "2025-09-29T13:29:18.000",
    "date_modified": "2025-09-29T13:29:19.000",
    "request_status": "Pending",
    "responsible_agency": "Department of Sanitation",
    "final_address": "927 Flood St",
    "address_councildis": "E",
    "status": "Assigned to Contractor",
    "contractor": "Waste Pro",
    "rowid": "1229776",
    "final_x": "3697616.58621",
    "final_y": "533264.086084",
    "longitude": "-90.01711697399054",
    "latitude": "29.959792124309473",
    "geocoded_column": {
      "latitude": "29.959792124309473",
      "longitude": "-90.01711697399054"
    }
  },
  {
    "service_request": "2025-1229775",
    "request_type": "Trash/Recycling",
    "request_reason": "Replace Trash Cart",
    "date_created": "2025-09-29T13:23:19.000",
    "date_modified": "2025-09-29T13:23:21.000",
    "request_status": "Pending",
    "responsible_agency": "Department of Sanitation",
    "final_address": "117 Spencer Ave",
    "address_councildis": "A",
    "status": "Assigned to Contractor",
    "contractor": "IV Waste",
    "rowid": "1229775",
    "final_x": "3666247.20749",
    "final_y": "553688.067095",
    "longitude": "-90.11548935632828",
    "latitude": "30.016904650968847",
    "geocoded_column": {
      "latitude": "30.016904650968847",
      "longitude": "-90.11548935632828"
    }
  },
  {
    "service_request": "2025-1229774",
    "request_type": "General Services",
    "request_reason": "General Service Request",
    "date_created": "2025-09-29T13:22:39.000",
    "date_modified": "2025-09-29T14:29:53.000",
    "case_close_date": "2025-09-29T09:29:52.000",
    "request_status": "Closed",
    "responsible_agency": "Orleans Parish Communication District",
    "final_address": "3700 BLK Martin Luther King, Jr. Blvd",
    "address_councildis": "B",
    "status": "Referred to Risk Management",
    "rowid": "1229774",
    "final_x": "3672865.09485",
    "final_y": "529572.053176",
    "longitude": "-90.09540274752185",
    "latitude": "29.950398825413103",
    "geocoded_column": {
      "latitude": "29.950398825413103",
      "longitude": "-90.09540274752185"
    }
  },
  {
    "service_request": "2025-1229773",
    "request_type": "Trash/Recycling",
    "request_reason": "Request a Large Item Pick Up",
    "date_created": "2025-09-29T13:18:18.000",
    "date_modified": "2025-09-29T13:18:20.000",
    "request_status": "Pending",
    "responsible_agency": "Department of Sanitation",
    "final_address": "600 General Pershing St",
    "address_councildis": "B",
    "status": "Assigned to Contractor",
    "contractor": "IV Waste",
    "rowid": "1229773",
    "final_x": "3671511.35924",
    "final_y": "517873.29279",
    "longitude": "-90.10007471606168",
    "latitude": "29.91827115788616",
    "geocoded_column": {
      "latitude": "29.91827115788616",
      "longitude": "-90.10007471606168"
    }
  },