[
  {
    "service_request": "2023-1012361",
    "request_type": "Safety & Permits",
    "request_reason": "Safety & Permits Request (Cyber Incident Back Up)",
    "date_created": "2023-06-28T01:59:35.000",
    "date_modified": "2023-06-28T01:59:35.000",
    "request_status": "Pending",
    "responsible_agency": "Safety and Permits",
    "final_address": "4213 Chestnut St Apt A",
    "address_councildis": "B",
    "status": "Pending",
    "rowid": "1012361",
    "final_x": "3671600.24295",
    "final_y": "519623.001272",
    "longitude": "-90.09973469849344",
    "latitude": "29.923079668905835",
    "geocoded_column": {
      "latitude": "29.923079668905835",
      "longitude": "-90.09973469849344"
    }
  },
  {
    "service_request": "2023-1012358",
    "request_type": "Traffic Signals/Signs/Striping/Streetlights",
    "request_reason": "Traffic Sign Missing/Damaged",
    "date_created": "2023-06-28T00:27:42.000",
    "date_modified": "2023-06-28T00:27:42.000",
    "request_status": "Pending",
    "responsible_agency": "Department of Public Works",
    "final_address": "4041 Magazine St",
    "address_councildis": "B",
    "status": "Pending",
    "rowid": "1012358",
    "final_x": "3672207.55239",
    "final_y": "518963.459703",
    "longitude": "-90.09784010078256",
    "latitude": "29.92124814807494",
    "geocoded_column": {
      "latitude": "29.92124814807494",
      "longitude": "-90.09784010078256"
    }
  },
  {
    "service_request": "2023-1012357",
    "request_type": "Traffic Signals/Signs/Striping/Streetlights",
    "request_reason": "Street Light Outage/Malfunction",
    "date_created": "2023-06-27T22:48:39.000",
    "date_modified": "2023-06-27T22:48:39.000",
    "request_status": "Pending",
    "responsible_agency": "Department of Public Works",
    "final_address": "4165 General Meyer Ave",
    "address_councildis": "C",
    "status": "Assigned to Contractor",
    "contractor": "Legacy Professional Services",
    "rowid": "1012357",
    "final_x": "3699541.30186",
    "final_y": "524376.24582",
    "longitude": "-90.0113629895645",
    "latitude": "29.935292755109526",
    "geocoded_column": {
      "latitude": "29.935292755109526",
      "longitude": "-90.0113629895645"
    }
  },
  {
    "service_request": "2023-1012356",
    "request_type": "Traffic Signals/Signs/Striping/Streetlights",
    "request_reason": "Street Light Outage/Malfunction",
    "date_created": "2023-06-27T22:35:49.000",
    "date_modified": "2023-06-27T22:35:50.000",
    "request_status": "Pending",
    "responsible_agency": "Department of Public Works",
    "final_address": "4165 General Meyer Ave",
    "address_councildis": "C",
    "status": "Assigned to Contractor",
    "contractor": "Legacy Professional Services",
    "rowid": "1012356",
    "final_x": "3699541.30186",
    "final_y": "524376.24582",
    "longitude": "-90.0113629895645",
    "latitude": "29.935292755109526",
    "geocoded_column": {
      "latitude": "29.935292755109526",
      "longitude": "-90.0113629895645"
    }
  },
  {
    "service_request": "2023-1012355",
    "request_type": "Traffic Signals/Signs/Striping/Streetlights",
    "request_reason": "Street Light Outage/Malfunction",
    "date_created": "2023-06-27T22:29:06.000",
    "date_modified": "2023-06-27T22:29:07.000",
    "request_status": "Pending",
    "responsible_agency": "Department of Public Works",
    "final_address": "2857 Annunciation St",
    "address_councildis": "B",
    "status": "Assigned to Contractor",
    "contractor": "Legacy Professional Services",
    "rowid": "1012355",
    "final_x": "3677245.7764",
    "final_y": "519679.140728",
    "longitude": "-90.08191197942094",
    "latitude": "29.923065704093972",
    "geocoded_column": {
      "latitude": "29.923065704093972",
      "longitude": "-90.08191197942094"
    }
  },
  {
    "service_request": "2023-1012354",
    "request_type": "Traffic Signals/Signs/Striping/Streetlights",
    "request_reason": "Street Light Outage/Malfunction",
    "date_created": "2023-06-27T22:24:44.000",
    "date_modified": "2023-06-27T22:24:45.000",
    "request_status": "Pending",
    "responsible_agency": "Department of Public Works",
    "final_address": "4120 Vincennes Pl",
    "address_councildis": "B",
    "status": "Assigned to Contractor",
    "contractor": "Legacy Professional Services",
    "rowid": "1012354",
    "final_x": "3668524.89614",
    "final_y": "530727.500354",
    "longitude": "-90.10906789585637",
    "latitude": "29.95370414588068",
    "geocoded_column": {
      "latitude": "29.95370414588068",
      "longitude": "-90.10906789585637"
    }
  },
  {
    "service_request": "2023-1012353",
    "request_type": "Abandoned Vehicles",
    "request_reason": "Abandoned/Junk Vehicles",
    "date_created": "2023-06-27T21:51:05.000",
    "date_modified": "2023-06-27T21:51:05.000",
    "request_status": "Pending",
    "responsible_agency": "Department of Public Works",
    "final_address": "7701 Scottwood Dr",
    "address_councildis": "E",
    "status": "Pending",
    "rowid": "1012353",
    "final_x": "3717158.68255",
    "final_y": "571082.123111",
    "longitude": "-89.9539705798683",
    "latitude": "30.063145145978154",
    "geocoded_column": {
      "latitude": "30.063145145978154",
      "longitude": "-89.9539705798683"
    }
  },
  {
    "service_request": "2023-1012351",
    "request_type": "Trash/Recycling",
    "request_reason": "Missed Trash Pick-Up",
    "date_created": "2023-06-27T21:32:58.000",
    "date_modified": "2023-06-27T21:32:58.000",
    "request_status": "Pending",
    "responsible_agency": "Department of Sanitation",
    "final_address": "1902 Foucher St",
    "address_councildis": "B",
    "status": "Assigned to Contractor",
    "contractor": "Richards Disposal",
    "rowid": "1012351",
    "final_x": "3673016.39003",
    "final_y": "522314.335802",
    "longitude": "-90.09517265981306",
    "latitude": "29.930437976158345",
    "geocoded_column": {
      "latitude": "29.930437976158345",
      "longitude": "-90.09517265981306"
    }
  },
  {
    "service_request": "2023-1012350",
    "request_type": "Trash/Recycling",
    "request_reason": "Replace Trash Cart",
    "date_created": "2023-06-27T20:40:25.000",
    "date_modified": "2023-06-27T20:40:25.000",
    "request_status": "Pending",
    "responsible_agency": "Department of Sanitation",
    "final_address": "2316 S Roman St",
    "address_councildis": "B",
    "status": "Assigned to Contractor",
    "contractor": "Richards Disposal",
    "rowid": "1012350",
    "final_x": "3674047.68609",
    "final_y": "528118.774015",
    "longitude": "-90.09171845757628",
    "latitude": "29.94636760390182",
    "geocoded_column": {
      "latitude": "29.94636760390182",
      "longitude": "-90.09171845757628"
    }
  },
  {
    "service_request": "2023-1012349",
    "request_type": "Trash/Recycling",
    "request_reason": "Replace Trash Cart",
    "date_created": "2023-06-27T20:39:35.000",
    "date_modified": "2023-06-27T20:39:35.000",
    "request_status": "Pending",
    "responsible_agency": "Department of Sanitation",
    "final_address": "2316 S Roman St",
    "address_councildis": "B",
    "status": "Assigned to Contractor",
    "contractor": "Richards Disposal",
    "rowid": "1012349",
    "final_x": "3674047.68609",
    "final_y": "528118.774015",
    "longitude": "-90.09171845757628",
    "latitude": "29.94636760390182",
    "geocoded_column": {
      "latitude": "29.94636760390182",
      "longitude": "-90.09171845757628"
    }
  },
  {
    "service_request": "2023-1012348",
    "request_type": "Trash/Recycling",
    "request_reason": "Replace Trash Cart",
    "date_created": "2023-06-27T20:13:23.000",
    "date_modified": "2023-06-27T20:13:24.000",
    "request_status": "Pending",
    "responsible_agency": "Department of Sanitation",
    "final_address": "2609 Chippewa St",
    "address_councildis": "B",
    "status": "Assigned to Contractor",
    "contractor": "Richards Disposal",
    "rowid": "1012348",
    "final_x": "3678293.61512",
    "final_y": "519905.976696",
    "longitude": "-90.07859651518918",
    "latitude": "29.923657920814627",
    "geocoded_column": {
      "latitude": "29.923657920814627",
      "longitude": "-90.07859651518918"
    }
  },
  {
    "service_request": "2023-1012347",
    "request_type": "Trash/Recycling",
    "request_reason": "Order Recycling Cart",
    "date_created": "2023-06-27T20:11:23.000",
    "date_modified": "2023-06-27T20:11:23.000",
    "request_status": "Pending",
    "responsible_agency": "Department of Sanitation",
    "final_address": "2322 Coliseum St",
    "address_councildis": "B",
    "status": "Pending",
    "rowid": "1012347",
    "final_x": "3677770.48744",
    "final_y": "522519.14201",
    "longitude": "-90.0801576228923",
    "latitude": "29.93085901583104",
    "geocoded_column": {
      "latitude": "29.93085901583104",
      "longitude": "-90.0801576228923"
    }
  },
  {
    "service_request": "2023-1012346",
    "request_type": "Abandoned Vehicles",
    "request_reason": "Abandoned/Junk Vehicles",
    "date_created": "2023-06-27T20:01:55.000",
    "date_modified": "2023-06-27T20:01:55.000",
    "request_status": "Pending",
    "responsible_agency": "Department of Public Works",
    "final_address": "8518 Jeannette St",
    "address_councildis": "A",
    "status": "Pending",
    "rowid": "1012346",
    "final_x": "3661469.86675",
    "final_y": "530193.656705",
    "longitude": "-90.13136253762409",
    "latitude": "29.95244162905198",
    "geocoded_column": {
      "latitude": "29.95244162905198",
      "longitude": "-90.13136253762409"
    }
  },
  {
    "service_request": "2023-1012345",
    "request_type": "Abandoned Vehicles",
    "request_reason": "Abandoned/Junk Vehicles",
    "date_created": "2023-06-27T19:56:26.000",
    "date_modified": "2023-06-27T19:56:27.000",
    "request_status": "Pending",
    "responsible_agency": "Department of Public Works",
    "final_address": "1731 Agriculture St",
    "address_councildis": "D",
    "status": "Pending",
    "rowid": "1012345",
    "final_x": "3680951.52565",
    "final_y": "543057.673421",
    "longitude": "-90.0694003396167",
    "latitude": "29.987236947543717",
    "geocoded_column": {
      "latitude": "29.987236947543717",
      "longitude": "-90.0694003396167"
    }
  },
  {
    "service_request": "2023-1012344",
    "request_type": "Parks & Parkways",
    "request_reason": "Request Tree Service (Right of Way/Public Property)",
    "date_created": "2023-06-27T19:56:05.000",
    "date_modified": "2023-06-27T19:56:06.000",
    "request_status": "Pending",
    "responsible_agency": "Department of Parks & Parkway",
    "final_address": "CLOVER ST & CLEMATIS AVE",
    "address_councildis": "D",
    "status": "Pending",
    "rowid": "1012344",
    "final_x": "3686091.7",
    "final_y": "546554.38",
    "longitude": "-90.05304098181207",
    "latitude": "29.99669473618617",
    "geocoded_column": {
      "latitude": "29.99669473618617",
      "longitude": "-90.05304098181207"
    }
  },
  {
    "service_request": "2023-1012343",
    "request_type": "Roads/Drainage",
    "request_reason": "Debris in Roadway",
    "date_created": "2023-06-27T19:41:04.000",
    "date_modified": "2023-06-27T19:41:04.000",
    "request_status": "Pending",
    "responsible_agency": "Department of Public Works",
    "final_address": "ARTS ST & ATHIS ST",
    "address_councildis": "D",
    "status": "Pending",
    "rowid": "1012343",
    "final_x": "3685767.2",
    "final_y": "554398.28",
    "longitude": "-90.05378935987174",
    "latitude": "30.018272573506884",
    "geocoded_column": {
      "latitude": "30.018272573506884",
      "longitude": "-90.05378935987174"
    }
  },
  {
    "service_request": "2023-1012342",
    "request_type": "Abandoned Vehicles",
    "request_reason": "Abandoned/Junk Vehicles",
    "date_created": "2023-06-27T19:39:48.000",
    "date_modified": "2023-06-27T19:39:48.000",
    "request_status": "Pending",
    "responsible_agency": "Department of Public Works",
    "final_address": "3324 Cherry St",
    "address_councildis": "A",
    "status": "Pending",
    "rowid": "1012342",
    "final_x": "3663992.72999",
    "final_y": "536942.612552",
    "longitude": "-90.12317138804914",
    "latitude": "29.970926040106658",
    "geocoded_column": {
      "latitude": "29.970926040106658",
      "longitude": "-90.12317138804914"
    }
  },
  {
    "service_request": "2023-1012341",
    "request_type": "Abandoned Vehicles",
    "request_reason": "Abandoned/Junk Vehicles",
    "date_created": "2023-06-27T19:38:30.000",
    "date_modified": "2023-06-27T19:38:30.000",
    "request_status": "Pending",
    "responsible_agency": "Department of Public Works",
    "final_address": "3324 Cherry St",
    "address_councildis": "A",
    "status": "Pending",
    "rowid": "1012341",
    "final_x": "3663992.72999",
    "final_y": "536942.612552",
    "longitude": "-90.12317138804914",
    "latitude": "29.970926040106658",
    "geocoded_column": {
      "latitude": "29.970926040106658",
      "longitude": "-90.12317138804914"
    }
  },
  {
    "service_request": "2023-1012340",
    "request_type": "Abandoned Vehicles",
    "request_reason": "Abandoned/Junk Vehicles",
    "date_created": "2023-06-27T19:37:14.000",
    "date_modified": "2023-06-27T19:37:14.000",
    "request_status": "Pending",
    "responsible_agency": "Department of Public Works",
    "final_address": "9229 Olive St",
    "address_councildis": "A",
    "status": "Pending",
    "rowid": "1012340",
    "final_x": "3664239.33338",
    "final_y": "536969.607688",
    "longitude": "-90.12239167848513",
    "latitude": "29.970993104098387",
    "geocoded_column": {
      "latitude": "29.970993104098387",
      "longitude": "-90.12239167848513"
    }
  },
  {
    "service_request": "2023-1012339",
    "request_type": "Abandoned Vehicles",
    "request_reason": "Abandoned/Junk Vehicles",
    "date_created": "2023-06-27T19:35:42.000",
    "date_modified": "2023-06-27T19:35:42.000",
    "request_status": "Pending",
    "responsible_agency": "Department of Public Works",
    "final_address": "9229 Olive St",
    "address_councildis": "A",
    "status": "Pending",
    "rowid": "1012339",
    "final_x": "3664239.33338",
    "final_y": "536969.607688",
    "longitude": "-90.12239167848513",
    "latitude": "29.970993104098387",
    "geocoded_column": {
      "latitude": "29.970993104098387",
      "longitude": "-90.12239167848513"
    }
  },
  {
    "service_request": "2023-1012338",
    "request_type": "Abandoned Vehicles",
    "request_reason": "Abandoned/Junk Vehicles",
    "date_created": "2023-06-27T19:31:22.000",
    "date_modified": "2023-06-27T19:31:22.000",
    "request_status": "Pending",
    "responsible_agency": "Department of Public Works",
    "status": "Pending",
    "rowid": "1012338",
    "longitude": "0.0",
    "latitude": "0.0",
    "geocoded_column": {
      "latitude": "0.0",
      "longitude": "0.0"
    }
  },
  {
    "service_request": "2023-1012337",
    "request_type": "Abandoned Vehicles",
    "request_reason": "Abandoned/Junk Vehicles",
    "date_created": "2023-06-27T19:30:14.000",
    "date_modified": "2023-06-27T19:30:14.000",
    "request_status": "Pending",
    "responsible_agency": "Department of Public Works",
    "final_address": "3400 Cherry St",
    "address_councildis": "A",
    "status": "Pending",
    "rowid": "1012337",
    "final_x": "3664109.86068",
    "final_y": "537087.441736",
    "longitude": "-90.122796640506",
    "latitude": "29.971320870424215",
    "geocoded_column": {
      "latitude": "29.971320870424215",
      "longitude": "-90.122796640506"
    }
  },
  {
    "service_request": "2023-1012336",
    "request_type": "Abandoned Vehicles",
    "request_reason": "Abandoned/Junk Vehicles",
    "date_created": "2023-06-27T19:28:06.000",
    "date_modified": "2023-06-27T19:28:06.000",
    "request_status": "Pending",
    "responsible_agency": "Department of Public Works",
    "final_address": "3400 BLK Cherry St",
    "address_councildis": "A",
    "status": "Pending",
    "rowid": "1012336",
    "final_x": "3664179.855",
    "final_y": "537087.759274",
    "longitude": "-90.12257557701189",
    "latitude": "29.971319710089816",
    "geocoded_column": {
      "latitude": "29.971319710089816",
      "longitude": "-90.12257557701189"
    }
  },
  {
    "service_request": "2023-1012335",
    "request_type": "Trash/Recycling",
    "request_reason": "Request a Large Item Pick Up",
    "date_created": "2023-06-27T19:26:34.000",
    "date_modified": "2023-06-27T19:26:35.000",
    "request_status": "Pending",
    "responsible_agency": "Department of Sanitation",
    "final_address": "DAUPHINE ST & ST PHILIP ST",
    "address_councildis": "C",
    "status": "Assigned to Contractor",
    "contractor": "Empire Services",
    "rowid": "1012335",
    "final_x": "3682652.8",
    "final_y": "533783.68",
    "longitude": "-90.06435103754121",
    "latitude": "29.9616849782444",
    "geocoded_column": {
      "latitude": "29.9616849782444",
      "longitude": "-90.06435103754121"
    }
  },
  {
    "service_request": "2023-1012333",
    "request_type": "Trash/Recycling",
    "request_reason": "Request a Large Item Pick Up",
    "date_created": "2023-06-27T19:04:51.000",
    "date_modified": "2023-06-27T19:04:52.000",
    "request_status": "Pending",
    "responsible_agency": "Department of Sanitation",
    "final_address": "5325 Wilton Dr",
    "address_councildis": "D",
    "status": "Assigned to Contractor",
    "contractor": "IV Waste",
    "rowid": "1012333",
    "final_x": "3681960.82767",
    "final_y": "552853.507607",
    "longitude": "-90.06587005831095",
    "latitude": "30.014141336839256",
    "geocoded_column": {
      "latitude": "30.014141336839256",
      "longitude": "-90.06587005831095"
    }
  },
  {
    "service_request": "2023-1012332",
    "request_type": "Trash/Recycling",
    "request_reason": "Request a Large Item Pick Up",
    "date_created": "2023-06-27T18:50:39.000",
    "date_modified": "2023-06-27T18:50:40.000",
    "request_status": "Pending",
    "responsible_agency": "Department of Sanitation",
    "final_address": "725 Ursulines Ave",
    "address_councildis": "C",
    "status": "Assigned to Contractor",
    "contractor": "Empire Services",
    "rowid": "1012332",
    "final_x": "3683297.887",
    "final_y": "533771.517253",
    "longitude": "-90.06231438732512",
    "latitude": "29.9616318751545",
    "geocoded_column": {
      "latitude": "29.9616318751545",
      "longitude": "-90.06231438732512"
    }
  },
  {
    "service_request": "2023-1012331",
    "request_type": "Trash/Recycling",
    "request_reason": "Replace Trash Cart",
    "date_created": "2023-06-27T18:35:33.000",
    "date_modified": "2023-06-27T18:35:34.000",
    "request_status": "Pending",
    "responsible_agency": "Department of Sanitation",
    "final_address": "13711 Dwyer Blvd",
    "address_councildis": "E",
    "status": "Assigned to Contractor",
    "contractor": "Waste Pro",
    "rowid": "1012331",
    "final_x": "3726940.59289",
    "final_y": "562463.900127",
    "longitude": "-89.9233851643547",
    "latitude": "30.03912124287339",
    "geocoded_column": {
      "latitude": "30.03912124287339",
      "longitude": "-89.9233851643547"
    }
  },
  {
    "service_request": "2023-1012330",
    "request_type": "Trash/Recycling",
    "request_reason": "Illegal Dumping",
    "date_created": "2023-06-27T18:35:24.000",
    "date_modified": "2023-06-27T18:35:24.000",
    "request_status": "Pending",
    "responsible_agency": "Department of Sanitation",
    "final_address": "5017 N Miro St",
    "address_councildis": "E",
    "status": "Pending",
    "rowid": "1012330",
    "final_x": "3697274.7153",
    "final_y": "538379.158729",
    "longitude": "-90.01801110658842",
    "latitude": "29.973867541832774",
    "geocoded_column": {
      "latitude": "29.973867541832774",
      "longitude": "-90.01801110658842"
    }
  },
  {
    "service_request": "2023-1012329",
    "request_type": "Trash/Recycling",
    "request_reason": "Request a Large Item Pick Up",
    "date_created": "2023-06-27T18:31:32.000",
    "date_modified": "2023-06-27T18:31:33.000",
    "request_status": "Pending",
    "responsible_agency": "Department of Sanitation",
    "final_address": "4110 Cleveland Ave",
    "address_councildis": "A",
    "status": "Assigned to Contractor",
    "contractor": "Richards Disposal",
    "rowid": "1012329",
    "final_x": "3670660.43265",
    "final_y": "538097.006281",
    "longitude": "-90.10207469923367",
    "latitude": "29.973904918674172",
    "geocoded_column": {
      "latitude": "29.973904918674172",
      "longitude": "-90.10207469923367"
    }
  },
  {
    "service_request": "2023-1012328",
    "request_type": "Roads/Drainage",
    "request_reason": "Catch Basin - Broken/Damage",
    "date_created": "2023-06-27T18:26:17.000",
    "date_modified": "2023-06-27T18:26:17.000",
    "request_status": "Pending",
    "responsible_agency": "Department of Public Works",
    "final_address": "1323 Fern St",
    "address_councildis": "A",
    "status": "Pending",
    "rowid": "1012328",
    "final_x": "3662928.53837",
    "final_y": "528222.335552",
    "longitude": "-90.12682223784354",
    "latitude": "29.94697897602701",
    "geocoded_column": {
      "latitude": "29.94697897602701",
      "longitude": "-90.12682223784354"
    }
  },
  {
    "service_request": "2023-1012327",
    "request_type": "Abandoned Vehicles",
    "request_reason": "Abandoned/Junk Vehicles",
    "date_created": "2023-06-27T18:19:44.000",
    "date_modified": "2023-06-27T18:19:44.000",
    "request_status": "Pending",
    "responsible_agency": "Department of Public Works",
    "final_address": "10200 BLK Prentiss Ave",
    "address_councildis": "E",
    "status": "Pending",
    "rowid": "1012327",
    "final_x": "3713606.79224",
    "final_y": "555971.10799",
    "longitude": "-89.96576825544369",
    "latitude": "30.021713042308306",
    "geocoded_column": {
      "latitude": "30.021713042308306",
      "longitude": "-89.96576825544369"
    }
  },
  {
    "service_request": "2023-1012326",
    "request_type": "Property Maintenance",
    "request_reason": "Property Maintenance",
    "date_created": "2023-06-27T18:11:51.000",
    "date_modified": "2023-06-27T18:11:51.000",
    "request_status": "Pending",
    "responsible_agency": "Department of Code Enforcement",
    "final_address": "4801 Nottingham Dr",
    "address_councildis": "E",
    "status": "Pending",
    "rowid": "1012326",
    "final_x": "3716450.60613",
    "final_y": "557126.927962",
    "longitude": "-89.95673878366814",
    "latitude": "30.024797456050667",
    "geocoded_column": {
      "latitude": "30.024797456050667",
      "longitude": "-89.95673878366814"
    }
  },
  {
    "service_request": "2023-1012324",
    "request_type": "Trash/Recycling",
    "request_reason": "Return Trash Cart",
    "date_created": "2023-06-27T18:01:47.000",
    "date_modified": "2023-06-27T18:01:48.000",
    "request_status": "Pending",
    "responsible_agency": "Department of Sanitation",
    "final_address": "7520 Shaw Ave",
    "address_councildis": "E",
    "status": "Assigned to Contractor",
    "contractor": "Waste Pro",
    "rowid": "1012324",
    "final_x": "3707309.46795",
    "final_y": "563952.325473",
    "longitude": "-89.9853692953895",
    "latitude": "30.04386340418402",
    "geocoded_column": {
      "latitude": "30.04386340418402",
      "longitude": "-89.9853692953895"
    }
  },
  {
    "service_request": "2023-1012323",
    "request_type": "Parks & Parkways",
    "request_reason": "Request Tree Service (Right of Way/Public Property)",
    "date_created": "2023-06-27T17:55:26.000",
    "date_modified": "2023-06-27T17:56:31.000",
    "request_status": "Pending",
    "responsible_agency": "Department of Parks & Parkway",
    "final_address": "2000 BLK Casa Calvo St",
    "address_councildis": "C",
    "status": "Pending",
    "rowid": "1012323",
    "final_x": "3691940.44351",
    "final_y": "523708.300796",
    "longitude": "-90.03538269798575",
    "latitude": "29.933695068882788",
    "geocoded_column": {
      "latitude": "29.933695068882788",
      "longitude": "-90.03538269798575"
    }
  },
  {
    "service_request": "2023-1012322",
    "request_type": "Trash/Recycling",
    "request_reason": "Replace Trash Cart",
    "date_created": "2023-06-27T17:46:32.000",
    "date_modified": "2023-06-27T17:46:33.000",
    "request_status": "Pending",
    "responsible_agency": "Department of Sanitation",
    "final_address": "818 Thayer St",
    "address_councildis": "C",
    "status": "Assigned to Contractor",
    "contractor": "Richards Disposal",
    "rowid": "1012322",
    "final_x": "3689502.86595",
    "final_y": "528450.453952",
    "longitude": "-90.04290938720142",
    "latitude": "29.946810074980572",
    "geocoded_column": {
      "latitude": "29.946810074980572",
      "longitude": "-90.04290938720142"
    }
  },
  {
    "service_request": "2023-1012321",
    "request_type": "Trash/Recycling",
    "request_reason": "Missed Trash Pick-Up",
    "date_created": "2023-06-27T17:45:38.000",
    "date_modified": "2023-06-27T17:45:38.000",
    "request_status": "Pending",
    "responsible_agency": "Department of Sanitation",
    "final_address": "818 Thayer St",
    "address_councildis": "C",
    "status": "Assigned to Contractor",
    "contractor": "Richards Disposal",
    "rowid": "1012321",
    "final_x": "3689502.86595",
    "final_y": "528450.453952",
    "longitude": "-90.04290938720142",
    "latitude": "29.946810074980572",
    "geocoded_column": {
      "latitude": "29.946810074980572",
      "longitude": "-90.04290938720142"
    }
  },
  {
    "service_request": "2023-1012320",
    "request_type": "Trash/Recycling",
    "request_reason": "Request a Large Item Pick Up",
    "date_created": "2023-06-27T17:40:37.000",
    "date_modified": "2023-06-27T17:40:55.000",
    "request_status": "Pending",
    "responsible_agency": "Department of Sanitation",
    "final_address": "1901 Alvar St",
    "address_councildis": "D",
    "status": "Assigned to Contractor",
    "contractor": "IV Waste",
    "rowid": "1012320",
    "final_x": "3692293.22416",
    "final_y": "538409.511689",
    "longitude": "-90.03374260754252",
    "latitude": "29.97410729480938",
    "geocoded_column": {
      "latitude": "29.97410729480938",
      "longitude": "-90.03374260754252"
    }
  },
  {
    "service_request": "2023-1012319",
    "request_type": "Trash/Recycling",
    "request_reason": "Request a Large Item Pick Up",
    "date_created": "2023-06-27T17:40:22.000",
    "date_modified": "2023-06-27T17:40:22.000",
    "request_status": "Closed",
    "responsible_agency": "Department of Sanitation",
    "final_address": "4210 Bienville Ave",
    "address_councildis": "A",
    "status": "Resolved",
    "rowid": "1012319",
    "final_x": "3670951.06625",
    "final_y": "539362.900682",
    "longitude": "-90.10111381772627",
    "latitude": "29.977377109717054",
    "geocoded_column": {
      "latitude": "29.977377109717054",
      "longitude": "-90.10111381772627"
    }
  },
  {
    "service_request": "2023-1012318",
    "request_type": "Trash/Recycling",
    "request_reason": "Replace Trash Cart",
    "date_created": "2023-06-27T17:39:29.000",
    "date_modified": "2023-06-27T17:39:30.000",
    "request_status": "Pending",
    "responsible_agency": "Department of Sanitation",
    "final_address": "834 Audubon St",
    "address_councildis": "A",
    "status": "Assigned to Contractor",
    "contractor": "Richards Disposal",
    "rowid": "1012318",
    "final_x": "3663745.7833",
    "final_y": "525401.800637",
    "longitude": "-90.12433584444115",
    "latitude": "29.939199720522865",
    "geocoded_column": {
      "latitude": "29.939199720522865",
      "longitude": "-90.12433584444115"
    }
  },
  {
    "service_request": "2023-1012317",
    "request_type": "Trash/Recycling",
    "request_reason": "Request a Large Item Pick Up",
    "date_created": "2023-06-27T17:39:27.000",
    "date_modified": "2023-06-27T17:39:27.000",
    "request_status": "Closed",
    "responsible_agency": "Department of Sanitation",
    "final_address": "4210 Bienville Ave",
    "address_councildis": "A",
    "status": "Resolved",
    "rowid": "1012317",
    "final_x": "3670951.06625",
    "final_y": "539362.900682",
    "longitude": "-90.10111381772627",
    "latitude": "29.977377109717054",
    "geocoded_column": {
      "latitude": "29.977377109717054",
      "longitude": "-90.10111381772627"
    }
  },
  {
    "service_request": "2023-1012316",
    "request_type": "Trash/Recycling",
    "request_reason": "Replace Recycling Cart",
    "date_created": "2023-06-27T17:32:46.000",
    "date_modified": "2023-06-27T17:32:46.000",
    "request_status": "Pending",
    "responsible_agency": "Department of Sanitation",
    "final_address": "2343 Ramsey Dr",
    "address_councildis": "C",
    "status": "Pending",
    "rowid": "1012316",
    "final_x": "3703104.26961",
    "final_y": "522290.42649",
    "longitude": "-90.00019139421838",
    "latitude": "29.929443970207437",
    "geocoded_column": {
      "latitude": "29.929443970207437",
      "longitude": "-90.00019139421838"
    }
  },
  {
    "service_request": "2023-1012315",
    "request_type": "Roads/Drainage",
    "request_reason": "Pothole",
    "date_created": "2023-06-27T17:28:13.000",
    "date_modified": "2023-06-27T17:28:14.000",
    "request_status": "Pending",
    "responsible_agency": "Department of Public Works",
    "final_address": "EARHART BLVD & S NORMAN C FRANCIS PKWY",
    "address_councildis": "B",
    "status": "Pending",
    "rowid": "1012315",
    "final_x": "3669903.8",
    "final_y": "531879.48",
    "longitude": "-90.10467487626596",
    "latitude": "29.956831128087114",
    "geocoded_column": {
      "latitude": "29.956831128087114",
      "longitude": "-90.10467487626596"
    }
  },
  {
    "service_request": "2023-1012314",
    "request_type": "Traffic Signals/Signs/Striping/Streetlights",
    "request_reason": "Street Light Outage/Malfunction",
    "date_created": "2023-06-27T17:21:17.000",
    "date_modified": "2023-06-27T17:21:18.000",
    "request_status": "Pending",
    "responsible_agency": "Department of Public Works",
    "final_address": "937 Valence St",
    "address_councildis": "B",
    "status": "Assigned to Contractor",
    "contractor": "Legacy Professional Services",
    "rowid": "1012314",
    "final_x": "3669966.51265",
    "final_y": "518990.891191",
    "longitude": "-90.10491316090625",
    "latitude": "29.921389828500278",
    "geocoded_column": {
      "latitude": "29.921389828500278",
      "longitude": "-90.10491316090625"
    }
  },
  {
    "service_request": "2023-1012313",
    "request_type": "Traffic Signals/Signs/Striping/Streetlights",
    "request_reason": "Traffic Sign Missing/Damaged",
    "date_created": "2023-06-27T17:16:13.000",
    "date_modified": "2023-06-27T17:16:14.000",
    "request_status": "Pending",
    "responsible_agency": "Department of Public Works",
    "final_address": "TULANE AVE & S DORGENOIS ST",
    "address_councildis": "B",
    "status": "Pending",
    "rowid": "1012313",
    "final_x": "3674829.1",
    "final_y": "533451.58",
    "longitude": "-90.08906841784167",
    "latitude": "29.961007739960596",
    "geocoded_column": {
      "latitude": "29.961007739960596",
      "longitude": "-90.08906841784167"
    }
  },
  {
    "service_request": "2023-1012312",
    "request_type": "Trash/Recycling",
    "request_reason": "Order Trash Cart",
    "date_created": "2023-06-27T17:13:43.000",
    "date_modified": "2023-06-27T17:13:43.000",
    "request_status": "Pending",
    "responsible_agency": "Department of Sanitation",
    "final_address": "1721 St Ann St",
    "address_councildis": "D",
    "status": "Assigned to Contractor",
    "contractor": "Richards Disposal",
    "rowid": "1012312",
    "final_x": "3679827.94479",
    "final_y": "535067.36615",
    "longitude": "-90.07322688548359",
    "latitude": "29.965300396750646",
    "geocoded_column": {
      "latitude": "29.965300396750646",
      "longitude": "-90.07322688548359"
    }
  },
  {
    "service_request": "2023-1012311",
    "request_type": "Trash/Recycling",
    "request_reason": "Order Recycling Cart",
    "date_created": "2023-06-27T17:13:25.000",
    "date_modified": "2023-06-27T17:13:25.000",
    "request_status": "Pending",
    "responsible_agency": "Department of Sanitation",
    "final_address": "7411 Farwood Dr",
    "address_councildis": "E",
    "status": "Pending",
    "rowid": "1012311",
    "final_x": "3701538.31805",
    "final_y": "556971.87209",
    "longitude": "-90.00386450006715",
    "latitude": "30.02485528736384",
    "geocoded_column": {
      "latitude": "30.02485528736384",
      "longitude": "-90.00386450006715"
    }
  },
  {
    "service_request": "2023-1012310",
    "request_type": "Roads/Drainage",
    "request_reason": "Pothole",
    "date_created": "2023-06-27T17:10:34.000",
    "date_modified": "2023-06-27T17:10:34.000",
    "request_status": "Pending",
    "responsible_agency": "Department of Public Works",
    "final_address": "6114 Perrier St",
    "address_councildis": "A",
    "status": "Pending",
    "rowid": "1012310",
    "final_x": "3664463.90893",
    "final_y": "520705.937785",
    "longitude": "-90.12222532164226",
    "latitude": "29.92626673052152",
    "geocoded_column": {
      "latitude": "29.92626673052152",
      "longitude": "-90.12222532164226"
    }
  },
  {
    "service_request": "2023-1012309",
    "request_type": "Trash/Recycling",
    "request_reason": "Order Trash Cart",
    "date_created": "2023-06-27T17:10:16.000",
    "date_modified": "2023-06-27T17:10:17.000",
    "request_status": "Pending",
    "responsible_agency": "Department of Sanitation",
    "final_address": "1719 St Ann St",
    "address_councildis": "D",
    "status": "Assigned to Contractor",
    "contractor": "Richards Disposal",
    "rowid": "1012309",
    "final_x": "3679835.70639",
    "final_y": "535060.856198",
    "longitude": "-90.0732026008287",
    "latitude": "29.965282261903386",
    "geocoded_column": {
      "latitude": "29.965282261903386",
      "longitude": "-90.0732026008287"
    }
  },
  {
    "service_request": "2023-1012308",
    "request_type": "Traffic Signals/Signs/Striping/Streetlights",
    "request_reason": "Street Light Outage/Malfunction",
    "date_created": "2023-06-27T17:08:26.000",
    "date_modified": "2023-06-27T17:08:27.000",
    "request_status": "Pending",
    "responsible_agency": "Department of Public Works",
    "final_address": "13049 Cherbourg St",
    "address_councildis": "E",
    "status": "Assigned to Contractor",
    "contractor": "Legacy Professional Services",
    "rowid": "1012308",
    "final_x": "3724121.02425",
    "final_y": "561095.608478",
    "longitude": "-89.93234855600697",
    "latitude": "30.035454098333595",
    "geocoded_column": {
      "latitude": "30.035454098333595",
      "longitude": "-89.93234855600697"
    }
  },
  {
    "service_request": "2023-1012307",
    "request_type": "Traffic Signals/Signs/Striping/Streetlights",
    "request_reason": "Traffic Sign Missing/Damaged",
    "date_created": "2023-06-27T17:07:51.000",
    "date_modified": "2023-06-27T17:07:51.000",
    "request_status": "Pending",
    "responsible_agency": "Department of Public Works",
    "final_address": "N TONTI ST & NEW ORLEANS ST",
    "address_councildis": "D",
    "status": "Pending",
    "rowid": "1012307",
    "final_x": "3682055.9",
    "final_y": "540514.98",
    "longitude": "-90.06600084686809",
    "latitude": "29.980211890076728",
    "geocoded_column": {
      "latitude": "29.980211890076728",
      "longitude": "-90.06600084686809"
    }
  },
  {
    "service_request": "2023-1012306",
    "request_type": "Property Maintenance",
    "request_reason": "Property Maintenance",
    "date_created": "2023-06-27T17:00:05.000",
    "date_modified": "2023-06-27T17:00:05.000",
    "request_status": "Pending",
    "responsible_agency": "Department of Code Enforcement",
    "final_address": "532 N Rampart St",
    "address_councildis": "C",
    "status": "Pending",
    "rowid": "1012306",
    "final_x": "3681131.01634",
    "final_y": "532932.256452",
    "longitude": "-90.06918624014934",
    "latitude": "29.959390106616734",
    "geocoded_column": {
      "latitude": "29.959390106616734",
      "longitude": "-90.06918624014934"
    }
  },
  {
    "service_request": "2023-1012305",
    "request_type": "Trash/Recycling",
    "request_reason": "Stop Trash Service",
    "date_created": "2023-06-27T16:57:36.000",
    "date_modified": "2023-06-27T16:57:36.000",
    "request_status": "Pending",
    "responsible_agency": "Department of Sanitation",
    "final_address": "4816 Odin St",
    "address_councildis": "D",
    "status": "Assigned to Contractor",
    "contractor": "IV Waste",
    "rowid": "1012305",
    "final_x": "3691449.51113",
    "final_y": "553851.692119",
    "longitude": "-90.0358549965301",
    "latitude": "30.016593962415726",
    "geocoded_column": {
      "latitude": "30.016593962415726",
      "longitude": "-90.0358549965301"
    }
  },
  {
    "service_request": "2023-1012304",
    "request_type": "Trash/Recycling",
    "request_reason": "Stop Trash Service",
    "date_created": "2023-06-27T16:55:46.000",
    "date_modified": "2023-06-27T16:55:47.000",
    "request_status": "Pending",
    "responsible_agency": "Department of Sanitation",
    "final_address": "6928 Dorian St",
    "address_councildis": "D",
    "status": "Assigned to Contractor",
    "contractor": "Waste Pro",
    "rowid": "1012304",
    "final_x": "3696214.85303",
    "final_y": "556383.801114",
    "longitude": "-90.02070697512308",
    "latitude": "30.023407074363494",
    "geocoded_column": {
      "latitude": "30.023407074363494",
      "longitude": "-90.02070697512308"
    }
  },
  {
    "service_request": "2023-1012303",
    "request_type": "Trash/Recycling",
    "request_reason": "Replace Trash Cart",
    "date_created": "2023-06-27T16:55:42.000",
    "date_modified": "2023-06-27T16:55:43.000",
    "request_status": "Pending",
    "responsible_agency": "Department of Sanitation",
    "final_address": "3223 St Claude Ave",
    "address_councildis": "C",
    "status": "Assigned to Contractor",
    "contractor": "IV Waste",
    "rowid": "1012303",
    "final_x": "3689781.23644",
    "final_y": "535927.707655",
    "longitude": "-90.04176436360257",
    "latitude": "29.967361307244296",
    "geocoded_column": {
      "latitude": "29.967361307244296",
      "longitude": "-90.04176436360257"
    }
  },
  {
    "service_request": "2023-1012301",
    "request_type": "Trash/Recycling",
    "request_reason": "MIssed Recycling Pick-Up",
    "date_created": "2023-06-27T16:52:45.000",
    "date_modified": "2023-06-27T16:52:49.000",
    "request_status": "Pending",
    "responsible_agency": "Department of Sanitation",
    "final_address": "121 Morrison Ct",
    "address_councildis": "E",
    "status": "Assigned to Contractor",
    "contractor": "Waste Pro",
    "rowid": "1012301",
    "final_x": "3704011.09975",
    "final_y": "561721.685407",
    "longitude": "-89.99587579142225",
    "latitude": "30.037836301456224",
    "geocoded_column": {
      "latitude": "30.037836301456224",
      "longitude": "-89.99587579142225"
    }
  },
  {
    "service_request": "2023-1012300",
    "request_type": "Property Maintenance",
    "request_reason": "Property Maintenance",
    "date_created": "2023-06-27T16:52:17.000",
    "date_modified": "2023-06-27T16:52:17.000",
    "request_status": "Pending",
    "responsible_agency": "Department of Code Enforcement",
    "final_address": "2018 S Saratoga St",
    "address_councildis": "B",
    "status": "Pending",
    "rowid": "1012300",
    "final_x": "3676928.79253",
    "final_y": "525528.326013",
    "longitude": "-90.08271105547263",
    "latitude": "29.939158570986802",
    "geocoded_column": {
      "latitude": "29.939158570986802",
      "longitude": "-90.08271105547263"
    }
  },
  {
    "service_request": "2023-1012299",
    "request_type": "Trash/Recycling",
    "request_reason": "Missed Trash Pick-Up",
    "date_created": "2023-06-27T16:49:34.000",
    "date_modified": "2023-06-27T16:49:35.000",
    "request_status": "Pending",
    "responsible_agency": "Department of Sanitation",
    "final_address": "8005 Mackenzie St",
    "address_councildis": "E",
    "status": "Assigned to Contractor",
    "contractor": "Waste Pro",
    "rowid": "1012299",
    "final_x": "3710307.91768",
    "final_y": "567208.42922",
    "longitude": "-89.97577105114821",
    "latitude": "30.052719046328342",
    "geocoded_column": {
      "latitude": "30.052719046328342",
      "longitude": "-89.97577105114821"
    }
  },
  {
    "service_request": "2023-1012298",
    "request_type": "Abandoned Vehicles",
    "request_reason": "Abandoned/Junk Vehicles",
    "date_created": "2023-06-27T16:49:01.000",
    "date_modified": "2023-06-27T16:49:01.000",
    "request_status": "Pending",
    "responsible_agency": "Department of Public Works",
    "final_address": "544 Warrington Dr",
    "address_councildis": "D",
    "status": "Pending",
    "rowid": "1012298",
    "final_x": "3681080.69698",
    "final_y": "549178.434131",
    "longitude": "-90.06877897038162",
    "latitude": "30.004062949366297",
    "geocoded_column": {
      "latitude": "30.004062949366297",
      "longitude": "-90.06877897038162"
    }
  },
  {
    "service_request": "2023-1012297",
    "request_type": "Trash/Recycling",
    "request_reason": "Request a Large Item Pick Up",
    "date_created": "2023-06-27T16:47:08.000",
    "date_modified": "2023-06-27T16:47:09.000",
    "request_status": "Pending",
    "responsible_agency": "Department of Sanitation",
    "final_address": "6575 Elysian Fields Ave",
    "address_councildis": "D",
    "status": "Assigned to Contractor",
    "contractor": "IV Waste",
    "rowid": "1012297",
    "final_x": "3683458.35337",
    "final_y": "557510.886747",
    "longitude": "-90.06097523996857",
    "latitude": "30.026901786104368",
    "geocoded_column": {
      "latitude": "30.026901786104368",
      "longitude": "-90.06097523996857"
    }
  },
  {
    "service_request": "2023-1012295",
    "request_type": "Trash/Recycling",
    "request_reason": "Request a Large Item Pick Up",
    "date_created": "2023-06-27T16:40:51.000",
    "date_modified": "2023-06-27T16:40:52.000",
    "request_status": "Pending",
    "responsible_agency": "Department of Sanitation",
    "final_address": "2339 Wirth Pl",
    "address_councildis": "A",
    "status": "Assigned to Contractor",
    "contractor": "Richards Disposal",
    "rowid": "1012295",
    "final_x": "3667246.24871",
    "final_y": "524770.489212",
    "longitude": "-90.11330562215419",
    "latitude": "29.937361795942632",
    "geocoded_column": {
      "latitude": "29.937361795942632",
      "longitude": "-90.11330562215419"
    }
  },
  {
    "service_request": "2023-1012294",
    "request_type": "Trash/Recycling",
    "request_reason": "Order Trash Cart",
    "date_created": "2023-06-27T16:40:40.000",
    "date_modified": "2023-06-27T16:40:41.000",
    "request_status": "Pending",
    "responsible_agency": "Department of Sanitation",
    "final_address": "8010 Wave Dr",
    "address_councildis": "E",
    "status": "Assigned to Contractor",
    "contractor": "Waste Pro",
    "rowid": "1012294",
    "final_x": "3714057.16357",
    "final_y": "569877.408486",
    "longitude": "-89.96382004275375",
    "latitude": "30.059934972879585",
    "geocoded_column": {
      "latitude": "30.059934972879585",
      "longitude": "-89.96382004275375"
    }
  },
  {
    "service_request": "2023-1012293",
    "request_type": "Health Related Request",
    "request_reason": "Noise Ordinance Complaint",
    "date_created": "2023-06-27T16:38:46.000",
    "date_modified": "2023-06-27T16:38:47.000",
    "request_status": "Pending",
    "responsible_agency": "Health Department",
    "final_address": "2529 General Meyer Ave",
    "address_councildis": "C",
    "status": "Pending",
    "rowid": "1012293",
    "final_x": "3693595.48861",
    "final_y": "526700.070718",
    "longitude": "-90.03005040003065",
    "latitude": "29.941869757726295",
    "geocoded_column": {
      "latitude": "29.941869757726295",
      "longitude": "-90.03005040003065"
    }
  },
  {
    "service_request": "2023-1012292",
    "request_type": "Trash/Recycling",
    "request_reason": "Replace Trash Cart",
    "date_created": "2023-06-27T16:38:00.000",
    "date_modified": "2023-06-27T16:38:01.000",
    "request_status": "Pending",
    "responsible_agency": "Department of Sanitation",
    "final_address": "7153 E Tamaron Blvd",
    "address_councildis": "E",
    "status": "Assigned to Contractor",
    "contractor": "Waste Pro",
    "rowid": "1012292",
    "final_x": "3718429.97061",
    "final_y": "569220.562726",
    "longitude": "-89.95002306504317",
    "latitude": "30.057984489418494",
    "geocoded_column": {
      "latitude": "30.057984489418494",
      "longitude": "-89.95002306504317"
    }
  },
  {
    "service_request": "2023-1012291",
    "request_type": "Trash/Recycling",
    "request_reason": "Return Trash Cart",
    "date_created": "2023-06-27T16:30:02.000",
    "date_modified": "2023-06-27T16:30:03.000",
    "request_status": "Pending",
    "responsible_agency": "Department of Sanitation",
    "final_address": "4423 Kennon Ave",
    "address_councildis": "D",
    "status": "Assigned to Contractor",
    "contractor": "IV Waste",
    "rowid": "1012291",
    "final_x": "3677538.08181",
    "final_y": "548658.841171",
    "longitude": "-90.07998868068817",
    "latitude": "30.00274127882721",
    "geocoded_column": {
      "latitude": "30.00274127882721",
      "longitude": "-90.07998868068817"
    }
  },
  {
    "service_request": "2023-1012290",
    "request_type": "Property Maintenance",
    "request_reason": "Property Maintenance",
    "date_created": "2023-06-27T16:25:07.000",
    "date_modified": "2023-06-27T16:25:07.000",
    "request_status": "Pending",
    "responsible_agency": "Department of Code Enforcement",
    "final_address": "1301 Mirabeau Ave",
    "address_councildis": "D",
    "status": "Pending",
    "rowid": "1012290",
    "final_x": "3677293.75611",
    "final_y": "550310.434004",
    "longitude": "-90.08070350038449",
    "latitude": "30.00728991795431",
    "geocoded_column": {
      "latitude": "30.00728991795431",
      "longitude": "-90.08070350038449"
    }
  },
  {
    "service_request": "2023-1012289",
    "request_type": "Traffic Signals/Signs/Striping/Streetlights",
    "request_reason": "Traffic Sign Missing/Damaged",
    "date_created": "2023-06-27T16:19:39.000",
    "date_modified": "2023-06-27T16:19:39.000",
    "request_status": "Pending",
    "responsible_agency": "Department of Public Works",
    "final_address": "5400 BLK Tchoupitoulas St",
    "address_councildis": "A",
    "status": "Pending",
    "rowid": "1012289",
    "final_x": "3666234.7692",
    "final_y": "517149.712207",
    "longitude": "-90.11675438867134",
    "latitude": "29.91643664139899",
    "geocoded_column": {
      "latitude": "29.91643664139899",
      "longitude": "-90.11675438867134"
    }
  },
  {
    "service_request": "2023-1012287",
    "request_type": "Trash/Recycling",
    "request_reason": "Repair Trash Cart",
    "date_created": "2023-06-27T16:18:58.000",
    "date_modified": "2023-06-27T16:18:58.000",
    "request_status": "Pending",
    "responsible_agency": "Department of Sanitation",
    "final_address": "1938 Peniston St",
    "address_councildis": "B",
    "status": "Assigned to Contractor",
    "contractor": "Richards Disposal",
    "rowid": "1012287",
    "final_x": "3672503.08705",
    "final_y": "522454.271802",
    "longitude": "-90.0967883149062",
    "latitude": "29.93083799639984",
    "geocoded_column": {
      "latitude": "29.93083799639984",
      "longitude": "-90.0967883149062"
    }
  },
  {
    "service_request": "2023-1012286",
    "request_type": "Trash/Recycling",
    "request_reason": "Repair Trash Cart",
    "date_created": "2023-06-27T16:17:03.000",
    "date_modified": "2023-06-27T16:17:04.000",
    "request_status": "Pending",
    "responsible_agency": "Department of Sanitation",
    "final_address": "39 Versailles Blvd",
    "address_councildis": "A",
    "status": "Assigned to Contractor",
    "contractor": "Richards Disposal",
    "rowid": "1012286",
    "final_x": "3667463.46573",
    "final_y": "529570.057601",
    "longitude": "-90.11245840297725",
    "latitude": "29.950552696622605",
    "geocoded_column": {
      "latitude": "29.950552696622605",
      "longitude": "-90.11245840297725"
    }
  },
  {
    "service_request": "2023-1012285",
    "request_type": "Trash/Recycling",
    "request_reason": "Missed Trash Pick-Up",
    "date_created": "2023-06-27T16:16:06.000",
    "date_modified": "2023-06-27T16:16:06.000",
    "request_status": "Pending",
    "responsible_agency": "Department of Sanitation",
    "final_address": "2 Assumption Pl",
    "address_councildis": "E",
    "status": "Assigned to Contractor",
    "contractor": "Waste Pro",
    "rowid": "1012285",
    "final_x": "3726079.76953",
    "final_y": "564202.302561",
    "longitude": "-89.92603809935369",
    "latitude": "30.043930225615185",
    "geocoded_column": {
      "latitude": "30.043930225615185",
      "longitude": "-89.92603809935369"
    }
  },
  {
    "service_request": "2023-1012284",
    "request_type": "Trash/Recycling",
    "request_reason": "Illegal Dumping",
    "date_created": "2023-06-27T16:13:19.000",
    "date_modified": "2023-06-27T16:13:20.000",
    "request_status": "Pending",
    "responsible_agency": "Department of Sanitation",
    "final_address": "GIROD ST & W STADIUM DR & SUPERDOME EXIT",
    "address_councildis": "B",
    "status": "Pending",
    "rowid": "1012284",
    "final_x": "3676555.2",
    "final_y": "529655.38",
    "longitude": "-90.08374844076428",
    "latitude": "29.950517810294958",
    "geocoded_column": {
      "latitude": "29.950517810294958",
      "longitude": "-90.08374844076428"
    }
  },
  {
    "service_request": "2023-1012283",
    "request_type": "Trash/Recycling",
    "request_reason": "Return Recycling Cart",
    "date_created": "2023-06-27T16:12:47.000",
    "date_modified": "2023-06-27T16:12:47.000",
    "request_status": "Pending",
    "responsible_agency": "Department of Sanitation",
    "final_address": "3323 St Philip St",
    "address_councildis": "A",
    "status": "Pending",
    "rowid": "1012283",
    "final_x": "3675219.40328",
    "final_y": "539577.218122",
    "longitude": "-90.08762561554398",
    "latitude": "29.977839506769723",
    "geocoded_column": {
      "latitude": "29.977839506769723",
      "longitude": "-90.08762561554398"
    }
  },
  {
    "service_request": "2023-1012282",
    "request_type": "Roads/Drainage",
    "request_reason": "Catch Basin - Clogged",
    "date_created": "2023-06-27T16:08:15.000",
    "date_modified": "2023-06-27T16:10:27.000",
    "request_status": "Pending",
    "responsible_agency": "Department of Public Works",
    "final_address": "1334 State St",
    "address_councildis": "A",
    "status": "Pending",
    "rowid": "1012282",
    "final_x": "3665225.53511",
    "final_y": "521135.199161",
    "longitude": "-90.1198067235895",
    "latitude": "29.927424906926657",
    "geocoded_column": {
      "latitude": "29.927424906926657",
      "longitude": "-90.1198067235895"
    }
  },
  {
    "service_request": "2023-1012281",
    "request_type": "Trash/Recycling",
    "request_reason": "Request a Large Item Pick Up",
    "date_created": "2023-06-27T16:08:07.000",
    "date_modified": "2023-06-27T16:08:07.000",
    "request_status": "Pending",
    "responsible_agency": "Department of Sanitation",
    "final_address": "4229 Annunciation St",
    "address_councildis": "B",
    "status": "Assigned to Contractor",
    "contractor": "Richards Disposal",
    "rowid": "1012281",
    "final_x": "3671661.25332",
    "final_y": "517838.748278",
    "longitude": "-90.09960275396935",
    "latitude": "29.918171734536934",
    "geocoded_column": {
      "latitude": "29.918171734536934",
      "longitude": "-90.09960275396935"
    }
  },
  {
    "service_request": "2023-1012280",
    "request_type": "Roads/Drainage",
    "request_reason": "Pothole",
    "date_created": "2023-06-27T16:07:12.000",
    "date_modified": "2023-06-27T16:07:12.000",
    "request_status": "Pending",
    "responsible_agency": "Department of Public Works",
    "final_address": "2029 Camp St",
    "address_councildis": "B",
    "status": "Pending",
    "rowid": "1012280",
    "final_x": "3679061.11394",
    "final_y": "522740.090106",
    "longitude": "-90.07607564156854",
    "latitude": "29.93142767524633",
    "geocoded_column": {
      "latitude": "29.93142767524633",
      "longitude": "-90.07607564156854"
    }
  },
  {
    "service_request": "2023-1012279",
    "request_type": "Trash/Recycling",
    "request_reason": "Request a Large Item Pick Up",
    "date_created": "2023-06-27T16:03:14.000",
    "date_modified": "2023-06-27T16:03:15.000",
    "request_status": "Pending",
    "responsible_agency": "Department of Sanitation",
    "final_address": "5816 Marigny St",
    "address_councildis": "D",
    "status": "Assigned to Contractor",
    "contractor": "IV Waste",
    "rowid": "1012279",
    "final_x": "3683893.15113",
    "final_y": "554409.546968",
    "longitude": "-90.05971025205048",
    "latitude": "30.018360962680436",
    "geocoded_column": {
      "latitude": "30.018360962680436",
      "longitude": "-90.05971025205048"
    }
  },
  {
    "service_request": "2023-1012278",
    "request_type": "Trash/Recycling",
    "request_reason": "Request a Large Item Pick Up",
    "date_created": "2023-06-27T16:00:02.000",
    "date_modified": "2023-06-27T16:00:03.000",
    "request_status": "Pending",
    "responsible_agency": "Department of Sanitation",
    "final_address": "2044 Felicity St",
    "address_councildis": "B",
    "status": "Assigned to Contractor",
    "contractor": "Richards Disposal",
    "rowid": "1012278",
    "final_x": "3677031.13486",
    "final_y": "525976.474301",
    "longitude": "-90.0823725013311",
    "latitude": "29.940387759333102",
    "geocoded_column": {
      "latitude": "29.940387759333102",
      "longitude": "-90.0823725013311"
    }
  },
  {
    "service_request": "2023-1012277",
    "request_type": "Abandoned Vehicles",
    "request_reason": "Abandoned/Junk Vehicles",
    "date_created": "2023-06-27T15:54:47.000",
    "date_modified": "2023-06-27T15:54:47.000",
    "request_status": "Pending",
    "responsible_agency": "Department of Public Works",
    "final_address": "2044 Camp St",
    "address_councildis": "B",
    "status": "Pending",
    "rowid": "1012277",
    "final_x": "3679006.70702",
    "final_y": "522629.622522",
    "longitude": "-90.07625122350521",
    "latitude": "29.931125566986328",
    "geocoded_column": {
      "latitude": "29.931125566986328",
      "longitude": "-90.07625122350521"
    }
  },
  {
    "service_request": "2023-1012276",
    "request_type": "Property Maintenance",
    "request_reason": "Property Maintenance",
    "date_created": "2023-06-27T15:53:13.000",
    "date_modified": "2023-06-27T15:53:13.000",
    "request_status": "Pending",
    "responsible_agency": "Department of Code Enforcement",
    "final_address": "4012 Clermont Dr",
    "address_councildis": "D",
    "status": "Pending",
    "rowid": "1012276",
    "final_x": "3684997.44316",
    "final_y": "547089.589073",
    "longitude": "-90.05647883174254",
    "latitude": "29.99819994238771",
    "geocoded_column": {
      "latitude": "29.99819994238771",
      "longitude": "-90.05647883174254"
    }
  },
  {
    "service_request": "2023-1012275",
    "request_type": "Trash/Recycling",
    "request_reason": "Repair Trash Cart",
    "date_created": "2023-06-27T15:51:18.000",
    "date_modified": "2023-06-27T15:51:19.000",
    "request_status": "Pending",
    "responsible_agency": "Department of Sanitation",
    "final_address": "931 Picheloup Pl",
    "address_councildis": "A",
    "status": "Assigned to Contractor",
    "contractor": "Richards Disposal",
    "rowid": "1012275",
    "final_x": "3673579.4427",
    "final_y": "540509.125707",
    "longitude": "-90.09277332301102",
    "latitude": "29.98045085558954",
    "geocoded_column": {
      "latitude": "29.98045085558954",
      "longitude": "-90.09277332301102"
    }
  },
  {
    "service_request": "2023-1012274",
    "request_type": "Trash/Recycling",
    "request_reason": "Replace Recycling Cart",
    "date_created": "2023-06-27T15:48:23.000",
    "date_modified": "2023-06-27T15:48:23.000",
    "request_status": "Pending",
    "responsible_agency": "Department of Sanitation",
    "final_address": "4350 Frenchmen St",
    "address_councildis": "D",
    "status": "Pending",
    "rowid": "1012274",
    "final_x": "3683547.33737",
    "final_y": "548677.923731",
    "longitude": "-90.06100398363331",
    "latitude": "30.002611644743673",
    "geocoded_column": {
      "latitude": "30.002611644743673",
      "longitude": "-90.06100398363331"
    }
  },
  {
    "service_request": "2023-1012273",
    "request_type": "Trash/Recycling",
    "request_reason": "Repair Trash Cart",
    "date_created": "2023-06-27T15:45:46.000",
    "date_modified": "2023-06-27T15:45:47.000",
    "request_status": "Pending",
    "responsible_agency": "Department of Sanitation",
    "final_address": "4121 Magazine St",
    "address_councildis": "B",
    "status": "Assigned to Contractor",
    "contractor": "Richards Disposal",
    "rowid": "1012273",
    "final_x": "3671961.82324",
    "final_y": "518922.095735",
    "longitude": "-90.09861716739871",
    "latitude": "29.92114169347312",
    "geocoded_column": {
      "latitude": "29.92114169347312",
      "longitude": "-90.09861716739871"
    }
  },
  {
    "service_request": "2023-1012272",
    "request_type": "Abandoned Vehicles",
    "request_reason": "Abandoned/Junk Vehicles",
    "date_created": "2023-06-27T15:45:21.000",
    "date_modified": "2023-06-27T15:45:21.000",
    "request_status": "Pending",
    "responsible_agency": "Department of Public Works",
    "final_address": "5330 Norgate Dr",
    "address_councildis": "E",
    "status": "Pending",
    "rowid": "1012272",
    "final_x": "3707251.05515",
    "final_y": "557592.954715",
    "longitude": "-89.98579026641812",
    "latitude": "30.026379533021576",
    "geocoded_column": {
      "latitude": "30.026379533021576",
      "longitude": "-89.98579026641812"
    }
  },
  {
    "service_request": "2023-1012271",
    "request_type": "Abandoned Vehicles",
    "request_reason": "Abandoned/Junk Vehicles",
    "date_created": "2023-06-27T15:44:04.000",
    "date_modified": "2023-06-27T16:56:42.000",
    "request_status": "Pending",
    "responsible_agency": "Department of Public Works",
    "final_address": "N CLAIBORNE AVE & CONTI ST",
    "address_councildis": "B",
    "status": "Inspected",
    "rowid": "1012271",
    "final_x": "3679045.8",
    "final_y": "533763.38",
    "longitude": "-90.07574205521765",
    "latitude": "29.961738506173695",
    "geocoded_column": {
      "latitude": "29.961738506173695",
      "longitude": "-90.07574205521765"
    }
  },
  {
    "service_request": "2023-1012270",
    "request_type": "Trash/Recycling",
    "request_reason": "Repair Trash Cart",
    "date_created": "2023-06-27T15:42:56.000",
    "date_modified": "2023-06-27T15:42:57.000",
    "request_status": "Pending",
    "responsible_agency": "Department of Sanitation",
    "final_address": "1919 Bodenger Blvd",
    "address_councildis": "C",
    "status": "Assigned to Contractor",
    "contractor": "Richards Disposal",
    "rowid": "1012270",
    "final_x": "3688377.45814",
    "final_y": "524691.455164",
    "longitude": "-90.04659597980766",
    "latitude": "29.93650890675285",
    "geocoded_column": {
      "latitude": "29.93650890675285",
      "longitude": "-90.04659597980766"
    }
  },
  {
    "service_request": "2023-1012269",
    "request_type": "Trash/Recycling",
    "request_reason": "Request a Large Item Pick Up",
    "date_created": "2023-06-27T15:40:43.000",
    "date_modified": "2023-06-27T15:40:44.000",
    "request_status": "Pending",
    "responsible_agency": "Department of Sanitation",
    "final_address": "3233 Nashville Ave",
    "address_councildis": "A",
    "status": "Assigned to Contractor",
    "contractor": "Richards Disposal",
    "rowid": "1012269",
    "final_x": "3667989.56481",
    "final_y": "527703.053759",
    "longitude": "-90.11086014119267",
    "latitude": "29.945403619280953",
    "geocoded_column": {
      "latitude": "29.945403619280953",
      "longitude": "-90.11086014119267"
    }
  },
  {
    "service_request": "2023-1012268",
    "request_type": "Abandoned Vehicles",
    "request_reason": "Abandoned/Junk Vehicles",
    "date_created": "2023-06-27T15:38:44.000",
    "date_modified": "2023-06-27T15:38:44.000",
    "request_status": "Pending",
    "responsible_agency": "Department of Public Works",
    "final_address": "609 N Rocheblave St",
    "address_councildis": "D",
    "status": "Pending",
    "rowid": "1012268",
    "final_x": "3677230.26421",
    "final_y": "535997.322503",
    "longitude": "-90.08139814942801",
    "latitude": "29.967935755259294",
    "geocoded_column": {
      "latitude": "29.967935755259294",
      "longitude": "-90.08139814942801"
    }
  },
  {
    "service_request": "2023-1012267",
    "request_type": "Abandoned Vehicles",
    "request_reason": "Abandoned/Junk Vehicles",
    "date_created": "2023-06-27T15:38:08.000",
    "date_modified": "2023-06-27T15:38:08.000",
    "request_status": "Pending",
    "responsible_agency": "Department of Public Works",
    "final_address": "609 N Rocheblave St",
    "address_councildis": "D",
    "status": "Pending",
    "rowid": "1012267",
    "final_x": "3677230.26421",
    "final_y": "535997.322503",
    "longitude": "-90.08139814942801",
    "latitude": "29.967935755259294",
    "geocoded_column": {
      "latitude": "29.967935755259294",
      "longitude": "-90.08139814942801"
    }
  },
  {
    "service_request": "2023-1012266",
    "request_type": "Abandoned Vehicles",
    "request_reason": "Abandoned/Junk Vehicles",
    "date_created": "2023-06-27T15:36:08.000",
    "date_modified": "2023-06-27T15:36:08.000",
    "request_status": "Pending",
    "responsible_agency": "Department of Public Works",
    "final_address": "609 N Rocheblave St",
    "address_councildis": "D",
    "status": "Pending",
    "rowid": "1012266",
    "final_x": "3677230.26421",
    "final_y": "535997.322503",
    "longitude": "-90.08139814942801",
    "latitude": "29.967935755259294",
    "geocoded_column": {
      "latitude": "29.967935755259294",
      "longitude": "-90.08139814942801"
    }
  },
  {
    "service_request": "2023-1012265",
    "request_type": "Trash/Recycling",
    "request_reason": "MIssed Recycling Pick-Up",
    "date_created": "2023-06-27T15:34:43.000",
    "date_modified": "2023-06-27T15:34:43.000",
    "request_status": "Pending",
    "responsible_agency": "Department of Sanitation",
    "final_address": "3018 Gravier St",
    "address_councildis": "B",
    "status": "Assigned to Contractor",
    "contractor": "Richards Disposal",
    "rowid": "1012265",
    "final_x": "3672671.51758",
    "final_y": "533923.041413",
    "longitude": "-90.09586559745748",
    "latitude": "29.962368347099115",
    "geocoded_column": {
      "latitude": "29.962368347099115",
      "longitude": "-90.09586559745748"
    }
  },
  {
    "service_request": "2023-1012264",
    "request_type": "Trash/Recycling",
    "request_reason": "Repair Trash Cart",
    "date_created": "2023-06-27T15:33:02.000",
    "date_modified": "2023-06-27T15:33:03.000",
    "request_status": "Pending",
    "responsible_agency": "Department of Sanitation",
    "final_address": "4819 Evangeline Dr",
    "address_councildis": "E",
    "status": "Assigned to Contractor",
    "contractor": "Waste Pro",
    "rowid": "1012264",
    "final_x": "3709128.22328",
    "final_y": "556232.449754",
    "longitude": "-89.97990946646219",
    "latitude": "30.022577842452655",
    "geocoded_column": {
      "latitude": "30.022577842452655",
      "longitude": "-89.97990946646219"
    }
  },
  {
    "service_request": "2023-1012263",
    "request_type": "Abandoned Vehicles",
    "request_reason": "Abandoned/Junk Vehicles",
    "date_created": "2023-06-27T15:32:58.000",
    "date_modified": "2023-06-27T15:32:58.000",
    "request_status": "Pending",
    "responsible_agency": "Department of Public Works",
    "final_address": "13400 Old Gentilly Rd",
    "address_councildis": "E",
    "status": "Pending",
    "rowid": "1012263",
    "final_x": "3725960.26886",
    "final_y": "555217.585433",
    "longitude": "-89.92676433588053",
    "latitude": "30.019229972489104",
    "geocoded_column": {
      "latitude": "30.019229972489104",
      "longitude": "-89.92676433588053"
    }
  },
  {
    "service_request": "2023-1012261",
    "request_type": "Trash/Recycling",
    "request_reason": "Repair Trash Cart",
    "date_created": "2023-06-27T15:22:42.000",
    "date_modified": "2023-06-27T15:22:44.000",
    "request_status": "Pending",
    "responsible_agency": "Department of Sanitation",
    "final_address": "2437 New York St",
    "address_councildis": "D",
    "status": "Assigned to Contractor",
    "contractor": "IV Waste",
    "rowid": "1012261",
    "final_x": "3685277.84444",
    "final_y": "556716.648922",
    "longitude": "-90.0552538326603",
    "latitude": "30.024662248163978",
    "geocoded_column": {
      "latitude": "30.024662248163978",
      "longitude": "-90.0552538326603"
    }
  },
  {
    "service_request": "2023-1012260",
    "request_type": "Trash/Recycling",
    "request_reason": "Missed Trash Pick-Up",
    "date_created": "2023-06-27T15:19:58.000",
    "date_modified": "2023-06-27T15:19:59.000",
    "request_status": "Pending",
    "responsible_agency": "Department of Sanitation",
    "final_address": "14512 Hayne Blvd",
    "address_councildis": "E",
    "status": "Assigned to Contractor",
    "contractor": "Waste Pro",
    "rowid": "1012260",
    "final_x": "3718990.29548",
    "final_y": "574330.822763",
    "longitude": "-89.94805668232095",
    "latitude": "30.072016951664434",
    "geocoded_column": {
      "latitude": "30.072016951664434",
      "longitude": "-89.94805668232095"
    }
  },
  {
    "service_request": "2023-1012259",
    "request_type": "Traffic Signals/Signs/Striping/Streetlights",
    "request_reason": "Additional signage",
    "date_created": "2023-06-27T15:19:57.000",
    "date_modified": "2023-06-27T15:19:58.000",
    "request_status": "Pending",
    "responsible_agency": "Department of Public Works",
    "final_address": "FELICITY ST & MAGNOLIA ST & TERPSICHORE ST",
    "address_councildis": "B",
    "status": "Pending",
    "rowid": "1012259",
    "final_x": "3675731.8",
    "final_y": "527348.58",
    "longitude": "-90.08642757569037",
    "latitude": "29.94419953927443",
    "geocoded_column": {
      "latitude": "29.94419953927443",
      "longitude": "-90.08642757569037"
    }
  },
  {
    "service_request": "2023-1012258",
    "request_type": "Parks & Parkways",
    "request_reason": "Request Tree Service (Right of Way/Public Property)",
    "date_created": "2023-06-27T15:17:57.000",
    "date_modified": "2023-06-27T16:32:40.000",
    "request_status": "Pending",
    "responsible_agency": "Department of Parks & Parkway",
    "final_address": "SIMON BOLIVAR AVE & FELICITY ST",
    "address_councildis": "B",
    "status": "Pending",
    "rowid": "1012258",
    "final_x": "3676920.8",
    "final_y": "526138.68",
    "longitude": "-90.08271525721226",
    "latitude": "29.940837083241984",
    "geocoded_column": {
      "latitude": "29.940837083241984",
      "longitude": "-90.08271525721226"
    }
  },
  {
    "service_request": "2023-1012257",
    "request_type": "Trash/Recycling",
    "request_reason": "Request a Large Item Pick Up",
    "date_created": "2023-06-27T15:17:32.000",
    "date_modified": "2023-06-27T15:17:33.000",
    "request_status": "Pending",
    "responsible_agency": "Department of Sanitation",
    "final_address": "628 Dauphine St",
    "address_councildis": "C",
    "status": "Assigned to Contractor",
    "contractor": "Empire Services",
    "rowid": "1012257",
    "final_x": "3681932.03714",
    "final_y": "532744.745732",
    "longitude": "-90.06666335382361",
    "latitude": "29.958850192291248",
    "geocoded_column": {
      "latitude": "29.958850192291248",
      "longitude": "-90.06666335382361"
    }
  },
  {
    "service_request": "2023-1012256",
    "request_type": "Trash/Recycling",
    "request_reason": "Replace Recycling Cart",
    "date_created": "2023-06-27T15:16:46.000",
    "date_modified": "2023-06-27T15:16:46.000",
    "request_status": "Pending",
    "responsible_agency": "Department of Sanitation",
    "final_address": "3719 Magazine St",
    "address_councildis": "B",
    "status": "Pending",
    "rowid": "1012256",
    "final_x": "3673472.99438",
    "final_y": "519119.769207",
    "longitude": "-90.09384031731776",
    "latitude": "29.92164037052183",
    "geocoded_column": {
      "latitude": "29.92164037052183",
      "longitude": "-90.09384031731776"
    }
  },
  {
    "service_request": "2023-1012254",
    "request_type": "Traffic Signals/Signs/Striping/Streetlights",
    "request_reason": "Additional signage",
    "date_created": "2023-06-27T15:14:04.000",
    "date_modified": "2023-06-27T15:14:05.000",
    "request_status": "Pending",
    "responsible_agency": "Department of Public Works",
    "final_address": "FELICITY ST & S CLAIBORNE AVE",
    "address_councildis": "B",
    "status": "Pending",
    "rowid": "1012254",
    "final_x": "3674956.5",
    "final_y": "528070.18",
    "longitude": "-90.08885067567023",
    "latitude": "29.94620687703194",
    "geocoded_column": {
      "latitude": "29.94620687703194",
      "longitude": "-90.08885067567023"
    }
  },
  {
    "service_request": "2023-1012253",
    "request_type": "Trash/Recycling",
    "request_reason": "Request a Large Item Pick Up",
    "date_created": "2023-06-27T15:11:26.000",
    "date_modified": "2023-06-27T15:11:26.000",
    "request_status": "Pending",
    "responsible_agency": "Department of Sanitation",
    "final_address": "618 N Salcedo St",
    "address_councildis": "A",
    "status": "Assigned to Contractor",
    "contractor": "Richards Disposal",
    "rowid": "1012253",
    "final_x": "3675308.4187",
    "final_y": "537640.169864",
    "longitude": "-90.08741099592763",
    "latitude": "29.972510624597895",
    "geocoded_column": {
      "latitude": "29.972510624597895",
      "longitude": "-90.08741099592763"
    }
  },
  {
    "service_request": "2023-1012252",
    "request_type": "Traffic Signals/Signs/Striping/Streetlights",
    "request_reason": "Traffic Sign Missing/Damaged",
    "date_created": "2023-06-27T15:10:22.000",
    "date_modified": "2023-06-27T15:10:22.000",
    "request_status": "Pending",
    "responsible_agency": "Department of Public Works",
    "final_address": "PACE BLVD & WALL BLVD",
    "address_councildis": "C",
    "status": "Pending",
    "rowid": "1012252",
    "final_x": "3694344.5",
    "final_y": "523730.88",
    "longitude": "-90.02779243447597",
    "latitude": "29.933682056272396",
    "geocoded_column": {
      "latitude": "29.933682056272396",
      "longitude": "-90.02779243447597"
    }
  },
  {
    "service_request": "2023-1012251",
    "request_type": "Traffic Signals/Signs/Striping/Streetlights",
    "request_reason": "Street Light Knocked Down/Leaning",
    "date_created": "2023-06-27T15:09:16.000",
    "date_modified": "2023-06-27T15:09:17.000",
    "request_status": "Pending",
    "responsible_agency": "Department of Public Works",
    "final_address": "7303 Downman Rd Ste B",
    "address_councildis": "D",
    "status": "Pending",
    "contractor": "Legacy Professional Services",
    "rowid": "1012251",
    "final_x": "3695060.44579",
    "final_y": "557509.634139",
    "longitude": "-90.02431400190657",
    "latitude": "30.02653899984103",
    "geocoded_column": {
      "latitude": "30.02653899984103",
      "longitude": "-90.02431400190657"
    }
  },
  {
    "service_request": "2023-1012250",
    "request_type": "Roads/Drainage",
    "request_reason": "Damaged Sidewalk",
    "date_created": "2023-06-27T15:08:24.000",
    "date_modified": "2023-06-27T15:08:24.000",
    "request_status": "Pending",
    "responsible_agency": "Department of Public Works",
    "final_address": "1900 BLK Jackson Ave",
    "address_councildis": "B",
    "status": "Pending",
    "rowid": "1012250",
    "final_x": "3676550.7653",
    "final_y": "525092.418763",
    "longitude": "-90.08391954101585",
    "latitude": "29.937971308904363",
    "geocoded_column": {
      "latitude": "29.937971308904363",
      "longitude": "-90.08391954101585"
    }
  },
  {
    "service_request": "2023-1012249",
    "request_type": "Roads/Drainage",
    "request_reason": "Pothole",
    "date_created": "2023-06-27T15:07:40.000",
    "date_modified": "2023-06-27T15:09:25.000",
    "request_status": "Pending",
    "responsible_agency": "Department of Public Works",
    "final_address": "1703 Shirley Dr",
    "address_councildis": "C",
    "status": "Pending",
    "rowid": "1012249",
    "final_x": "3692917.99696",
    "final_y": "523927.446652",
    "longitude": "-90.03228876798997",
    "latitude": "29.934267161411977",
    "geocoded_column": {
      "latitude": "29.934267161411977",
      "longitude": "-90.03228876798997"
    }
  },
  {
    "service_request": "2023-1012248",
    "request_type": "Traffic Signals/Signs/Striping/Streetlights",
    "request_reason": "Street Light Outage/Malfunction",
    "date_created": "2023-06-27T15:06:41.000",
    "date_modified": "2023-06-27T15:06:41.000",
    "request_status": "Pending",
    "responsible_agency": "Department of Public Works",
    "final_address": "6831 Rugby Ct",
    "address_councildis": "E",
    "status": "Assigned to Contractor",
    "contractor": "Legacy Professional Services",
    "rowid": "1012248",
    "final_x": "3701451.67735",
    "final_y": "557421.870363",
    "longitude": "-90.0041217738793",
    "latitude": "30.026095373112646",
    "geocoded_column": {
      "latitude": "30.026095373112646",
      "longitude": "-90.0041217738793"
    }
  },
  {
    "service_request": "2023-1012247",
    "request_type": "Trash/Recycling",
    "request_reason": "Request a Large Item Pick Up",
    "date_created": "2023-06-27T15:06:35.000",
    "date_modified": "2023-06-27T15:06:36.000",
    "request_status": "Pending",
    "responsible_agency": "Department of Sanitation",
    "final_address": "3900 Prytania St",
    "address_councildis": "B",
    "status": "Assigned to Contractor",
    "contractor": "Richards Disposal",
    "rowid": "1012247",
    "final_x": "3672723.27707",
    "final_y": "520461.066168",
    "longitude": "-90.0961611426503",
    "latitude": "29.9253507863756",
    "geocoded_column": {
      "latitude": "29.9253507863756",
      "longitude": "-90.0961611426503"
    }
  },
  {
    "service_request": "2023-1012246",
    "request_type": "Trash/Recycling",
    "request_reason": "Request a Large Item Pick Up",
    "date_created": "2023-06-27T15:05:18.000",
    "date_modified": "2023-06-27T15:05:18.000",
    "request_status": "Pending",
    "responsible_agency": "Department of Sanitation",
    "final_address": "306 S Murat St",
    "address_councildis": "A",
    "status": "Assigned to Contractor",
    "contractor": "Richards Disposal",
    "rowid": "1012246",
    "final_x": "3669207.60308",
    "final_y": "538676.676553",
    "longitude": "-90.10664347293086",
    "latitude": "29.97554166270201",
    "geocoded_column": {
      "latitude": "29.97554166270201",
      "longitude": "-90.10664347293086"
    }
  },
  {
    "service_request": "2023-1012245",
    "request_type": "Property Maintenance",
    "request_reason": "Property Maintenance",
    "date_created": "2023-06-27T14:57:05.000",
    "date_modified": "2023-06-27T14:57:05.000",
    "request_status": "Pending",
    "responsible_agency": "Department of Code Enforcement",
    "final_address": "3085 Behrman Hwy",
    "address_councildis": "C",
    "status": "Pending",
    "rowid": "1012245",
    "final_x": "3694429.77418",
    "final_y": "519140.242359",
    "longitude": "-90.02768836511835",
    "latitude": "29.921056690038906",
    "geocoded_column": {
      "latitude": "29.921056690038906",
      "longitude": "-90.02768836511835"
    }
  },
  {
    "service_request": "2023-1012244",
    "request_type": "Trash/Recycling",
    "request_reason": "Missed Trash Pick-Up",
    "date_created": "2023-06-27T14:54:50.000",
    "date_modified": "2023-06-27T14:54:51.000",
    "request_status": "Pending",
    "responsible_agency": "Department of Sanitation",
    "final_address": "2512 Upperline St",
    "address_councildis": "B",
    "status": "Assigned to Contractor",
    "contractor": "Richards Disposal",
    "rowid": "1012244",
    "final_x": "3669126.18836",
    "final_y": "524032.135996",
    "longitude": "-90.10739545006868",
    "latitude": "29.93527638925435",
    "geocoded_column": {
      "latitude": "29.93527638925435",
      "longitude": "-90.10739545006868"
    }
  },
  {
    "service_request": "2023-1012243",
    "request_type": "Trash/Recycling",
    "request_reason": "Repair Trash Cart",
    "date_created": "2023-06-27T14:52:06.000",
    "date_modified": "2023-06-27T14:52:06.000",
    "request_status": "Pending",
    "responsible_agency": "Department of Sanitation",
    "final_address": "7646 Avalon Way",
    "address_councildis": "E",
    "status": "Assigned to Contractor",
    "contractor": "Waste Pro",
    "rowid": "1012243",
    "final_x": "3708903.23556",
    "final_y": "564747.029346",
    "longitude": "-89.98030268047994",
    "latitude": "30.045996872559677",
    "geocoded_column": {
      "latitude": "30.045996872559677",
      "longitude": "-89.98030268047994"
    }
  },
  {
    "service_request": "2023-1012242",
    "request_type": "Abandoned Vehicles",
    "request_reason": "Abandoned/Junk Vehicles",
    "date_created": "2023-06-27T14:46:02.000",
    "date_modified": "2023-06-27T14:46:02.000",
    "request_status": "Pending",
    "responsible_agency": "Department of Public Works",
    "final_address": "8601 Bill St",
    "address_councildis": "E",
    "status": "Pending",
    "rowid": "1012242",
    "final_x": "3703704.43345",
    "final_y": "563238.8712",
    "longitude": "-89.99678899883781",
    "latitude": "30.042017803963272",
    "geocoded_column": {
      "latitude": "30.042017803963272",
      "longitude": "-89.99678899883781"
    }
  },
  {
    "service_request": "2023-1012241",
    "request_type": "Trash/Recycling",
    "request_reason": "Repair Trash Cart",
    "date_created": "2023-06-27T14:45:30.000",
    "date_modified": "2023-06-27T14:45:31.000",
    "request_status": "Pending",
    "responsible_agency": "Department of Sanitation",
    "final_address": "719 Elmira Ave",
    "address_councildis": "C",
    "status": "Assigned to Contractor",
    "contractor": "Richards Disposal",
    "rowid": "1012241",
    "final_x": "3688117.55625",
    "final_y": "528906.154752",
    "longitude": "-90.04726715485877",
    "latitude": "29.948105921568335",
    "geocoded_column": {
      "latitude": "29.948105921568335",
      "longitude": "-90.04726715485877"
    }
  },
  {
    "service_request": "2023-1012240",
    "request_type": "Abandoned Vehicles",
    "request_reason": "Abandoned/Junk Vehicles",
    "date_created": "2023-06-27T14:44:45.000",
    "date_modified": "2023-06-27T14:45:45.000",
    "request_status": "Pending",
    "responsible_agency": "Department of Public Works",
    "final_address": "7890 Means Ave",
    "address_councildis": "E",
    "status": "Pending",
    "rowid": "1012240",
    "final_x": "3707593.2003",
    "final_y": "565482.809186",
    "longitude": "-89.98441564231584",
    "latitude": "30.048062441752617",
    "geocoded_column": {
      "latitude": "30.048062441752617",
      "longitude": "-89.98441564231584"
    }
  },
  {
    "service_request": "2023-1012239",
    "request_type": "Trash/Recycling",
    "request_reason": "Request a Large Item Pick Up",
    "date_created": "2023-06-27T14:44:06.000",
    "date_modified": "2023-06-27T14:44:07.000",
    "request_status": "Pending",
    "responsible_agency": "Department of Sanitation",
    "final_address": "5324 Warrington Dr",
    "address_councildis": "D",
    "status": "Assigned to Contractor",
    "contractor": "IV Waste",
    "rowid": "1012239",
    "final_x": "3680845.29595",
    "final_y": "552599.298774",
    "longitude": "-90.0694034347132",
    "latitude": "30.013476236298033",
    "geocoded_column": {
      "latitude": "30.013476236298033",
      "longitude": "-90.0694034347132"
    }
  },
  {
    "service_request": "2023-1012238",
    "request_type": "Trash/Recycling",
    "request_reason": "MIssed Recycling Pick-Up",
    "date_created": "2023-06-27T14:42:00.000",
    "date_modified": "2023-06-27T14:42:32.000",
    "request_status": "Pending",
    "responsible_agency": "Department of Sanitation",
    "final_address": "2624 Josephine St",
    "address_councildis": "B",
    "status": "Assigned to Contractor",
    "contractor": "Richards Disposal",
    "rowid": "1012238",
    "final_x": "3675569.63061",
    "final_y": "526929.162302",
    "longitude": "-90.08695399494204",
    "latitude": "29.94305113029988",
    "geocoded_column": {
      "latitude": "29.94305113029988",
      "longitude": "-90.08695399494204"
    }
  },
  {
    "service_request": "2023-1012237",
    "request_type": "Trash/Recycling",
    "request_reason": "Request a Large Item Pick Up",
    "date_created": "2023-06-27T14:41:15.000",
    "date_modified": "2023-06-27T14:41:16.000",
    "request_status": "Pending",
    "responsible_agency": "Department of Sanitation",
    "final_address": "929 Bourbon St",
    "address_councildis": "C",
    "status": "Assigned to Contractor",
    "contractor": "Empire Services",
    "rowid": "1012237",
    "final_x": "3682830.12136",
    "final_y": "533469.742212",
    "longitude": "-90.06380207021773",
    "latitude": "29.960816355911387",
    "geocoded_column": {
      "latitude": "29.960816355911387",
      "longitude": "-90.06380207021773"
    }
  },
  {
    "service_request": "2023-1012236",
    "request_type": "Roads/Drainage",
    "request_reason": "Pothole",
    "date_created": "2023-06-27T14:41:05.000",
    "date_modified": "2023-06-27T14:41:05.000",
    "request_status": "Pending",
    "responsible_agency": "Department of Public Works",
    "final_address": "5300 BLK Pitt St",
    "address_councildis": "B",
    "status": "Pending",
    "rowid": "1012236",
    "final_x": "3667293.21426",
    "final_y": "520532.593565",
    "longitude": "-90.11329980470826",
    "latitude": "29.925707557474716",
    "geocoded_column": {
      "latitude": "29.925707557474716",
      "longitude": "-90.11329980470826"
    }
  },
  {
    "service_request": "2023-1012235",
    "request_type": "Abandoned Vehicles",
    "request_reason": "Abandoned/Junk Vehicles",
    "date_created": "2023-06-27T14:37:55.000",
    "date_modified": "2023-06-27T14:37:55.000",
    "request_status": "Pending",
    "responsible_agency": "Department of Public Works",
    "final_address": "3104 Annunciation St",
    "address_councildis": "B",
    "status": "Pending",
    "rowid": "1012235",
    "final_x": "3676696.43323",
    "final_y": "519220.736503",
    "longitude": "-90.08366182640866",
    "latitude": "29.921821726041063",
    "geocoded_column": {
      "latitude": "29.921821726041063",
      "longitude": "-90.08366182640866"
    }
  },
  {
    "service_request": "2023-1012234",
    "request_type": "Abandoned Vehicles",
    "request_reason": "Abandoned/Junk Vehicles",
    "date_created": "2023-06-27T14:34:07.000",
    "date_modified": "2023-06-27T14:34:07.000",
    "request_status": "Pending",
    "responsible_agency": "Department of Public Works",
    "final_address": "3104 Annunciation St",
    "address_councildis": "B",
    "status": "Pending",
    "rowid": "1012234",
    "final_x": "3676696.43323",
    "final_y": "519220.736503",
    "longitude": "-90.08366182640866",
    "latitude": "29.921821726041063",
    "geocoded_column": {
      "latitude": "29.921821726041063",
      "longitude": "-90.08366182640866"
    }
  },
  {
    "service_request": "2023-1012233",
    "request_type": "Traffic Signals/Signs/Striping/Streetlights",
    "request_reason": "Street Light Outage/Malfunction",
    "date_created": "2023-06-27T14:28:34.000",
    "date_modified": "2023-06-27T14:28:35.000",
    "request_status": "Pending",
    "responsible_agency": "Department of Public Works",
    "final_address": "2836 Hyman Pl",
    "address_councildis": "C",
    "status": "Assigned to Contractor",
    "contractor": "Legacy Professional Services",
    "rowid": "1012233",
    "final_x": "3701076.20074",
    "final_y": "520591.137336",
    "longitude": "-90.00665569995283",
    "latitude": "29.924836236672817",
    "geocoded_column": {
      "latitude": "29.924836236672817",
      "longitude": "-90.00665569995283"
    }
  },
  {
    "service_request": "2023-1012232",
    "request_type": "Abandoned Vehicles",
    "request_reason": "Abandoned/Junk Vehicles",
    "date_created": "2023-06-27T14:26:32.000",
    "date_modified": "2023-06-27T14:26:32.000",
    "request_status": "Pending",
    "responsible_agency": "Department of Public Works",
    "final_address": "333 Eliza St",
    "address_councildis": "C",
    "status": "Pending",
    "rowid": "1012232",
    "final_x": "3686581.95964",
    "final_y": "529567.298625",
    "longitude": "-90.05209230431387",
    "latitude": "29.949971143489712",
    "geocoded_column": {
      "latitude": "29.949971143489712",
      "longitude": "-90.05209230431387"
    }
  },
  {
    "service_request": "2023-1012231",
    "request_type": "Trash/Recycling",
    "request_reason": "Replace Trash Cart",
    "date_created": "2023-06-27T14:24:33.000",
    "date_modified": "2023-06-27T14:24:34.000",
    "request_status": "Pending",
    "responsible_agency": "Department of Sanitation",
    "final_address": "7501 Anne Marie Ct",
    "address_councildis": "E",
    "status": "Assigned to Contractor",
    "contractor": "Waste Pro",
    "rowid": "1012231",
    "final_x": "3718466.75692",
    "final_y": "570726.404071",
    "longitude": "-89.94984931981011",
    "latitude": "30.062123705258955",
    "geocoded_column": {
      "latitude": "30.062123705258955",
      "longitude": "-89.94984931981011"
    }
  },
  {
    "service_request": "2023-1012230",
    "request_type": "Trash/Recycling",
    "request_reason": "Order Recycling Cart",
    "date_created": "2023-06-27T14:19:49.000",
    "date_modified": "2023-06-27T14:19:49.000",
    "request_status": "Pending",
    "responsible_agency": "Department of Sanitation",
    "final_address": "1734 St Roch Ave",
    "address_councildis": "D",
    "status": "Pending",
    "rowid": "1012230",
    "final_x": "3686221.29308",
    "final_y": "538933.654474",
    "longitude": "-90.05290061671782",
    "latitude": "29.975736466089884",
    "geocoded_column": {
      "latitude": "29.975736466089884",
      "longitude": "-90.05290061671782"
    }
  },
  {
    "service_request": "2023-1012229",
    "request_type": "Trash/Recycling",
    "request_reason": "Request a Large Item Pick Up",
    "date_created": "2023-06-27T14:19:03.000",
    "date_modified": "2023-06-27T14:19:05.000",
    "request_status": "Pending",
    "responsible_agency": "Department of Sanitation",
    "final_address": "3213 Banks St",
    "address_councildis": "B",
    "status": "Assigned to Contractor",
    "contractor": "Richards Disposal",
    "rowid": "1012229",
    "final_x": "3673083.22657",
    "final_y": "535400.172038",
    "longitude": "-90.0945150460873",
    "latitude": "29.966417728381764",
    "geocoded_column": {
      "latitude": "29.966417728381764",
      "longitude": "-90.0945150460873"
    }
  },
  {
    "service_request": "2023-1012228",
    "request_type": "Trash/Recycling",
    "request_reason": "Order Recycling Cart",
    "date_created": "2023-06-27T14:17:42.000",
    "date_modified": "2023-06-27T14:17:42.000",
    "request_status": "Pending",
    "responsible_agency": "Department of Sanitation",
    "final_address": "9020 Lake Forest Blvd",
    "address_councildis": "E",
    "status": "Pending",
    "rowid": "1012228",
    "final_x": "3707565.40203",
    "final_y": "558332.959388",
    "longitude": "-89.98476945526308",
    "latitude": "30.028404087661496",
    "geocoded_column": {
      "latitude": "30.028404087661496",
      "longitude": "-89.98476945526308"
    }
  },
  {
    "service_request": "2023-1012227",
    "request_type": "Property Maintenance",
    "request_reason": "Property Maintenance",
    "date_created": "2023-06-27T14:17:25.000",
    "date_modified": "2023-06-27T14:17:25.000",
    "request_status": "Pending",
    "responsible_agency": "Department of Code Enforcement",
    "final_address": "ACACIA ST & FAIRMONT DR",
    "address_councildis": "D",
    "status": "Pending",
    "rowid": "1012227",
    "final_x": "3685487.9",
    "final_y": "545830.28",
    "longitude": "-90.05497386788034",
    "latitude": "29.994722257441055",
    "geocoded_column": {
      "latitude": "29.994722257441055",
      "longitude": "-90.05497386788034"
    }
  },
  {
    "service_request": "2023-1012226",
    "request_type": "Trash/Recycling",
    "request_reason": "Missed Trash Pick-Up",
    "date_created": "2023-06-27T14:16:17.000",
    "date_modified": "2023-06-27T14:16:17.000",
    "request_status": "Pending",
    "responsible_agency": "Department of Sanitation",
    "final_address": "7 N Oak Ridge Ct",
    "address_councildis": "E",
    "status": "Assigned to Contractor",
    "contractor": "Waste Pro",
    "rowid": "1012226",
    "final_x": "3713253.48619",
    "final_y": "567726.292772",
    "longitude": "-89.96644151064258",
    "latitude": "30.054046673728877",
    "geocoded_column": {
      "latitude": "30.054046673728877",
      "longitude": "-89.96644151064258"
    }
  },
  {
    "service_request": "2023-1012225",
    "request_type": "Trash/Recycling",
    "request_reason": "Order Recycling Cart",
    "date_created": "2023-06-27T14:15:10.000",
    "date_modified": "2023-06-27T14:15:11.000",
    "request_status": "Pending",
    "responsible_agency": "Department of Sanitation",
    "final_address": "1529 Broadway St",
    "address_councildis": "A",
    "status": "Pending",
    "rowid": "1012225",
    "final_x": "3664957.86624",
    "final_y": "527558.311295",
    "longitude": "-90.12043706353326",
    "latitude": "29.945094212731664",
    "geocoded_column": {
      "latitude": "29.945094212731664",
      "longitude": "-90.12043706353326"
    }
  },
  {
    "service_request": "2023-1012224",
    "request_type": "Trash/Recycling",
    "request_reason": "Request a Large Item Pick Up",
    "date_created": "2023-06-27T14:14:41.000",
    "date_modified": "2023-06-27T14:14:41.000",
    "request_status": "Pending",
    "responsible_agency": "Department of Sanitation",
    "final_address": "418 N Prieur St",
    "address_councildis": "B",
    "status": "Assigned to Contractor",
    "contractor": "Richards Disposal",
    "rowid": "1012224",
    "final_x": "3678362.88251",
    "final_y": "534471.537285",
    "longitude": "-90.07787409638239",
    "latitude": "29.96370629005953",
    "geocoded_column": {
      "latitude": "29.96370629005953",
      "longitude": "-90.07787409638239"
    }
  },
  {
    "service_request": "2023-1012223",
    "request_type": "Trash/Recycling",
    "request_reason": "Order Trash Cart",
    "date_created": "2023-06-27T14:13:20.000",
    "date_modified": "2023-06-27T14:13:21.000",
    "request_status": "Pending",
    "responsible_agency": "Department of Sanitation",
    "final_address": "1529 Broadway St",
    "address_councildis": "A",
    "status": "Assigned to Contractor",
    "contractor": "Richards Disposal",
    "rowid": "1012223",
    "final_x": "3664957.86624",
    "final_y": "527558.311295",
    "longitude": "-90.12043706353326",
    "latitude": "29.945094212731664",
    "geocoded_column": {
      "latitude": "29.945094212731664",
      "longitude": "-90.12043706353326"
    }
  },
  {
    "service_request": "2023-1012222",
    "request_type": "Trash/Recycling",
    "request_reason": "Order Trash Cart",
    "date_created": "2023-06-27T14:12:48.000",
    "date_modified": "2023-06-27T14:20:11.000",
    "request_status": "Pending",
    "responsible_agency": "Department of Sanitation",
    "final_address": "418 N Prieur St",
    "address_councildis": "B",
    "status": "Assigned to Contractor",
    "contractor": "Richards Disposal",
    "rowid": "1012222",
    "final_x": "3678362.88251",
    "final_y": "534471.537285",
    "longitude": "-90.07787409638239",
    "latitude": "29.96370629005953",
    "geocoded_column": {
      "latitude": "29.96370629005953",
      "longitude": "-90.07787409638239"
    }
  },
  {
    "service_request": "2023-1012221",
    "request_type": "Trash/Recycling",
    "request_reason": "Missed Trash Pick-Up",
    "date_created": "2023-06-27T14:11:58.000",
    "date_modified": "2023-06-27T15:04:28.000",
    "case_close_date": "2023-06-27T10:04:28.000",
    "request_status": "Closed",
    "responsible_agency": "Department of Sanitation",
    "final_address": "6437 Louis Xiv St",
    "address_councildis": "A",
    "status": "Invalid Request",
    "contractor": "IV Waste",
    "contractor_action": "Invalid Pick-Up",
    "rowid": "1012221",
    "final_x": "3668433.6594",
    "final_y": "550421.954452",
    "longitude": "-90.10869134785223",
    "latitude": "30.00785991046005",
    "geocoded_column": {
      "latitude": "30.00785991046005",
      "longitude": "-90.10869134785223"
    }
  },
  {
    "service_request": "2023-1012220",
    "request_type": "Trash/Recycling",
    "request_reason": "Request a Large Item Pick Up",
    "date_created": "2023-06-27T14:10:52.000",
    "date_modified": "2023-06-27T14:10:53.000",
    "request_status": "Pending",
    "responsible_agency": "Department of Sanitation",
    "final_address": "1208 Sumner St",
    "address_councildis": "C",
    "status": "Assigned to Contractor",
    "contractor": "Richards Disposal",
    "rowid": "1012220",
    "final_x": "3691124.45065",
    "final_y": "526945.524222",
    "longitude": "-90.03784319275364",
    "latitude": "29.942621720712612",
    "geocoded_column": {
      "latitude": "29.942621720712612",
      "longitude": "-90.03784319275364"
    }
  },
  {
    "service_request": "2023-1012219",
    "request_type": "Trash/Recycling",
    "request_reason": "Order Recycling Cart",
    "date_created": "2023-06-27T14:09:07.000",
    "date_modified": "2023-06-27T14:09:07.000",
    "request_status": "Pending",
    "responsible_agency": "Department of Sanitation",
    "final_address": "3119 Dumaine St",
    "address_councildis": "A",
    "status": "Pending",
    "rowid": "1012219",
    "final_x": "3675584.80693",
    "final_y": "538759.490441",
    "longitude": "-90.08649964576988",
    "latitude": "29.97558010761587",
    "geocoded_column": {
      "latitude": "29.97558010761587",
      "longitude": "-90.08649964576988"
    }
  },
  {
    "service_request": "2023-1012218",
    "request_type": "Trash/Recycling",
    "request_reason": "Order Recycling Cart",
    "date_created": "2023-06-27T14:07:27.000",
    "date_modified": "2023-06-27T14:07:28.000",
    "request_status": "Pending",
    "responsible_agency": "Department of Sanitation",
    "final_address": "7527 Daniel Dr",
    "address_councildis": "E",
    "status": "Pending",
    "rowid": "1012218",
    "final_x": "3705290.52881",
    "final_y": "562686.726112",
    "longitude": "-89.99179680584312",
    "latitude": "30.040448658057315",
    "geocoded_column": {
      "latitude": "30.040448658057315",
      "longitude": "-89.99179680584312"
    }
  },
  {
    "service_request": "2023-1012216",
    "request_type": "Trash/Recycling",
    "request_reason": "Request a Large Item Pick Up",
    "date_created": "2023-06-27T14:05:03.000",
    "date_modified": "2023-06-27T14:05:03.000",
    "request_status": "Pending",
    "responsible_agency": "Department of Sanitation",
    "final_address": "3126 Marais St",
    "address_councildis": "C",
    "status": "Assigned to Contractor",
    "contractor": "IV Waste",
    "rowid": "1012216",
    "final_x": "3689314.39567",
    "final_y": "536260.339207",
    "longitude": "-90.04322682225798",
    "latitude": "29.968290388239776",
    "geocoded_column": {
      "latitude": "29.968290388239776",
      "longitude": "-90.04322682225798"
    }
  },
  {
    "service_request": "2023-1012215",
    "request_type": "Trash/Recycling",
    "request_reason": "Repair Trash Cart",
    "date_created": "2023-06-27T13:59:19.000",
    "date_modified": "2023-06-27T13:59:21.000",
    "request_status": "Pending",
    "responsible_agency": "Department of Sanitation",
    "final_address": "537 S Scott St",
    "address_councildis": "B",
    "status": "Assigned to Contractor",
    "contractor": "Richards Disposal",
    "rowid": "1012215",
    "final_x": "3670576.87655",
    "final_y": "536313.240455",
    "longitude": "-90.10239910765647",
    "latitude": "29.969002631023248",
    "geocoded_column": {
      "latitude": "29.969002631023248",
      "longitude": "-90.10239910765647"
    }
  },
  {
    "service_request": "2023-1012214",
    "request_type": "Trash/Recycling",
    "request_reason": "Request a Large Item Pick Up",
    "date_created": "2023-06-27T13:56:00.000",
    "date_modified": "2023-06-27T13:56:01.000",
    "request_status": "Pending",
    "responsible_agency": "Department of Sanitation",
    "final_address": "5324 Warrington Dr",
    "address_councildis": "D",
    "status": "Assigned to Contractor",
    "contractor": "IV Waste",
    "rowid": "1012214",
    "final_x": "3680845.29595",
    "final_y": "552599.298774",
    "longitude": "-90.0694034347132",
    "latitude": "30.013476236298033",
    "geocoded_column": {
      "latitude": "30.013476236298033",
      "longitude": "-90.0694034347132"
    }
  },
  {
    "service_request": "2023-1012213",
    "request_type": "Traffic Signals/Signs/Striping/Streetlights",
    "request_reason": "Street Light Outage/Malfunction",
    "date_created": "2023-06-27T13:50:39.000",
    "date_modified": "2023-06-27T13:50:40.000",
    "request_status": "Pending",
    "responsible_agency": "Department of Public Works",
    "final_address": "120 Pinewood Ct",
    "address_councildis": "C",
    "status": "Assigned to Contractor",
    "contractor": "Legacy Professional Services",
    "rowid": "1012213",
    "final_x": "3695929.40086",
    "final_y": "523308.263227",
    "longitude": "-90.02280426713484",
    "latitude": "29.932470256610884",
    "geocoded_column": {
      "latitude": "29.932470256610884",
      "longitude": "-90.02280426713484"
    }
  },