[
  {
    "service_request": "2025-1236208",
    "request_type": "Drainage",
    "request_reason": "Catch Basin Not Draining",
    "date_created": "2025-10-27T22:49:23.000",
    "date_modified": "2025-10-27T22:49:25.000",
    "request_status": "Pending",
    "responsible_agency": "Sewerage & Water Board",
    "final_address": "1138 Josephine St",
    "address_councildis": "B",
    "status": "Pending",
    "rowid": "1236208",
    "final_x": "3678939.07432",
    "final_y": "522549.966266",
    "longitude": "-90.0764674893942",
    "latitude": "29.930908578442235",
    "geocoded_column": {
      "latitude": "29.930908578442235",
      "longitude": "-90.0764674893942"
    }
  },
  {
    "service_request": "2025-1236207",
    "request_type": "Streetlights",
    "request_reason": "Streetlight Outage/Malfunction",
    "date_created": "2025-10-27T22:36:53.000",
    "date_modified": "2025-10-27T22:36:54.000",
    "request_status": "Pending",
    "responsible_agency": "Department of Public Works",
    "final_address": "2523 Prytania St",
    "address_councildis": "B",
    "status": "Pending",
    "rowid": "1236207",
    "final_x": "3676800.74817",
    "final_y": "522561.909306",
    "longitude": "-90.08321748380145",
    "latitude": "29.93100573876581",
    "geocoded_column": {
      "latitude": "29.93100573876581",
      "longitude": "-90.08321748380145"
    }
  },
  {
    "service_request": "2025-1236206",
    "request_type": "Streetlights",
    "request_reason": "Streetlight Outage/Malfunction",
    "date_created": "2025-10-27T22:35:01.000",
    "date_modified": "2025-10-27T22:35:02.000",
    "request_status": "Pending",
    "responsible_agency": "Department of Public Works",
    "final_address": "2523 Prytania St",
    "address_councildis": "B",
    "status": "Pending",
    "rowid": "1236206",
    "final_x": "3676800.74817",
    "final_y": "522561.909306",
    "longitude": "-90.08321748380145",
    "latitude": "29.93100573876581",
    "geocoded_column": {
      "latitude": "29.93100573876581",
      "longitude": "-90.08321748380145"
    }
  },
  {
    "service_request": "2025-1236205",
    "request_type": "Streetlights",
    "request_reason": "Streetlight Outage/Malfunction",
    "date_created": "2025-10-27T22:34:53.000",
    "date_modified": "2025-10-27T22:34:56.000",
    "request_status": "Pending",
    "responsible_agency": "Department of Public Works",
    "final_address": "1138 Josephine St",
    "address_councildis": "B",
    "status": "Pending",
    "rowid": "1236205",
    "final_x": "3678939.07432",
    "final_y": "522549.966266",
    "longitude": "-90.0764674893942",
    "latitude": "29.930908578442235",
    "geocoded_column": {
      "latitude": "29.930908578442235",
      "longitude": "-90.0764674893942"
    }
  },
  {
    "service_request": "2025-1236204",
    "request_type": "Trash/Recycling",
    "request_reason": "Replace Trash Cart",
    "date_created": "2025-10-27T22:34:27.000",
    "date_modified": "2025-10-27T22:34:29.000",
    "request_status": "Pending",
    "responsible_agency": "Department of Sanitation",
    "final_address": "7350 Beauvoir Ct",
    "address_councildis": "E",
    "status": "Assigned to Contractor",
    "contractor": "Waste Pro",
    "rowid": "1236204",
    "final_x": "3715938.49912",
    "final_y": "567981.067621",
    "longitude": "-89.95794525861535",
    "latitude": "30.054658856484455",
    "geocoded_column": {
      "latitude": "30.054658856484455",
      "longitude": "-89.95794525861535"
    }
  },
  {
    "service_request": "2025-1236203",
    "request_type": "Streetlights",
    "request_reason": "Streetlight Outage/Malfunction",
    "date_created": "2025-10-27T22:31:58.000",
    "date_modified": "2025-10-27T22:31:59.000",
    "request_status": "Pending",
    "responsible_agency": "Department of Public Works",
    "final_address": "2523 Prytania St",
    "address_councildis": "B",
    "status": "Pending",
    "rowid": "1236203",
    "final_x": "3676800.74817",
    "final_y": "522561.909306",
    "longitude": "-90.08321748380145",
    "latitude": "29.93100573876581",
    "geocoded_column": {
      "latitude": "29.93100573876581",
      "longitude": "-90.08321748380145"
    }
  },
  {
    "service_request": "2025-1236202",
    "request_type": "Streetlights",
    "request_reason": "Streetlight Outage/Malfunction",
    "date_created": "2025-10-27T22:30:12.000",
    "date_modified": "2025-10-27T22:30:14.000",
    "request_status": "Pending",
    "responsible_agency": "Department of Public Works",
    "final_address": "1138 Josephine St",
    "address_councildis": "B",
    "status": "Pending",
    "rowid": "1236202",
    "final_x": "3678939.07432",
    "final_y": "522549.966266",
    "longitude": "-90.0764674893942",
    "latitude": "29.930908578442235",
    "geocoded_column": {
      "latitude": "29.930908578442235",
      "longitude": "-90.0764674893942"
    }
  },
  {
    "service_request": "2025-1236201",
    "request_type": "Trash/Recycling",
    "request_reason": "Repair Recycling Cart",
    "date_created": "2025-10-27T22:19:10.000",
    "date_modified": "2025-10-27T22:19:13.000",
    "request_status": "Pending",
    "responsible_agency": "Department of Sanitation",
    "final_address": "9003 Fig St",
    "address_councildis": "A",
    "status": "Pending",
    "rowid": "1236201",
    "final_x": "3663942.18503",
    "final_y": "535339.756102",
    "longitude": "-90.12338446872319",
    "latitude": "29.96652018130879",
    "geocoded_column": {
      "latitude": "29.96652018130879",
      "longitude": "-90.12338446872319"
    }
  },
  {
    "service_request": "2025-1236200",
    "request_type": "Trash/Recycling",
    "request_reason": "Replace Trash Cart",
    "date_created": "2025-10-27T21:56:36.000",
    "date_modified": "2025-10-27T21:56:38.000",
    "request_status": "Pending",
    "responsible_agency": "Department of Sanitation",
    "final_address": "8201 Hickory St",
    "address_councildis": "A",
    "status": "Assigned to Contractor",
    "contractor": "IV Waste",
    "rowid": "1236200",
    "final_x": "3663117.4496",
    "final_y": "530229.277889",
    "longitude": "-90.12615901370967",
    "latitude": "29.952491950672485",
    "geocoded_column": {
      "latitude": "29.952491950672485",
      "longitude": "-90.12615901370967"
    }
  },
  {
    "service_request": "2025-1236199",
    "request_type": "Streetlights",
    "request_reason": "Streetlight Outage/Malfunction",
    "date_created": "2025-10-27T21:47:22.000",
    "date_modified": "2025-10-27T21:47:23.000",
    "request_status": "Pending",
    "responsible_agency": "Department of Public Works",
    "final_address": "6855 Milne Blvd",
    "address_councildis": "A",
    "status": "Pending",
    "rowid": "1236199",
    "final_x": "3667703.43201",
    "final_y": "553250.131671",
    "longitude": "-90.11090303844004",
    "latitude": "30.01565784547728",
    "geocoded_column": {
      "latitude": "30.01565784547728",
      "longitude": "-90.11090303844004"
    }
  },
  {
    "service_request": "2025-1236198",
    "request_type": "Streetlights",
    "request_reason": "Streetlight Outage/Malfunction",
    "date_created": "2025-10-27T21:44:46.000",
    "date_modified": "2025-10-27T21:44:47.000",
    "request_status": "Pending",
    "responsible_agency": "Department of Public Works",
    "final_address": "6855 Milne Blvd",
    "address_councildis": "A",
    "status": "Pending",
    "rowid": "1236198",
    "final_x": "3667703.43201",
    "final_y": "553250.131671",
    "longitude": "-90.11090303844004",
    "latitude": "30.01565784547728",
    "geocoded_column": {
      "latitude": "30.01565784547728",
      "longitude": "-90.11090303844004"
    }
  },
  {
    "service_request": "2025-1236197",
    "request_type": "Streetlights",
    "request_reason": "Streetlight Outage/Malfunction",
    "date_created": "2025-10-27T21:08:45.000",
    "date_modified": "2025-10-27T21:08:47.000",
    "request_status": "Pending",
    "responsible_agency": "Department of Public Works",
    "final_address": "6308 Cartwright Dr",
    "address_councildis": "D",
    "status": "Pending",
    "rowid": "1236197",
    "final_x": "3678886.53384",
    "final_y": "556592.237018",
    "longitude": "-90.07545360488582",
    "latitude": "30.024514631336913",
    "geocoded_column": {
      "latitude": "30.024514631336913",
      "longitude": "-90.07545360488582"
    }
  },
  {
    "service_request": "2025-1236196",
    "request_type": "Abandoned Vehicles",
    "request_reason": "Abandoned/Junk Vehicles",
    "date_created": "2025-10-27T21:06:36.000",
    "date_modified": "2025-10-27T21:06:38.000",
    "request_status": "Pending",
    "responsible_agency": "Department of Public Works",
    "final_address": "2215 Port St",
    "address_councildis": "D",
    "status": "Pending",
    "rowid": "1236196",
    "final_x": "3688539.64323",
    "final_y": "540652.843851",
    "longitude": "-90.04551761327075",
    "latitude": "29.98039219047298",
    "geocoded_column": {
      "latitude": "29.98039219047298",
      "longitude": "-90.04551761327075"
    }
  },
  {
    "service_request": "2025-1236195",
    "request_type": "Trash/Recycling",
    "request_reason": "Missed Trash Pick-Up",
    "date_created": "2025-10-27T20:47:54.000",
    "date_modified": "2025-10-27T20:47:55.000",
    "request_status": "Pending",
    "responsible_agency": "Department of Sanitation",
    "final_address": "7212 Yorktown Dr, New Orleans, Louisiana, 70127",
    "address_councildis": "E",
    "status": "Assigned to Contractor",
    "contractor": "Waste Pro",
    "rowid": "1236195",
    "final_x": "3705761.12567",
    "final_y": "561283.754782",
    "longitude": "-89.99036154315142",
    "latitude": "30.036575882757667",
    "geocoded_column": {
      "latitude": "30.036575882757667",
      "longitude": "-89.99036154315142"
    }
  },
  {
    "service_request": "2025-1236194",
    "request_type": "Trash/Recycling",
    "request_reason": "Request a Large Item Pick Up",
    "date_created": "2025-10-27T20:47:45.000",
    "date_modified": "2025-10-27T20:47:47.000",
    "request_status": "Pending",
    "responsible_agency": "Department of Sanitation",
    "final_address": "4701 San Marco Rd",
    "address_councildis": "E",
    "status": "Assigned to Contractor",
    "contractor": "Waste Pro",
    "rowid": "1236194",
    "final_x": "3763279.37008",
    "final_y": "572724.302121",
    "longitude": "-89.80811576577952",
    "latitude": "30.066053128437126",
    "geocoded_column": {
      "latitude": "30.066053128437126",
      "longitude": "-89.80811576577952"
    }
  },
  {
    "service_request": "2025-1236193",
    "request_type": "Trash/Recycling",
    "request_reason": "Replace Recycling Cart",
    "date_created": "2025-10-27T20:31:54.000",
    "date_modified": "2025-10-27T20:31:56.000",
    "request_status": "Pending",
    "responsible_agency": "Department of Sanitation",
    "final_address": "200 12Th St",
    "address_councildis": "A",
    "status": "Pending",
    "rowid": "1236193",
    "final_x": "3665582.77095",
    "final_y": "547762.106514",
    "longitude": "-90.1177873342478",
    "latitude": "30.000629720382744",
    "geocoded_column": {
      "latitude": "30.000629720382744",
      "longitude": "-90.1177873342478"
    }
  },
  {
    "service_request": "2025-1236192",
    "request_type": "General Services",
    "request_reason": "General Service Request",
    "date_created": "2025-10-27T20:11:26.000",
    "date_modified": "2025-10-27T20:11:28.000",
    "request_status": "Pending",
    "responsible_agency": "Orleans Parish Communication District",
    "final_address": "700 Eleonore St, New Orleans, Louisiana, 70115",
    "address_councildis": "A",
    "status": "Pending",
    "rowid": "1236192",
    "final_x": "3665122.49901",
    "final_y": "518771.368887",
    "longitude": "-90.12021098630993",
    "latitude": "29.92092811621476",
    "geocoded_column": {
      "latitude": "29.92092811621476",
      "longitude": "-90.12021098630993"
    }
  },
  {
    "service_request": "2025-1236191",
    "request_type": "Trash/Recycling",
    "request_reason": "Request a Large Item Pick Up",
    "date_created": "2025-10-27T19:56:52.000",
    "date_modified": "2025-10-27T19:56:54.000",
    "request_status": "Pending",
    "responsible_agency": "Department of Sanitation",
    "final_address": "5542 Press Dr",
    "address_councildis": "D",
    "status": "Assigned to Contractor",
    "contractor": "IV Waste",
    "rowid": "1236191",
    "final_x": "3689250.23113",
    "final_y": "553852.963031",
    "longitude": "-90.04280371848783",
    "latitude": "30.01666574850605",
    "geocoded_column": {
      "latitude": "30.01666574850605",
      "longitude": "-90.04280371848783"
    }
  },
  {
    "service_request": "2025-1236190",
    "request_type": "Trash/Recycling",
    "request_reason": "Request a Large Item Pick Up",
    "date_created": "2025-10-27T19:52:44.000",
    "date_modified": "2025-10-27T19:52:47.000",
    "request_status": "Pending",
    "responsible_agency": "Department of Sanitation",
    "final_address": "1327 Josephine St B",
    "address_councildis": "B",
    "status": "Assigned to Contractor",
    "contractor": "IV Waste",
    "rowid": "1236190",
    "final_x": "3678666.74197",
    "final_y": "523102.530171",
    "longitude": "-90.07730808413805",
    "latitude": "29.932436159039295",
    "geocoded_column": {
      "latitude": "29.932436159039295",
      "longitude": "-90.07730808413805"
    }
  },
  {
    "service_request": "2025-1236189",
    "request_type": "Streetlights",
    "request_reason": "Streetlight Outage/Malfunction",
    "date_created": "2025-10-27T19:40:12.000",
    "date_modified": "2025-10-27T19:40:14.000",
    "request_status": "Pending",
    "responsible_agency": "Department of Public Works",
    "final_address": "1902 Allen St",
    "address_councildis": "D",
    "status": "Pending",
    "rowid": "1236189",
    "final_x": "3682458.88367",
    "final_y": "539013.53089",
    "longitude": "-90.0647805562668",
    "latitude": "29.97607116702504",
    "geocoded_column": {
      "latitude": "29.97607116702504",
      "longitude": "-90.0647805562668"
    }
  },
  {
    "service_request": "2025-1236188",
    "request_type": "Abandoned Vehicles",
    "request_reason": "Abandoned/Junk Vehicles",
    "date_created": "2025-10-27T19:14:52.000",
    "date_modified": "2025-10-27T19:14:53.000",
    "request_status": "Pending",
    "responsible_agency": "Department of Public Works",
    "final_address": "4125 N Rampart St",
    "address_councildis": "C",
    "status": "Pending",
    "rowid": "1236188",
    "final_x": "3692219.5791",
    "final_y": "534768.07943",
    "longitude": "-90.0341055942122",
    "latitude": "29.96409693972644",
    "geocoded_column": {
      "latitude": "29.96409693972644",
      "longitude": "-90.0341055942122"
    }
  },
  {
    "service_request": "2025-1236187",
    "request_type": "General Services",
    "request_reason": "General Service Request",
    "date_created": "2025-10-27T19:13:30.000",
    "date_modified": "2025-10-27T19:13:32.000",
    "request_status": "Pending",
    "responsible_agency": "Orleans Parish Communication District",
    "final_address": "0 BLK Allard Blvd",
    "address_councildis": "A",
    "status": "Pending",
    "rowid": "1236187",
    "final_x": "3672889.12367",
    "final_y": "541158.059532",
    "longitude": "-90.09493149945968",
    "latitude": "29.982255733983415",
    "geocoded_column": {
      "latitude": "29.982255733983415",
      "longitude": "-90.09493149945968"
    }
  },
  {
    "service_request": "2025-1236186",
    "request_type": "Streetlights",
    "request_reason": "Streetlight Outage/Malfunction",
    "date_created": "2025-10-27T19:05:20.000",
    "date_modified": "2025-10-27T19:05:22.000",
    "request_status": "Pending",
    "responsible_agency": "Department of Public Works",
    "final_address": "2618 Gordon St",
    "address_councildis": "E",
    "status": "Pending",
    "rowid": "1236186",
    "final_x": "3701345.15044",
    "final_y": "538971.898186",
    "longitude": "-90.00513416087354",
    "latitude": "29.975368254751142",
    "geocoded_column": {
      "latitude": "29.975368254751142",
      "longitude": "-90.00513416087354"
    }
  },
  {
    "service_request": "2025-1236185",
    "request_type": "Trash/Recycling",
    "request_reason": "Start Trash Service",
    "date_created": "2025-10-27T19:01:29.000",
    "date_modified": "2025-10-27T19:01:31.000",
    "request_status": "Pending",
    "responsible_agency": "Department of Sanitation",
    "final_address": "73 Marywood Ct",
    "address_councildis": "E",
    "status": "Assigned to Contractor",
    "contractor": "Waste Pro",
    "rowid": "1236185",
    "final_x": "3712324.17682",
    "final_y": "566562.706595",
    "longitude": "-89.9694225824616",
    "latitude": "30.050877734494662",
    "geocoded_column": {
      "latitude": "30.050877734494662",
      "longitude": "-89.9694225824616"
    }
  },
  {
    "service_request": "2025-1236184",
    "request_type": "Streetlights",
    "request_reason": "Streetlight Outage/Malfunction",
    "date_created": "2025-10-27T18:57:54.000",
    "date_modified": "2025-10-27T18:57:55.000",
    "request_status": "Pending",
    "responsible_agency": "Department of Public Works",
    "final_address": "2618 Gordon St",
    "address_councildis": "E",
    "status": "Pending",
    "rowid": "1236184",
    "final_x": "3701345.15044",
    "final_y": "538971.898186",
    "longitude": "-90.00513416087354",
    "latitude": "29.975368254751142",
    "geocoded_column": {
      "latitude": "29.975368254751142",
      "longitude": "-90.00513416087354"
    }
  },
  {
    "service_request": "2025-1236183",
    "request_type": "General Services",
    "request_reason": "General Service Request",
    "date_created": "2025-10-27T18:55:30.000",
    "date_modified": "2025-10-27T18:55:32.000",
    "request_status": "Pending",
    "responsible_agency": "Orleans Parish Communication District",
    "final_address": "1234 Monroe St",
    "address_councildis": "A",
    "status": "Pending",
    "rowid": "1236183",
    "final_x": "3660544.9223",
    "final_y": "530038.314945",
    "longitude": "-90.13428823859718",
    "latitude": "29.952041135399163",
    "geocoded_column": {
      "latitude": "29.952041135399163",
      "longitude": "-90.13428823859718"
    }
  },
  {
    "service_request": "2025-1236182",
    "request_type": "Property Maintenance",
    "request_reason": "Property Maintenance",
    "date_created": "2025-10-27T18:49:48.000",
    "date_modified": "2025-10-27T18:49:49.000",
    "request_status": "Pending",
    "responsible_agency": "Department of Code Enforcement",
    "final_address": "1677 Agriculture St",
    "address_councildis": "D",
    "status": "Pending",
    "rowid": "1236182",
    "final_x": "3680615.50664",
    "final_y": "543032.336141",
    "longitude": "-90.0704625858327",
    "latitude": "29.987177466207093",
    "geocoded_column": {
      "latitude": "29.987177466207093",
      "longitude": "-90.0704625858327"
    }
  },
  {
    "service_request": "2025-1236181",
    "request_type": "Roads and Streets",
    "request_reason": "Street Subsidence (Sinking)",
    "date_created": "2025-10-27T18:17:54.000",
    "date_modified": "2025-10-27T18:17:56.000",
    "request_status": "Pending",
    "responsible_agency": "Sewerage & Water Board",
    "final_address": "4700 BLK Conti St",
    "address_councildis": "A",
    "status": "Pending",
    "rowid": "1236181",
    "final_x": "3669675.47295",
    "final_y": "540888.272998",
    "longitude": "-90.10509093591918",
    "latitude": "29.981609023685827",
    "geocoded_column": {
      "latitude": "29.981609023685827",
      "longitude": "-90.10509093591918"
    }
  },
  {
    "service_request": "2025-1236180",
    "request_type": "Street and Traffic Signs",
    "request_reason": "Street Name Sign Damaged or Missing",
    "date_created": "2025-10-27T18:08:29.000",
    "date_modified": "2025-10-27T18:08:30.000",
    "request_status": "Pending",
    "responsible_agency": "Department of Public Works",
    "final_address": "1701 Lawrence St",
    "address_councildis": "C",
    "status": "Pending",
    "rowid": "1236180",
    "final_x": "3690730.1318",
    "final_y": "525508.730429",
    "longitude": "-90.03913938074676",
    "latitude": "29.938683280763073",
    "geocoded_column": {
      "latitude": "29.938683280763073",
      "longitude": "-90.03913938074676"
    }
  },
  {
    "service_request": "2025-1236179",
    "request_type": "Streetlights",
    "request_reason": "Streetlight Outage/Malfunction",
    "date_created": "2025-10-27T17:40:04.000",
    "date_modified": "2025-10-27T17:40:06.000",
    "request_status": "Pending",
    "responsible_agency": "Department of Public Works",
    "final_address": "5530 Vicksburg St",
    "address_councildis": "A",
    "status": "Pending",
    "rowid": "1236179",
    "final_x": "3668647.87118",
    "final_y": "543727.930766",
    "longitude": "-90.10824069863268",
    "latitude": "29.989447363409585",
    "geocoded_column": {
      "latitude": "29.989447363409585",
      "longitude": "-90.10824069863268"
    }
  },
  {
    "service_request": "2025-1236178",
    "request_type": "Trash/Recycling",
    "request_reason": "Request a Large Item Pick Up",
    "date_created": "2025-10-27T17:36:17.000",
    "date_modified": "2025-10-27T17:36:18.000",
    "request_status": "Pending",
    "responsible_agency": "Department of Sanitation",
    "final_address": "2420 Laurel St",
    "address_councildis": "B",
    "status": "Assigned to Contractor",
    "contractor": "IV Waste",
    "rowid": "1236178",
    "final_x": "3678342.30446",
    "final_y": "520758.839033",
    "longitude": "-90.07841333620189",
    "latitude": "29.926001548858167",
    "geocoded_column": {
      "latitude": "29.926001548858167",
      "longitude": "-90.07841333620189"
    }
  },
  {
    "service_request": "2025-1236177",
    "request_type": "Abandoned Vehicles",
    "request_reason": "Abandoned/Junk Vehicles",
    "date_created": "2025-10-27T17:36:09.000",
    "date_modified": "2025-10-27T17:36:11.000",
    "request_status": "Pending",
    "responsible_agency": "Department of Public Works",
    "final_address": "2555 Ursulines Ave",
    "address_councildis": "D",
    "status": "Pending",
    "rowid": "1236177",
    "final_x": "3678123.05826",
    "final_y": "537831.030217",
    "longitude": "-90.07851525826122",
    "latitude": "29.97295097219859",
    "geocoded_column": {
      "latitude": "29.97295097219859",
      "longitude": "-90.07851525826122"
    }
  },
  {
    "service_request": "2025-1236176",
    "request_type": "Mosquito, Termite & Rodent Control",
    "request_reason": "Rodent Complaint (Mice & Rats)",
    "date_created": "2025-10-27T17:32:54.000",
    "date_modified": "2025-10-27T17:32:57.000",
    "request_status": "Pending",
    "responsible_agency": "Mosquito, Termite & Rodent Control Board",
    "final_address": "5530 Vicksburg St",
    "address_councildis": "A",
    "status": "Pending",
    "rowid": "1236176",
    "final_x": "3668647.87118",
    "final_y": "543727.930766",
    "longitude": "-90.10824069863268",
    "latitude": "29.989447363409585",
    "geocoded_column": {
      "latitude": "29.989447363409585",
      "longitude": "-90.10824069863268"
    }
  },
  {
    "service_request": "2025-1236175",
    "request_type": "Trash/Recycling",
    "request_reason": "Request a Large Item Pick Up",
    "date_created": "2025-10-27T17:25:29.000",
    "date_modified": "2025-10-27T17:25:32.000",
    "request_status": "Pending",
    "responsible_agency": "Department of Sanitation",
    "final_address": "7212 Yorktown Dr",
    "address_councildis": "E",
    "status": "Assigned to Contractor",
    "contractor": "Waste Pro",
    "rowid": "1236175",
    "final_x": "3705761.12567",
    "final_y": "561283.754782",
    "longitude": "-89.99036154315142",
    "latitude": "30.036575882757667",
    "geocoded_column": {
      "latitude": "30.036575882757667",
      "longitude": "-89.99036154315142"
    }
  },
  {
    "service_request": "2025-1236174",
    "request_type": "Trash/Recycling",
    "request_reason": "Request a Large Item Pick Up",
    "date_created": "2025-10-27T17:11:33.000",
    "date_modified": "2025-10-27T18:33:43.000",
    "case_close_date": "2025-10-27T13:33:40.000",
    "request_status": "Closed",
    "responsible_agency": "Department of Sanitation",
    "final_address": "7212 Yorktown Dr",
    "address_councildis": "E",
    "status": "Duplicate Request",
    "contractor": "Waste Pro",
    "contractor_action": "Duplicate",
    "rowid": "1236174",
    "final_x": "3705761.12567",
    "final_y": "561283.754782",
    "longitude": "-89.99036154315142",
    "latitude": "30.036575882757667",
    "geocoded_column": {
      "latitude": "30.036575882757667",
      "longitude": "-89.99036154315142"
    }
  },
  {
    "service_request": "2025-1236173",
    "request_type": "Trash/Recycling",
    "request_reason": "Missed Trash Pick-Up",
    "date_created": "2025-10-27T17:11:32.000",
    "date_modified": "2025-10-27T17:11:33.000",
    "request_status": "Pending",
    "responsible_agency": "Department of Sanitation",
    "final_address": "13328 Lincoln Beach Blvd",
    "address_councildis": "E",
    "status": "Assigned to Contractor",
    "contractor": "Waste Pro",
    "rowid": "1236173",
    "final_x": "3716229.9397",
    "final_y": "571552.460136",
    "longitude": "-89.95688848805746",
    "latitude": "30.064469085622186",
    "geocoded_column": {
      "latitude": "30.064469085622186",
      "longitude": "-89.95688848805746"
    }
  },
  {
    "service_request": "2025-1236172",
    "request_type": "Streetlights",
    "request_reason": "Streetlight Outage/Malfunction",
    "date_created": "2025-10-27T17:05:59.000",
    "date_modified": "2025-10-27T17:06:00.000",
    "request_status": "Pending",
    "responsible_agency": "Department of Public Works",
    "final_address": "5217 Hawthorne Pl",
    "address_councildis": "A",
    "status": "Pending",
    "rowid": "1236172",
    "final_x": "3667848.15002",
    "final_y": "542987.511437",
    "longitude": "-90.1107917513634",
    "latitude": "29.98743494891074",
    "geocoded_column": {
      "latitude": "29.98743494891074",
      "longitude": "-90.1107917513634"
    }
  },
  {
    "service_request": "2025-1236171",
    "request_type": "Abandoned Vehicles",
    "request_reason": "Abandoned/Junk Vehicles",
    "date_created": "2025-10-27T17:05:51.000",
    "date_modified": "2025-10-27T17:05:53.000",
    "request_status": "Pending",
    "responsible_agency": "Department of Public Works",
    "final_address": "2534 St Philip St",
    "address_councildis": "D",
    "status": "Pending",
    "rowid": "1236171",
    "final_x": "3677892.6491",
    "final_y": "537246.082248",
    "longitude": "-90.07926315370223",
    "latitude": "29.971349501669078",
    "geocoded_column": {
      "latitude": "29.971349501669078",
      "longitude": "-90.07926315370223"
    }
  },
  {
    "service_request": "2025-1236170",
    "request_type": "Trash/Recycling",
    "request_reason": "Repair Recycling Cart",
    "date_created": "2025-10-27T17:02:51.000",
    "date_modified": "2025-10-27T17:02:53.000",
    "request_status": "Pending",
    "responsible_agency": "Department of Sanitation",
    "final_address": "5217 Hawthorne Pl",
    "address_councildis": "A",
    "status": "Pending",
    "rowid": "1236170",
    "final_x": "3667848.15002",
    "final_y": "542987.511437",
    "longitude": "-90.1107917513634",
    "latitude": "29.98743494891074",
    "geocoded_column": {
      "latitude": "29.98743494891074",
      "longitude": "-90.1107917513634"
    }
  },
  {
    "service_request": "2025-1236169",
    "request_type": "Trash/Recycling",
    "request_reason": "Request a Large Item Pick Up",
    "date_created": "2025-10-27T16:55:42.000",
    "date_modified": "2025-10-27T16:55:44.000",
    "request_status": "Pending",
    "responsible_agency": "Department of Sanitation",
    "final_address": "5923 Franklin Ave",
    "address_councildis": "D",
    "status": "Assigned to Contractor",
    "contractor": "IV Waste",
    "rowid": "1236169",
    "final_x": "3686510.59612",
    "final_y": "555041.300441",
    "longitude": "-90.0514177805048",
    "latitude": "30.02001779541499",
    "geocoded_column": {
      "latitude": "30.02001779541499",
      "longitude": "-90.0514177805048"
    }
  },
  {
    "service_request": "2025-1236168",
    "request_type": "Abandoned Vehicles",
    "request_reason": "Abandoned/Junk Vehicles",
    "date_created": "2025-10-27T16:52:36.000",
    "date_modified": "2025-10-27T16:52:37.000",
    "request_status": "Pending",
    "responsible_agency": "Department of Public Works",
    "final_address": "ST MAURICE AVE & DAUPHINE ST",
    "address_councildis": "E",
    "status": "Pending",
    "rowid": "1236168",
    "final_x": "3699395.0",
    "final_y": "532082.78",
    "longitude": "-90.01154420796499",
    "latitude": "29.956487661307058",
    "geocoded_column": {
      "latitude": "29.956487661307058",
      "longitude": "-90.01154420796499"
    }
  },
  {
    "service_request": "2025-1236167",
    "request_type": "Trash/Recycling",
    "request_reason": "Repair Trash Cart",
    "date_created": "2025-10-27T16:46:50.000",
    "date_modified": "2025-10-27T16:46:52.000",
    "request_status": "Pending",
    "responsible_agency": "Department of Sanitation",
    "final_address": "4866 Lurline St",
    "address_councildis": "E",
    "status": "Assigned to Contractor",
    "contractor": "Waste Pro",
    "rowid": "1236167",
    "final_x": "3711824.2965",
    "final_y": "556855.124826",
    "longitude": "-89.97136721325357",
    "latitude": "30.024202116501456",
    "geocoded_column": {
      "latitude": "30.024202116501456",
      "longitude": "-89.97136721325357"
    }
  },
  {
    "service_request": "2025-1236166",
    "request_type": "Trash/Recycling",
    "request_reason": "Return Trash Cart",
    "date_created": "2025-10-27T16:46:44.000",
    "date_modified": "2025-10-27T16:46:45.000",
    "request_status": "Pending",
    "responsible_agency": "Department of Sanitation",
    "final_address": "6501 E Hermes St",
    "address_councildis": "D",
    "status": "Assigned to Contractor",
    "contractor": "Waste Pro",
    "rowid": "1236166",
    "final_x": "3698071.24573",
    "final_y": "555337.169817",
    "longitude": "-90.01487925129234",
    "latitude": "30.020470632187674",
    "geocoded_column": {
      "latitude": "30.020470632187674",
      "longitude": "-90.01487925129234"
    }
  },
  {
    "service_request": "2025-1236165",
    "request_type": "Healthy Homes",
    "request_reason": "Healthy Homes",
    "date_created": "2025-10-27T16:44:48.000",
    "date_modified": "2025-10-27T16:44:50.000",
    "request_status": "Pending",
    "responsible_agency": "Department of Code Enforcement",
    "final_address": "4934 Haik Dr",
    "address_councildis": "D",
    "status": "Pending",
    "rowid": "1236165",
    "final_x": "3681925.375",
    "final_y": "550894.726549",
    "longitude": "-90.06605051759907",
    "latitude": "30.00875647664343",
    "geocoded_column": {
      "latitude": "30.00875647664343",
      "longitude": "-90.06605051759907"
    }
  },
  {
    "service_request": "2025-1236164",
    "request_type": "Trash/Recycling",
    "request_reason": "Request a Large Item Pick Up",
    "date_created": "2025-10-27T16:43:24.000",
    "date_modified": "2025-10-27T16:43:26.000",
    "request_status": "Pending",
    "responsible_agency": "Department of Sanitation",
    "final_address": "4620 Lynhuber Dr",
    "address_councildis": "D",
    "status": "Assigned to Contractor",
    "contractor": "Waste Pro",
    "rowid": "1236164",
    "final_x": "3698019.75549",
    "final_y": "553677.283415",
    "longitude": "-90.01510228183413",
    "latitude": "30.015908202466523",
    "geocoded_column": {
      "latitude": "30.015908202466523",
      "longitude": "-90.01510228183413"
    }
  },
  {
    "service_request": "2025-1236163",
    "request_type": "Trash/Recycling",
    "request_reason": "Repair Trash Cart",
    "date_created": "2025-10-27T16:40:44.000",
    "date_modified": "2025-10-27T16:40:46.000",
    "request_status": "Pending",
    "responsible_agency": "Department of Sanitation",
    "final_address": "6625 Center St",
    "address_councildis": "A",
    "status": "Assigned to Contractor",
    "contractor": "IV Waste",
    "rowid": "1236163",
    "final_x": "3664993.87015",
    "final_y": "552126.396054",
    "longitude": "-90.11950166812443",
    "latitude": "30.012647170100962",
    "geocoded_column": {
      "latitude": "30.012647170100962",
      "longitude": "-90.11950166812443"
    }
  },
  {
    "service_request": "2025-1236162",
    "request_type": "Abandoned Vehicles",
    "request_reason": "Abandoned/Junk Vehicles",
    "date_created": "2025-10-27T16:39:59.000",
    "date_modified": "2025-10-27T16:40:01.000",
    "request_status": "Pending",
    "responsible_agency": "Department of Public Works",
    "final_address": "5080 Pontchartrain Blvd",
    "address_councildis": "A",
    "status": "Pending",
    "rowid": "1236162",
    "final_x": "3666841.38119",
    "final_y": "540528.132811",
    "longitude": "-90.1140544564024",
    "latitude": "29.980701987063558",
    "geocoded_column": {
      "latitude": "29.980701987063558",
      "longitude": "-90.1140544564024"
    }
  },
  {
    "service_request": "2025-1236161",
    "request_type": "Abandoned Vehicles",
    "request_reason": "Abandoned/Junk Vehicles",
    "date_created": "2025-10-27T16:39:51.000",
    "date_modified": "2025-10-27T16:39:53.000",
    "request_status": "Pending",
    "responsible_agency": "Department of Public Works",
    "final_address": "3537 Elysian Fields Ave",
    "address_councildis": "D",
    "status": "Pending",
    "rowid": "1236161",
    "final_x": "3684395.66242",
    "final_y": "545856.656016",
    "longitude": "-90.05842318454025",
    "latitude": "29.994828242854215",
    "geocoded_column": {
      "latitude": "29.994828242854215",
      "longitude": "-90.05842318454025"
    }
  },
  {
    "service_request": "2025-1236160",
    "request_type": "Abandoned Vehicles",
    "request_reason": "Abandoned/Junk Vehicles",
    "date_created": "2025-10-27T16:33:51.000",
    "date_modified": "2025-10-27T16:35:55.000",
    "request_status": "Pending",
    "responsible_agency": "Department of Public Works",
    "final_address": "4511 Francis Dr",
    "address_councildis": "D",
    "status": "Pending",
    "rowid": "1236160",
    "final_x": "3698395.26564",
    "final_y": "553081.445399",
    "longitude": "-90.01393752206488",
    "latitude": "30.014257989162356",
    "geocoded_column": {
      "latitude": "30.014257989162356",
      "longitude": "-90.01393752206488"
    }
  },
  {
    "service_request": "2025-1236159",
    "request_type": "Trash/Recycling",
    "request_reason": "Request a Large Item Pick Up",
    "date_created": "2025-10-27T16:32:45.000",
    "date_modified": "2025-10-27T16:32:46.000",
    "request_status": "Pending",
    "responsible_agency": "Department of Sanitation",
    "final_address": "409 Elmira Ave",
    "address_councildis": "C",
    "status": "Assigned to Contractor",
    "contractor": "Richards Disposal",
    "rowid": "1236159",
    "final_x": "3688176.04982",
    "final_y": "530228.045121",
    "longitude": "-90.04703561382718",
    "latitude": "29.95173886187986",
    "geocoded_column": {
      "latitude": "29.95173886187986",
      "longitude": "-90.04703561382718"
    }
  },
  {
    "service_request": "2025-1236158",
    "request_type": "Trash/Recycling",
    "request_reason": "Request a Large Item Pick Up",
    "date_created": "2025-10-27T16:31:35.000",
    "date_modified": "2025-10-27T16:31:38.000",
    "request_status": "Pending",
    "responsible_agency": "Department of Sanitation",
    "final_address": "3420 Banks St",
    "address_councildis": "B",
    "status": "Assigned to Contractor",
    "contractor": "IV Waste",
    "rowid": "1236158",
    "final_x": "3672229.77934",
    "final_y": "535879.539079",
    "longitude": "-90.09719389437831",
    "latitude": "29.967761170211716",
    "geocoded_column": {
      "latitude": "29.967761170211716",
      "longitude": "-90.09719389437831"
    }
  },
  {
    "service_request": "2025-1236157",
    "request_type": "Trash/Recycling",
    "request_reason": "Request a Large Item Pick Up",
    "date_created": "2025-10-27T16:30:34.000",
    "date_modified": "2025-10-27T16:30:36.000",
    "request_status": "Pending",
    "responsible_agency": "Department of Sanitation",
    "final_address": "7432 Ligustrum Dr",
    "address_councildis": "E",
    "status": "Assigned to Contractor",
    "contractor": "Waste Pro",
    "rowid": "1236157",
    "final_x": "3701629.38455",
    "final_y": "560645.170974",
    "longitude": "-90.00344203315537",
    "latitude": "30.034952531323203",
    "geocoded_column": {
      "latitude": "30.034952531323203",
      "longitude": "-90.00344203315537"
    }
  },
  {
    "service_request": "2025-1236156",
    "request_type": "Trash/Recycling",
    "request_reason": "Repair Trash Cart",
    "date_created": "2025-10-27T16:25:46.000",
    "date_modified": "2025-10-27T16:25:48.000",
    "request_status": "Pending",
    "responsible_agency": "Department of Sanitation",
    "final_address": "1129 N White St",
    "address_councildis": "A",
    "status": "Assigned to Contractor",
    "contractor": "IV Waste",
    "rowid": "1236156",
    "final_x": "3677265.59675",
    "final_y": "539029.955466",
    "longitude": "-90.08118191075293",
    "latitude": "29.976273397102304",
    "geocoded_column": {
      "latitude": "29.976273397102304",
      "longitude": "-90.08118191075293"
    }
  },
  {
    "service_request": "2025-1236155",
    "request_type": "Trash/Recycling",
    "request_reason": "Dead Animal Pick Up",
    "date_created": "2025-10-27T16:20:49.000",
    "date_modified": "2025-10-27T16:20:54.000",
    "request_status": "Pending",
    "responsible_agency": "Department of Sanitation",
    "final_address": "4209 S Prieur St",
    "address_councildis": "B",
    "status": "Assigned to Contractor",
    "contractor": "IV Waste",
    "rowid": "1236155",
    "final_x": "3670865.41716",
    "final_y": "526995.578238",
    "longitude": "-90.10180413832408",
    "latitude": "29.94337361399318",
    "geocoded_column": {
      "latitude": "29.94337361399318",
      "longitude": "-90.10180413832408"
    }
  },
  {
    "service_request": "2025-1236154",
    "request_type": "Trash/Recycling",
    "request_reason": "Return Trash Cart",
    "date_created": "2025-10-27T16:20:38.000",
    "date_modified": "2025-10-27T16:20:41.000",
    "request_status": "Pending",
    "responsible_agency": "Department of Sanitation",
    "final_address": "2432 Oriole St",
    "address_councildis": "D",
    "status": "Assigned to Contractor",
    "contractor": "IV Waste",
    "rowid": "1236154",
    "final_x": "3684859.72565",
    "final_y": "558119.520667",
    "longitude": "-90.05652561966689",
    "latitude": "30.028532441509586",
    "geocoded_column": {
      "latitude": "30.028532441509586",
      "longitude": "-90.05652561966689"
    }
  },
  {
    "service_request": "2025-1236153",
    "request_type": "Trash/Recycling",
    "request_reason": "Request a Large Item Pick Up",
    "date_created": "2025-10-27T16:09:40.000",
    "date_modified": "2025-10-27T16:09:43.000",
    "request_status": "Pending",
    "responsible_agency": "Department of Sanitation",
    "final_address": "7621 Afton Dr",
    "address_councildis": "E",
    "status": "Assigned to Contractor",
    "contractor": "Waste Pro",
    "rowid": "1236153",
    "final_x": "3704819.65003",
    "final_y": "562854.740064",
    "longitude": "-89.99327871659067",
    "latitude": "30.040925780305233",
    "geocoded_column": {
      "latitude": "30.040925780305233",
      "longitude": "-89.99327871659067"
    }
  },
  {
    "service_request": "2025-1236152",
    "request_type": "Trash/Recycling",
    "request_reason": "Request a Large Item Pick Up",
    "date_created": "2025-10-27T16:07:23.000",
    "date_modified": "2025-10-27T16:07:25.000",
    "request_status": "Pending",
    "responsible_agency": "Department of Sanitation",
    "final_address": "501 S Pierce St",
    "address_councildis": "A",
    "status": "Assigned to Contractor",
    "contractor": "IV Waste",
    "rowid": "1236152",
    "final_x": "3670458.76859",
    "final_y": "536768.807944",
    "longitude": "-90.10275665043663",
    "latitude": "29.970258777002673",
    "geocoded_column": {
      "latitude": "29.970258777002673",
      "longitude": "-90.10275665043663"
    }
  },
  {
    "service_request": "2025-1236151",
    "request_type": "Trash/Recycling",
    "request_reason": "Request a Large Item Pick Up",
    "date_created": "2025-10-27T16:06:50.000",
    "date_modified": "2025-10-27T16:06:51.000",
    "request_status": "Pending",
    "responsible_agency": "Department of Sanitation",
    "final_address": "1664 Abundance St",
    "address_councildis": "D",
    "status": "Assigned to Contractor",
    "contractor": "IV Waste",
    "rowid": "1236151",
    "final_x": "3680452.56143",
    "final_y": "543303.32603",
    "longitude": "-90.07096784126963",
    "latitude": "29.987927530328985",
    "geocoded_column": {
      "latitude": "29.987927530328985",
      "longitude": "-90.07096784126963"
    }
  },
  {
    "service_request": "2025-1236150",
    "request_type": "Abandoned Vehicles",
    "request_reason": "Abandoned/Junk Vehicles",
    "date_created": "2025-10-27T16:06:15.000",
    "date_modified": "2025-10-27T16:06:17.000",
    "request_status": "Pending",
    "responsible_agency": "Department of Public Works",
    "final_address": "5300 BLK Saint Charles Ave",
    "address_councildis": "B",
    "status": "Pending",
    "rowid": "1236150",
    "final_x": "3667503.33326",
    "final_y": "521530.842553",
    "longitude": "-90.11260294895877",
    "latitude": "29.928446272354073",
    "geocoded_column": {
      "latitude": "29.928446272354073",
      "longitude": "-90.11260294895877"
    }
  },
  {
    "service_request": "2025-1236149",
    "request_type": "Trash/Recycling",
    "request_reason": "Order Recycling Cart",
    "date_created": "2025-10-27T16:04:31.000",
    "date_modified": "2025-10-27T16:04:33.000",
    "request_status": "Pending",
    "responsible_agency": "Department of Sanitation",
    "final_address": "4312 Banks St",
    "address_councildis": "A",
    "status": "Pending",
    "rowid": "1236149",
    "final_x": "3669418.04724",
    "final_y": "538018.373257",
    "longitude": "-90.10600110029718",
    "latitude": "29.973725353766064",
    "geocoded_column": {
      "latitude": "29.973725353766064",
      "longitude": "-90.10600110029718"
    }
  },
  {
    "service_request": "2025-1236148",
    "request_type": "Trash/Recycling",
    "request_reason": "Request a Large Item Pick Up",
    "date_created": "2025-10-27T16:01:12.000",
    "date_modified": "2025-10-27T16:01:14.000",
    "request_status": "Pending",
    "responsible_agency": "Department of Sanitation",
    "final_address": "8620 Gervais St",
    "address_councildis": "E",
    "status": "Assigned to Contractor",
    "contractor": "Waste Pro",
    "rowid": "1236148",
    "final_x": "3704029.3722",
    "final_y": "562731.296736",
    "longitude": "-89.99578080201496",
    "latitude": "30.04061174883874",
    "geocoded_column": {
      "latitude": "30.04061174883874",
      "longitude": "-89.99578080201496"
    }
  },
  {
    "service_request": "2025-1236147",
    "request_type": "Trash/Recycling",
    "request_reason": "Repair Recycling Cart",
    "date_created": "2025-10-27T16:01:01.000",
    "date_modified": "2025-10-27T16:01:03.000",
    "request_status": "Pending",
    "responsible_agency": "Department of Sanitation",
    "final_address": "2644 Barracks St",
    "address_councildis": "D",
    "status": "Pending",
    "rowid": "1236147",
    "final_x": "3678161.9268",
    "final_y": "538577.914953",
    "longitude": "-90.07836666938836",
    "latitude": "29.97500347819444",
    "geocoded_column": {
      "latitude": "29.97500347819444",
      "longitude": "-90.07836666938836"
    }
  },
  {
    "service_request": "2025-1236146",
    "request_type": "Trash/Recycling",
    "request_reason": "Repair Trash Cart",
    "date_created": "2025-10-27T16:00:11.000",
    "date_modified": "2025-10-27T16:01:27.000",
    "request_status": "Pending",
    "responsible_agency": "Department of Sanitation",
    "final_address": "2644 Barracks St",
    "address_councildis": "D",
    "status": "Assigned to Contractor",
    "contractor": "IV Waste",
    "rowid": "1236146",
    "final_x": "3678161.9268",
    "final_y": "538577.914953",
    "longitude": "-90.07836666938836",
    "latitude": "29.97500347819444",
    "geocoded_column": {
      "latitude": "29.97500347819444",
      "longitude": "-90.07836666938836"
    }
  },
  {
    "service_request": "2025-1236145",
    "request_type": "Trash/Recycling",
    "request_reason": "Request a Large Item Pick Up",
    "date_created": "2025-10-27T15:59:29.000",
    "date_modified": "2025-10-27T15:59:31.000",
    "request_status": "Pending",
    "responsible_agency": "Department of Sanitation",
    "final_address": "7632 Lady Gray St",
    "address_councildis": "E",
    "status": "Assigned to Contractor",
    "contractor": "Waste Pro",
    "rowid": "1236145",
    "final_x": "3709906.10072",
    "final_y": "565327.067682",
    "longitude": "-89.97711145174385",
    "latitude": "30.04755914551477",
    "geocoded_column": {
      "latitude": "30.04755914551477",
      "longitude": "-89.97711145174385"
    }
  },
  {
    "service_request": "2025-1236144",
    "request_type": "Trash/Recycling",
    "request_reason": "Damaged Caused By Contractor",
    "date_created": "2025-10-27T15:57:33.000",
    "date_modified": "2025-10-27T15:57:35.000",
    "request_status": "Pending",
    "responsible_agency": "Department of Sanitation",
    "final_address": "818 Pontalba St",
    "address_councildis": "A",
    "status": "Assigned to Contractor",
    "contractor": "IV Waste",
    "rowid": "1236144",
    "final_x": "3668891.41562",
    "final_y": "544341.250703",
    "longitude": "-90.10745068255744",
    "latitude": "29.99112662110928",
    "geocoded_column": {
      "latitude": "29.99112662110928",
      "longitude": "-90.10745068255744"
    }
  },
  {
    "service_request": "2025-1236143",
    "request_type": "Trash/Recycling",
    "request_reason": "Request a Large Item Pick Up",
    "date_created": "2025-10-27T15:56:30.000",
    "date_modified": "2025-10-27T15:56:32.000",
    "request_status": "Pending",
    "responsible_agency": "Department of Sanitation",
    "final_address": "6660 Coveview Ct",
    "address_councildis": "E",
    "status": "Assigned to Contractor",
    "contractor": "Waste Pro",
    "rowid": "1236143",
    "final_x": "3699364.37008",
    "final_y": "555720.202841",
    "longitude": "-90.01077942643467",
    "latitude": "30.021482851117003",
    "geocoded_column": {
      "latitude": "30.021482851117003",
      "longitude": "-90.01077942643467"
    }
  },
  {
    "service_request": "2025-1236142",
    "request_type": "Trash/Recycling",
    "request_reason": "Order Second Trash Cart",
    "date_created": "2025-10-27T15:56:00.000",
    "date_modified": "2025-10-27T15:56:02.000",
    "request_status": "Pending",
    "responsible_agency": "Department of Sanitation",
    "final_address": "200 Neil Ave",
    "address_councildis": "C",
    "status": "Assigned to Contractor",
    "contractor": "Richards Disposal",
    "rowid": "1236142",
    "final_x": "3706104.58391",
    "final_y": "518811.667063",
    "longitude": "-89.9908486982655",
    "latitude": "29.919782270363726",
    "geocoded_column": {
      "latitude": "29.919782270363726",
      "longitude": "-89.9908486982655"
    }
  },
  {
    "service_request": "2025-1236141",
    "request_type": "Trash/Recycling",
    "request_reason": "Request a Large Item Pick Up",
    "date_created": "2025-10-27T15:55:37.000",
    "date_modified": "2025-10-27T15:55:38.000",
    "request_status": "Pending",
    "responsible_agency": "Department of Sanitation",
    "final_address": "4326 Palmyra St",
    "address_councildis": "A",
    "status": "Assigned to Contractor",
    "contractor": "IV Waste",
    "rowid": "1236141",
    "final_x": "3669585.46074",
    "final_y": "538419.458377",
    "longitude": "-90.10545879661791",
    "latitude": "29.97482327109428",
    "geocoded_column": {
      "latitude": "29.97482327109428",
      "longitude": "-90.10545879661791"
    }
  },
  {
    "service_request": "2025-1236140",
    "request_type": "Health Related Request",
    "request_reason": "Homeless Encampment Complaint",
    "date_created": "2025-10-27T15:54:18.000",
    "date_modified": "2025-10-27T15:54:20.000",
    "request_status": "Pending",
    "responsible_agency": "Office Of Homeless Services And Strategy",
    "final_address": "323 Chartres St",
    "address_councildis": "C",
    "status": "Pending",
    "rowid": "1236140",
    "final_x": "3682050.16002",
    "final_y": "531252.672578",
    "longitude": "-90.06634244954392",
    "latitude": "29.954743907476047",
    "geocoded_column": {
      "latitude": "29.954743907476047",
      "longitude": "-90.06634244954392"
    }
  },
  {
    "service_request": "2025-1236139",
    "request_type": "Streetlights",
    "request_reason": "Streetlight Outage/Malfunction",
    "date_created": "2025-10-27T15:53:03.000",
    "date_modified": "2025-10-27T16:29:00.000",
    "request_status": "Pending",
    "responsible_agency": "Department of Public Works",
    "final_address": "533 Delaronde St",
    "address_councildis": "C",
    "status": "Pending",
    "rowid": "1236139",
    "final_x": "3687106.69826",
    "final_y": "531140.557698",
    "longitude": "-90.05037984517898",
    "latitude": "29.95428092312144",
    "geocoded_column": {
      "latitude": "29.95428092312144",
      "longitude": "-90.05037984517898"
    }
  },
  {
    "service_request": "2025-1236138",
    "request_type": "Trash/Recycling",
    "request_reason": "Request a Large Item Pick Up",
    "date_created": "2025-10-27T15:52:40.000",
    "date_modified": "2025-10-27T15:52:41.000",
    "request_status": "Pending",
    "responsible_agency": "Department of Sanitation",
    "final_address": "2124 Dante St",
    "address_councildis": "A",
    "status": "Assigned to Contractor",
    "contractor": "IV Waste",
    "rowid": "1236138",
    "final_x": "3663651.36295",
    "final_y": "531365.24269",
    "longitude": "-90.12443530801495",
    "latitude": "29.955600008438203",
    "geocoded_column": {
      "latitude": "29.955600008438203",
      "longitude": "-90.12443530801495"
    }
  },
  {
    "service_request": "2025-1236137",
    "request_type": "Trash/Recycling",
    "request_reason": "Missed Trash Pick-Up",
    "date_created": "2025-10-27T15:51:24.000",
    "date_modified": "2025-10-27T17:17:16.000",
    "case_close_date": "2025-10-27T12:17:15.000",
    "request_status": "Closed",
    "responsible_agency": "Department of Sanitation",
    "final_address": "2823 St Philip St",
    "address_councildis": "A",
    "status": "Invalid Request",
    "contractor": "IV Waste",
    "contractor_action": "Invalid Request",
    "rowid": "1236137",
    "final_x": "3676826.2196",
    "final_y": "538337.575305",
    "longitude": "-90.08259346484347",
    "latitude": "29.974382784067203",
    "geocoded_column": {
      "latitude": "29.974382784067203",
      "longitude": "-90.08259346484347"
    }
  },
  {
    "service_request": "2025-1236136",
    "request_type": "Healthy Homes",
    "request_reason": "Healthy Homes",
    "date_created": "2025-10-27T15:49:20.000",
    "date_modified": "2025-10-27T15:49:21.000",
    "request_status": "Pending",
    "responsible_agency": "Department of Code Enforcement",
    "final_address": "4905 Warrington Dr",
    "address_councildis": "D",
    "status": "Pending",
    "rowid": "1236136",
    "final_x": "3681177.90293",
    "final_y": "550689.378516",
    "longitude": "-90.068419185954",
    "latitude": "30.00821455345401",
    "geocoded_column": {
      "latitude": "30.00821455345401",
      "longitude": "-90.068419185954"
    }
  },
  {
    "service_request": "2025-1236135",
    "request_type": "Trash/Recycling",
    "request_reason": "Request a Large Item Pick Up",
    "date_created": "2025-10-27T15:48:41.000",
    "date_modified": "2025-10-27T15:48:44.000",
    "request_status": "Pending",
    "responsible_agency": "Department of Sanitation",
    "final_address": "2823 St Philip St",
    "address_councildis": "A",
    "status": "Assigned to Contractor",
    "contractor": "IV Waste",
    "rowid": "1236135",
    "final_x": "3676826.2196",
    "final_y": "538337.575305",
    "longitude": "-90.08259346484347",
    "latitude": "29.974382784067203",
    "geocoded_column": {
      "latitude": "29.974382784067203",
      "longitude": "-90.08259346484347"
    }
  },
  {
    "service_request": "2025-1236134",
    "request_type": "Trash/Recycling",
    "request_reason": "Request a Large Item Pick Up",
    "date_created": "2025-10-27T15:47:14.000",
    "date_modified": "2025-10-27T15:47:17.000",
    "request_status": "Pending",
    "responsible_agency": "Department of Sanitation",
    "final_address": "7130 E Renaissance Ct",
    "address_councildis": "E",
    "status": "Assigned to Contractor",
    "contractor": "Waste Pro",
    "rowid": "1236134",
    "final_x": "3717210.9212",
    "final_y": "567832.51306",
    "longitude": "-89.95392911261018",
    "latitude": "30.054208335740903",
    "geocoded_column": {
      "latitude": "30.054208335740903",
      "longitude": "-89.95392911261018"
    }
  },
  {
    "service_request": "2025-1236133",
    "request_type": "Trash/Recycling",
    "request_reason": "Request a Large Item Pick Up",
    "date_created": "2025-10-27T15:45:20.000",
    "date_modified": "2025-10-27T15:45:21.000",
    "request_status": "Pending",
    "responsible_agency": "Department of Sanitation",
    "final_address": "6100 Stratford Pl",
    "address_councildis": "C",
    "status": "Assigned to Contractor",
    "contractor": "Richards Disposal",
    "rowid": "1236133",
    "final_x": "3706415.87185",
    "final_y": "516241.454452",
    "longitude": "-89.98996123762797",
    "latitude": "29.912705043426726",
    "geocoded_column": {
      "latitude": "29.912705043426726",
      "longitude": "-89.98996123762797"
    }
  },
  {
    "service_request": "2025-1236132",
    "request_type": "Roads and Streets",
    "request_reason": "Street Subsidence (Sinking)",
    "date_created": "2025-10-27T15:44:57.000",
    "date_modified": "2025-10-27T15:44:59.000",
    "request_status": "Pending",
    "responsible_agency": "Sewerage & Water Board",
    "final_address": "625 English Turn Dr",
    "address_councildis": "C",
    "status": "Pending",
    "rowid": "1236132",
    "final_x": "3715382.65714",
    "final_y": "515809.215668",
    "longitude": "-89.96167614840944",
    "latitude": "29.911224433386455",
    "geocoded_column": {
      "latitude": "29.911224433386455",
      "longitude": "-89.96167614840944"
    }
  },
  {
    "service_request": "2025-1236131",
    "request_type": "Trash/Recycling",
    "request_reason": "Repair Trash Cart",
    "date_created": "2025-10-27T15:43:35.000",
    "date_modified": "2025-10-27T15:43:37.000",
    "request_status": "Pending",
    "responsible_agency": "Department of Sanitation",
    "final_address": "23 N Blue Ridge Ct",
    "address_councildis": "E",
    "status": "Assigned to Contractor",
    "contractor": "Waste Pro",
    "rowid": "1236131",
    "final_x": "3713946.79551",
    "final_y": "567542.333732",
    "longitude": "-89.96425709676129",
    "latitude": "30.053518102465304",
    "geocoded_column": {
      "latitude": "30.053518102465304",
      "longitude": "-89.96425709676129"
    }
  },
  {
    "service_request": "2025-1236130",
    "request_type": "Trash/Recycling",
    "request_reason": "Request a Large Item Pick Up",
    "date_created": "2025-10-27T15:42:26.000",
    "date_modified": "2025-10-27T15:42:28.000",
    "request_status": "Pending",
    "responsible_agency": "Department of Sanitation",
    "final_address": "462 Lakeshore Prkwy",
    "address_councildis": "D",
    "status": "Assigned to Contractor",
    "contractor": "IV Waste",
    "rowid": "1236130",
    "final_x": "3668259.40449",
    "final_y": "557024.030746",
    "longitude": "-90.10901900854981",
    "latitude": "30.026018407370135",
    "geocoded_column": {
      "latitude": "30.026018407370135",
      "longitude": "-90.10901900854981"
    }
  },
  {
    "service_request": "2025-1236129",
    "request_type": "Parks & Parkways",
    "request_reason": "Request Tree Service (Right of Way/Public Property)",
    "date_created": "2025-10-27T15:42:18.000",
    "date_modified": "2025-10-27T15:42:19.000",
    "request_status": "Pending",
    "responsible_agency": "Department of Parks & Parkway",
    "final_address": "23 N Blue Ridge Ct",
    "address_councildis": "E",
    "status": "Pending",
    "rowid": "1236129",
    "final_x": "3713946.79551",
    "final_y": "567542.333732",
    "longitude": "-89.96425709676129",
    "latitude": "30.053518102465304",
    "geocoded_column": {
      "latitude": "30.053518102465304",
      "longitude": "-89.96425709676129"
    }
  },
  {
    "service_request": "2025-1236128",
    "request_type": "Trash/Recycling",
    "request_reason": "Missed Trash Pick-Up",
    "date_created": "2025-10-27T15:41:04.000",
    "date_modified": "2025-10-27T16:18:52.000",
    "case_close_date": "2025-10-27T11:18:51.000",
    "request_status": "Closed",
    "responsible_agency": "Department of Sanitation",
    "final_address": "2700 Coliseum St",
    "address_councildis": "B",
    "status": "Invalid Request",
    "contractor": "IV Waste",
    "contractor_action": "Invalid",
    "rowid": "1236128",
    "final_x": "3676738.71579",
    "final_y": "521801.863226",
    "longitude": "-90.08343948429898",
    "latitude": "29.928917720290855",
    "geocoded_column": {
      "latitude": "29.928917720290855",
      "longitude": "-90.08343948429898"
    }
  },
  {
    "service_request": "2025-1236127",
    "request_type": "Trash/Recycling",
    "request_reason": "Order Second Trash Cart",
    "date_created": "2025-10-27T15:39:49.000",
    "date_modified": "2025-10-27T15:39:51.000",
    "request_status": "Pending",
    "responsible_agency": "Department of Sanitation",
    "final_address": "1021 Wilson Dr",
    "address_councildis": "A",
    "status": "Assigned to Contractor",
    "contractor": "IV Waste",
    "rowid": "1236127",
    "final_x": "3674392.06894",
    "final_y": "540649.353867",
    "longitude": "-90.09020189136714",
    "latitude": "29.980812218406793",
    "geocoded_column": {
      "latitude": "29.980812218406793",
      "longitude": "-90.09020189136714"
    }
  },
  {
    "service_request": "2025-1236126",
    "request_type": "Trash/Recycling",
    "request_reason": "Return Trash Cart",
    "date_created": "2025-10-27T15:37:53.000",
    "date_modified": "2025-10-27T15:37:55.000",
    "request_status": "Pending",
    "responsible_agency": "Department of Sanitation",
    "final_address": "809 Toledano St",
    "address_councildis": "B",
    "status": "Assigned to Contractor",
    "contractor": "IV Waste",
    "rowid": "1236126",
    "final_x": "3675836.92379",
    "final_y": "518876.207991",
    "longitude": "-90.08638676989925",
    "latitude": "29.920900130829004",
    "geocoded_column": {
      "latitude": "29.920900130829004",
      "longitude": "-90.08638676989925"
    }
  },
  {
    "service_request": "2025-1236125",
    "request_type": "Abandoned Vehicles",
    "request_reason": "Abandoned/Junk Vehicles",
    "date_created": "2025-10-27T15:33:33.000",
    "date_modified": "2025-10-27T15:33:35.000",
    "request_status": "Pending",
    "responsible_agency": "Department of Public Works",
    "final_address": "7137 W Tamaron Blvd",
    "address_councildis": "E",
    "status": "Pending",
    "rowid": "1236125",
    "final_x": "3718297.77714",
    "final_y": "568892.661477",
    "longitude": "-89.95045341700325",
    "latitude": "30.05708728444522",
    "geocoded_column": {
      "latitude": "30.05708728444522",
      "longitude": "-89.95045341700325"
    }
  },
  {
    "service_request": "2025-1236124",
    "request_type": "Parks & Parkways",
    "request_reason": "Request Tree Service (Right of Way/Public Property)",
    "date_created": "2025-10-27T15:31:07.000",
    "date_modified": "2025-10-27T16:00:44.000",
    "request_status": "Pending",
    "responsible_agency": "Department of Parks & Parkway",
    "final_address": "5911 Tullis Dr",
    "address_councildis": "C",
    "status": "Pending",
    "rowid": "1236124",
    "final_x": "3706088.81419",
    "final_y": "513364.145138",
    "longitude": "-89.99109989804215",
    "latitude": "29.90480396979497",
    "geocoded_column": {
      "latitude": "29.90480396979497",
      "longitude": "-89.99109989804215"
    }
  },
  {
    "service_request": "2025-1236123",
    "request_type": "Trash/Recycling",
    "request_reason": "Repair Trash Cart",
    "date_created": "2025-10-27T15:30:40.000",
    "date_modified": "2025-10-27T15:30:42.000",
    "request_status": "Pending",
    "responsible_agency": "Department of Sanitation",
    "final_address": "3507 Frenchmen St",
    "address_councildis": "D",
    "status": "Assigned to Contractor",
    "contractor": "IV Waste",
    "rowid": "1236123",
    "final_x": "3683891.42543",
    "final_y": "545552.236496",
    "longitude": "-90.06002669488763",
    "latitude": "29.99400661458926",
    "geocoded_column": {
      "latitude": "29.99400661458926",
      "longitude": "-90.06002669488763"
    }
  },
  {
    "service_request": "2025-1236122",
    "request_type": "Trash/Recycling",
    "request_reason": "Request a Large Item Pick Up",
    "date_created": "2025-10-27T15:21:17.000",
    "date_modified": "2025-10-27T15:21:19.000",
    "request_status": "Pending",
    "responsible_agency": "Department of Sanitation",
    "final_address": "11301 N Parkwood Ct",
    "address_councildis": "E",
    "status": "Assigned to Contractor",
    "contractor": "Waste Pro",
    "rowid": "1236122",
    "final_x": "3716721.29413",
    "final_y": "559448.085149",
    "longitude": "-89.95579528942235",
    "latitude": "30.031170765557768",
    "geocoded_column": {
      "latitude": "30.031170765557768",
      "longitude": "-89.95579528942235"
    }
  },
  {
    "service_request": "2025-1236121",
    "request_type": "Trash/Recycling",
    "request_reason": "Request a Large Item Pick Up",
    "date_created": "2025-10-27T15:17:07.000",
    "date_modified": "2025-10-27T15:17:08.000",
    "request_status": "Pending",
    "responsible_agency": "Department of Sanitation",
    "final_address": "1915 Mirabeau Ave",
    "address_councildis": "D",
    "status": "Assigned to Contractor",
    "contractor": "IV Waste",
    "rowid": "1236121",
    "final_x": "3681712.87503",
    "final_y": "550665.03906",
    "longitude": "-90.06672989514",
    "latitude": "30.00813137944934",
    "geocoded_column": {
      "latitude": "30.00813137944934",
      "longitude": "-90.06672989514"
    }
  },
  {
    "service_request": "2025-1236120",
    "request_type": "Utility Poles",
    "request_reason": "Wires Sagging/Hanging Low",
    "date_created": "2025-10-27T15:14:06.000",
    "date_modified": "2025-10-27T15:14:08.000",
    "request_status": "Pending",
    "responsible_agency": "Utility Company Collective",
    "final_address": "4645 Lynhuber Dr",
    "address_councildis": "D",
    "status": "Pending",
    "rowid": "1236120",
    "final_x": "3698142.97501",
    "final_y": "553829.897559",
    "longitude": "-90.01470741653881",
    "latitude": "30.016323935266243",
    "geocoded_column": {
      "latitude": "30.016323935266243",
      "longitude": "-90.01470741653881"
    }
  },
  {
    "service_request": "2025-1236119",
    "request_type": "Trash/Recycling",
    "request_reason": "MIssed Recycling Pick-Up",
    "date_created": "2025-10-27T15:13:26.000",
    "date_modified": "2025-10-27T15:43:59.000",
    "case_close_date": "2025-10-27T10:43:58.000",
    "request_status": "Closed",
    "responsible_agency": "Department of Sanitation",
    "final_address": "700 Nashville Ave",
    "address_councildis": "A",
    "status": "Invalid Request",
    "contractor": "IV Waste",
    "contractor_action": "Invalid",
    "rowid": "1236119",
    "final_x": "3665409.43188",
    "final_y": "518715.740087",
    "longitude": "-90.11930712608606",
    "latitude": "29.92076679830916",
    "geocoded_column": {
      "latitude": "29.92076679830916",
      "longitude": "-90.11930712608606"
    }
  },
  {
    "service_request": "2025-1236118",
    "request_type": "Trash/Recycling",
    "request_reason": "Request a Large Item Pick Up",
    "date_created": "2025-10-27T15:11:40.000",
    "date_modified": "2025-10-27T15:11:42.000",
    "request_status": "Pending",
    "responsible_agency": "Department of Sanitation",
    "final_address": "5140 Arts St",
    "address_councildis": "D",
    "status": "Assigned to Contractor",
    "contractor": "IV Waste",
    "rowid": "1236118",
    "final_x": "3685743.19119",
    "final_y": "551964.821078",
    "longitude": "-90.05395106772885",
    "latitude": "30.011582191519363",
    "geocoded_column": {
      "latitude": "30.011582191519363",
      "longitude": "-90.05395106772885"
    }
  },
  {
    "service_request": "2025-1236117",
    "request_type": "Trash/Recycling",
    "request_reason": "Request a Large Item Pick Up",
    "date_created": "2025-10-27T15:09:47.000",
    "date_modified": "2025-10-27T15:09:49.000",
    "request_status": "Pending",
    "responsible_agency": "Department of Sanitation",
    "final_address": "7740 Shaw Ave",
    "address_councildis": "E",
    "status": "Assigned to Contractor",
    "contractor": "Waste Pro",
    "rowid": "1236117",
    "final_x": "3706943.62782",
    "final_y": "564620.884065",
    "longitude": "-89.98650066491697",
    "latitude": "30.045713502330837",
    "geocoded_column": {
      "latitude": "30.045713502330837",
      "longitude": "-89.98650066491697"
    }
  },
  {
    "service_request": "2025-1236116",
    "request_type": "Trash/Recycling",
    "request_reason": "Request a Large Item Pick Up",
    "date_created": "2025-10-27T15:00:59.000",
    "date_modified": "2025-10-27T15:01:01.000",
    "request_status": "Pending",
    "responsible_agency": "Department of Sanitation",
    "final_address": "8532 Gervais St",
    "address_councildis": "E",
    "status": "Assigned to Contractor",
    "contractor": "Waste Pro",
    "rowid": "1236116",
    "final_x": "3703832.67882",
    "final_y": "562632.84176",
    "longitude": "-89.99640604467133",
    "latitude": "30.04034734816663",
    "geocoded_column": {
      "latitude": "30.04034734816663",
      "longitude": "-89.99640604467133"
    }
  },
  {
    "service_request": "2025-1236115",
    "request_type": "Healthy Homes",
    "request_reason": "Healthy Homes",
    "date_created": "2025-10-27T14:59:01.000",
    "date_modified": "2025-10-27T14:59:03.000",
    "request_status": "Pending",
    "responsible_agency": "Department of Code Enforcement",
    "final_address": "3125 N Villere St",
    "address_councildis": "C",
    "status": "Pending",
    "rowid": "1236115",
    "final_x": "3689496.02499",
    "final_y": "537095.01172",
    "longitude": "-90.04262353861344",
    "latitude": "29.97057982024269",
    "geocoded_column": {
      "latitude": "29.97057982024269",
      "longitude": "-90.04262353861344"
    }
  },
  {
    "service_request": "2025-1236114",
    "request_type": "Trash/Recycling",
    "request_reason": "Request a Large Item Pick Up",
    "date_created": "2025-10-27T14:56:45.000",
    "date_modified": "2025-10-27T14:56:46.000",
    "request_status": "Pending",
    "responsible_agency": "Department of Sanitation",
    "final_address": "1544 Holiday Pl",
    "address_councildis": "C",
    "status": "Assigned to Contractor",
    "contractor": "Richards Disposal",
    "rowid": "1236114",
    "final_x": "3699014.94461",
    "final_y": "525372.682045",
    "longitude": "-90.01298844140052",
    "latitude": "29.938049296227934",
    "geocoded_column": {
      "latitude": "29.938049296227934",
      "longitude": "-90.01298844140052"
    }
  },
  {
    "service_request": "2025-1236113",
    "request_type": "Healthy Homes",
    "request_reason": "Healthy Homes",
    "date_created": "2025-10-27T14:56:35.000",
    "date_modified": "2025-10-27T15:06:57.000",
    "case_close_date": "2025-10-27T10:06:56.000",
    "request_status": "Closed",
    "responsible_agency": "Department of Code Enforcement",
    "final_address": "15018 Emory Rd",
    "address_councildis": "E",
    "status": "Referred to Code Enforcement",
    "rowid": "1236113",
    "final_x": "3721073.05874",
    "final_y": "574044.966186",
    "longitude": "-89.94148344305063",
    "latitude": "30.07116156836555",
    "geocoded_column": {
      "latitude": "30.07116156836555",
      "longitude": "-89.94148344305063"
    }
  },
  {
    "service_request": "2025-1236112",
    "request_type": "Abandoned Vehicles",
    "request_reason": "Abandoned/Junk Vehicles",
    "date_created": "2025-10-27T14:54:38.000",
    "date_modified": "2025-10-27T14:54:39.000",
    "request_status": "Pending",
    "responsible_agency": "Department of Public Works",
    "final_address": "3133 Louisiana Avenue Prkwy",
    "address_councildis": "B",
    "status": "Pending",
    "rowid": "1236112",
    "final_x": "3672047.23809",
    "final_y": "526849.69587",
    "longitude": "-90.09807778393018",
    "latitude": "29.942937505903103",
    "geocoded_column": {
      "latitude": "29.942937505903103",
      "longitude": "-90.09807778393018"
    }
  },
  {
    "service_request": "2025-1236111",
    "request_type": "Drainage",
    "request_reason": "Catch Basin Not Draining",
    "date_created": "2025-10-27T14:54:02.000",
    "date_modified": "2025-10-27T14:54:04.000",
    "request_status": "Pending",
    "responsible_agency": "Sewerage & Water Board",
    "final_address": "1535 Franklin Ave",
    "address_councildis": "C",
    "status": "Pending",
    "rowid": "1236111",
    "final_x": "3687733.14467",
    "final_y": "538225.755081",
    "longitude": "-90.04815085405225",
    "latitude": "29.973743451600683",
    "geocoded_column": {
      "latitude": "29.973743451600683",
      "longitude": "-90.04815085405225"
    }
  },
  {
    "service_request": "2025-1236110",
    "request_type": "Trash/Recycling",
    "request_reason": "Order Second Trash Cart",
    "date_created": "2025-10-27T14:49:34.000",
    "date_modified": "2025-10-27T14:51:39.000",
    "request_status": "Pending",
    "responsible_agency": "Department of Sanitation",
    "final_address": "1708 Flood St",
    "address_councildis": "E",
    "status": "Assigned to Contractor",
    "contractor": "Waste Pro",
    "rowid": "1236110",
    "final_x": "3698288.96701",
    "final_y": "536179.590535",
    "longitude": "-90.01488782549322",
    "latitude": "29.96778746748099",
    "geocoded_column": {
      "latitude": "29.96778746748099",
      "longitude": "-90.01488782549322"
    }
  },
  {
    "service_request": "2025-1236109",
    "request_type": "Health Related Request",
    "request_reason": "Homeless Encampment Complaint",
    "date_created": "2025-10-27T14:48:06.000",
    "date_modified": "2025-10-27T14:48:07.000",
    "request_status": "Pending",
    "responsible_agency": "Office Of Homeless Services And Strategy",
    "final_address": "HOWARD AVE & OKEEFE AVE & DRYADES ST & OKEEFE EXIT & ST JOSEPH ST",
    "address_councildis": "B",
    "status": "Pending",
    "rowid": "1236109",
    "final_x": "3679047.9",
    "final_y": "527837.58",
    "longitude": "-90.07594076846051",
    "latitude": "29.945444485745654",
    "geocoded_column": {
      "latitude": "29.945444485745654",
      "longitude": "-90.07594076846051"
    }
  },
  {
    "service_request": "2025-1236108",
    "request_type": "Abandoned Vehicles",
    "request_reason": "Abandoned/Junk Vehicles",
    "date_created": "2025-10-27T14:47:06.000",
    "date_modified": "2025-10-27T14:47:08.000",
    "request_status": "Pending",
    "responsible_agency": "Department of Public Works",
    "final_address": "5015 LaSalle St",
    "address_councildis": "B",
    "status": "Pending",
    "rowid": "1236108",
    "final_x": "3668668.30791",
    "final_y": "523606.462587",
    "longitude": "-90.10885534411386",
    "latitude": "29.934119386272908",
    "geocoded_column": {
      "latitude": "29.934119386272908",
      "longitude": "-90.10885534411386"
    }
  },
  {
    "service_request": "2025-1236107",
    "request_type": "Trash/Recycling",
    "request_reason": "Request a Large Item Pick Up",
    "date_created": "2025-10-27T14:45:22.000",
    "date_modified": "2025-10-27T14:45:24.000",
    "request_status": "Pending",
    "responsible_agency": "Department of Sanitation",
    "final_address": "7620 Weaver Ave",
    "address_councildis": "E",
    "status": "Assigned to Contractor",
    "contractor": "Waste Pro",
    "rowid": "1236107",
    "final_x": "3707354.56369",
    "final_y": "564384.512609",
    "longitude": "-89.9852107040684",
    "latitude": "30.04505028765451",
    "geocoded_column": {
      "latitude": "30.04505028765451",
      "longitude": "-89.9852107040684"
    }
  },
  {
    "service_request": "2025-1236106",
    "request_type": "Trash/Recycling",
    "request_reason": "Request a Large Item Pick Up",
    "date_created": "2025-10-27T14:41:17.000",
    "date_modified": "2025-10-27T14:41:26.000",
    "request_status": "Pending",
    "responsible_agency": "Department of Sanitation",
    "final_address": "417 39Th St",
    "address_councildis": "A",
    "status": "Assigned to Contractor",
    "contractor": "IV Waste",
    "rowid": "1236106",
    "final_x": "3664893.80397",
    "final_y": "553098.250007",
    "longitude": "-90.1197853038416",
    "latitude": "30.015322343338134",
    "geocoded_column": {
      "latitude": "30.015322343338134",
      "longitude": "-90.1197853038416"
    }
  },
  {
    "service_request": "2025-1236105",
    "request_type": "Trash/Recycling",
    "request_reason": "Illegal Dumping",
    "date_created": "2025-10-27T14:38:33.000",
    "date_modified": "2025-10-27T14:38:34.000",
    "request_status": "Pending",
    "responsible_agency": "Department of Sanitation",
    "final_address": "1 Duplessis St",
    "address_councildis": "D",
    "status": "Pending",
    "rowid": "1236105",
    "final_x": "3678248.9515",
    "final_y": "547390.479569",
    "longitude": "-90.07778685195512",
    "latitude": "29.999232334863333",
    "geocoded_column": {
      "latitude": "29.999232334863333",
      "longitude": "-90.07778685195512"
    }
  },
  {
    "service_request": "2025-1236104",
    "request_type": "Parks & Parkways",
    "request_reason": "Park Maintenance/Clean Up",
    "date_created": "2025-10-27T14:37:57.000",
    "date_modified": "2025-10-27T14:39:21.000",
    "request_status": "Pending",
    "responsible_agency": "Department of Parks & Parkway",
    "final_address": "3000 BLK Wall Blvd",
    "address_councildis": "C",
    "status": "Pending",
    "rowid": "1236104",
    "final_x": "3695196.83299",
    "final_y": "523930.809538",
    "longitude": "-90.02509446904338",
    "latitude": "29.93420506374631",
    "geocoded_column": {
      "latitude": "29.93420506374631",
      "longitude": "-90.02509446904338"
    }
  },
  {
    "service_request": "2025-1236103",
    "request_type": "Abandoned Vehicles",
    "request_reason": "Abandoned/Junk Vehicles",
    "date_created": "2025-10-27T14:31:12.000",
    "date_modified": "2025-10-27T14:36:29.000",
    "request_status": "Pending",
    "responsible_agency": "Department of Public Works",
    "final_address": "300 BLK Leboeuf St",
    "address_councildis": "C",
    "status": "Inspected",
    "rowid": "1236103",
    "final_x": "3689875.17533",
    "final_y": "530468.734454",
    "longitude": "-90.041662039807",
    "latitude": "29.9523481180046",
    "geocoded_column": {
      "latitude": "29.9523481180046",
      "longitude": "-90.041662039807"
    }
  },
  {
    "service_request": "2025-1236102",
    "request_type": "Trash/Recycling",
    "request_reason": "Request a Large Item Pick Up",
    "date_created": "2025-10-27T14:29:27.000",
    "date_modified": "2025-10-27T14:29:29.000",
    "request_status": "Pending",
    "responsible_agency": "Department of Sanitation",
    "final_address": "1034 Milan St",
    "address_councildis": "B",
    "status": "Assigned to Contractor",
    "contractor": "IV Waste",
    "rowid": "1236102",
    "final_x": "3671699.18126",
    "final_y": "519502.728631",
    "longitude": "-90.09942647602084",
    "latitude": "29.9227460282912",
    "geocoded_column": {
      "latitude": "29.9227460282912",
      "longitude": "-90.09942647602084"
    }
  },
  {
    "service_request": "2025-1236101",
    "request_type": "Abandoned Vehicles",
    "request_reason": "Abandoned/Junk Vehicles",
    "date_created": "2025-10-27T14:25:13.000",
    "date_modified": "2025-10-27T14:25:58.000",
    "request_status": "Pending",
    "responsible_agency": "Department of Public Works",
    "final_address": "541 S Olympia St",
    "address_councildis": "A",
    "status": "Pending",
    "rowid": "1236101",
    "final_x": "3668187.08717",
    "final_y": "538136.237577",
    "longitude": "-90.1098847773385",
    "latitude": "29.974085638103784",
    "geocoded_column": {
      "latitude": "29.974085638103784",
      "longitude": "-90.1098847773385"
    }
  },
  {
    "service_request": "2025-1236100",
    "request_type": "Trash/Recycling",
    "request_reason": "Request a Large Item Pick Up",
    "date_created": "2025-10-27T14:23:57.000",
    "date_modified": "2025-10-27T14:23:59.000",
    "request_status": "Pending",
    "responsible_agency": "Department of Sanitation",
    "final_address": "13228 St Helena Pl",
    "address_councildis": "E",
    "status": "Assigned to Contractor",
    "contractor": "Waste Pro",
    "rowid": "1236100",
    "final_x": "3726854.71795",
    "final_y": "564386.342113",
    "longitude": "-89.9235818023424",
    "latitude": "30.04441006485853",
    "geocoded_column": {
      "latitude": "30.04441006485853",
      "longitude": "-89.9235818023424"
    }
  },
  {
    "service_request": "2025-1236099",
    "request_type": "Trash/Recycling",
    "request_reason": "Request a Large Item Pick Up",
    "date_created": "2025-10-27T14:23:07.000",
    "date_modified": "2025-10-27T14:23:09.000",
    "request_status": "Pending",
    "responsible_agency": "Department of Sanitation",
    "final_address": "24 Honeysuckle Ln",
    "address_councildis": "E",
    "status": "Assigned to Contractor",
    "contractor": "Waste Pro",
    "rowid": "1236099",
    "final_x": "3712961.00754",
    "final_y": "568464.182373",
    "longitude": "-89.96733815201188",
    "latitude": "30.0560851586808",
    "geocoded_column": {
      "latitude": "30.0560851586808",
      "longitude": "-89.96733815201188"
    }
  },
  {
    "service_request": "2025-1236098",
    "request_type": "Streetlights",
    "request_reason": "Streetlight Outage/Malfunction",
    "date_created": "2025-10-27T14:20:45.000",
    "date_modified": "2025-10-27T14:30:58.000",
    "request_status": "Pending",
    "responsible_agency": "Department of Public Works",
    "final_address": "1524 Basin St",
    "address_councildis": "C",
    "status": "Pending",
    "rowid": "1236098",
    "final_x": "3680174.80405",
    "final_y": "534381.180165",
    "longitude": "-90.07215537214493",
    "latitude": "29.963403126453095",
    "geocoded_column": {
      "latitude": "29.963403126453095",
      "longitude": "-90.07215537214493"
    }
  },
  {
    "service_request": "2025-1236097",
    "request_type": "Trash/Recycling",
    "request_reason": "Request a Large Item Pick Up",
    "date_created": "2025-10-27T14:18:16.000",
    "date_modified": "2025-10-27T14:18:19.000",
    "request_status": "Pending",
    "responsible_agency": "Department of Sanitation",
    "final_address": "9824 Morrison Rd",
    "address_councildis": "E",
    "status": "Assigned to Contractor",
    "contractor": "Waste Pro",
    "rowid": "1236097",
    "final_x": "3707854.94129",
    "final_y": "562894.760864",
    "longitude": "-89.9836847445334",
    "latitude": "30.040937867419387",
    "geocoded_column": {
      "latitude": "30.040937867419387",
      "longitude": "-89.9836847445334"
    }
  },
  {
    "service_request": "2025-1236096",
    "request_type": "General Services",
    "request_reason": "General Service Request",
    "date_created": "2025-10-27T14:15:43.000",
    "date_modified": "2025-10-27T14:15:45.000",
    "request_status": "Pending",
    "responsible_agency": "Orleans Parish Communication District",
    "final_address": "1 Duplessis St",
    "address_councildis": "D",
    "status": "Pending",
    "rowid": "1236096",
    "final_x": "3678248.9515",
    "final_y": "547390.479569",
    "longitude": "-90.07778685195512",
    "latitude": "29.999232334863333",
    "geocoded_column": {
      "latitude": "29.999232334863333",
      "longitude": "-90.07778685195512"
    }
  },
  {
    "service_request": "2025-1236095",
    "request_type": "Parks & Parkways",
    "request_reason": "Request Tree Service (Right of Way/Public Property)",
    "date_created": "2025-10-27T14:12:17.000",
    "date_modified": "2025-10-27T14:12:19.000",
    "request_status": "Pending",
    "responsible_agency": "Department of Parks & Parkway",
    "final_address": "1603 S Rendon St",
    "address_councildis": "B",
    "status": "Pending",
    "rowid": "1236095",
    "final_x": "3669768.59278",
    "final_y": "531052.97197",
    "longitude": "-90.10512979338195",
    "latitude": "29.954562489088413",
    "geocoded_column": {
      "latitude": "29.954562489088413",
      "longitude": "-90.10512979338195"
    }
  },
  {
    "service_request": "2025-1236094",
    "request_type": "Utility Poles",
    "request_reason": "Wires Sagging/Hanging Low",
    "date_created": "2025-10-27T14:11:04.000",
    "date_modified": "2025-10-27T14:11:09.000",
    "request_status": "Pending",
    "responsible_agency": "Utility Company Collective",
    "final_address": "2428 Lapeyrouse St",
    "address_councildis": "D",
    "status": "Pending",
    "rowid": "1236094",
    "final_x": "3679712.41371",
    "final_y": "539621.511626",
    "longitude": "-90.07343359328007",
    "latitude": "29.977826223810947",
    "geocoded_column": {
      "latitude": "29.977826223810947",
      "longitude": "-90.07343359328007"
    }
  },
  {
    "service_request": "2025-1236093",
    "request_type": "Trash/Recycling",
    "request_reason": "Replace Trash Cart",
    "date_created": "2025-10-27T14:07:36.000",
    "date_modified": "2025-10-27T14:07:41.000",
    "request_status": "Pending",
    "responsible_agency": "Department of Sanitation",
    "final_address": "2824 Banks St",
    "address_councildis": "B",
    "status": "Assigned to Contractor",
    "contractor": "IV Waste",
    "rowid": "1236093",
    "final_x": "3673928.25108",
    "final_y": "534593.843142",
    "longitude": "-90.09187405535498",
    "latitude": "29.964175447565403",
    "geocoded_column": {
      "latitude": "29.964175447565403",
      "longitude": "-90.09187405535498"
    }
  },
  {
    "service_request": "2025-1236092",
    "request_type": "Trash/Recycling",
    "request_reason": "Request a Large Item Pick Up",
    "date_created": "2025-10-27T14:04:57.000",
    "date_modified": "2025-10-27T14:04:59.000",
    "request_status": "Pending",
    "responsible_agency": "Department of Sanitation",
    "final_address": "1019 Louisiana Ave",
    "address_councildis": "B",
    "status": "Assigned to Contractor",
    "contractor": "IV Waste",
    "rowid": "1236092",
    "final_x": "3675187.12603",
    "final_y": "519477.683127",
    "longitude": "-90.08841726119805",
    "latitude": "29.922573422059088",
    "geocoded_column": {
      "latitude": "29.922573422059088",
      "longitude": "-90.08841726119805"
    }
  },
  {
    "service_request": "2025-1236091",
    "request_type": "Abandoned Vehicles",
    "request_reason": "Abandoned/Junk Vehicles",
    "date_created": "2025-10-27T13:53:10.000",
    "date_modified": "2025-10-27T13:53:12.000",
    "request_status": "Pending",
    "responsible_agency": "Department of Public Works",
    "final_address": "2509 Bienville Ave",
    "address_councildis": "B",
    "status": "Pending",
    "rowid": "1236091",
    "final_x": "3676572.69806",
    "final_y": "535243.598662",
    "longitude": "-90.08350073017301",
    "latitude": "29.96588300908762",
    "geocoded_column": {
      "latitude": "29.96588300908762",
      "longitude": "-90.08350073017301"
    }
  },
  {
    "service_request": "2025-1236090",
    "request_type": "Roads and Streets",
    "request_reason": "Pothole",
    "date_created": "2025-10-27T13:49:34.000",
    "date_modified": "2025-10-27T13:49:35.000",
    "request_status": "Pending",
    "responsible_agency": "Department of Public Works",
    "final_address": "1320 Clouet St",
    "address_councildis": "C",
    "status": "Pending",
    "rowid": "1236090",
    "final_x": "3689190.42281",
    "final_y": "536898.3938",
    "longitude": "-90.04359565238873",
    "latitude": "29.970048651906122",
    "geocoded_column": {
      "latitude": "29.970048651906122",
      "longitude": "-90.04359565238873"
    }
  },
  {
    "service_request": "2025-1236089",
    "request_type": "Trash/Recycling",
    "request_reason": "Replace Trash Cart",
    "date_created": "2025-10-27T13:48:59.000",
    "date_modified": "2025-10-27T13:49:01.000",
    "request_status": "Pending",
    "responsible_agency": "Department of Sanitation",
    "final_address": "2001 Bodenger Blvd",
    "address_councildis": "C",
    "status": "Assigned to Contractor",
    "contractor": "Richards Disposal",
    "rowid": "1236089",
    "final_x": "3688368.79094",
    "final_y": "524559.52262",
    "longitude": "-90.04662801962698",
    "latitude": "29.936146404429408",
    "geocoded_column": {
      "latitude": "29.936146404429408",
      "longitude": "-90.04662801962698"
    }
  },
  {
    "service_request": "2025-1236088",
    "request_type": "Streetlights",
    "request_reason": "Streetlight Outage/Malfunction",
    "date_created": "2025-10-27T13:48:39.000",
    "date_modified": "2025-10-27T13:49:23.000",
    "request_status": "Pending",
    "responsible_agency": "Department of Public Works",
    "final_address": "7712 Jeannette St",
    "address_councildis": "A",
    "status": "Pending",
    "rowid": "1236088",
    "final_x": "3663638.33722",
    "final_y": "528215.278912",
    "longitude": "-90.12458136462105",
    "latitude": "29.946939002914423",
    "geocoded_column": {
      "latitude": "29.946939002914423",
      "longitude": "-90.12458136462105"
    }
  },
  {
    "service_request": "2025-1236087",
    "request_type": "Streetlights",
    "request_reason": "Streetlight Outage/Malfunction",
    "date_created": "2025-10-27T13:43:16.000",
    "date_modified": "2025-10-27T13:43:18.000",
    "request_status": "Pending",
    "responsible_agency": "Department of Public Works",
    "final_address": "3337 Desaix Blvd",
    "address_councildis": "D",
    "status": "Pending",
    "rowid": "1236087",
    "final_x": "3677305.4043",
    "final_y": "543733.443022",
    "longitude": "-90.08089381662316",
    "latitude": "29.9892051626595",
    "geocoded_column": {
      "latitude": "29.9892051626595",
      "longitude": "-90.08089381662316"
    }
  },
  {
    "service_request": "2025-1236086",
    "request_type": "Trash/Recycling",
    "request_reason": "Order Trash Cart",
    "date_created": "2025-10-27T13:42:36.000",
    "date_modified": "2025-10-27T13:42:37.000",
    "request_status": "Pending",
    "responsible_agency": "Department of Sanitation",
    "final_address": "2416 Monroe St",
    "address_councildis": "A",
    "status": "Assigned to Contractor",
    "contractor": "IV Waste",
    "rowid": "1236086",
    "final_x": "3663410.47226",
    "final_y": "533185.782404",
    "longitude": "-90.12513534374021",
    "latitude": "29.96061288645294",
    "geocoded_column": {
      "latitude": "29.96061288645294",
      "longitude": "-90.12513534374021"
    }
  },
  {
    "service_request": "2025-1236085",
    "request_type": "Trash/Recycling",
    "request_reason": "Request a Large Item Pick Up",
    "date_created": "2025-10-27T13:42:20.000",
    "date_modified": "2025-10-27T13:42:22.000",
    "request_status": "Pending",
    "responsible_agency": "Department of Sanitation",
    "final_address": "4445 Skyview Dr",
    "address_councildis": "D",
    "status": "Assigned to Contractor",
    "contractor": "Waste Pro",
    "rowid": "1236085",
    "final_x": "3696881.10787",
    "final_y": "552810.048022",
    "longitude": "-90.01873131552532",
    "latitude": "30.013559601399653",
    "geocoded_column": {
      "latitude": "30.013559601399653",
      "longitude": "-90.01873131552532"
    }
  },
  {
    "service_request": "2025-1236084",
    "request_type": "Streetlights",
    "request_reason": "Streetlight Outage/Malfunction",
    "date_created": "2025-10-27T13:38:48.000",
    "date_modified": "2025-10-27T13:38:50.000",
    "request_status": "Pending",
    "responsible_agency": "Department of Public Works",
    "final_address": "5243 Beaucaire St",
    "address_councildis": "E",
    "status": "Pending",
    "rowid": "1236084",
    "final_x": "3724518.13004",
    "final_y": "562685.43888",
    "longitude": "-89.93103216561582",
    "latitude": "30.03981212172812",
    "geocoded_column": {
      "latitude": "30.03981212172812",
      "longitude": "-89.93103216561582"
    }
  },
  {
    "service_request": "2025-1236083",
    "request_type": "Trash/Recycling",
    "request_reason": "Request a Large Item Pick Up",
    "date_created": "2025-10-27T13:37:47.000",
    "date_modified": "2025-10-27T13:37:49.000",
    "request_status": "Pending",
    "responsible_agency": "Department of Sanitation",
    "final_address": "8512 Gervais St",
    "address_councildis": "E",
    "status": "Assigned to Contractor",
    "contractor": "Waste Pro",
    "rowid": "1236083",
    "final_x": "3703718.08414",
    "final_y": "562581.2072",
    "longitude": "-89.99677010198904",
    "latitude": "30.040209049342963",
    "geocoded_column": {
      "latitude": "30.040209049342963",
      "longitude": "-89.99677010198904"
    }
  },
  {
    "service_request": "2025-1236082",
    "request_type": "Trash/Recycling",
    "request_reason": "Request a Large Item Pick Up",
    "date_created": "2025-10-27T13:34:39.000",
    "date_modified": "2025-10-27T13:34:41.000",
    "request_status": "Pending",
    "responsible_agency": "Department of Sanitation",
    "final_address": "2121 Brutus St",
    "address_councildis": "D",
    "status": "Assigned to Contractor",
    "contractor": "IV Waste",
    "rowid": "1236082",
    "final_x": "3683294.41224",
    "final_y": "550298.512404",
    "longitude": "-90.0617461914508",
    "latitude": "30.007075399149997",
    "geocoded_column": {
      "latitude": "30.007075399149997",
      "longitude": "-90.0617461914508"
    }
  },
  {
    "service_request": "2025-1236081",
    "request_type": "Trash/Recycling",
    "request_reason": "Repair Trash Cart",
    "date_created": "2025-10-27T13:33:33.000",
    "date_modified": "2025-10-27T13:36:45.000",
    "request_status": "Pending",
    "responsible_agency": "Department of Sanitation",
    "final_address": "10910 Chef Menteur Hwy Trlr F11",
    "address_councildis": "E",
    "status": "Assigned to Contractor",
    "contractor": "Waste Pro",
    "rowid": "1236081",
    "final_x": "3716177.36536",
    "final_y": "555349.837849",
    "longitude": "-89.95766958465927",
    "latitude": "30.019920186853433",
    "geocoded_column": {
      "latitude": "30.019920186853433",
      "longitude": "-89.95766958465927"
    }
  },
  {
    "service_request": "2025-1236080",
    "request_type": "Trash/Recycling",
    "request_reason": "Request a Large Item Pick Up",
    "date_created": "2025-10-27T13:29:15.000",
    "date_modified": "2025-10-27T13:30:10.000",
    "request_status": "Pending",
    "responsible_agency": "Department of Sanitation",
    "final_address": "5919 West End Blvd",
    "address_councildis": "A",
    "status": "Assigned to Contractor",
    "contractor": "IV Waste",
    "rowid": "1236080",
    "final_x": "3666518.69415",
    "final_y": "547315.600017",
    "longitude": "-90.11484567719323",
    "latitude": "29.99937464808035",
    "geocoded_column": {
      "latitude": "29.99937464808035",
      "longitude": "-90.11484567719323"
    }
  },
  {
    "service_request": "2025-1236079",
    "request_type": "Trash/Recycling",
    "request_reason": "Request a Large Item Pick Up",
    "date_created": "2025-10-27T13:25:22.000",
    "date_modified": "2025-10-27T13:25:24.000",
    "request_status": "Pending",
    "responsible_agency": "Department of Sanitation",
    "final_address": "239 Nashville Ave",
    "address_councildis": "A",
    "status": "Assigned to Contractor",
    "contractor": "IV Waste",
    "rowid": "1236079",
    "final_x": "3665188.96589",
    "final_y": "517213.568757",
    "longitude": "-90.12005324650185",
    "latitude": "29.916642717122908",
    "geocoded_column": {
      "latitude": "29.916642717122908",
      "longitude": "-90.12005324650185"
    }
  },
  {
    "service_request": "2025-1236078",
    "request_type": "Trash/Recycling",
    "request_reason": "Missed Trash Pick-Up",
    "date_created": "2025-10-27T13:24:23.000",
    "date_modified": "2025-10-27T13:24:25.000",
    "request_status": "Pending",
    "responsible_agency": "Department of Sanitation",
    "final_address": "1631 Forstall St",
    "address_councildis": "E",
    "status": "Assigned to Contractor",
    "contractor": "Waste Pro",
    "rowid": "1236078",
    "final_x": "3696917.65962",
    "final_y": "536287.236167",
    "longitude": "-90.01921453137426",
    "latitude": "29.96812676938674",
    "geocoded_column": {
      "latitude": "29.96812676938674",
      "longitude": "-90.01921453137426"
    }
  },
  {
    "service_request": "2025-1236077",
    "request_type": "Trash/Recycling",
    "request_reason": "Dead Animal Pick Up",
    "date_created": "2025-10-27T13:20:26.000",
    "date_modified": "2025-10-27T13:20:28.000",
    "request_status": "Pending",
    "responsible_agency": "Department of Sanitation",
    "final_address": "3036 Allen St",
    "address_councildis": "D",
    "status": "Assigned to Contractor",
    "contractor": "IV Waste",
    "rowid": "1236077",
    "final_x": "3682127.42901",
    "final_y": "543814.730254",
    "longitude": "-90.06565962689655",
    "latitude": "29.989282868938673",
    "geocoded_column": {
      "latitude": "29.989282868938673",
      "longitude": "-90.06565962689655"
    }
  },
  {
    "service_request": "2025-1236076",
    "request_type": "Streetlights",
    "request_reason": "Streetlight Outage/Malfunction",
    "date_created": "2025-10-27T13:19:11.000",
    "date_modified": "2025-10-27T13:19:12.000",
    "request_status": "Pending",
    "responsible_agency": "Department of Public Works",
    "final_address": "2340 Spain St",
    "address_councildis": "D",
    "status": "Pending",
    "rowid": "1236076",
    "final_x": "3685705.57622",
    "final_y": "541139.484108",
    "longitude": "-90.05445163691482",
    "latitude": "29.981817557627725",
    "geocoded_column": {
      "latitude": "29.981817557627725",
      "longitude": "-90.05445163691482"
    }
  },
  {
    "service_request": "2025-1236075",
    "request_type": "Trash/Recycling",
    "request_reason": "Order Recycling Cart",
    "date_created": "2025-10-27T13:17:39.000",
    "date_modified": "2025-10-27T13:17:41.000",
    "request_status": "Pending",
    "responsible_agency": "Department of Sanitation",
    "final_address": "3043 Ponce De Leon St",
    "address_councildis": "A",
    "status": "Pending",
    "rowid": "1236075",
    "final_x": "3676819.26683",
    "final_y": "540551.844875",
    "longitude": "-90.08253908600143",
    "latitude": "29.980471472808254",
    "geocoded_column": {
      "latitude": "29.980471472808254",
      "longitude": "-90.08253908600143"
    }
  },
  {
    "service_request": "2025-1236074",
    "request_type": "Trash/Recycling",
    "request_reason": "Order Recycling Cart",
    "date_created": "2025-10-27T13:16:28.000",
    "date_modified": "2025-10-27T13:16:31.000",
    "request_status": "Pending",
    "responsible_agency": "Department of Sanitation",
    "final_address": "3041 Ponce De Leon St",
    "address_councildis": "A",
    "status": "Pending",
    "rowid": "1236074",
    "final_x": "3676834.37672",
    "final_y": "540552.204619",
    "longitude": "-90.08249135002846",
    "latitude": "29.980472008446704",
    "geocoded_column": {
      "latitude": "29.980472008446704",
      "longitude": "-90.08249135002846"
    }
  },
  {
    "service_request": "2025-1236073",
    "request_type": "Trash/Recycling",
    "request_reason": "Order Trash Cart",
    "date_created": "2025-10-27T13:12:07.000",
    "date_modified": "2025-10-27T13:12:08.000",
    "request_status": "Pending",
    "responsible_agency": "Department of Sanitation",
    "final_address": "5519 Wingate Dr",
    "address_councildis": "D",
    "status": "Assigned to Contractor",
    "contractor": "IV Waste",
    "rowid": "1236073",
    "final_x": "3681386.9732",
    "final_y": "553393.354967",
    "longitude": "-90.06766430819205",
    "latitude": "30.01564316224511",
    "geocoded_column": {
      "latitude": "30.01564316224511",
      "longitude": "-90.06766430819205"
    }
  },
  {
    "service_request": "2025-1236072",
    "request_type": "Trash/Recycling",
    "request_reason": "Request a Large Item Pick Up",
    "date_created": "2025-10-27T13:10:54.000",
    "date_modified": "2025-10-27T13:10:56.000",
    "request_status": "Pending",
    "responsible_agency": "Department of Sanitation",
    "final_address": "2924 St Ann St",
    "address_councildis": "A",
    "status": "Assigned to Contractor",
    "contractor": "IV Waste",
    "rowid": "1236072",
    "final_x": "3676005.91221",
    "final_y": "537874.774089",
    "longitude": "-90.08520011422449",
    "latitude": "29.97313483390058",
    "geocoded_column": {
      "latitude": "29.97313483390058",
      "longitude": "-90.08520011422449"
    }
  },
  {
    "service_request": "2025-1236071",
    "request_type": "Trash/Recycling",
    "request_reason": "Request a Large Item Pick Up",
    "date_created": "2025-10-27T13:08:33.000",
    "date_modified": "2025-10-27T13:08:36.000",
    "request_status": "Pending",
    "responsible_agency": "Department of Sanitation",
    "final_address": "1900 Wildair Dr",
    "address_councildis": "D",
    "status": "Assigned to Contractor",
    "contractor": "IV Waste",
    "rowid": "1236071",
    "final_x": "3681141.9389",
    "final_y": "551104.013909",
    "longitude": "-90.06851834760108",
    "latitude": "30.009355742945843",
    "geocoded_column": {
      "latitude": "30.009355742945843",
      "longitude": "-90.06851834760108"
    }
  },