[
  {
    "service_request": "2022-852819",
    "request_type": "Trash/Recycling",
    "request_reason": "Request a Large Item Pick Up",
    "date_created": "2022-01-10T00:50:17.000",
    "date_modified": "2022-01-10T00:50:17.000",
    "request_status": "Pending",
    "responsible_agency": "Department of Sanitation",
    "final_address": "514 Burdette St",
    "address_councildis": "A",
    "status": "Assigned to Contractor",
    "contractor": "Richards Disposal",
    "rowid": "852819",
    "final_x": "3661210.44595",
    "final_y": "525930.568509",
    "longitude": "-90.13232276466712",
    "latitude": "29.940726977215416",
    "geocoded_column": {
      "latitude": "29.940726977215416",
      "longitude": "-90.13232276466712"
    }
  },
  {
    "service_request": "2022-852818",
    "request_type": "Traffic Signals/Signs/Striping/Streetlights",
    "request_reason": "Street Light Outage/Malfunction",
    "date_created": "2022-01-10T00:40:03.000",
    "date_modified": "2022-01-10T00:40:04.000",
    "request_status": "Pending",
    "responsible_agency": "Department of Public Works",
    "final_address": "3834 S Inwood Ave",
    "address_councildis": "C",
    "status": "Pending",
    "contractor": "Royal Engineering",
    "rowid": "852818",
    "final_x": "3705105.55089",
    "final_y": "514343.170419",
    "longitude": "-89.99416697661597",
    "latitude": "29.90752758884572",
    "geocoded_column": {
      "latitude": "29.90752758884572",
      "longitude": "-89.99416697661597"
    }
  },
  {
    "service_request": "2022-852817",
    "request_type": "Traffic Signals/Signs/Striping/Streetlights",
    "request_reason": "Street Light Outage/Malfunction",
    "date_created": "2022-01-10T00:36:29.000",
    "date_modified": "2022-01-10T00:36:30.000",
    "request_status": "Pending",
    "responsible_agency": "Department of Public Works",
    "final_address": "3776 Inwood Ave",
    "address_councildis": "C",
    "status": "Pending",
    "contractor": "Royal Engineering",
    "rowid": "852817",
    "final_x": "3705071.64555",
    "final_y": "514690.024755",
    "longitude": "-89.99426119195707",
    "latitude": "29.908482409142927",
    "geocoded_column": {
      "latitude": "29.908482409142927",
      "longitude": "-89.99426119195707"
    }
  },
  {
    "service_request": "2022-852816",
    "request_type": "Trash/Recycling",
    "request_reason": "Order Trash Cart",
    "date_created": "2022-01-09T23:45:18.000",
    "date_modified": "2022-01-09T23:45:18.000",
    "request_status": "Pending",
    "responsible_agency": "Department of Sanitation",
    "final_address": "2232 First St",
    "address_councildis": "B",
    "status": "Assigned to Contractor",
    "contractor": "Richards Disposal",
    "rowid": "852816",
    "final_x": "3675588.14107",
    "final_y": "525208.547325",
    "longitude": "-90.08695464336591",
    "latitude": "29.938319450840815",
    "geocoded_column": {
      "latitude": "29.938319450840815",
      "longitude": "-90.08695464336591"
    }
  },
  {
    "service_request": "2022-852815",
    "request_type": "Trash/Recycling",
    "request_reason": "Request a Large Item Pick Up",
    "date_created": "2022-01-09T23:30:49.000",
    "date_modified": "2022-01-09T23:30:50.000",
    "request_status": "Pending",
    "responsible_agency": "Department of Sanitation",
    "final_address": "4078 Old Gentilly Rd",
    "address_councildis": "D",
    "status": "Assigned to Contractor",
    "contractor": "Metro Disposal",
    "rowid": "852815",
    "final_x": "3689769.33814",
    "final_y": "548663.714899",
    "longitude": "-90.04134843530206",
    "latitude": "30.00238113974471",
    "geocoded_column": {
      "latitude": "30.00238113974471",
      "longitude": "-90.04134843530206"
    }
  },
  {
    "service_request": "2022-852814",
    "request_type": "Trash/Recycling",
    "request_reason": "Order Trash Cart",
    "date_created": "2022-01-09T22:50:29.000",
    "date_modified": "2022-01-09T22:50:30.000",
    "request_status": "Pending",
    "responsible_agency": "Department of Sanitation",
    "final_address": "3111 Sullen Pl",
    "address_councildis": "C",
    "status": "Assigned to Contractor",
    "contractor": "Richards Disposal",
    "rowid": "852814",
    "final_x": "3707735.68836",
    "final_y": "519289.151735",
    "longitude": "-89.98568241996712",
    "latitude": "29.92104253899222",
    "geocoded_column": {
      "latitude": "29.92104253899222",
      "longitude": "-89.98568241996712"
    }
  },
  {
    "service_request": "2022-852813",
    "request_type": "Trash/Recycling",
    "request_reason": "Illegal Dumping",
    "date_created": "2022-01-09T22:07:07.000",
    "date_modified": "2022-01-09T22:07:07.000",
    "request_status": "Pending",
    "responsible_agency": "Department of Sanitation",
    "final_address": "1862 N Dorgenois St",
    "address_councildis": "D",
    "status": "Pending",
    "rowid": "852813",
    "final_x": "3681068.02344",
    "final_y": "541148.812812",
    "longitude": "-90.0690988887141",
    "latitude": "29.981984715486654",
    "geocoded_column": {
      "latitude": "29.981984715486654",
      "longitude": "-90.0690988887141"
    }
  },
  {
    "service_request": "2022-852812",
    "request_type": "Property Maintenance",
    "request_reason": "Property Maintenance",
    "date_created": "2022-01-09T22:05:48.000",
    "date_modified": "2022-01-09T22:05:48.000",
    "request_status": "Pending",
    "responsible_agency": "Department of Code Enforcement",
    "final_address": "1862 N Dorgenois St",
    "address_councildis": "D",
    "status": "Pending",
    "rowid": "852812",
    "final_x": "3681068.02344",
    "final_y": "541148.812812",
    "longitude": "-90.0690988887141",
    "latitude": "29.981984715486654",
    "geocoded_column": {
      "latitude": "29.981984715486654",
      "longitude": "-90.0690988887141"
    }
  },
  {
    "service_request": "2022-852811",
    "request_type": "Trash/Recycling",
    "request_reason": "Illegal Dumping",
    "date_created": "2022-01-09T21:36:10.000",
    "date_modified": "2022-01-09T21:36:10.000",
    "request_status": "Pending",
    "responsible_agency": "Department of Sanitation",
    "final_address": "2731 N Robertson St",
    "address_councildis": "C",
    "status": "Pending",
    "rowid": "852811",
    "final_x": "3688063.40099",
    "final_y": "537844.989257",
    "longitude": "-90.04712133420361",
    "latitude": "29.972686290102963",
    "geocoded_column": {
      "latitude": "29.972686290102963",
      "longitude": "-90.04712133420361"
    }
  },
  {
    "service_request": "2022-852810",
    "request_type": "Trash/Recycling",
    "request_reason": "Illegal Dumping",
    "date_created": "2022-01-09T21:34:01.000",
    "date_modified": "2022-01-09T21:34:01.000",
    "request_status": "Pending",
    "responsible_agency": "Department of Sanitation",
    "final_address": "1434 St Ferdinand St",
    "address_councildis": "C",
    "status": "Pending",
    "rowid": "852810",
    "final_x": "3688012.30959",
    "final_y": "537753.726024",
    "longitude": "-90.0472859247431",
    "latitude": "29.97243692510507",
    "geocoded_column": {
      "latitude": "29.97243692510507",
      "longitude": "-90.0472859247431"
    }
  },
  {
    "service_request": "2022-852809",
    "request_type": "Property Maintenance",
    "request_reason": "Property Maintenance",
    "date_created": "2022-01-09T21:28:07.000",
    "date_modified": "2022-01-09T21:28:07.000",
    "request_status": "Pending",
    "responsible_agency": "Department of Code Enforcement",
    "final_address": "1434 St Ferdinand St",
    "address_councildis": "C",
    "status": "Pending",
    "rowid": "852809",
    "final_x": "3688012.30959",
    "final_y": "537753.726024",
    "longitude": "-90.0472859247431",
    "latitude": "29.97243692510507",
    "geocoded_column": {
      "latitude": "29.97243692510507",
      "longitude": "-90.0472859247431"
    }
  },
  {
    "service_request": "2022-852808",
    "request_type": "Traffic Signals/Signs/Striping/Streetlights",
    "request_reason": "Street Light Outage/Malfunction",
    "date_created": "2022-01-09T21:25:43.000",
    "date_modified": "2022-01-09T21:25:44.000",
    "request_status": "Pending",
    "responsible_agency": "Department of Public Works",
    "final_address": "618 S Alexander St",
    "address_councildis": "A",
    "status": "Pending",
    "contractor": "Royal Engineering",
    "rowid": "852808",
    "final_x": "3668726.63719",
    "final_y": "537442.72724",
    "longitude": "-90.10820416816286",
    "latitude": "29.972162865664103",
    "geocoded_column": {
      "latitude": "29.972162865664103",
      "longitude": "-90.10820416816286"
    }
  },
  {
    "service_request": "2022-852807",
    "request_type": "Property Maintenance",
    "request_reason": "Property Maintenance",
    "date_created": "2022-01-09T21:25:19.000",
    "date_modified": "2022-01-09T21:25:19.000",
    "request_status": "Pending",
    "responsible_agency": "Department of Code Enforcement",
    "final_address": "1432 St Ferdinand St",
    "address_councildis": "C",
    "status": "Pending",
    "rowid": "852807",
    "final_x": "3688031.42831",
    "final_y": "537693.428296",
    "longitude": "-90.04722768204053",
    "latitude": "29.972270537490218",
    "geocoded_column": {
      "latitude": "29.972270537490218",
      "longitude": "-90.04722768204053"
    }
  },
  {
    "service_request": "2022-852806",
    "request_type": "Roads/Drainage",
    "request_reason": "WaterMain Break",
    "date_created": "2022-01-09T19:19:52.000",
    "date_modified": "2022-01-09T19:19:52.000",
    "request_status": "Closed",
    "responsible_agency": "Department of Public Works",
    "final_address": "7320 St Charles Ave",
    "address_councildis": "A",
    "status": "Invalid Case",
    "rowid": "852806",
    "final_x": "3662533.24307",
    "final_y": "524896.948924",
    "longitude": "-90.12818076751363",
    "latitude": "29.937846661359007",
    "geocoded_column": {
      "latitude": "29.937846661359007",
      "longitude": "-90.12818076751363"
    }
  },
  {
    "service_request": "2022-852805",
    "request_type": "Traffic Signals/Signs/Striping/Streetlights",
    "request_reason": "Street Light Outage/Malfunction",
    "date_created": "2022-01-09T19:04:15.000",
    "date_modified": "2022-01-09T19:04:16.000",
    "request_status": "Pending",
    "responsible_agency": "Department of Public Works",
    "final_address": "13226 Dwyer Blvd",
    "address_councildis": "E",
    "status": "Pending",
    "contractor": "Royal Engineering",
    "rowid": "852805",
    "final_x": "3724559.17952",
    "final_y": "561369.763934",
    "longitude": "-89.93095332669668",
    "latitude": "30.0361931757623",
    "geocoded_column": {
      "latitude": "30.0361931757623",
      "longitude": "-89.93095332669668"
    }
  },
  {
    "service_request": "2022-852804",
    "request_type": "Traffic Signals/Signs/Striping/Streetlights",
    "request_reason": "Street Light Outage/Malfunction",
    "date_created": "2022-01-09T19:01:37.000",
    "date_modified": "2022-01-09T19:01:38.000",
    "request_status": "Pending",
    "responsible_agency": "Department of Public Works",
    "final_address": "13210 Dwyer Blvd",
    "address_councildis": "E",
    "status": "Pending",
    "contractor": "Royal Engineering",
    "rowid": "852804",
    "final_x": "3724434.05017",
    "final_y": "561324.483102",
    "longitude": "-89.93135050499092",
    "latitude": "30.036072882353835",
    "geocoded_column": {
      "latitude": "30.036072882353835",
      "longitude": "-89.93135050499092"
    }
  },
  {
    "service_request": "2022-852803",
    "request_type": "Traffic Signals/Signs/Striping/Streetlights",
    "request_reason": "Street Light Outage/Malfunction",
    "date_created": "2022-01-09T18:55:42.000",
    "date_modified": "2022-01-09T18:55:43.000",
    "request_status": "Pending",
    "responsible_agency": "Department of Public Works",
    "final_address": "13134 Dwyer Blvd",
    "address_councildis": "E",
    "status": "Pending",
    "contractor": "Royal Engineering",
    "rowid": "852803",
    "final_x": "3724316.1678",
    "final_y": "561281.49027",
    "longitude": "-89.93172469239616",
    "latitude": "30.035958635065345",
    "geocoded_column": {
      "latitude": "30.035958635065345",
      "longitude": "-89.93172469239616"
    }
  },
  {
    "service_request": "2022-852802",
    "request_type": "Health Related Questions",
    "request_reason": "Noise Ordinance Complaint",
    "date_created": "2022-01-09T18:42:06.000",
    "date_modified": "2022-01-09T18:42:06.000",
    "request_status": "Pending",
    "responsible_agency": "Health Department",
    "final_address": "239 Decatur St",
    "address_councildis": "C",
    "status": "Pending",
    "rowid": "852802",
    "final_x": "3682195.63317",
    "final_y": "530830.069826",
    "longitude": "-90.06589786183099",
    "latitude": "29.95357746948798",
    "geocoded_column": {
      "latitude": "29.95357746948798",
      "longitude": "-90.06589786183099"
    }
  },
  {
    "service_request": "2022-852801",
    "request_type": "Trash/Recycling",
    "request_reason": "Request a Large Item Pick Up",
    "date_created": "2022-01-09T18:14:11.000",
    "date_modified": "2022-01-09T18:14:12.000",
    "request_status": "Pending",
    "responsible_agency": "Department of Sanitation",
    "final_address": "619 Barracks St",
    "address_councildis": "C",
    "status": "Assigned to Contractor",
    "contractor": "Empire Services",
    "rowid": "852801",
    "final_x": "3684052.44213",
    "final_y": "534093.924229",
    "longitude": "-90.0599203163616",
    "latitude": "29.96249534763997",
    "geocoded_column": {
      "latitude": "29.96249534763997",
      "longitude": "-90.0599203163616"
    }
  },
  {
    "service_request": "2022-852800",
    "request_type": "Trash/Recycling",
    "request_reason": "Order Recycling Cart",
    "date_created": "2022-01-09T17:42:17.000",
    "date_modified": "2022-01-09T17:42:17.000",
    "request_status": "Pending",
    "responsible_agency": "Department of Sanitation",
    "final_address": "3237 Grand Route St John St",
    "address_councildis": "A",
    "status": "Pending",
    "rowid": "852800",
    "final_x": "3675692.24494",
    "final_y": "540373.782859",
    "longitude": "-90.08610483152468",
    "latitude": "29.980015643054088",
    "geocoded_column": {
      "latitude": "29.980015643054088",
      "longitude": "-90.08610483152468"
    }
  },
  {
    "service_request": "2022-852799",
    "request_type": "Parks & Parkways",
    "request_reason": "Request Tree Service (Right of Way/Public Property)",
    "date_created": "2022-01-09T17:41:50.000",
    "date_modified": "2022-01-09T17:56:10.000",
    "request_status": "Pending",
    "responsible_agency": "Department of Parks & Parkway",
    "final_address": "BEHRMAN PL & MEMORIAL PARK DR",
    "address_councildis": "C",
    "status": "Pending",
    "rowid": "852799",
    "final_x": "3697679.1",
    "final_y": "517495.98",
    "longitude": "-90.01749136456792",
    "latitude": "29.9164333203015",
    "geocoded_column": {
      "latitude": "29.9164333203015",
      "longitude": "-90.01749136456792"
    }
  },
  {
    "service_request": "2022-852798",
    "request_type": "Trash/Recycling",
    "request_reason": "Request a Large Item Pick Up",
    "date_created": "2022-01-09T17:37:53.000",
    "date_modified": "2022-01-09T17:37:54.000",
    "request_status": "Pending",
    "responsible_agency": "Department of Sanitation",
    "final_address": "3032 Toulouse St",
    "address_councildis": "A",
    "status": "Assigned to Contractor",
    "contractor": "Richards Disposal",
    "rowid": "852798",
    "final_x": "3675203.85096",
    "final_y": "537458.073992",
    "longitude": "-90.08774749143173",
    "latitude": "29.9720130489101",
    "geocoded_column": {
      "latitude": "29.9720130489101",
      "longitude": "-90.08774749143173"
    }
  },
  {
    "service_request": "2022-852796",
    "request_type": "Abandoned Vehicles",
    "request_reason": "Abandoned/Junk Vehicles",
    "date_created": "2022-01-09T16:53:54.000",
    "date_modified": "2022-01-09T16:53:54.000",
    "request_status": "Pending",
    "responsible_agency": "Department of Public Works",
    "final_address": "2377 N Villere St",
    "address_councildis": "C",
    "status": "Pending",
    "rowid": "852796",
    "final_x": "3686322.23913",
    "final_y": "537556.993608",
    "longitude": "-90.05263039759154",
    "latitude": "29.971948028886814",
    "geocoded_column": {
      "latitude": "29.971948028886814",
      "longitude": "-90.05263039759154"
    }
  },
  {
    "service_request": "2022-852795",
    "request_type": "Abandoned Vehicles",
    "request_reason": "Abandoned/Junk Vehicles",
    "date_created": "2022-01-09T16:29:28.000",
    "date_modified": "2022-01-09T16:29:28.000",
    "request_status": "Pending",
    "responsible_agency": "Department of Public Works",
    "final_address": "6720 W Laverne St",
    "address_councildis": "D",
    "status": "Pending",
    "rowid": "852795",
    "final_x": "3696126.54653",
    "final_y": "555659.204505",
    "longitude": "-90.02101222591179",
    "latitude": "30.021417489612293",
    "geocoded_column": {
      "latitude": "30.021417489612293",
      "longitude": "-90.02101222591179"
    }
  },
  {
    "service_request": "2022-852794",
    "request_type": "Abandoned Vehicles",
    "request_reason": "Abandoned/Junk Vehicles",
    "date_created": "2022-01-09T16:26:09.000",
    "date_modified": "2022-01-09T16:26:09.000",
    "request_status": "Pending",
    "responsible_agency": "Department of Public Works",
    "final_address": "6720 W Laverne St",
    "address_councildis": "D",
    "status": "Pending",
    "rowid": "852794",
    "final_x": "3696126.54653",
    "final_y": "555659.204505",
    "longitude": "-90.02101222591179",
    "latitude": "30.021417489612293",
    "geocoded_column": {
      "latitude": "30.021417489612293",
      "longitude": "-90.02101222591179"
    }
  },
  {
    "service_request": "2022-852793",
    "request_type": "Abandoned Vehicles",
    "request_reason": "Vehicle Blocking Your Driveway",
    "date_created": "2022-01-09T16:21:06.000",
    "date_modified": "2022-01-09T16:21:06.000",
    "request_status": "Pending",
    "responsible_agency": "Department of Public Works",
    "final_address": "525 Governor Nicholls St Unit 101",
    "address_councildis": "C",
    "status": "Pending",
    "rowid": "852793",
    "final_x": "3684103.80738",
    "final_y": "533631.633605",
    "longitude": "-90.05977433794105",
    "latitude": "29.961222637608167",
    "geocoded_column": {
      "latitude": "29.961222637608167",
      "longitude": "-90.05977433794105"
    }
  },
  {
    "service_request": "2022-852792",
    "request_type": "Abandoned Vehicles",
    "request_reason": "Abandoned/Junk Vehicles",
    "date_created": "2022-01-09T16:13:04.000",
    "date_modified": "2022-01-09T16:13:04.000",
    "request_status": "Pending",
    "responsible_agency": "Department of Public Works",
    "final_address": "4325 Banks St",
    "address_councildis": "A",
    "status": "Pending",
    "rowid": "852792",
    "final_x": "3669438.68814",
    "final_y": "538166.913801",
    "longitude": "-90.10593088650577",
    "latitude": "29.974133182366643",
    "geocoded_column": {
      "latitude": "29.974133182366643",
      "longitude": "-90.10593088650577"
    }
  },
  {
    "service_request": "2022-852791",
    "request_type": "Abandoned Vehicles",
    "request_reason": "Abandoned/Junk Vehicles",
    "date_created": "2022-01-09T16:10:14.000",
    "date_modified": "2022-01-09T16:10:14.000",
    "request_status": "Pending",
    "responsible_agency": "Department of Public Works",
    "final_address": "4325 Banks St",
    "address_councildis": "A",
    "status": "Pending",
    "rowid": "852791",
    "final_x": "3669438.68814",
    "final_y": "538166.913801",
    "longitude": "-90.10593088650577",
    "latitude": "29.974133182366643",
    "geocoded_column": {
      "latitude": "29.974133182366643",
      "longitude": "-90.10593088650577"
    }
  },
  {
    "service_request": "2022-852790",
    "request_type": "Trash/Recycling",
    "request_reason": "Request a Large Item Pick Up",
    "date_created": "2022-01-09T16:01:48.000",
    "date_modified": "2022-01-09T16:01:48.000",
    "request_status": "Pending",
    "responsible_agency": "Department of Sanitation",
    "final_address": "6209 Waldo Dr, New Orleans, Louisiana, 70122",
    "address_councildis": "D",
    "status": "Assigned to Contractor",
    "contractor": "Metro Disposal",
    "rowid": "852790",
    "final_x": "3681152.80584",
    "final_y": "555728.569753",
    "longitude": "-90.06832271422053",
    "latitude": "30.02207126112111",
    "geocoded_column": {
      "latitude": "30.02207126112111",
      "longitude": "-90.06832271422053"
    }
  },
  {
    "service_request": "2022-852789",
    "request_type": "Traffic Signals/Signs/Striping/Streetlights",
    "request_reason": "Street Light Outage/Malfunction",
    "date_created": "2022-01-09T15:40:12.000",
    "date_modified": "2022-01-09T15:40:13.000",
    "request_status": "Pending",
    "responsible_agency": "Department of Public Works",
    "final_address": "10080 Morrison Rd",
    "address_councildis": "E",
    "status": "Pending",
    "contractor": "Royal Engineering",
    "rowid": "852789",
    "final_x": "3709482.39045",
    "final_y": "563757.443745",
    "longitude": "-89.97850925540246",
    "latitude": "30.0432570921163",
    "geocoded_column": {
      "latitude": "30.0432570921163",
      "longitude": "-89.97850925540246"
    }
  },
  {
    "service_request": "2022-852788",
    "request_type": "Trash/Recycling",
    "request_reason": "Replace Trash Cart",
    "date_created": "2022-01-09T14:44:51.000",
    "date_modified": "2022-01-09T14:44:52.000",
    "request_status": "Pending",
    "responsible_agency": "Department of Sanitation",
    "final_address": "3143 N Tonti St",
    "address_councildis": "D",
    "status": "Assigned to Contractor",
    "contractor": "Metro Disposal",
    "rowid": "852788",
    "final_x": "3690531.29648",
    "final_y": "540530.543819",
    "longitude": "-90.03923150460112",
    "latitude": "29.97999420969282",
    "geocoded_column": {
      "latitude": "29.97999420969282",
      "longitude": "-90.03923150460112"
    }
  },
  {
    "service_request": "2022-852787",
    "request_type": "Property Maintenance",
    "request_reason": "Property Maintenance",
    "date_created": "2022-01-09T14:38:24.000",
    "date_modified": "2022-01-09T14:38:24.000",
    "request_status": "Pending",
    "responsible_agency": "Department of Code Enforcement",
    "final_address": "4216 Franklin Ave",
    "address_councildis": "D",
    "status": "Pending",
    "rowid": "852787",
    "final_x": "3686896.4127",
    "final_y": "548540.92277",
    "longitude": "-90.05042868517074",
    "latitude": "30.002132263512657",
    "geocoded_column": {
      "latitude": "30.002132263512657",
      "longitude": "-90.05042868517074"
    }
  },
  {
    "service_request": "2022-852786",
    "request_type": "Trash/Recycling",
    "request_reason": "Order Trash Cart",
    "date_created": "2022-01-09T14:11:44.000",
    "date_modified": "2022-01-09T14:11:44.000",
    "request_status": "Pending",
    "responsible_agency": "Department of Sanitation",
    "final_address": "1220 Gallier St",
    "address_councildis": "C",
    "status": "Assigned to Contractor",
    "contractor": "Metro Disposal",
    "rowid": "852786",
    "final_x": "3690564.23542",
    "final_y": "536177.716295",
    "longitude": "-90.03928273286918",
    "latitude": "29.96802445196129",
    "geocoded_column": {
      "latitude": "29.96802445196129",
      "longitude": "-90.03928273286918"
    }
  },
  {
    "service_request": "2022-852784",
    "request_type": "Abandoned Vehicles",
    "request_reason": "Abandoned/Junk Vehicles",
    "date_created": "2022-01-09T13:52:46.000",
    "date_modified": "2022-01-09T13:52:46.000",
    "request_status": "Pending",
    "responsible_agency": "Department of Public Works",
    "final_address": "845 Baronne St",
    "address_councildis": "B",
    "status": "Pending",
    "rowid": "852784",
    "final_x": "3679474.37186",
    "final_y": "527860.164351",
    "longitude": "-90.07459347630754",
    "latitude": "29.94549371010626",
    "geocoded_column": {
      "latitude": "29.94549371010626",
      "longitude": "-90.07459347630754"
    }
  },
  {
    "service_request": "2022-852783",
    "request_type": "Traffic Signals/Signs/Striping/Streetlights",
    "request_reason": "Additional signage",
    "date_created": "2022-01-09T13:52:09.000",
    "date_modified": "2022-01-09T13:52:09.000",
    "request_status": "Pending",
    "responsible_agency": "Department of Public Works",
    "final_address": "DOWNMAN RD & LEWIS RD",
    "address_councildis": "D",
    "status": "Pending",
    "rowid": "852783",
    "final_x": "3695427.7",
    "final_y": "556101.98",
    "longitude": "-90.02320438277123",
    "latitude": "30.022656943771942",
    "geocoded_column": {
      "latitude": "30.022656943771942",
      "longitude": "-90.02320438277123"
    }
  },
  {
    "service_request": "2022-852782",
    "request_type": "Traffic Signals/Signs/Striping/Streetlights",
    "request_reason": "Street Light Outage/Malfunction",
    "date_created": "2022-01-09T13:43:37.000",
    "date_modified": "2022-01-09T13:43:38.000",
    "request_status": "Pending",
    "responsible_agency": "Department of Public Works",
    "final_address": "2001 Octavia St",
    "address_councildis": "A",
    "status": "Pending",
    "contractor": "Royal Engineering",
    "rowid": "852782",
    "final_x": "3667449.02637",
    "final_y": "523057.099451",
    "longitude": "-90.11272306005515",
    "latitude": "29.93264458386145",
    "geocoded_column": {
      "latitude": "29.93264458386145",
      "longitude": "-90.11272306005515"
    }
  },
  {
    "service_request": "2022-852781",
    "request_type": "Roads/Drainage",
    "request_reason": "Pothole",
    "date_created": "2022-01-09T13:29:19.000",
    "date_modified": "2022-01-09T13:29:19.000",
    "request_status": "Pending",
    "responsible_agency": "Department of Public Works",
    "final_address": "Race St & Tchoupitoulas St, New Orleans, Louisiana, 70130",
    "address_councildis": "B",
    "status": "Pending",
    "rowid": "852781",
    "final_x": "3682261.6",
    "final_y": "523345.98",
    "longitude": "-90.06595094909761",
    "latitude": "29.93299672400018",
    "geocoded_column": {
      "latitude": "29.93299672400018",
      "longitude": "-90.06595094909761"
    }
  },
  {
    "service_request": "2022-852780",
    "request_type": "Trash/Recycling",
    "request_reason": "Replace Trash Cart",
    "date_created": "2022-01-09T13:28:15.000",
    "date_modified": "2022-01-09T13:28:15.000",
    "request_status": "Pending",
    "responsible_agency": "Department of Sanitation",
    "final_address": "1212 St Anthony St",
    "address_councildis": "C",
    "status": "Assigned to Contractor",
    "contractor": "Metro Disposal",
    "rowid": "852780",
    "final_x": "3683468.54607",
    "final_y": "536286.062855",
    "longitude": "-90.06168735171357",
    "latitude": "29.968540803142254",
    "geocoded_column": {
      "latitude": "29.968540803142254",
      "longitude": "-90.06168735171357"
    }
  },
  {
    "service_request": "2022-852779",
    "request_type": "Traffic Signals/Signs/Striping/Streetlights",
    "request_reason": "Request for Stop Sign",
    "date_created": "2022-01-09T13:26:38.000",
    "date_modified": "2022-01-09T13:26:38.000",
    "request_status": "Pending",
    "responsible_agency": "Department of Public Works",
    "final_address": "Intersection of Seguin and Pelican Ave 70114",
    "status": "Pending",
    "rowid": "852779",
    "longitude": "0.0",
    "latitude": "0.0",
    "geocoded_column": {
      "latitude": "0.0",
      "longitude": "0.0"
    }
  },
  {
    "service_request": "2022-852778",
    "request_type": "Trash/Recycling",
    "request_reason": "Replace Trash Cart",
    "date_created": "2022-01-09T13:23:01.000",
    "date_modified": "2022-01-09T13:23:02.000",
    "request_status": "Pending",
    "responsible_agency": "Department of Sanitation",
    "final_address": "1130 Cadiz St",
    "address_councildis": "B",
    "status": "Assigned to Contractor",
    "contractor": "Richards Disposal",
    "rowid": "852778",
    "final_x": "3670174.95303",
    "final_y": "519699.399928",
    "longitude": "-90.10423121469823",
    "latitude": "29.923331856426216",
    "geocoded_column": {
      "latitude": "29.923331856426216",
      "longitude": "-90.10423121469823"
    }
  },
  {
    "service_request": "2022-852777",
    "request_type": "COVID-19",
    "request_reason": "COVID-19 Business Non-Compliance",
    "date_created": "2022-01-09T13:19:05.000",
    "date_modified": "2022-01-09T13:19:06.000",
    "request_status": "Pending",
    "responsible_agency": "Safety and Permits",
    "final_address": "600 Decatur St",
    "address_councildis": "C",
    "status": "Pending",
    "rowid": "852777",
    "final_x": "3683031.20853",
    "final_y": "531719.273731",
    "longitude": "-90.0632283472796",
    "latitude": "29.955997037734843",
    "geocoded_column": {
      "latitude": "29.955997037734843",
      "longitude": "-90.0632283472796"
    }
  },
  {
    "service_request": "2022-852775",
    "request_type": "Trash/Recycling",
    "request_reason": "Request a Large Item Pick Up",
    "date_created": "2022-01-09T13:08:41.000",
    "date_modified": "2022-01-09T13:08:42.000",
    "request_status": "Pending",
    "responsible_agency": "Department of Sanitation",
    "final_address": "4959 Elysian Fields Ave",
    "address_councildis": "D",
    "status": "Assigned to Contractor",
    "contractor": "Metro Disposal",
    "rowid": "852775",
    "final_x": "3683942.92981",
    "final_y": "551166.022037",
    "longitude": "-90.05966688608936",
    "latitude": "30.00944093139664",
    "geocoded_column": {
      "latitude": "30.00944093139664",
      "longitude": "-90.05966688608936"
    }
  },
  {
    "service_request": "2022-852774",
    "request_type": "Trash/Recycling",
    "request_reason": "Repair Trash Cart",
    "date_created": "2022-01-09T13:03:05.000",
    "date_modified": "2022-01-09T13:03:06.000",
    "request_status": "Pending",
    "responsible_agency": "Department of Sanitation",
    "final_address": "2500 Joliet St",
    "address_councildis": "A",
    "status": "Assigned to Contractor",
    "contractor": "Richards Disposal",
    "rowid": "852774",
    "final_x": "3664058.80148",
    "final_y": "532852.390724",
    "longitude": "-90.12309915884657",
    "latitude": "29.95967735525483",
    "geocoded_column": {
      "latitude": "29.95967735525483",
      "longitude": "-90.12309915884657"
    }
  },
  {
    "service_request": "2022-852773",
    "request_type": "Trash/Recycling",
    "request_reason": "Order Recycling Cart",
    "date_created": "2022-01-09T12:59:30.000",
    "date_modified": "2022-01-09T12:59:30.000",
    "request_status": "Pending",
    "responsible_agency": "Department of Sanitation",
    "final_address": "530 Hagan Ave, New Orleans, Louisiana, 70119",
    "status": "Pending",
    "rowid": "852773",
    "longitude": "0.0",
    "latitude": "0.0",
    "geocoded_column": {
      "latitude": "0.0",
      "longitude": "0.0"
    }
  },
  {
    "service_request": "2022-852771",
    "request_type": "Property Maintenance",
    "request_reason": "Property Maintenance",
    "date_created": "2022-01-09T12:41:12.000",
    "date_modified": "2022-01-09T12:41:12.000",
    "request_status": "Pending",
    "responsible_agency": "Department of Code Enforcement",
    "final_address": "4316 Baronne St",
    "address_councildis": "B",
    "status": "Pending",
    "rowid": "852771",
    "final_x": "3671020.40827",
    "final_y": "521587.044281",
    "longitude": "-90.10149836738734",
    "latitude": "29.92849731176201",
    "geocoded_column": {
      "latitude": "29.92849731176201",
      "longitude": "-90.10149836738734"
    }
  },
  {
    "service_request": "2022-852770",
    "request_type": "Trash/Recycling",
    "request_reason": "Missed Trash Pick-Up",
    "date_created": "2022-01-09T12:35:07.000",
    "date_modified": "2022-01-09T12:35:08.000",
    "request_status": "Pending",
    "responsible_agency": "Department of Sanitation",
    "final_address": "35 Swallow St, New Orleans, Louisiana, 70124",
    "address_councildis": "D",
    "status": "Assigned to Contractor",
    "contractor": "Metro Disposal",
    "rowid": "852770",
    "final_x": "3673690.24174",
    "final_y": "556981.68873",
    "longitude": "-90.09185967412763",
    "latitude": "30.025741308785506",
    "geocoded_column": {
      "latitude": "30.025741308785506",
      "longitude": "-90.09185967412763"
    }
  },
  {
    "service_request": "2022-852769",
    "request_type": "Trash/Recycling",
    "request_reason": "Replace Trash Cart",
    "date_created": "2022-01-09T12:12:15.000",
    "date_modified": "2022-01-09T12:12:16.000",
    "request_status": "Pending",
    "responsible_agency": "Department of Sanitation",
    "final_address": "816 3rd St, New Orleans, Louisiana, 70130",
    "status": "Assigned to Contractor",
    "rowid": "852769",
    "longitude": "0.0",
    "latitude": "0.0",
    "geocoded_column": {
      "latitude": "0.0",
      "longitude": "0.0"
    }
  },
  {
    "service_request": "2022-852768",
    "request_type": "Traffic Signals/Signs/Striping/Streetlights",
    "request_reason": "Traffic Sign Missing/Damaged",
    "date_created": "2022-01-09T11:40:38.000",
    "date_modified": "2022-01-09T11:40:38.000",
    "request_status": "Pending",
    "responsible_agency": "Department of Public Works",
    "final_address": "1537 Calhoun St",
    "address_councildis": "A",
    "status": "Pending",
    "rowid": "852768",
    "final_x": "3664675.05306",
    "final_y": "522467.451642",
    "longitude": "-90.12149998825737",
    "latitude": "29.931104199993758",
    "geocoded_column": {
      "latitude": "29.931104199993758",
      "longitude": "-90.12149998825737"
    }
  },
  {
    "service_request": "2022-852767",
    "request_type": "Roads/Drainage",
    "request_reason": "Leaking Hydrant",
    "date_created": "2022-01-09T11:06:54.000",
    "date_modified": "2022-01-09T11:06:54.000",
    "request_status": "Pending",
    "responsible_agency": "Department of Public Works",
    "final_address": "1800 Lapeyrouse St, New Orleans, Louisiana, 70116",
    "address_councildis": "D",
    "status": "Pending",
    "rowid": "852767",
    "final_x": "3681552.44584",
    "final_y": "538213.605961",
    "longitude": "-90.06767125456373",
    "latitude": "29.973899212814658",
    "geocoded_column": {
      "latitude": "29.973899212814658",
      "longitude": "-90.06767125456373"
    }
  },
  {
    "service_request": "2022-852766",
    "request_type": "Trash/Recycling",
    "request_reason": "Illegal Dumping",
    "date_created": "2022-01-09T11:01:40.000",
    "date_modified": "2022-01-09T11:01:40.000",
    "request_status": "Pending",
    "responsible_agency": "Department of Sanitation",
    "final_address": "2663 Iberville St",
    "address_councildis": "B",
    "status": "Pending",
    "rowid": "852766",
    "final_x": "3675685.64417",
    "final_y": "535440.188614",
    "longitude": "-90.08629526492776",
    "latitude": "29.96645013971042",
    "geocoded_column": {
      "latitude": "29.96645013971042",
      "longitude": "-90.08629526492776"
    }
  },
  {
    "service_request": "2022-852765",
    "request_type": "Trash/Recycling",
    "request_reason": "Request a Large Item Pick Up",
    "date_created": "2022-01-09T10:34:24.000",
    "date_modified": "2022-01-09T10:34:25.000",
    "request_status": "Pending",
    "responsible_agency": "Department of Sanitation",
    "final_address": "2439 Danbury Dr",
    "address_councildis": "C",
    "status": "Assigned to Contractor",
    "contractor": "Richards Disposal",
    "rowid": "852765",
    "final_x": "3703716.08023",
    "final_y": "522008.38553",
    "longitude": "-89.99827040933401",
    "latitude": "29.928648869006345",
    "geocoded_column": {
      "latitude": "29.928648869006345",
      "longitude": "-89.99827040933401"
    }
  },
  {
    "service_request": "2022-852764",
    "request_type": "Roads/Drainage",
    "request_reason": "Man hole cover issue",
    "date_created": "2022-01-09T10:25:07.000",
    "date_modified": "2022-01-09T10:25:07.000",
    "request_status": "Pending",
    "responsible_agency": "Department of Public Works",
    "final_address": "620 Decatur St",
    "address_councildis": "C",
    "status": "Pending",
    "rowid": "852764",
    "final_x": "3683130.68514",
    "final_y": "531874.971523",
    "longitude": "-90.06290878381887",
    "latitude": "29.956422121332647",
    "geocoded_column": {
      "latitude": "29.956422121332647",
      "longitude": "-90.06290878381887"
    }
  },
  {
    "service_request": "2022-852763",
    "request_type": "Mayor's Request",
    "request_reason": "Requests to the Mayor",
    "date_created": "2022-01-09T10:03:57.000",
    "date_modified": "2022-01-09T10:03:57.000",
    "request_status": "Pending",
    "responsible_agency": "Executive Office of the Mayor",
    "final_address": "1535 Hillary St",
    "address_councildis": "A",
    "status": "Pending",
    "rowid": "852763",
    "final_x": "3664259.85012",
    "final_y": "528080.732351",
    "longitude": "-90.12262349887494",
    "latitude": "29.94655100066987",
    "geocoded_column": {
      "latitude": "29.94655100066987",
      "longitude": "-90.12262349887494"
    }
  },
  {
    "service_request": "2022-852762",
    "request_type": "Abandoned Vehicles",
    "request_reason": "Abandoned/Junk Vehicles",
    "date_created": "2022-01-09T10:00:34.000",
    "date_modified": "2022-01-09T10:00:34.000",
    "request_status": "Pending",
    "responsible_agency": "Department of Public Works",
    "final_address": "801 St Joseph St",
    "address_councildis": "B",
    "status": "Pending",
    "rowid": "852762",
    "final_x": "3679818.38511",
    "final_y": "527618.872447",
    "longitude": "-90.07351569157058",
    "latitude": "29.94481984218871",
    "geocoded_column": {
      "latitude": "29.94481984218871",
      "longitude": "-90.07351569157058"
    }
  },
  {
    "service_request": "2022-852761",
    "request_type": "Traffic Signals/Signs/Striping/Streetlights",
    "request_reason": "Street Name Sign Damaged or Missing",
    "date_created": "2022-01-09T09:50:29.000",
    "date_modified": "2022-01-09T09:50:29.000",
    "request_status": "Pending",
    "responsible_agency": "Department of Public Works",
    "final_address": "1539 Hillary St",
    "address_councildis": "A",
    "status": "Pending",
    "rowid": "852761",
    "final_x": "3664260.33895",
    "final_y": "528126.447871",
    "longitude": "-90.1226204303339",
    "latitude": "29.946676689445702",
    "geocoded_column": {
      "latitude": "29.946676689445702",
      "longitude": "-90.1226204303339"
    }
  },
  {
    "service_request": "2022-852759",
    "request_type": "Trash/Recycling",
    "request_reason": "Request a Large Item Pick Up",
    "date_created": "2022-01-09T09:25:52.000",
    "date_modified": "2022-01-09T09:25:53.000",
    "request_status": "Pending",
    "responsible_agency": "Department of Sanitation",
    "final_address": "4628 Crowder Blvd, New Orleans, Louisiana, 70127",
    "address_councildis": "E",
    "status": "Assigned to Contractor",
    "contractor": "Metro Disposal",
    "rowid": "852759",
    "final_x": "3706395.57918",
    "final_y": "554952.593176",
    "longitude": "-89.98859136330823",
    "latitude": "30.019147199286294",
    "geocoded_column": {
      "latitude": "30.019147199286294",
      "longitude": "-89.98859136330823"
    }
  },
  {
    "service_request": "2022-852758",
    "request_type": "Parks & Parkways",
    "request_reason": "Request Tree Service (Right of Way/Public Property)",
    "date_created": "2022-01-09T08:28:05.000",
    "date_modified": "2022-01-09T12:57:03.000",
    "request_status": "Pending",
    "responsible_agency": "Department of Parks & Parkway",
    "final_address": "4667 Lurline St, New Orleans, Louisiana, 70127",
    "address_councildis": "E",
    "status": "Pending",
    "rowid": "852758",
    "final_x": "3712093.73816",
    "final_y": "555705.472025",
    "longitude": "-89.97055904046204",
    "latitude": "30.021032214684656",
    "geocoded_column": {
      "latitude": "30.021032214684656",
      "longitude": "-89.97055904046204"
    }
  },
  {
    "service_request": "2022-852756",
    "request_type": "Abandoned Vehicles",
    "request_reason": "Abandoned/Junk Vehicles",
    "date_created": "2022-01-09T07:07:36.000",
    "date_modified": "2022-01-09T07:07:36.000",
    "request_status": "Pending",
    "responsible_agency": "Department of Public Works",
    "final_address": "5518 Royal St",
    "address_councildis": "E",
    "status": "Pending",
    "rowid": "852756",
    "final_x": "3697454.19728",
    "final_y": "532282.502147",
    "longitude": "-90.01766534910855",
    "latitude": "29.957098243862255",
    "geocoded_column": {
      "latitude": "29.957098243862255",
      "longitude": "-90.01766534910855"
    }
  },
  {
    "service_request": "2022-852755",
    "request_type": "Traffic Signals/Signs/Striping/Streetlights",
    "request_reason": "Street Light Outage/Malfunction",
    "date_created": "2022-01-09T06:23:55.000",
    "date_modified": "2022-01-09T06:23:56.000",
    "request_status": "Pending",
    "responsible_agency": "Department of Public Works",
    "final_address": "7033 Coliseum St",
    "address_councildis": "A",
    "status": "Pending",
    "contractor": "Royal Engineering",
    "rowid": "852755",
    "final_x": "3661659.39437",
    "final_y": "522005.169082",
    "longitude": "-90.13103538779097",
    "latitude": "29.929920420002638",
    "geocoded_column": {
      "latitude": "29.929920420002638",
      "longitude": "-90.13103538779097"
    }
  },
  {
    "service_request": "2022-852753",
    "request_type": "Traffic Signals/Signs/Striping/Streetlights",
    "request_reason": "Street Light Outage/Malfunction",
    "date_created": "2022-01-08T22:42:20.000",
    "date_modified": "2022-01-08T22:42:21.000",
    "request_status": "Pending",
    "responsible_agency": "Department of Public Works",
    "final_address": "8339 Panola St",
    "address_councildis": "A",
    "status": "Pending",
    "contractor": "Royal Engineering",
    "rowid": "852753",
    "final_x": "3663343.48135",
    "final_y": "531443.257987",
    "longitude": "-90.12540489589722",
    "latitude": "29.955823453213792",
    "geocoded_column": {
      "latitude": "29.955823453213792",
      "longitude": "-90.12540489589722"
    }
  },
  {
    "service_request": "2022-852752",
    "request_type": "Property Maintenance",
    "request_reason": "Property Maintenance",
    "date_created": "2022-01-08T22:36:50.000",
    "date_modified": "2022-01-08T22:36:50.000",
    "request_status": "Pending",
    "responsible_agency": "Department of Code Enforcement",
    "final_address": "3627 St Ferdinand St",
    "address_councildis": "D",
    "status": "Pending",
    "rowid": "852752",
    "final_x": "3690038.83068",
    "final_y": "546515.218961",
    "longitude": "-90.04057365405012",
    "latitude": "29.99646519993442",
    "geocoded_column": {
      "latitude": "29.99646519993442",
      "longitude": "-90.04057365405012"
    }
  },
  {
    "service_request": "2022-852751",
    "request_type": "Trash/Recycling",
    "request_reason": "Request a Large Item Pick Up",
    "date_created": "2022-01-08T22:35:46.000",
    "date_modified": "2022-01-08T22:35:47.000",
    "request_status": "Pending",
    "responsible_agency": "Department of Sanitation",
    "final_address": "2409 Marengo St",
    "address_councildis": "B",
    "status": "Assigned to Contractor",
    "contractor": "Richards Disposal",
    "rowid": "852751",
    "final_x": "3671706.99918",
    "final_y": "523882.70182",
    "longitude": "-90.0992528922373",
    "latitude": "29.93478931686327",
    "geocoded_column": {
      "latitude": "29.93478931686327",
      "longitude": "-90.0992528922373"
    }
  },
  {
    "service_request": "2022-852750",
    "request_type": "Trash/Recycling",
    "request_reason": "Damaged Caused By Contractor",
    "date_created": "2022-01-08T22:21:14.000",
    "date_modified": "2022-01-08T22:21:15.000",
    "request_status": "Pending",
    "responsible_agency": "Department of Sanitation",
    "final_address": "7911 Cynthia Dr",
    "address_councildis": "E",
    "status": "Assigned to Contractor",
    "contractor": "Metro Disposal",
    "rowid": "852750",
    "final_x": "3702133.61047",
    "final_y": "560542.983262",
    "longitude": "-90.00185236443579",
    "latitude": "30.03465545404194",
    "geocoded_column": {
      "latitude": "30.03465545404194",
      "longitude": "-90.00185236443579"
    }
  },
  {
    "service_request": "2022-852749",
    "request_type": "Trash/Recycling",
    "request_reason": "Replace Trash Cart",
    "date_created": "2022-01-08T21:23:03.000",
    "date_modified": "2022-01-09T13:27:46.000",
    "request_status": "Pending",
    "responsible_agency": "Department of Sanitation",
    "final_address": "New Orleans,LA",
    "address_councildis": "C",
    "status": "Assigned to Contractor",
    "contractor": "Metro Disposal",
    "rowid": "852749",
    "final_x": "3683469.44053",
    "final_y": "536276.218759",
    "longitude": "-90.06168487198038",
    "latitude": "29.96851370798743",
    "geocoded_column": {
      "latitude": "29.96851370798743",
      "longitude": "-90.06168487198038"
    }
  },
  {
    "service_request": "2022-852748",
    "request_type": "Trash/Recycling",
    "request_reason": "Replace Trash Cart",
    "date_created": "2022-01-08T20:42:44.000",
    "date_modified": "2022-01-08T20:42:45.000",
    "request_status": "Pending",
    "responsible_agency": "Department of Sanitation",
    "final_address": "5967 Tullis Dr",
    "address_councildis": "C",
    "status": "Assigned to Contractor",
    "contractor": "Richards Disposal",
    "rowid": "852748",
    "final_x": "3706411.43025",
    "final_y": "513632.646514",
    "longitude": "-89.9900717845609",
    "latitude": "29.905531861395602",
    "geocoded_column": {
      "latitude": "29.905531861395602",
      "longitude": "-89.9900717845609"
    }
  },
  {
    "service_request": "2022-852747",
    "request_type": "Trash/Recycling",
    "request_reason": "Order Trash Cart",
    "date_created": "2022-01-08T20:40:09.000",
    "date_modified": "2022-01-08T20:40:10.000",
    "request_status": "Pending",
    "responsible_agency": "Department of Sanitation",
    "final_address": "New Orleans,LA",
    "status": "Assigned to Contractor",
    "rowid": "852747",
    "longitude": "0.0",
    "latitude": "0.0",
    "geocoded_column": {
      "latitude": "0.0",
      "longitude": "0.0"
    }
  },
  {
    "service_request": "2022-852746",
    "request_type": "Trash/Recycling",
    "request_reason": "Request a Large Item Pick Up",
    "date_created": "2022-01-08T19:45:02.000",
    "date_modified": "2022-01-08T19:45:03.000",
    "request_status": "Pending",
    "responsible_agency": "Department of Sanitation",
    "final_address": "254 Audubon St",
    "address_councildis": "A",
    "status": "Assigned to Contractor",
    "contractor": "Richards Disposal",
    "rowid": "852746",
    "final_x": "3661218.8921",
    "final_y": "521643.551545",
    "longitude": "-90.1324379505246",
    "latitude": "29.928938786744926",
    "geocoded_column": {
      "latitude": "29.928938786744926",
      "longitude": "-90.1324379505246"
    }
  },
  {
    "service_request": "2022-852745",
    "request_type": "Traffic Signals/Signs/Striping/Streetlights",
    "request_reason": "Street Light Outage/Malfunction",
    "date_created": "2022-01-08T19:31:30.000",
    "date_modified": "2022-01-08T19:31:31.000",
    "request_status": "Pending",
    "responsible_agency": "Department of Public Works",
    "final_address": "933 N Villere St",
    "address_councildis": "C",
    "status": "Pending",
    "contractor": "Royal Engineering",
    "rowid": "852745",
    "final_x": "3680870.94383",
    "final_y": "535019.457414",
    "longitude": "-90.06993481631078",
    "latitude": "29.965137084062658",
    "geocoded_column": {
      "latitude": "29.965137084062658",
      "longitude": "-90.06993481631078"
    }
  },
  {
    "service_request": "2022-852744",
    "request_type": "Traffic Signals/Signs/Striping/Streetlights",
    "request_reason": "Street Light Outage/Malfunction",
    "date_created": "2022-01-08T18:24:46.000",
    "date_modified": "2022-01-08T18:24:47.000",
    "request_status": "Pending",
    "responsible_agency": "Department of Public Works",
    "final_address": "600 Westchester Pl, New Orleans, Louisiana, 70131",
    "status": "Pending",
    "contractor": "Royal Engineering",
    "rowid": "852744",
    "longitude": "0.0",
    "latitude": "0.0",
    "geocoded_column": {
      "latitude": "0.0",
      "longitude": "0.0"
    }
  },
  {
    "service_request": "2022-852743",
    "request_type": "Traffic Signals/Signs/Striping/Streetlights",
    "request_reason": "Traffic Signal Malfunctioning/Damaged",
    "date_created": "2022-01-08T18:22:07.000",
    "date_modified": "2022-01-08T18:22:07.000",
    "request_status": "Pending",
    "responsible_agency": "Department of Public Works",
    "final_address": "701 Camp St",
    "address_councildis": "B",
    "status": "Pending",
    "rowid": "852743",
    "final_x": "3680870.58498",
    "final_y": "528425.780864",
    "longitude": "-90.07016549517236",
    "latitude": "29.947006718285095",
    "geocoded_column": {
      "latitude": "29.947006718285095",
      "longitude": "-90.07016549517236"
    }
  },
  {
    "service_request": "2022-852742",
    "request_type": "Traffic Signals/Signs/Striping/Streetlights",
    "request_reason": "Traffic Signal Malfunctioning/Damaged",
    "date_created": "2022-01-08T18:20:22.000",
    "date_modified": "2022-01-08T18:20:22.000",
    "request_status": "Pending",
    "responsible_agency": "Department of Public Works",
    "final_address": "701 Camp St",
    "address_councildis": "B",
    "status": "Pending",
    "rowid": "852742",
    "final_x": "3680870.58498",
    "final_y": "528425.780864",
    "longitude": "-90.07016549517236",
    "latitude": "29.947006718285095",
    "geocoded_column": {
      "latitude": "29.947006718285095",
      "longitude": "-90.07016549517236"
    }
  },
  {
    "service_request": "2022-852741",
    "request_type": "Health Related Questions",
    "request_reason": "Noise Ordinance Complaint",
    "date_created": "2022-01-08T17:13:12.000",
    "date_modified": "2022-01-08T17:13:12.000",
    "request_status": "Pending",
    "responsible_agency": "Health Department",
    "final_address": "7825 St Charles Ave",
    "address_councildis": "A",
    "status": "Pending",
    "rowid": "852741",
    "final_x": "3661288.29766",
    "final_y": "526266.981438",
    "longitude": "-90.13206583714769",
    "latitude": "29.94164976209271",
    "geocoded_column": {
      "latitude": "29.94164976209271",
      "longitude": "-90.13206583714769"
    }
  },
  {
    "service_request": "2022-852740",
    "request_type": "Traffic Signals/Signs/Striping/Streetlights",
    "request_reason": "Street Light Outage/Malfunction",
    "date_created": "2022-01-08T17:06:26.000",
    "date_modified": "2022-01-08T17:06:27.000",
    "request_status": "Pending",
    "responsible_agency": "Department of Public Works",
    "final_address": "4222 Monroe St",
    "address_councildis": "A",
    "status": "Pending",
    "contractor": "Royal Engineering",
    "rowid": "852740",
    "final_x": "3667667.05665",
    "final_y": "537894.055497",
    "longitude": "-90.11153531375612",
    "latitude": "29.973434975773422",
    "geocoded_column": {
      "latitude": "29.973434975773422",
      "longitude": "-90.11153531375612"
    }
  },
  {
    "service_request": "2022-852739",
    "request_type": "Trash/Recycling",
    "request_reason": "Repair Trash Cart",
    "date_created": "2022-01-08T16:57:26.000",
    "date_modified": "2022-01-08T16:57:27.000",
    "request_status": "Pending",
    "responsible_agency": "Department of Sanitation",
    "final_address": "130 N Olympia St",
    "address_councildis": "A",
    "status": "Assigned to Contractor",
    "contractor": "Richards Disposal",
    "rowid": "852739",
    "final_x": "3669656.36897",
    "final_y": "539844.861962",
    "longitude": "-90.10518659842106",
    "latitude": "29.97874056013733",
    "geocoded_column": {
      "latitude": "29.97874056013733",
      "longitude": "-90.10518659842106"
    }
  },
  {
    "service_request": "2022-852738",
    "request_type": "Abandoned Vehicles",
    "request_reason": "Abandoned/Junk Vehicles",
    "date_created": "2022-01-08T16:47:43.000",
    "date_modified": "2022-01-08T16:47:43.000",
    "request_status": "Pending",
    "responsible_agency": "Department of Public Works",
    "final_address": "1634 Egania St",
    "address_councildis": "E",
    "status": "Pending",
    "rowid": "852738",
    "final_x": "3697383.20413",
    "final_y": "536216.425159",
    "longitude": "-90.01774689915598",
    "latitude": "29.967917375423426",
    "geocoded_column": {
      "latitude": "29.967917375423426",
      "longitude": "-90.01774689915598"
    }
  },
  {
    "service_request": "2022-852737",
    "request_type": "Trash/Recycling",
    "request_reason": "Request a Large Item Pick Up",
    "date_created": "2022-01-08T16:43:55.000",
    "date_modified": "2022-01-08T16:43:56.000",
    "request_status": "Pending",
    "responsible_agency": "Department of Sanitation",
    "final_address": "2819 Bienville Ave",
    "address_councildis": "B",
    "status": "Assigned to Contractor",
    "contractor": "Richards Disposal",
    "rowid": "852737",
    "final_x": "3675288.44149",
    "final_y": "536272.299399",
    "longitude": "-90.08752105648001",
    "latitude": "29.96875004291629",
    "geocoded_column": {
      "latitude": "29.96875004291629",
      "longitude": "-90.08752105648001"
    }
  },
  {
    "service_request": "2022-852736",
    "request_type": "Trash/Recycling",
    "request_reason": "Start Trash Service",
    "date_created": "2022-01-08T14:57:58.000",
    "date_modified": "2022-01-08T14:57:59.000",
    "request_status": "Pending",
    "responsible_agency": "Department of Sanitation",
    "final_address": "1022 Mandeville St",
    "address_councildis": "C",
    "status": "Assigned to Contractor",
    "contractor": "Metro Disposal",
    "rowid": "852736",
    "final_x": "3685759.71279",
    "final_y": "536196.788423",
    "longitude": "-90.05445488756139",
    "latitude": "29.96822521448583",
    "geocoded_column": {
      "latitude": "29.96822521448583",
      "longitude": "-90.05445488756139"
    }
  },
  {
    "service_request": "2022-852734",
    "request_type": "COVID-19",
    "request_reason": "COVID-19 Business Non-Compliance",
    "date_created": "2022-01-08T14:34:11.000",
    "date_modified": "2022-01-08T14:34:12.000",
    "request_status": "Pending",
    "responsible_agency": "Safety and Permits",
    "final_address": "701 Mazant St",
    "address_councildis": "C",
    "status": "Pending",
    "rowid": "852734",
    "final_x": "3691772.27286",
    "final_y": "533758.001093",
    "longitude": "-90.03555426947537",
    "latitude": "29.961333516664133",
    "geocoded_column": {
      "latitude": "29.961333516664133",
      "longitude": "-90.03555426947537"
    }
  },
  {
    "service_request": "2022-852733",
    "request_type": "Abandoned Vehicles",
    "request_reason": "Abandoned/Junk Vehicles",
    "date_created": "2022-01-08T14:22:13.000",
    "date_modified": "2022-01-08T14:22:13.000",
    "request_status": "Pending",
    "responsible_agency": "Department of Public Works",
    "final_address": "1935 Audubon St, New Orleans, Louisiana, 70118",
    "address_councildis": "A",
    "status": "Pending",
    "rowid": "852733",
    "final_x": "3666004.42349",
    "final_y": "528632.193216",
    "longitude": "-90.11709675515546",
    "latitude": "29.948016538760974",
    "geocoded_column": {
      "latitude": "29.948016538760974",
      "longitude": "-90.11709675515546"
    }
  },
  {
    "service_request": "2022-852732",
    "request_type": "Abandoned Vehicles",
    "request_reason": "Abandoned/Junk Vehicles",
    "date_created": "2022-01-08T14:20:25.000",
    "date_modified": "2022-01-08T14:20:25.000",
    "request_status": "Pending",
    "responsible_agency": "Department of Public Works",
    "final_address": "729 Dauphine St",
    "address_councildis": "C",
    "status": "Pending",
    "rowid": "852732",
    "final_x": "3682110.80642",
    "final_y": "533141.053188",
    "longitude": "-90.06608500599152",
    "latitude": "29.959934467511182",
    "geocoded_column": {
      "latitude": "29.959934467511182",
      "longitude": "-90.06608500599152"
    }
  },
  {
    "service_request": "2022-852731",
    "request_type": "Trash/Recycling",
    "request_reason": "Request a Large Item Pick Up",
    "date_created": "2022-01-08T14:18:24.000",
    "date_modified": "2022-01-08T14:18:24.000",
    "request_status": "Pending",
    "responsible_agency": "Department of Sanitation",
    "final_address": "1433 St Roch Ave",
    "address_councildis": "C",
    "status": "Assigned to Contractor",
    "contractor": "Metro Disposal",
    "rowid": "852731",
    "final_x": "3686451.57442",
    "final_y": "537803.850184",
    "longitude": "-90.05221322034109",
    "latitude": "29.972622822647775",
    "geocoded_column": {
      "latitude": "29.972622822647775",
      "longitude": "-90.05221322034109"
    }
  },
  {
    "service_request": "2022-852730",
    "request_type": "Trash/Recycling",
    "request_reason": "Order Recycling Cart",
    "date_created": "2022-01-08T14:17:31.000",
    "date_modified": "2022-01-08T14:17:31.000",
    "request_status": "Pending",
    "responsible_agency": "Department of Sanitation",
    "final_address": "5353 Laurel St",
    "address_councildis": "B",
    "status": "Pending",
    "rowid": "852730",
    "final_x": "3666843.08557",
    "final_y": "517963.700022",
    "longitude": "-90.11480696648415",
    "latitude": "29.918657079624936",
    "geocoded_column": {
      "latitude": "29.918657079624936",
      "longitude": "-90.11480696648415"
    }
  },
  {
    "service_request": "2022-852729",
    "request_type": "Property Maintenance",
    "request_reason": "Property Maintenance",
    "date_created": "2022-01-08T14:11:04.000",
    "date_modified": "2022-01-08T14:11:04.000",
    "request_status": "Pending",
    "responsible_agency": "Department of Code Enforcement",
    "final_address": "1841 Old Roman St",
    "address_councildis": "D",
    "status": "Pending",
    "rowid": "852729",
    "final_x": "3682464.7453",
    "final_y": "539457.753738",
    "longitude": "-90.06474651078025",
    "latitude": "29.97729244674282",
    "geocoded_column": {
      "latitude": "29.97729244674282",
      "longitude": "-90.06474651078025"
    }
  },
  {
    "service_request": "2022-852728",
    "request_type": "Trash/Recycling",
    "request_reason": "Request a Large Item Pick Up",
    "date_created": "2022-01-08T14:04:38.000",
    "date_modified": "2022-01-08T14:04:38.000",
    "request_status": "Pending",
    "responsible_agency": "Department of Sanitation",
    "final_address": "5973 Canal Blvd",
    "address_councildis": "A",
    "status": "Assigned to Contractor",
    "contractor": "Metro Disposal",
    "rowid": "852728",
    "final_x": "3668629.14087",
    "final_y": "547159.107089",
    "longitude": "-90.10818397977992",
    "latitude": "29.998882468845753",
    "geocoded_column": {
      "latitude": "29.998882468845753",
      "longitude": "-90.10818397977992"
    }
  },
  {
    "service_request": "2022-852727",
    "request_type": "Abandoned Vehicles",
    "request_reason": "Abandoned/Junk Vehicles",
    "date_created": "2022-01-08T13:54:59.000",
    "date_modified": "2022-01-08T13:54:59.000",
    "request_status": "Pending",
    "responsible_agency": "Department of Public Works",
    "final_address": "2903 General Taylor St",
    "address_councildis": "B",
    "status": "Pending",
    "rowid": "852727",
    "final_x": "3671582.69415",
    "final_y": "525633.929725",
    "longitude": "-90.09958579473104",
    "latitude": "29.939608306782713",
    "geocoded_column": {
      "latitude": "29.939608306782713",
      "longitude": "-90.09958579473104"
    }
  },
  {
    "service_request": "2022-852724",
    "request_type": "COVID-19",
    "request_reason": "COVID-19 Business Non-Compliance",
    "date_created": "2022-01-08T13:48:42.000",
    "date_modified": "2022-01-08T13:48:43.000",
    "request_status": "Pending",
    "responsible_agency": "Safety and Permits",
    "final_address": "233 N Peters St",
    "address_councildis": "C",
    "status": "Pending",
    "rowid": "852724",
    "final_x": "3682369.62767",
    "final_y": "530633.13453",
    "longitude": "-90.06535534215988",
    "latitude": "29.953030671071215",
    "geocoded_column": {
      "latitude": "29.953030671071215",
      "longitude": "-90.06535534215988"
    }
  },
  {
    "service_request": "2022-852723",
    "request_type": "Property Maintenance",
    "request_reason": "Property Maintenance",
    "date_created": "2022-01-08T13:39:46.000",
    "date_modified": "2022-01-08T13:39:46.000",
    "request_status": "Pending",
    "responsible_agency": "Department of Code Enforcement",
    "final_address": "1115 Music St",
    "address_councildis": "C",
    "status": "Pending",
    "rowid": "852723",
    "final_x": "3686863.14114",
    "final_y": "536695.209095",
    "longitude": "-90.0509526058733",
    "latitude": "29.969561788178613",
    "geocoded_column": {
      "latitude": "29.969561788178613",
      "longitude": "-90.0509526058733"
    }
  },
  {
    "service_request": "2022-852722",
    "request_type": "Property Maintenance",
    "request_reason": "Property Maintenance",
    "date_created": "2022-01-08T13:33:08.000",
    "date_modified": "2022-01-08T13:33:08.000",
    "request_status": "Pending",
    "responsible_agency": "Department of Code Enforcement",
    "final_address": "1818 N Johnson St",
    "address_councildis": "D",
    "status": "Pending",
    "rowid": "852722",
    "final_x": "3682686.63701",
    "final_y": "539413.056458",
    "longitude": "-90.06404726811128",
    "latitude": "29.977162788098568",
    "geocoded_column": {
      "latitude": "29.977162788098568",
      "longitude": "-90.06404726811128"
    }
  },
  {
    "service_request": "2022-852721",
    "request_type": "Traffic Signals/Signs/Striping/Streetlights",
    "request_reason": "Street Light Outage/Malfunction",
    "date_created": "2022-01-08T13:12:16.000",
    "date_modified": "2022-01-08T13:12:17.000",
    "request_status": "Pending",
    "responsible_agency": "Department of Public Works",
    "final_address": "1200 Frenchmen St",
    "address_councildis": "C",
    "status": "Pending",
    "contractor": "Royal Engineering",
    "rowid": "852721",
    "final_x": "3684498.6285",
    "final_y": "536673.452167",
    "longitude": "-90.05842069031115",
    "latitude": "29.969574515689832",
    "geocoded_column": {
      "latitude": "29.969574515689832",
      "longitude": "-90.05842069031115"
    }
  },
  {
    "service_request": "2022-852720",
    "request_type": "Traffic Signals/Signs/Striping/Streetlights",
    "request_reason": "Street Light Outage/Malfunction",
    "date_created": "2022-01-08T13:08:52.000",
    "date_modified": "2022-01-08T13:08:52.000",
    "request_status": "Pending",
    "responsible_agency": "Department of Public Works",
    "final_address": "1400 Frenchmen St",
    "address_councildis": "C",
    "status": "Pending",
    "contractor": "Royal Engineering",
    "rowid": "852720",
    "final_x": "3684461.13884",
    "final_y": "537405.360584",
    "longitude": "-90.05851336957154",
    "latitude": "29.97158815643856",
    "geocoded_column": {
      "latitude": "29.97158815643856",
      "longitude": "-90.05851336957154"
    }
  },
  {
    "service_request": "2022-852719",
    "request_type": "Property Maintenance",
    "request_reason": "Property Maintenance",
    "date_created": "2022-01-08T13:05:58.000",
    "date_modified": "2022-01-08T13:05:58.000",
    "request_status": "Pending",
    "responsible_agency": "Department of Code Enforcement",
    "final_address": "2701 Canal St",
    "address_councildis": "B",
    "status": "Pending",
    "rowid": "852719",
    "final_x": "3675309.15048",
    "final_y": "535276.497158",
    "longitude": "-90.0874898488438",
    "latitude": "29.966011304762628",
    "geocoded_column": {
      "latitude": "29.966011304762628",
      "longitude": "-90.0874898488438"
    }
  },
  {
    "service_request": "2022-852718",
    "request_type": "Trash/Recycling",
    "request_reason": "Request a Large Item Pick Up",
    "date_created": "2022-01-08T13:04:06.000",
    "date_modified": "2022-01-08T13:04:07.000",
    "request_status": "Pending",
    "responsible_agency": "Department of Sanitation",
    "final_address": "4918 Constance St",
    "address_councildis": "B",
    "status": "Assigned to Contractor",
    "contractor": "Richards Disposal",
    "rowid": "852718",
    "final_x": "3668806.02458",
    "final_y": "518168.995766",
    "longitude": "-90.10860405363842",
    "latitude": "29.919164033907283",
    "geocoded_column": {
      "latitude": "29.919164033907283",
      "longitude": "-90.10860405363842"
    }
  },
  {
    "service_request": "2022-852716",
    "request_type": "Trash/Recycling",
    "request_reason": "Request a Large Item Pick Up",
    "date_created": "2022-01-08T12:47:30.000",
    "date_modified": "2022-01-08T12:47:31.000",
    "request_status": "Pending",
    "responsible_agency": "Department of Sanitation",
    "final_address": "1514 Fern St",
    "address_councildis": "A",
    "status": "Assigned to Contractor",
    "contractor": "Richards Disposal",
    "rowid": "852716",
    "final_x": "3663323.92391",
    "final_y": "528770.623488",
    "longitude": "-90.12555560608394",
    "latitude": "29.948475138337177",
    "geocoded_column": {
      "latitude": "29.948475138337177",
      "longitude": "-90.12555560608394"
    }
  },
  {
    "service_request": "2022-852715",
    "request_type": "Trash/Recycling",
    "request_reason": "Start Trash Service",
    "date_created": "2022-01-08T12:46:19.000",
    "date_modified": "2022-01-08T12:46:20.000",
    "request_status": "Pending",
    "responsible_agency": "Department of Sanitation",
    "final_address": "2615 Erato St",
    "address_councildis": "B",
    "status": "Assigned to Contractor",
    "contractor": "Richards Disposal",
    "rowid": "852715",
    "final_x": "3676370.97006",
    "final_y": "528083.490687",
    "longitude": "-90.0843842423561",
    "latitude": "29.946201159788192",
    "geocoded_column": {
      "latitude": "29.946201159788192",
      "longitude": "-90.0843842423561"
    }
  },
  {
    "service_request": "2022-852714",
    "request_type": "Trash/Recycling",
    "request_reason": "Illegal Dumping",
    "date_created": "2022-01-08T12:41:23.000",
    "date_modified": "2022-01-08T12:41:24.000",
    "request_status": "Pending",
    "responsible_agency": "Department of Code Enforcement",
    "final_address": "11221 Old Gentilly Rd",
    "address_councildis": "E",
    "status": "Pending",
    "rowid": "852714",
    "final_x": "3717420.41919",
    "final_y": "554690.320664",
    "longitude": "-89.95376706950672",
    "latitude": "30.018065682811578",
    "geocoded_column": {
      "latitude": "30.018065682811578",
      "longitude": "-89.95376706950672"
    }
  },
  {
    "service_request": "2022-852713",
    "request_type": "Property Maintenance",
    "request_reason": "Property Maintenance",
    "date_created": "2022-01-08T12:25:15.000",
    "date_modified": "2022-01-08T12:25:15.000",
    "request_status": "Pending",
    "responsible_agency": "Department of Code Enforcement",
    "final_address": "2022 Bienville Ave",
    "address_councildis": "B",
    "status": "Pending",
    "rowid": "852713",
    "final_x": "3677815.002",
    "final_y": "534143.839109",
    "longitude": "-90.0796155714666",
    "latitude": "29.962821725852937",
    "geocoded_column": {
      "latitude": "29.962821725852937",
      "longitude": "-90.0796155714666"
    }
  },
  {
    "service_request": "2022-852712",
    "request_type": "Trash/Recycling",
    "request_reason": "Missed Trash Pick-Up",
    "date_created": "2022-01-08T12:07:56.000",
    "date_modified": "2022-01-08T12:07:56.000",
    "request_status": "Pending",
    "responsible_agency": "Department of Sanitation",
    "final_address": "8326 Leeds St",
    "address_councildis": "E",
    "status": "Assigned to Contractor",
    "contractor": "Metro Disposal",
    "rowid": "852712",
    "final_x": "3705937.25815",
    "final_y": "555002.04988",
    "longitude": "-89.99003765567284",
    "latitude": "30.0192979678307",
    "geocoded_column": {
      "latitude": "30.0192979678307",
      "longitude": "-89.99003765567284"
    }
  },
  {
    "service_request": "2022-852711",
    "request_type": "Trash/Recycling",
    "request_reason": "Order Recycling Cart",
    "date_created": "2022-01-08T12:01:55.000",
    "date_modified": "2022-01-08T12:01:55.000",
    "request_status": "Pending",
    "responsible_agency": "Department of Sanitation",
    "final_address": "7933 Birch St, New Orleans, Louisiana, 70118",
    "address_councildis": "A",
    "status": "Pending",
    "rowid": "852711",
    "final_x": "3663309.23763",
    "final_y": "529107.803392",
    "longitude": "-90.12559075568633",
    "latitude": "29.94940270024249",
    "geocoded_column": {
      "latitude": "29.94940270024249",
      "longitude": "-90.12559075568633"
    }
  },
  {
    "service_request": "2022-852710",
    "request_type": "Abandoned Vehicles",
    "request_reason": "Abandoned/Junk Vehicles",
    "date_created": "2022-01-08T11:57:37.000",
    "date_modified": "2022-01-08T11:57:37.000",
    "request_status": "Pending",
    "responsible_agency": "Department of Public Works",
    "final_address": "851 Filmore Ave",
    "address_councildis": "A",
    "status": "Pending",
    "rowid": "852710",
    "final_x": "3669989.95553",
    "final_y": "552003.530646",
    "longitude": "-90.10372091182246",
    "latitude": "30.01216286138647",
    "geocoded_column": {
      "latitude": "30.01216286138647",
      "longitude": "-90.10372091182246"
    }
  },
  {
    "service_request": "2022-852709",
    "request_type": "Property Maintenance",
    "request_reason": "Property Maintenance",
    "date_created": "2022-01-08T11:53:17.000",
    "date_modified": "2022-01-08T11:53:17.000",
    "request_status": "Pending",
    "responsible_agency": "Department of Code Enforcement",
    "final_address": "2100 Valentine Ct",
    "address_councildis": "C",
    "status": "Pending",
    "rowid": "852709",
    "final_x": "3699789.57194",
    "final_y": "523533.869691",
    "longitude": "-90.01060990476284",
    "latitude": "29.932968634571573",
    "geocoded_column": {
      "latitude": "29.932968634571573",
      "longitude": "-90.01060990476284"
    }
  },
  {
    "service_request": "2022-852708",
    "request_type": "Abandoned Vehicles",
    "request_reason": "Abandoned/Junk Vehicles",
    "date_created": "2022-01-08T11:50:42.000",
    "date_modified": "2022-01-08T11:50:42.000",
    "request_status": "Pending",
    "responsible_agency": "Department of Public Works",
    "final_address": "2300 St Nick Dr",
    "address_councildis": "C",
    "status": "Pending",
    "rowid": "852708",
    "final_x": "3699722.96119",
    "final_y": "522555.027322",
    "longitude": "-90.01085585358017",
    "latitude": "29.930279270646203",
    "geocoded_column": {
      "latitude": "29.930279270646203",
      "longitude": "-90.01085585358017"
    }
  },
  {
    "service_request": "2022-852707",
    "request_type": "Abandoned Vehicles",
    "request_reason": "Abandoned/Junk Vehicles",
    "date_created": "2022-01-08T11:48:07.000",
    "date_modified": "2022-01-08T11:49:25.000",
    "request_status": "Pending",
    "responsible_agency": "Department of Public Works",
    "final_address": "BECK ST & COPERNICUS ST",
    "address_councildis": "C",
    "status": "Pending",
    "rowid": "852707",
    "final_x": "3700452.7",
    "final_y": "522902.28",
    "longitude": "-90.00853952425717",
    "latitude": "29.931210916604662",
    "geocoded_column": {
      "latitude": "29.931210916604662",
      "longitude": "-90.00853952425717"
    }
  },
  {
    "service_request": "2022-852706",
    "request_type": "Trash/Recycling",
    "request_reason": "Order Recycling Cart",
    "date_created": "2022-01-08T11:21:53.000",
    "date_modified": "2022-01-08T11:21:53.000",
    "request_status": "Pending",
    "responsible_agency": "Department of Sanitation",
    "final_address": "5164 Kim Dr",
    "address_councildis": "E",
    "status": "Pending",
    "rowid": "852706",
    "final_x": "3727969.11968",
    "final_y": "563991.149409",
    "longitude": "-89.92007524491133",
    "latitude": "30.043285703649545",
    "geocoded_column": {
      "latitude": "30.043285703649545",
      "longitude": "-89.92007524491133"
    }
  },
  {
    "service_request": "2022-852705",
    "request_type": "Abandoned Vehicles",
    "request_reason": "Abandoned/Junk Vehicles",
    "date_created": "2022-01-08T11:04:20.000",
    "date_modified": "2022-01-08T11:04:20.000",
    "request_status": "Pending",
    "responsible_agency": "Department of Public Works",
    "final_address": "907 Race St",
    "address_councildis": "B",
    "status": "Pending",
    "rowid": "852705",
    "final_x": "3680918.69103",
    "final_y": "523711.200379",
    "longitude": "-90.07017770385124",
    "latitude": "29.93404173342134",
    "geocoded_column": {
      "latitude": "29.93404173342134",
      "longitude": "-90.07017770385124"
    }
  },
  {
    "service_request": "2022-852704",
    "request_type": "Trash/Recycling",
    "request_reason": "Missed Trash Pick-Up",
    "date_created": "2022-01-08T10:44:45.000",
    "date_modified": "2022-01-08T10:44:45.000",
    "request_status": "Pending",
    "responsible_agency": "Department of Sanitation",
    "final_address": "8823 Oleander St",
    "address_councildis": "A",
    "status": "Assigned to Contractor",
    "contractor": "Richards Disposal",
    "rowid": "852704",
    "final_x": "3664798.95661",
    "final_y": "535505.243846",
    "longitude": "-90.12067325126387",
    "latitude": "29.966950313832882",
    "geocoded_column": {
      "latitude": "29.966950313832882",
      "longitude": "-90.12067325126387"
    }
  },
  {
    "service_request": "2022-852703",
    "request_type": "Trash/Recycling",
    "request_reason": "Missed Trash Pick-Up",
    "date_created": "2022-01-08T10:44:29.000",
    "date_modified": "2022-01-08T10:44:29.000",
    "request_status": "Pending",
    "responsible_agency": "Department of Sanitation",
    "final_address": "8821 Oleander St",
    "address_councildis": "A",
    "status": "Assigned to Contractor",
    "contractor": "Richards Disposal",
    "rowid": "852703",
    "final_x": "3664810.09383",
    "final_y": "535494.764422",
    "longitude": "-90.12063842999592",
    "latitude": "29.96692117477467",
    "geocoded_column": {
      "latitude": "29.96692117477467",
      "longitude": "-90.12063842999592"
    }
  },
  {
    "service_request": "2022-852702",
    "request_type": "Property Maintenance",
    "request_reason": "Property Maintenance",
    "date_created": "2022-01-08T10:35:29.000",
    "date_modified": "2022-01-08T10:35:29.000",
    "request_status": "Pending",
    "responsible_agency": "Department of Code Enforcement",
    "final_address": "115 N Prieur St",
    "address_councildis": "B",
    "status": "Pending",
    "rowid": "852702",
    "final_x": "3677666.49589",
    "final_y": "533688.443589",
    "longitude": "-90.08010026356433",
    "latitude": "29.96157400933251",
    "geocoded_column": {
      "latitude": "29.96157400933251",
      "longitude": "-90.08010026356433"
    }
  },
  {
    "service_request": "2022-852701",
    "request_type": "Roads/Drainage",
    "request_reason": "Pothole",
    "date_created": "2022-01-08T10:34:18.000",
    "date_modified": "2022-01-08T10:34:18.000",
    "request_status": "Pending",
    "responsible_agency": "Department of Public Works",
    "final_address": "3500 Camphor St",
    "address_councildis": "A",
    "status": "Pending",
    "rowid": "852701",
    "final_x": "3663648.51603",
    "final_y": "538004.251721",
    "longitude": "-90.12422308559229",
    "latitude": "29.973855187872967",
    "geocoded_column": {
      "latitude": "29.973855187872967",
      "longitude": "-90.12422308559229"
    }
  },
  {
    "service_request": "2022-852700",
    "request_type": "Property Maintenance",
    "request_reason": "Property Maintenance",
    "date_created": "2022-01-08T10:33:35.000",
    "date_modified": "2022-01-08T10:33:35.000",
    "request_status": "Pending",
    "responsible_agency": "Department of Code Enforcement",
    "final_address": "216 N Prieur St",
    "address_councildis": "B",
    "status": "Pending",
    "rowid": "852700",
    "final_x": "3677959.32482",
    "final_y": "533873.423749",
    "longitude": "-90.07916916499565",
    "latitude": "29.9620738324459",
    "geocoded_column": {
      "latitude": "29.9620738324459",
      "longitude": "-90.07916916499565"
    }
  },
  {
    "service_request": "2022-852698",
    "request_type": "Roads/Drainage",
    "request_reason": "Catch Basin - Clogged",
    "date_created": "2022-01-08T10:13:49.000",
    "date_modified": "2022-01-08T10:13:49.000",
    "request_status": "Pending",
    "responsible_agency": "Department of Public Works",
    "final_address": "4408 De Montluzin St",
    "address_councildis": "D",
    "status": "Pending",
    "rowid": "852698",
    "final_x": "3687214.69481",
    "final_y": "549052.609299",
    "longitude": "-90.04940508464618",
    "latitude": "30.003529413416373",
    "geocoded_column": {
      "latitude": "30.003529413416373",
      "longitude": "-90.04940508464618"
    }
  },
  {
    "service_request": "2022-852697",
    "request_type": "Trash/Recycling",
    "request_reason": "Missed Trash Pick-Up",
    "date_created": "2022-01-08T10:11:23.000",
    "date_modified": "2022-01-08T10:11:24.000",
    "request_status": "Pending",
    "responsible_agency": "Department of Sanitation",
    "final_address": "4891 Cerise Ave, New Orleans, Louisiana, 70127",
    "address_councildis": "E",
    "status": "Assigned to Contractor",
    "contractor": "Metro Disposal",
    "rowid": "852697",
    "final_x": "3708575.32452",
    "final_y": "556705.951898",
    "longitude": "-89.98163883049001",
    "latitude": "30.02389773369339",
    "geocoded_column": {
      "latitude": "30.02389773369339",
      "longitude": "-89.98163883049001"
    }
  },
  {
    "service_request": "2022-852696",
    "request_type": "Trash/Recycling",
    "request_reason": "Return Recycling Cart",
    "date_created": "2022-01-08T10:02:29.000",
    "date_modified": "2022-01-08T10:02:29.000",
    "request_status": "Pending",
    "responsible_agency": "Department of Sanitation",
    "final_address": "3717 Gentilly Blvd",
    "address_councildis": "D",
    "status": "Pending",
    "rowid": "852696",
    "final_x": "3687102.84822",
    "final_y": "548973.525587",
    "longitude": "-90.04976122380779",
    "latitude": "30.00331540745377",
    "geocoded_column": {
      "latitude": "30.00331540745377",
      "longitude": "-90.04976122380779"
    }
  },
  {
    "service_request": "2022-852695",
    "request_type": "Trash/Recycling",
    "request_reason": "Missed Trash Pick-Up",
    "date_created": "2022-01-08T10:02:17.000",
    "date_modified": "2022-01-08T10:02:17.000",
    "request_status": "Pending",
    "responsible_agency": "Department of Sanitation",
    "final_address": "918 Bellecastle St",
    "address_councildis": "B",
    "status": "Assigned to Contractor",
    "contractor": "Richards Disposal",
    "rowid": "852695",
    "final_x": "3667663.24225",
    "final_y": "518796.822519",
    "longitude": "-90.11219012821331",
    "latitude": "29.92092389671253",
    "geocoded_column": {
      "latitude": "29.92092389671253",
      "longitude": "-90.11219012821331"
    }
  },
  {
    "service_request": "2022-852694",
    "request_type": "Abandoned Vehicles",
    "request_reason": "Abandoned/Junk Vehicles",
    "date_created": "2022-01-08T10:00:06.000",
    "date_modified": "2022-01-08T10:00:06.000",
    "request_status": "Pending",
    "responsible_agency": "Department of Public Works",
    "final_address": "ST ANDREW ST & FRERET ST",
    "address_councildis": "B",
    "status": "Pending",
    "rowid": "852694",
    "final_x": "3676029.5",
    "final_y": "526723.58",
    "longitude": "-90.08550914111133",
    "latitude": "29.942472084366198",
    "geocoded_column": {
      "latitude": "29.942472084366198",
      "longitude": "-90.08550914111133"
    }
  },
  {
    "service_request": "2022-852692",
    "request_type": "Roads/Drainage",
    "request_reason": "Street Flooding / Drainage",
    "date_created": "2022-01-08T09:46:27.000",
    "date_modified": "2022-01-08T09:46:27.000",
    "request_status": "Pending",
    "responsible_agency": "Department of Public Works",
    "final_address": "309 Webster St",
    "address_councildis": "A",
    "status": "Pending",
    "rowid": "852692",
    "final_x": "3663599.64314",
    "final_y": "517843.01439",
    "longitude": "-90.12504887491177",
    "latitude": "29.918419674889652",
    "geocoded_column": {
      "latitude": "29.918419674889652",
      "longitude": "-90.12504887491177"
    }
  },
  {
    "service_request": "2022-852691",
    "request_type": "Traffic Signals/Signs/Striping/Streetlights",
    "request_reason": "Traffic Signal Malfunctioning/Damaged",
    "date_created": "2022-01-08T09:46:09.000",
    "date_modified": "2022-01-08T09:46:09.000",
    "request_status": "Pending",
    "responsible_agency": "Department of Public Works",
    "final_address": "401 N Carrollton Ave",
    "address_councildis": "A",
    "status": "Pending",
    "rowid": "852691",
    "final_x": "3671482.24667",
    "final_y": "539704.336458",
    "longitude": "-90.0994245569996",
    "latitude": "29.978300224786608",
    "geocoded_column": {
      "latitude": "29.978300224786608",
      "longitude": "-90.0994245569996"
    }
  },
  {
    "service_request": "2022-852690",
    "request_type": "Property Maintenance",
    "request_reason": "Property Maintenance",
    "date_created": "2022-01-08T09:31:13.000",
    "date_modified": "2022-01-08T09:31:13.000",
    "request_status": "Pending",
    "responsible_agency": "Department of Code Enforcement",
    "final_address": "4938 Pecan St",
    "address_councildis": "E",
    "status": "Pending",
    "rowid": "852690",
    "final_x": "3701648.92721",
    "final_y": "555330.971481",
    "longitude": "-90.00357516768338",
    "latitude": "30.020339911595627",
    "geocoded_column": {
      "latitude": "30.020339911595627",
      "longitude": "-90.00357516768338"
    }
  },
  {
    "service_request": "2022-852689",
    "request_type": "Trash/Recycling",
    "request_reason": "Illegal Dumping",
    "date_created": "2022-01-08T09:21:21.000",
    "date_modified": "2022-01-08T09:21:21.000",
    "request_status": "Pending",
    "responsible_agency": "Department of Sanitation",
    "final_address": "11 Bamboo Rd",
    "address_councildis": "A",
    "status": "Pending",
    "rowid": "852689",
    "final_x": "3663517.71943",
    "final_y": "539052.21505",
    "longitude": "-90.12460125843019",
    "latitude": "29.976740533375892",
    "geocoded_column": {
      "latitude": "29.976740533375892",
      "longitude": "-90.12460125843019"
    }
  },
  {
    "service_request": "2022-852688",
    "request_type": "Abandoned Vehicles",
    "request_reason": "Vehicle Blocking Your Driveway",
    "date_created": "2022-01-08T09:04:47.000",
    "date_modified": "2022-01-08T09:06:26.000",
    "request_status": "Pending",
    "responsible_agency": "Department of Public Works",
    "final_address": "472 Lowerline St, New Orleans, Louisiana, 70118",
    "address_councildis": "A",
    "rowid": "852688",
    "final_x": "3661986.24282",
    "final_y": "524404.966652",
    "longitude": "-90.12992401339754",
    "latitude": "29.936509673657252",
    "geocoded_column": {
      "latitude": "29.936509673657252",
      "longitude": "-90.12992401339754"
    }
  },
  {
    "service_request": "2022-852687",
    "request_type": "Trash/Recycling",
    "request_reason": "Replace Trash Cart",
    "date_created": "2022-01-08T08:58:40.000",
    "date_modified": "2022-01-08T08:58:41.000",
    "request_status": "Pending",
    "responsible_agency": "Department of Sanitation",
    "final_address": "5446 Royal St",
    "address_councildis": "E",
    "status": "Assigned to Contractor",
    "contractor": "Metro Disposal",
    "rowid": "852687",
    "final_x": "3697070.53386",
    "final_y": "532374.788291",
    "longitude": "-90.01887348985161",
    "latitude": "29.957364105583565",
    "geocoded_column": {
      "latitude": "29.957364105583565",
      "longitude": "-90.01887348985161"
    }
  },
  {
    "service_request": "2022-852686",
    "request_type": "Traffic Signals/Signs/Striping/Streetlights",
    "request_reason": "Additional signage",
    "date_created": "2022-01-08T08:39:36.000",
    "date_modified": "2022-01-08T08:39:36.000",
    "request_status": "Pending",
    "responsible_agency": "Department of Public Works",
    "final_address": "7849 Read Blvd Apt 12",
    "address_councildis": "E",
    "status": "Pending",
    "rowid": "852686",
    "final_x": "3708429.38795",
    "final_y": "565267.44797",
    "longitude": "-89.98178086429685",
    "latitude": "30.047443191521047",
    "geocoded_column": {
      "latitude": "30.047443191521047",
      "longitude": "-89.98178086429685"
    }
  },
  {
    "service_request": "2022-852685",
    "request_type": "Trash/Recycling",
    "request_reason": "Missed Trash Pick-Up",
    "date_created": "2022-01-08T08:17:50.000",
    "date_modified": "2022-01-08T08:17:51.000",
    "request_status": "Pending",
    "responsible_agency": "Department of Sanitation",
    "final_address": "2127 Piety St",
    "address_councildis": "D",
    "status": "Assigned to Contractor",
    "contractor": "Metro Disposal",
    "rowid": "852685",
    "final_x": "3690858.77244",
    "final_y": "539749.009802",
    "longitude": "-90.0382251028675",
    "latitude": "29.9778350959377",
    "geocoded_column": {
      "latitude": "29.9778350959377",
      "longitude": "-90.0382251028675"
    }
  },
  {
    "service_request": "2022-852684",
    "request_type": "Trash/Recycling",
    "request_reason": "Order Recycling Cart",
    "date_created": "2022-01-08T08:12:20.000",
    "date_modified": "2022-01-08T08:12:20.000",
    "request_status": "Pending",
    "responsible_agency": "Department of Sanitation",
    "final_address": "2831 Audubon St",
    "address_councildis": "B",
    "status": "Pending",
    "rowid": "852684",
    "final_x": "3667694.17434",
    "final_y": "531295.870018",
    "longitude": "-90.11167184375363",
    "latitude": "29.955291355719048",
    "geocoded_column": {
      "latitude": "29.955291355719048",
      "longitude": "-90.11167184375363"
    }
  },
  {
    "service_request": "2022-852683",
    "request_type": "Trash/Recycling",
    "request_reason": "Request a Large Item Pick Up",
    "date_created": "2022-01-08T07:51:49.000",
    "date_modified": "2022-01-08T07:51:49.000",
    "request_status": "Pending",
    "responsible_agency": "Department of Sanitation",
    "final_address": "924 N Dupre St",
    "address_councildis": "A",
    "status": "Assigned to Contractor",
    "contractor": "Richards Disposal",
    "rowid": "852683",
    "final_x": "3676599.72936",
    "final_y": "538214.972361",
    "longitude": "-90.08331299954779",
    "latitude": "29.974052463834358",
    "geocoded_column": {
      "latitude": "29.974052463834358",
      "longitude": "-90.08331299954779"
    }
  },
  {
    "service_request": "2022-852682",
    "request_type": "Trash/Recycling",
    "request_reason": "Replace Trash Cart",
    "date_created": "2022-01-08T07:40:02.000",
    "date_modified": "2022-01-08T07:40:02.000",
    "request_status": "Pending",
    "responsible_agency": "Department of Sanitation",
    "final_address": "107 Larchmont Pl",
    "address_councildis": "C",
    "status": "Assigned to Contractor",
    "contractor": "Richards Disposal",
    "rowid": "852682",
    "final_x": "3707267.14392",
    "final_y": "520902.595833",
    "longitude": "-89.98710155519882",
    "latitude": "29.92549409068828",
    "geocoded_column": {
      "latitude": "29.92549409068828",
      "longitude": "-89.98710155519882"
    }
  },
  {
    "service_request": "2022-852681",
    "request_type": "Abandoned Vehicles",
    "request_reason": "Abandoned/Junk Vehicles",
    "date_created": "2022-01-08T07:22:35.000",
    "date_modified": "2022-01-08T07:22:35.000",
    "request_status": "Pending",
    "responsible_agency": "Department of Public Works",
    "final_address": "2001 Marengo St",
    "address_councildis": "B",
    "status": "Pending",
    "rowid": "852681",
    "final_x": "3671868.31207",
    "final_y": "522455.364602",
    "longitude": "-90.09879217782198",
    "latitude": "29.930859821902562",
    "geocoded_column": {
      "latitude": "29.930859821902562",
      "longitude": "-90.09879217782198"
    }
  },
  {
    "service_request": "2022-852680",
    "request_type": "Trash/Recycling",
    "request_reason": "Request a Large Item Pick Up",
    "date_created": "2022-01-07T23:48:54.000",
    "date_modified": "2022-01-07T23:48:55.000",
    "request_status": "Pending",
    "responsible_agency": "Department of Sanitation",
    "final_address": "2414 George Nick Connor Dr",
    "address_councildis": "D",
    "status": "Assigned to Contractor",
    "contractor": "Metro Disposal",
    "rowid": "852680",
    "final_x": "3681168.00936",
    "final_y": "540954.996683",
    "longitude": "-90.0687898413553",
    "latitude": "29.98144875508968",
    "geocoded_column": {
      "latitude": "29.98144875508968",
      "longitude": "-90.0687898413553"
    }
  },
  {
    "service_request": "2022-852679",
    "request_type": "Trash/Recycling",
    "request_reason": "Order Recycling Cart",
    "date_created": "2022-01-07T23:46:56.000",
    "date_modified": "2022-01-07T23:46:56.000",
    "request_status": "Pending",
    "responsible_agency": "Department of Sanitation",
    "final_address": "602 Guadal Canal St",
    "address_councildis": "C",
    "status": "Pending",
    "rowid": "852679",
    "final_x": "3694530.39402",
    "final_y": "528897.047616",
    "longitude": "-90.0270196451663",
    "latitude": "29.94788141168661",
    "geocoded_column": {
      "latitude": "29.94788141168661",
      "longitude": "-90.0270196451663"
    }
  },
  {
    "service_request": "2022-852678",
    "request_type": "Traffic Signals/Signs/Striping/Streetlights",
    "request_reason": "Street Light Outage/Malfunction",
    "date_created": "2022-01-07T22:53:25.000",
    "date_modified": "2022-01-07T22:53:26.000",
    "request_status": "Pending",
    "responsible_agency": "Department of Public Works",
    "final_address": "109 Lark St",
    "address_councildis": "D",
    "status": "Pending",
    "contractor": "Royal Engineering",
    "rowid": "852678",
    "final_x": "3674864.29409",
    "final_y": "556196.748954",
    "longitude": "-90.08817677621316",
    "latitude": "30.023547979881883",
    "geocoded_column": {
      "latitude": "30.023547979881883",
      "longitude": "-90.08817677621316"
    }
  },
  {
    "service_request": "2022-852677",
    "request_type": "Trash/Recycling",
    "request_reason": "Order Trash Cart",
    "date_created": "2022-01-07T22:32:32.000",
    "date_modified": "2022-01-07T22:32:32.000",
    "request_status": "Pending",
    "responsible_agency": "Department of Sanitation",
    "final_address": "New Orleans,LA",
    "status": "Assigned to Contractor",
    "rowid": "852677",
    "longitude": "0.0",
    "latitude": "0.0",
    "geocoded_column": {
      "latitude": "0.0",
      "longitude": "0.0"
    }
  },
  {
    "service_request": "2022-852676",
    "request_type": "Trash/Recycling",
    "request_reason": "Replace Trash Cart",
    "date_created": "2022-01-07T22:30:25.000",
    "date_modified": "2022-01-07T22:30:25.000",
    "request_status": "Pending",
    "responsible_agency": "Department of Sanitation",
    "final_address": "1478 Mirabeau Ave",
    "address_councildis": "D",
    "status": "Assigned to Contractor",
    "contractor": "Metro Disposal",
    "rowid": "852676",
    "final_x": "3678350.46453",
    "final_y": "550152.418836",
    "longitude": "-90.07737053409649",
    "latitude": "30.006823626759417",
    "geocoded_column": {
      "latitude": "30.006823626759417",
      "longitude": "-90.07737053409649"
    }
  },
  {
    "service_request": "2022-852675",
    "request_type": "Trash/Recycling",
    "request_reason": "MIssed Recycling Pick-Up",
    "date_created": "2022-01-07T22:17:48.000",
    "date_modified": "2022-01-07T22:17:49.000",
    "request_status": "Pending",
    "responsible_agency": "Department of Sanitation",
    "final_address": "3818 Jena St",
    "address_councildis": "B",
    "status": "Assigned to Contractor",
    "contractor": "Richards Disposal",
    "rowid": "852675",
    "final_x": "3669630.29454",
    "final_y": "528598.760896",
    "longitude": "-90.10564951624902",
    "latitude": "29.94781828813069",
    "geocoded_column": {
      "latitude": "29.94781828813069",
      "longitude": "-90.10564951624902"
    }
  },
  {
    "service_request": "2022-852674",
    "request_type": "Health Related Questions",
    "request_reason": "Noise Ordinance Complaint",
    "date_created": "2022-01-07T21:34:33.000",
    "date_modified": "2022-01-07T21:34:33.000",
    "request_status": "Pending",
    "responsible_agency": "Health Department",
    "final_address": "239 Decatur St",
    "address_councildis": "C",
    "status": "Pending",
    "rowid": "852674",
    "final_x": "3682195.63317",
    "final_y": "530830.069826",
    "longitude": "-90.06589786183099",
    "latitude": "29.95357746948798",
    "geocoded_column": {
      "latitude": "29.95357746948798",
      "longitude": "-90.06589786183099"
    }
  },
  {
    "service_request": "2022-852673",
    "request_type": "Trash/Recycling",
    "request_reason": "Request a Large Item Pick Up",
    "date_created": "2022-01-07T21:26:29.000",
    "date_modified": "2022-01-07T21:26:30.000",
    "request_status": "Pending",
    "responsible_agency": "Department of Sanitation",
    "final_address": "321 Neil Ave",
    "address_councildis": "C",
    "status": "Assigned to Contractor",
    "contractor": "Richards Disposal",
    "rowid": "852673",
    "final_x": "3707548.0739",
    "final_y": "518672.789815",
    "longitude": "-89.98629750106043",
    "latitude": "29.91935382458265",
    "geocoded_column": {
      "latitude": "29.91935382458265",
      "longitude": "-89.98629750106043"
    }
  },
  {
    "service_request": "2022-852672",
    "request_type": "Abandoned Vehicles",
    "request_reason": "Abandoned/Junk Vehicles",
    "date_created": "2022-01-07T21:23:24.000",
    "date_modified": "2022-01-07T21:23:24.000",
    "request_status": "Pending",
    "responsible_agency": "Department of Public Works",
    "final_address": "3753 Gentilly Blvd",
    "address_councildis": "D",
    "status": "Pending",
    "rowid": "852672",
    "final_x": "3687493.31702",
    "final_y": "549019.750931",
    "longitude": "-90.04852603854562",
    "latitude": "30.003430477536895",
    "geocoded_column": {
      "latitude": "30.003430477536895",
      "longitude": "-90.04852603854562"
    }
  },
  {
    "service_request": "2022-852671",
    "request_type": "Abandoned Vehicles",
    "request_reason": "Abandoned/Junk Vehicles",
    "date_created": "2022-01-07T21:20:41.000",
    "date_modified": "2022-01-07T21:20:41.000",
    "request_status": "Pending",
    "responsible_agency": "Department of Public Works",
    "final_address": "427 Leboeuf St",
    "address_councildis": "C",
    "status": "Pending",
    "rowid": "852671",
    "final_x": "3689790.86364",
    "final_y": "530029.864769",
    "longitude": "-90.0419438742041",
    "latitude": "29.95114399069553",
    "geocoded_column": {
      "latitude": "29.95114399069553",
      "longitude": "-90.0419438742041"
    }
  },
  {
    "service_request": "2022-852670",
    "request_type": "Traffic Signals/Signs/Striping/Streetlights",
    "request_reason": "Street Light Outage/Malfunction",
    "date_created": "2022-01-07T20:28:57.000",
    "date_modified": "2022-01-07T20:28:58.000",
    "request_status": "Pending",
    "responsible_agency": "Department of Public Works",
    "final_address": "10080 Morrison Rd",
    "address_councildis": "E",
    "status": "Pending",
    "contractor": "Royal Engineering",
    "rowid": "852670",
    "final_x": "3709482.39045",
    "final_y": "563757.443745",
    "longitude": "-89.97850925540246",
    "latitude": "30.0432570921163",
    "geocoded_column": {
      "latitude": "30.0432570921163",
      "longitude": "-89.97850925540246"
    }
  },
  {
    "service_request": "2022-852669",
    "request_type": "Health Related Questions",
    "request_reason": "Noise Ordinance Complaint",
    "date_created": "2022-01-07T20:03:37.000",
    "date_modified": "2022-01-07T20:03:37.000",
    "request_status": "Pending",
    "responsible_agency": "Health Department",
    "final_address": "718 Bourbon St, New Orleans, Louisiana, 70116",
    "address_councildis": "C",
    "status": "Pending",
    "rowid": "852669",
    "final_x": "3682364.17781",
    "final_y": "532746.008004",
    "longitude": "-90.06529872053143",
    "latitude": "29.95884052062511",
    "geocoded_column": {
      "latitude": "29.95884052062511",
      "longitude": "-90.06529872053143"
    }
  },
  {
    "service_request": "2022-852668",
    "request_type": "Traffic Signals/Signs/Striping/Streetlights",
    "request_reason": "Street Light Outage/Malfunction",
    "date_created": "2022-01-07T20:01:51.000",
    "date_modified": "2022-01-07T20:01:52.000",
    "request_status": "Pending",
    "responsible_agency": "Department of Public Works",
    "final_address": "4726 Rosemont Pl",
    "address_councildis": "E",
    "status": "Pending",
    "contractor": "Royal Engineering",
    "rowid": "852668",
    "final_x": "3702676.54577",
    "final_y": "554804.42396",
    "longitude": "-90.0003475868234",
    "latitude": "30.018859276852496",
    "geocoded_column": {
      "latitude": "30.018859276852496",
      "longitude": "-90.0003475868234"
    }
  },
  {
    "service_request": "2022-852667",
    "request_type": "Trash/Recycling",
    "request_reason": "Repair Recycling Cart",
    "date_created": "2022-01-07T19:48:53.000",
    "date_modified": "2022-01-07T19:48:53.000",
    "request_status": "Pending",
    "responsible_agency": "Department of Sanitation",
    "final_address": "2812 St Charles Ave",
    "address_councildis": "B",
    "status": "Pending",
    "rowid": "852667",
    "final_x": "3675841.27093",
    "final_y": "522371.406906",
    "longitude": "-90.0862529724447",
    "latitude": "29.930510667619764",
    "geocoded_column": {
      "latitude": "29.930510667619764",
      "longitude": "-90.0862529724447"
    }
  },