[
  {
    "service_request": "2022-854701",
    "request_type": "Roads/Drainage",
    "request_reason": "Street Subsidence (Sinking)",
    "date_created": "2022-01-18T01:53:26.000",
    "date_modified": "2022-01-18T01:53:26.000",
    "request_status": "Pending",
    "responsible_agency": "Department of Public Works",
    "final_address": "5135 Canal Blvd",
    "address_councildis": "A",
    "status": "Pending",
    "rowid": "854701",
    "final_x": "3668064.12852",
    "final_y": "541617.541708",
    "longitude": "-90.11015574166689",
    "latitude": "29.98366165987784",
    "geocoded_column": {
      "latitude": "29.98366165987784",
      "longitude": "-90.11015574166689"
    }
  },
  {
    "service_request": "2022-854700",
    "request_type": "Roads/Drainage",
    "request_reason": "Road Shoulder Repair",
    "date_created": "2022-01-18T01:45:20.000",
    "date_modified": "2022-01-18T01:45:20.000",
    "request_status": "Pending",
    "responsible_agency": "Department of Public Works",
    "final_address": "3423 Cecil St",
    "address_councildis": "A",
    "status": "Pending",
    "rowid": "854700",
    "final_x": "3663434.85299",
    "final_y": "537914.956425",
    "longitude": "-90.12490085803233",
    "latitude": "29.97361585308114",
    "geocoded_column": {
      "latitude": "29.97361585308114",
      "longitude": "-90.12490085803233"
    }
  },
  {
    "service_request": "2022-854699",
    "request_type": "Trash/Recycling",
    "request_reason": "Illegal Dumping",
    "date_created": "2022-01-18T01:39:58.000",
    "date_modified": "2022-01-18T01:39:58.000",
    "request_status": "Pending",
    "responsible_agency": "Department of Sanitation",
    "final_address": "3405 Cecil St",
    "address_councildis": "A",
    "status": "Pending",
    "rowid": "854699",
    "final_x": "3663362.31911",
    "final_y": "537795.640328",
    "longitude": "-90.12513390991647",
    "latitude": "29.973289876521708",
    "geocoded_column": {
      "latitude": "29.973289876521708",
      "longitude": "-90.12513390991647"
    }
  },
  {
    "service_request": "2022-854698",
    "request_type": "Abandoned Vehicles",
    "request_reason": "Abandoned/Junk Vehicles",
    "date_created": "2022-01-18T01:35:26.000",
    "date_modified": "2022-01-18T01:35:26.000",
    "request_status": "Pending",
    "responsible_agency": "Department of Public Works",
    "final_address": "805 Whitney Ave",
    "address_councildis": "C",
    "status": "Pending",
    "rowid": "854698",
    "final_x": "3690101.49545",
    "final_y": "528587.996736",
    "longitude": "-90.04101440375015",
    "latitude": "29.94716971959314",
    "geocoded_column": {
      "latitude": "29.94716971959314",
      "longitude": "-90.04101440375015"
    }
  },
  {
    "service_request": "2022-854697",
    "request_type": "Traffic Signals/Signs/Striping/Streetlights",
    "request_reason": "Street Light Outage/Malfunction",
    "date_created": "2022-01-17T23:54:02.000",
    "date_modified": "2022-01-17T23:54:03.000",
    "request_status": "Pending",
    "responsible_agency": "Department of Public Works",
    "final_address": "4047 S Carrollton Ave",
    "address_councildis": "A",
    "status": "Pending",
    "contractor": "Royal Engineering",
    "rowid": "854697",
    "final_x": "3669005.90439",
    "final_y": "536217.497991",
    "longitude": "-90.10736359369758",
    "latitude": "29.968785682007738",
    "geocoded_column": {
      "latitude": "29.968785682007738",
      "longitude": "-90.10736359369758"
    }
  },
  {
    "service_request": "2022-854696",
    "request_type": "Abandoned Vehicles",
    "request_reason": "Abandoned/Junk Vehicles",
    "date_created": "2022-01-17T23:02:26.000",
    "date_modified": "2022-01-17T23:02:26.000",
    "request_status": "Pending",
    "responsible_agency": "Department of Public Works",
    "final_address": "530 Webster St",
    "address_councildis": "A",
    "status": "Pending",
    "rowid": "854696",
    "final_x": "3663817.43168",
    "final_y": "518708.360695",
    "longitude": "-90.12433260937108",
    "latitude": "29.9207927911165",
    "geocoded_column": {
      "latitude": "29.9207927911165",
      "longitude": "-90.12433260937108"
    }
  },
  {
    "service_request": "2022-854695",
    "request_type": "Abandoned Vehicles",
    "request_reason": "Abandoned/Junk Vehicles",
    "date_created": "2022-01-17T22:58:37.000",
    "date_modified": "2022-01-17T22:58:37.000",
    "request_status": "Pending",
    "responsible_agency": "Department of Public Works",
    "final_address": "530 Webster St",
    "address_councildis": "A",
    "status": "Pending",
    "rowid": "854695",
    "final_x": "3663817.43168",
    "final_y": "518708.360695",
    "longitude": "-90.12433260937108",
    "latitude": "29.9207927911165",
    "geocoded_column": {
      "latitude": "29.9207927911165",
      "longitude": "-90.12433260937108"
    }
  },
  {
    "service_request": "2022-854694",
    "request_type": "Traffic Signals/Signs/Striping/Streetlights",
    "request_reason": "Striping/Road Surface Markings",
    "date_created": "2022-01-17T22:57:51.000",
    "date_modified": "2022-01-17T22:57:51.000",
    "request_status": "Pending",
    "responsible_agency": "Department of Public Works",
    "final_address": "7849 Read Blvd Apt 12",
    "address_councildis": "E",
    "status": "Pending",
    "rowid": "854694",
    "final_x": "3708429.38795",
    "final_y": "565267.44797",
    "longitude": "-89.98178086429685",
    "latitude": "30.047443191521047",
    "geocoded_column": {
      "latitude": "30.047443191521047",
      "longitude": "-89.98178086429685"
    }
  },
  {
    "service_request": "2022-854693",
    "request_type": "COVID-19",
    "request_reason": "COVID-19 Business Non-Compliance",
    "date_created": "2022-01-17T22:40:13.000",
    "date_modified": "2022-01-17T22:40:14.000",
    "request_status": "Pending",
    "responsible_agency": "Safety and Permits",
    "final_address": "833 Poydras St",
    "address_councildis": "B",
    "status": "Pending",
    "rowid": "854693",
    "final_x": "3680011.55458",
    "final_y": "529610.537345",
    "longitude": "-90.07283662222024",
    "latitude": "29.950290412537097",
    "geocoded_column": {
      "latitude": "29.950290412537097",
      "longitude": "-90.07283662222024"
    }
  },
  {
    "service_request": "2022-854692",
    "request_type": "Mosquito, Termite & Rodent Control",
    "request_reason": "Mosquito Complaint",
    "date_created": "2022-01-17T22:31:09.000",
    "date_modified": "2022-01-17T22:31:09.000",
    "request_status": "Pending",
    "responsible_agency": "Mosquito, Termite & Rodent Control Board",
    "final_address": "8437 Apple St",
    "address_councildis": "A",
    "status": "Pending",
    "rowid": "854692",
    "final_x": "3664369.27821",
    "final_y": "533053.052612",
    "longitude": "-90.12211204172667",
    "latitude": "29.960220089389743",
    "geocoded_column": {
      "latitude": "29.960220089389743",
      "longitude": "-90.12211204172667"
    }
  },
  {
    "service_request": "2022-854691",
    "request_type": "Trash/Recycling",
    "request_reason": "Missed Trash Pick-Up",
    "date_created": "2022-01-17T21:30:56.000",
    "date_modified": "2022-01-17T21:32:19.000",
    "request_status": "Pending",
    "responsible_agency": "Department of Sanitation",
    "final_address": "4935 Warren Dr",
    "address_councildis": "E",
    "status": "Assigned to Contractor",
    "contractor": "Metro Disposal",
    "rowid": "854691",
    "final_x": "3713421.70098",
    "final_y": "557332.457371",
    "longitude": "-89.9663017703026",
    "latitude": "30.02546228827129",
    "geocoded_column": {
      "latitude": "30.02546228827129",
      "longitude": "-89.9663017703026"
    }
  },
  {
    "service_request": "2022-854690",
    "request_type": "Traffic Signals/Signs/Striping/Streetlights",
    "request_reason": "Street Light Outage/Malfunction",
    "date_created": "2022-01-17T21:11:22.000",
    "date_modified": "2022-01-17T21:11:23.000",
    "request_status": "Pending",
    "responsible_agency": "Department of Public Works",
    "final_address": "2512 Magazine St",
    "address_councildis": "B",
    "status": "Pending",
    "contractor": "Royal Engineering",
    "rowid": "854690",
    "final_x": "3677742.47938",
    "final_y": "521227.996665",
    "longitude": "-90.08029061351739",
    "latitude": "29.92730962944909",
    "geocoded_column": {
      "latitude": "29.92730962944909",
      "longitude": "-90.08029061351739"
    }
  },
  {
    "service_request": "2022-854689",
    "request_type": "Traffic Signals/Signs/Striping/Streetlights",
    "request_reason": "Street Light Outage/Malfunction",
    "date_created": "2022-01-17T20:08:57.000",
    "date_modified": "2022-01-17T20:08:58.000",
    "request_status": "Pending",
    "responsible_agency": "Department of Public Works",
    "final_address": "48 Swallow St",
    "address_councildis": "D",
    "status": "Pending",
    "contractor": "Royal Engineering",
    "rowid": "854689",
    "final_x": "3673747.08257",
    "final_y": "557128.177946",
    "longitude": "-90.09167504859383",
    "latitude": "30.026142407658526",
    "geocoded_column": {
      "latitude": "30.026142407658526",
      "longitude": "-90.09167504859383"
    }
  },
  {
    "service_request": "2022-854688",
    "request_type": "Roads/Drainage",
    "request_reason": "Catch Basin - Broken/Damage",
    "date_created": "2022-01-17T20:01:38.000",
    "date_modified": "2022-01-17T20:01:38.000",
    "request_status": "Pending",
    "responsible_agency": "Department of Public Works",
    "final_address": "1695 Pratt Dr",
    "address_councildis": "D",
    "status": "Pending",
    "rowid": "854688",
    "final_x": "3680049.65736",
    "final_y": "549126.603539",
    "longitude": "-90.07203800899791",
    "latitude": "30.003951680548912",
    "geocoded_column": {
      "latitude": "30.003951680548912",
      "longitude": "-90.07203800899791"
    }
  },
  {
    "service_request": "2022-854687",
    "request_type": "COVID-19",
    "request_reason": "COVID-19 Business Non-Compliance",
    "date_created": "2022-01-17T19:38:30.000",
    "date_modified": "2022-01-17T19:38:31.000",
    "request_status": "Pending",
    "responsible_agency": "Safety and Permits",
    "final_address": "833 Poydras St",
    "address_councildis": "B",
    "status": "Pending",
    "rowid": "854687",
    "final_x": "3680011.55458",
    "final_y": "529610.537345",
    "longitude": "-90.07283662222024",
    "latitude": "29.950290412537097",
    "geocoded_column": {
      "latitude": "29.950290412537097",
      "longitude": "-90.07283662222024"
    }
  },
  {
    "service_request": "2022-854686",
    "request_type": "Trash/Recycling",
    "request_reason": "Order Recycling Cart",
    "date_created": "2022-01-17T19:18:56.000",
    "date_modified": "2022-01-17T19:18:56.000",
    "request_status": "Pending",
    "responsible_agency": "Department of Sanitation",
    "final_address": "739 Lesseps St",
    "address_councildis": "C",
    "status": "Pending",
    "rowid": "854686",
    "final_x": "3692435.30832",
    "final_y": "533885.791493",
    "longitude": "-90.03345595041873",
    "latitude": "29.961664230135188",
    "geocoded_column": {
      "latitude": "29.961664230135188",
      "longitude": "-90.03345595041873"
    }
  },
  {
    "service_request": "2022-854685",
    "request_type": "COVID-19",
    "request_reason": "COVID-19 Business Non-Compliance",
    "date_created": "2022-01-17T18:51:06.000",
    "date_modified": "2022-01-17T18:51:07.000",
    "request_status": "Pending",
    "responsible_agency": "Safety and Permits",
    "final_address": "1240 Decatur St",
    "address_councildis": "C",
    "status": "Pending",
    "rowid": "854685",
    "final_x": "3684499.84245",
    "final_y": "533666.635717",
    "longitude": "-90.0585225023391",
    "latitude": "29.961306772037837",
    "geocoded_column": {
      "latitude": "29.961306772037837",
      "longitude": "-90.0585225023391"
    }
  },
  {
    "service_request": "2022-854684",
    "request_type": "Traffic Signals/Signs/Striping/Streetlights",
    "request_reason": "Street Light Outage/Malfunction",
    "date_created": "2022-01-17T18:47:28.000",
    "date_modified": "2022-01-17T18:47:29.000",
    "request_status": "Pending",
    "responsible_agency": "Department of Public Works",
    "final_address": "2613 Soniat St",
    "address_councildis": "B",
    "status": "Pending",
    "contractor": "Royal Engineering",
    "rowid": "854684",
    "final_x": "3668582.57479",
    "final_y": "525081.193149",
    "longitude": "-90.10907625840711",
    "latitude": "29.938176940529708",
    "geocoded_column": {
      "latitude": "29.938176940529708",
      "longitude": "-90.10907625840711"
    }
  },
  {
    "service_request": "2022-854683",
    "request_type": "COVID-19",
    "request_reason": "COVID-19 Business Non-Compliance",
    "date_created": "2022-01-17T18:42:57.000",
    "date_modified": "2022-01-17T18:42:59.000",
    "request_status": "Pending",
    "responsible_agency": "Safety and Permits",
    "final_address": "3121 Magazine St",
    "address_councildis": "B",
    "status": "Pending",
    "rowid": "854683",
    "final_x": "3675932.96283",
    "final_y": "520131.621368",
    "longitude": "-90.08604048165488",
    "latitude": "29.92434923885031",
    "geocoded_column": {
      "latitude": "29.92434923885031",
      "longitude": "-90.08604048165488"
    }
  },
  {
    "service_request": "2022-854682",
    "request_type": "Abandoned Vehicles",
    "request_reason": "Abandoned/Junk Vehicles",
    "date_created": "2022-01-17T18:42:43.000",
    "date_modified": "2022-01-17T18:42:43.000",
    "request_status": "Pending",
    "responsible_agency": "Department of Public Works",
    "final_address": "MUSIC ST & MEXICO ST",
    "address_councildis": "D",
    "status": "Pending",
    "rowid": "854682",
    "final_x": "3685255.4",
    "final_y": "556290.38",
    "longitude": "-90.0553397759691",
    "latitude": "30.023490854906786",
    "geocoded_column": {
      "latitude": "30.023490854906786",
      "longitude": "-90.0553397759691"
    }
  },
  {
    "service_request": "2022-854681",
    "request_type": "COVID-19",
    "request_reason": "COVID-19 Business Non-Compliance",
    "date_created": "2022-01-17T18:39:36.000",
    "date_modified": "2022-01-17T18:39:37.000",
    "request_status": "Pending",
    "responsible_agency": "Safety and Permits",
    "final_address": "1906 Magazine St",
    "address_councildis": "B",
    "status": "Pending",
    "rowid": "854681",
    "final_x": "3679728.28987",
    "final_y": "522728.293498",
    "longitude": "-90.07396985782103",
    "latitude": "29.931375092629494",
    "geocoded_column": {
      "latitude": "29.931375092629494",
      "longitude": "-90.07396985782103"
    }
  },
  {
    "service_request": "2022-854680",
    "request_type": "Trash/Recycling",
    "request_reason": "Replace Trash Cart",
    "date_created": "2022-01-17T18:29:12.000",
    "date_modified": "2022-01-17T18:29:13.000",
    "request_status": "Pending",
    "responsible_agency": "Department of Sanitation",
    "final_address": "8040 Lacombe St Apt A",
    "address_councildis": "E",
    "status": "Assigned to Contractor",
    "contractor": "Metro Disposal",
    "rowid": "854680",
    "final_x": "3708875.1379",
    "final_y": "566419.379043",
    "longitude": "-89.98032907201193",
    "latitude": "30.050596074177957",
    "geocoded_column": {
      "latitude": "30.050596074177957",
      "longitude": "-89.98032907201193"
    }
  },
  {
    "service_request": "2022-854679",
    "request_type": "Trash/Recycling",
    "request_reason": "Request a Large Item Pick Up",
    "date_created": "2022-01-17T18:24:16.000",
    "date_modified": "2022-01-17T18:24:17.000",
    "request_status": "Pending",
    "responsible_agency": "Department of Sanitation",
    "final_address": "4437 Carondelet St",
    "address_councildis": "B",
    "status": "Assigned to Contractor",
    "contractor": "Richards Disposal",
    "rowid": "854679",
    "final_x": "3670471.49697",
    "final_y": "521275.684409",
    "longitude": "-90.10324171902985",
    "latitude": "29.927657386290356",
    "geocoded_column": {
      "latitude": "29.927657386290356",
      "longitude": "-90.10324171902985"
    }
  },
  {
    "service_request": "2022-854676",
    "request_type": "Traffic Signals/Signs/Striping/Streetlights",
    "request_reason": "Street Light Outage/Malfunction",
    "date_created": "2022-01-17T17:46:22.000",
    "date_modified": "2022-01-17T17:46:22.000",
    "request_status": "Pending",
    "responsible_agency": "Department of Public Works",
    "final_address": "4941 Elysian Fields Ave",
    "address_councildis": "D",
    "status": "Pending",
    "contractor": "Royal Engineering",
    "rowid": "854676",
    "final_x": "3683954.79868",
    "final_y": "551017.034069",
    "longitude": "-90.05963462053637",
    "latitude": "30.009030905797417",
    "geocoded_column": {
      "latitude": "30.009030905797417",
      "longitude": "-90.05963462053637"
    }
  },
  {
    "service_request": "2022-854675",
    "request_type": "Traffic Signals/Signs/Striping/Streetlights",
    "request_reason": "Traffic Signal Malfunctioning/Damaged",
    "date_created": "2022-01-17T17:36:10.000",
    "date_modified": "2022-01-17T17:36:10.000",
    "request_status": "Pending",
    "responsible_agency": "Department of Public Works",
    "final_address": "CHEF MENTEUR HWY & WILSON AVE",
    "address_councildis": "E",
    "status": "Pending",
    "rowid": "854675",
    "final_x": "3703240.7",
    "final_y": "552478.68",
    "longitude": "-89.99865066841369",
    "latitude": "30.0124463124892",
    "geocoded_column": {
      "latitude": "30.0124463124892",
      "longitude": "-89.99865066841369"
    }
  },
  {
    "service_request": "2022-854674",
    "request_type": "Trash/Recycling",
    "request_reason": "Request a Large Item Pick Up",
    "date_created": "2022-01-17T17:36:04.000",
    "date_modified": "2022-01-17T17:36:05.000",
    "request_status": "Pending",
    "responsible_agency": "Department of Sanitation",
    "final_address": "1767 Paul Morphy St",
    "address_councildis": "D",
    "status": "Assigned to Contractor",
    "contractor": "Metro Disposal",
    "rowid": "854674",
    "final_x": "3679566.49717",
    "final_y": "541471.77518",
    "longitude": "-90.07383021372065",
    "latitude": "29.98291821683302",
    "geocoded_column": {
      "latitude": "29.98291821683302",
      "longitude": "-90.07383021372065"
    }
  },
  {
    "service_request": "2022-854673",
    "request_type": "Property Maintenance",
    "request_reason": "Property Maintenance",
    "date_created": "2022-01-17T17:27:57.000",
    "date_modified": "2022-01-17T17:27:57.000",
    "request_status": "Pending",
    "responsible_agency": "Department of Code Enforcement",
    "final_address": "7409 Dogwood Dr",
    "address_councildis": "E",
    "status": "Pending",
    "rowid": "854673",
    "final_x": "3701590.96471",
    "final_y": "560435.921886",
    "longitude": "-90.00357111898242",
    "latitude": "30.034378403825855",
    "geocoded_column": {
      "latitude": "30.034378403825855",
      "longitude": "-90.00357111898242"
    }
  },
  {
    "service_request": "2022-854672",
    "request_type": "Abandoned Vehicles",
    "request_reason": "Abandoned/Junk Vehicles",
    "date_created": "2022-01-17T17:26:39.000",
    "date_modified": "2022-01-17T17:26:39.000",
    "request_status": "Pending",
    "responsible_agency": "Department of Public Works",
    "final_address": "7340 Ligustrum Dr",
    "address_councildis": "E",
    "status": "Pending",
    "rowid": "854672",
    "final_x": "3701716.55665",
    "final_y": "560371.225502",
    "longitude": "-90.00317660728652",
    "latitude": "30.03419650575088",
    "geocoded_column": {
      "latitude": "30.03419650575088",
      "longitude": "-90.00317660728652"
    }
  },
  {
    "service_request": "2022-854671",
    "request_type": "Abandoned Vehicles",
    "request_reason": "Abandoned/Junk Vehicles",
    "date_created": "2022-01-17T17:02:48.000",
    "date_modified": "2022-01-17T17:02:48.000",
    "request_status": "Pending",
    "responsible_agency": "Department of Public Works",
    "final_address": "4600 St Claude Ave",
    "address_councildis": "C",
    "status": "Pending",
    "rowid": "854671",
    "final_x": "3693821.53392",
    "final_y": "534718.93223",
    "longitude": "-90.02904855115517",
    "latitude": "29.963911760299002",
    "geocoded_column": {
      "latitude": "29.963911760299002",
      "longitude": "-90.02904855115517"
    }
  },
  {
    "service_request": "2022-854670",
    "request_type": "Abandoned Vehicles",
    "request_reason": "Abandoned/Junk Vehicles",
    "date_created": "2022-01-17T16:57:10.000",
    "date_modified": "2022-01-17T16:57:10.000",
    "request_status": "Pending",
    "responsible_agency": "Department of Public Works",
    "final_address": "1555 Poydras St",
    "address_councildis": "B",
    "status": "Pending",
    "rowid": "854670",
    "final_x": "3677963.7917",
    "final_y": "530354.310466",
    "longitude": "-90.079276682772",
    "latitude": "29.95239732174202",
    "geocoded_column": {
      "latitude": "29.95239732174202",
      "longitude": "-90.079276682772"
    }
  },
  {
    "service_request": "2022-854669",
    "request_type": "Trash/Recycling",
    "request_reason": "Request a Large Item Pick Up",
    "date_created": "2022-01-17T16:50:40.000",
    "date_modified": "2022-01-17T16:50:41.000",
    "request_status": "Pending",
    "responsible_agency": "Department of Sanitation",
    "final_address": "2357 St Thomas St",
    "address_councildis": "B",
    "status": "Assigned to Contractor",
    "contractor": "Richards Disposal",
    "rowid": "854669",
    "final_x": "3679235.88066",
    "final_y": "520115.927864",
    "longitude": "-90.07561485439388",
    "latitude": "29.924206813004698",
    "geocoded_column": {
      "latitude": "29.924206813004698",
      "longitude": "-90.07561485439388"
    }
  },
  {
    "service_request": "2022-854668",
    "request_type": "COVID-19",
    "request_reason": "COVID-19 Business Non-Compliance",
    "date_created": "2022-01-17T16:49:33.000",
    "date_modified": "2022-01-17T16:49:35.000",
    "request_status": "Pending",
    "responsible_agency": "Safety and Permits",
    "final_address": "833 Poydras St",
    "address_councildis": "B",
    "status": "Pending",
    "rowid": "854668",
    "final_x": "3680011.55458",
    "final_y": "529610.537345",
    "longitude": "-90.07283662222024",
    "latitude": "29.950290412537097",
    "geocoded_column": {
      "latitude": "29.950290412537097",
      "longitude": "-90.07283662222024"
    }
  },
  {
    "service_request": "2022-854667",
    "request_type": "Trash/Recycling",
    "request_reason": "Request a Large Item Pick Up",
    "date_created": "2022-01-17T16:47:38.000",
    "date_modified": "2022-01-17T16:47:39.000",
    "request_status": "Pending",
    "responsible_agency": "Department of Sanitation",
    "final_address": "3508 Livingston St",
    "address_councildis": "A",
    "status": "Assigned to Contractor",
    "contractor": "Richards Disposal",
    "rowid": "854667",
    "final_x": "3663861.70951",
    "final_y": "537860.374793",
    "longitude": "-90.12355456792837",
    "latitude": "29.97345338654563",
    "geocoded_column": {
      "latitude": "29.97345338654563",
      "longitude": "-90.12355456792837"
    }
  },
  {
    "service_request": "2022-854666",
    "request_type": "Trash/Recycling",
    "request_reason": "Missed Trash Pick-Up",
    "date_created": "2022-01-17T16:39:49.000",
    "date_modified": "2022-01-17T16:39:50.000",
    "request_status": "Pending",
    "responsible_agency": "Department of Sanitation",
    "final_address": "2016 Governor Nicholls St",
    "address_councildis": "D",
    "status": "Assigned to Contractor",
    "contractor": "Richards Disposal",
    "rowid": "854666",
    "final_x": "3679877.89666",
    "final_y": "536777.054344",
    "longitude": "-90.07300975454918",
    "latitude": "29.96999994323643",
    "geocoded_column": {
      "latitude": "29.96999994323643",
      "longitude": "-90.07300975454918"
    }
  },
  {
    "service_request": "2022-854665",
    "request_type": "Trash/Recycling",
    "request_reason": "Order Trash Cart",
    "date_created": "2022-01-17T16:36:13.000",
    "date_modified": "2022-01-17T16:36:14.000",
    "request_status": "Pending",
    "responsible_agency": "Department of Sanitation",
    "final_address": "2065 Abundance St",
    "address_councildis": "D",
    "status": "Assigned to Contractor",
    "contractor": "Metro Disposal",
    "rowid": "854665",
    "final_x": "3683470.78869",
    "final_y": "543633.40027",
    "longitude": "-90.06142270751603",
    "latitude": "29.988743342164742",
    "geocoded_column": {
      "latitude": "29.988743342164742",
      "longitude": "-90.06142270751603"
    }
  },
  {
    "service_request": "2022-854664",
    "request_type": "COVID-19",
    "request_reason": "COVID-19 Business Non-Compliance",
    "date_created": "2022-01-17T16:17:16.000",
    "date_modified": "2022-01-17T16:17:17.000",
    "request_status": "Pending",
    "responsible_agency": "Safety and Permits",
    "final_address": "833 Poydras St",
    "address_councildis": "B",
    "status": "Pending",
    "rowid": "854664",
    "final_x": "3680011.55458",
    "final_y": "529610.537345",
    "longitude": "-90.07283662222024",
    "latitude": "29.950290412537097",
    "geocoded_column": {
      "latitude": "29.950290412537097",
      "longitude": "-90.07283662222024"
    }
  },
  {
    "service_request": "2022-854663",
    "request_type": "Traffic Signals/Signs/Striping/Streetlights",
    "request_reason": "Traffic Sign Missing/Damaged",
    "date_created": "2022-01-17T16:15:56.000",
    "date_modified": "2022-01-17T16:15:56.000",
    "request_status": "Pending",
    "responsible_agency": "Department of Public Works",
    "final_address": "9001 River Rd",
    "address_councildis": "C",
    "status": "Pending",
    "rowid": "854663",
    "final_x": "3717828.4142",
    "final_y": "518454.155446",
    "longitude": "-89.95385634546909",
    "latitude": "29.918416346296635",
    "geocoded_column": {
      "latitude": "29.918416346296635",
      "longitude": "-89.95385634546909"
    }
  },
  {
    "service_request": "2022-854661",
    "request_type": "Traffic Signals/Signs/Striping/Streetlights",
    "request_reason": "Street Light Outage/Malfunction",
    "date_created": "2022-01-17T16:11:19.000",
    "date_modified": "2022-01-17T16:11:19.000",
    "request_status": "Pending",
    "responsible_agency": "Department of Public Works",
    "final_address": "6233 Eads St",
    "address_councildis": "D",
    "status": "Pending",
    "contractor": "Royal Engineering",
    "rowid": "854661",
    "final_x": "3686735.87426",
    "final_y": "556303.758234",
    "longitude": "-90.05066132159858",
    "latitude": "30.02348215444821",
    "geocoded_column": {
      "latitude": "30.02348215444821",
      "longitude": "-90.05066132159858"
    }
  },
  {
    "service_request": "2022-854660",
    "request_type": "Trash/Recycling",
    "request_reason": "Request a Large Item Pick Up",
    "date_created": "2022-01-17T16:09:38.000",
    "date_modified": "2022-01-17T16:09:39.000",
    "request_status": "Pending",
    "responsible_agency": "Department of Sanitation",
    "final_address": "1490 Riviera Ave, New Orleans, Louisiana, 70122",
    "address_councildis": "D",
    "status": "Assigned to Contractor",
    "contractor": "Metro Disposal",
    "rowid": "854660",
    "final_x": "3678502.09685",
    "final_y": "550831.283157",
    "longitude": "-90.07686796961055",
    "latitude": "30.008685689856566",
    "geocoded_column": {
      "latitude": "30.008685689856566",
      "longitude": "-90.07686796961055"
    }
  },
  {
    "service_request": "2022-854659",
    "request_type": "Trash/Recycling",
    "request_reason": "MIssed Recycling Pick-Up",
    "date_created": "2022-01-17T16:05:38.000",
    "date_modified": "2022-01-17T16:05:39.000",
    "request_status": "Pending",
    "responsible_agency": "Department of Sanitation",
    "final_address": "616 Delaronde St",
    "address_councildis": "C",
    "status": "Assigned to Contractor",
    "contractor": "Richards Disposal",
    "rowid": "854659",
    "final_x": "3687372.21244",
    "final_y": "531236.979714",
    "longitude": "-90.04953804812723",
    "latitude": "29.954537873504975",
    "geocoded_column": {
      "latitude": "29.954537873504975",
      "longitude": "-90.04953804812723"
    }
  },
  {
    "service_request": "2022-854658",
    "request_type": "Trash/Recycling",
    "request_reason": "Order Recycling Cart",
    "date_created": "2022-01-17T16:01:57.000",
    "date_modified": "2022-01-17T16:01:57.000",
    "request_status": "Pending",
    "responsible_agency": "Department of Sanitation",
    "final_address": "8241 Hickory St",
    "address_councildis": "A",
    "status": "Pending",
    "rowid": "854658",
    "final_x": "3662910.93216",
    "final_y": "530421.08653",
    "longitude": "-90.12680472771325",
    "latitude": "29.95302534339764",
    "geocoded_column": {
      "latitude": "29.95302534339764",
      "longitude": "-90.12680472771325"
    }
  },
  {
    "service_request": "2022-854657",
    "request_type": "Abandoned Vehicles",
    "request_reason": "Abandoned/Junk Vehicles",
    "date_created": "2022-01-17T15:59:27.000",
    "date_modified": "2022-01-17T16:00:21.000",
    "request_status": "Pending",
    "responsible_agency": "Department of Public Works",
    "final_address": "2425 Decatur St",
    "address_councildis": "C",
    "status": "Pending",
    "rowid": "854657",
    "final_x": "3686171.03228",
    "final_y": "534261.587141",
    "longitude": "-90.05322420157185",
    "latitude": "29.962891452887042",
    "geocoded_column": {
      "latitude": "29.962891452887042",
      "longitude": "-90.05322420157185"
    }
  },
  {
    "service_request": "2022-854656",
    "request_type": "Abandoned Vehicles",
    "request_reason": "Abandoned/Junk Vehicles",
    "date_created": "2022-01-17T15:58:21.000",
    "date_modified": "2022-01-17T15:58:21.000",
    "request_status": "Pending",
    "responsible_agency": "Department of Public Works",
    "final_address": "4347 Ray Ave",
    "address_councildis": "E",
    "status": "Pending",
    "rowid": "854656",
    "final_x": "3699030.26077",
    "final_y": "552286.350742",
    "longitude": "-90.01196023637583",
    "latitude": "30.012051659150007",
    "geocoded_column": {
      "latitude": "30.012051659150007",
      "longitude": "-90.01196023637583"
    }
  },
  {
    "service_request": "2022-854655",
    "request_type": "COVID-19",
    "request_reason": "COVID-19 Business Non-Compliance",
    "date_created": "2022-01-17T15:57:20.000",
    "date_modified": "2022-01-17T15:57:22.000",
    "request_status": "Pending",
    "responsible_agency": "Safety and Permits",
    "final_address": "833 Poydras St",
    "address_councildis": "B",
    "status": "Pending",
    "rowid": "854655",
    "final_x": "3680011.55458",
    "final_y": "529610.537345",
    "longitude": "-90.07283662222024",
    "latitude": "29.950290412537097",
    "geocoded_column": {
      "latitude": "29.950290412537097",
      "longitude": "-90.07283662222024"
    }
  },
  {
    "service_request": "2022-854654",
    "request_type": "Trash/Recycling",
    "request_reason": "Request a Large Item Pick Up",
    "date_created": "2022-01-17T15:52:18.000",
    "date_modified": "2022-01-17T15:52:19.000",
    "request_status": "Pending",
    "responsible_agency": "Department of Sanitation",
    "final_address": "6227 Dorothea St",
    "address_councildis": "D",
    "status": "Assigned to Contractor",
    "contractor": "Metro Disposal",
    "rowid": "854654",
    "final_x": "3696494.7233",
    "final_y": "557620.697435",
    "longitude": "-90.01977784471168",
    "latitude": "30.026799249998458",
    "geocoded_column": {
      "latitude": "30.026799249998458",
      "longitude": "-90.01977784471168"
    }
  },
  {
    "service_request": "2022-854653",
    "request_type": "Trash/Recycling",
    "request_reason": "Illegal Dumping",
    "date_created": "2022-01-17T15:46:59.000",
    "date_modified": "2022-01-17T15:46:59.000",
    "request_status": "Pending",
    "responsible_agency": "Department of Sanitation",
    "final_address": "2412 George Nick Connor Dr",
    "address_councildis": "D",
    "status": "Pending",
    "rowid": "854653",
    "final_x": "3681166.49032",
    "final_y": "540937.375755",
    "longitude": "-90.06879525338462",
    "latitude": "29.98140034978296",
    "geocoded_column": {
      "latitude": "29.98140034978296",
      "longitude": "-90.06879525338462"
    }
  },
  {
    "service_request": "2022-854652",
    "request_type": "Trash/Recycling",
    "request_reason": "Order Trash Cart",
    "date_created": "2022-01-17T15:46:18.000",
    "date_modified": "2022-01-17T15:46:19.000",
    "request_status": "Pending",
    "responsible_agency": "Department of Sanitation",
    "final_address": "2331 Caffin Ave",
    "address_councildis": "E",
    "status": "Assigned to Contractor",
    "contractor": "Metro Disposal",
    "rowid": "854652",
    "final_x": "3699347.86634",
    "final_y": "538459.946697",
    "longitude": "-90.01146073428038",
    "latitude": "29.974024080722366",
    "geocoded_column": {
      "latitude": "29.974024080722366",
      "longitude": "-90.01146073428038"
    }
  },
  {
    "service_request": "2022-854651",
    "request_type": "Trash/Recycling",
    "request_reason": "Order Trash Cart",
    "date_created": "2022-01-17T15:44:50.000",
    "date_modified": "2022-01-17T15:44:51.000",
    "request_status": "Pending",
    "responsible_agency": "Department of Sanitation",
    "final_address": "2331 Caffin Ave",
    "address_councildis": "E",
    "status": "Assigned to Contractor",
    "contractor": "Metro Disposal",
    "rowid": "854651",
    "final_x": "3699347.86634",
    "final_y": "538459.946697",
    "longitude": "-90.01146073428038",
    "latitude": "29.974024080722366",
    "geocoded_column": {
      "latitude": "29.974024080722366",
      "longitude": "-90.01146073428038"
    }
  },
  {
    "service_request": "2022-854650",
    "request_type": "Trash/Recycling",
    "request_reason": "Request a Large Item Pick Up",
    "date_created": "2022-01-17T15:38:28.000",
    "date_modified": "2022-01-17T15:38:29.000",
    "request_status": "Pending",
    "responsible_agency": "Department of Sanitation",
    "final_address": "3140 Urquhart St",
    "address_councildis": "C",
    "status": "Assigned to Contractor",
    "contractor": "Metro Disposal",
    "rowid": "854650",
    "final_x": "3689509.19638",
    "final_y": "536610.783495",
    "longitude": "-90.0425991681929",
    "latitude": "29.969247954850026",
    "geocoded_column": {
      "latitude": "29.969247954850026",
      "longitude": "-90.0425991681929"
    }
  },
  {
    "service_request": "2022-854649",
    "request_type": "Abandoned Vehicles",
    "request_reason": "Abandoned/Junk Vehicles",
    "date_created": "2022-01-17T15:36:05.000",
    "date_modified": "2022-01-17T15:36:05.000",
    "request_status": "Pending",
    "responsible_agency": "Department of Public Works",
    "final_address": "2636 Lavender St",
    "address_councildis": "D",
    "status": "Pending",
    "rowid": "854649",
    "final_x": "3687427.43484",
    "final_y": "546910.715409",
    "longitude": "-90.04880886201437",
    "latitude": "29.99763342479797",
    "geocoded_column": {
      "latitude": "29.99763342479797",
      "longitude": "-90.04880886201437"
    }
  },
  {
    "service_request": "2022-854648",
    "request_type": "Abandoned Vehicles",
    "request_reason": "Abandoned/Junk Vehicles",
    "date_created": "2022-01-17T15:35:40.000",
    "date_modified": "2022-01-17T15:35:40.000",
    "request_status": "Pending",
    "responsible_agency": "Department of Public Works",
    "final_address": "323 N White St",
    "address_councildis": "B",
    "status": "Pending",
    "rowid": "854648",
    "final_x": "3675423.84187",
    "final_y": "536333.938823",
    "longitude": "-90.08709133638091",
    "latitude": "29.96891548185293",
    "geocoded_column": {
      "latitude": "29.96891548185293",
      "longitude": "-90.08709133638091"
    }
  },
  {
    "service_request": "2022-854647",
    "request_type": "Trash/Recycling",
    "request_reason": "Request a Large Item Pick Up",
    "date_created": "2022-01-17T15:34:54.000",
    "date_modified": "2022-01-17T15:53:07.000",
    "case_close_date": "2022-01-17T09:53:07.000",
    "request_status": "Closed",
    "responsible_agency": "Department of Sanitation",
    "final_address": "2516 Palmyra St",
    "address_councildis": "B",
    "status": "Resolved",
    "contractor": "Richards Disposal",
    "rowid": "854647",
    "final_x": "3675490.46248",
    "final_y": "533912.198725",
    "longitude": "-90.08696413398081",
    "latitude": "29.962254522613556",
    "geocoded_column": {
      "latitude": "29.962254522613556",
      "longitude": "-90.08696413398081"
    }
  },
  {
    "service_request": "2022-854646",
    "request_type": "Abandoned Vehicles",
    "request_reason": "Abandoned/Junk Vehicles",
    "date_created": "2022-01-17T15:32:14.000",
    "date_modified": "2022-01-17T15:32:14.000",
    "request_status": "Pending",
    "responsible_agency": "Department of Public Works",
    "final_address": "508 State St, New Orleans, Louisiana, 70118",
    "address_councildis": "A",
    "status": "Pending",
    "rowid": "854646",
    "final_x": "3664355.26855",
    "final_y": "518347.499702",
    "longitude": "-90.12264693246243",
    "latitude": "29.91978492107783",
    "geocoded_column": {
      "latitude": "29.91978492107783",
      "longitude": "-90.12264693246243"
    }
  },
  {
    "service_request": "2022-854645",
    "request_type": "Roads/Drainage",
    "request_reason": "Accessibility Ramps, Curbs and Sidewalk Repair",
    "date_created": "2022-01-17T15:30:47.000",
    "date_modified": "2022-01-17T15:30:47.000",
    "request_status": "Pending",
    "responsible_agency": "Department of Public Works",
    "final_address": "4840 Bienville Ave",
    "address_councildis": "A",
    "status": "Pending",
    "rowid": "854645",
    "final_x": "3669032.21383",
    "final_y": "540837.687243",
    "longitude": "-90.10712436419713",
    "latitude": "29.981488873711257",
    "geocoded_column": {
      "latitude": "29.981488873711257",
      "longitude": "-90.10712436419713"
    }
  },
  {
    "service_request": "2022-854644",
    "request_type": "Trash/Recycling",
    "request_reason": "Request a Large Item Pick Up",
    "date_created": "2022-01-17T15:29:35.000",
    "date_modified": "2022-01-17T15:29:36.000",
    "request_status": "Pending",
    "responsible_agency": "Department of Sanitation",
    "final_address": "2111 Columbus St",
    "address_councildis": "D",
    "status": "Assigned to Contractor",
    "contractor": "Metro Disposal",
    "rowid": "854644",
    "final_x": "3680304.49691",
    "final_y": "538402.543241",
    "longitude": "-90.07160598286141",
    "latitude": "29.974456568631886",
    "geocoded_column": {
      "latitude": "29.974456568631886",
      "longitude": "-90.07160598286141"
    }
  },
  {
    "service_request": "2022-854643",
    "request_type": "Abandoned Vehicles",
    "request_reason": "Abandoned/Junk Vehicles",
    "date_created": "2022-01-17T15:28:07.000",
    "date_modified": "2022-01-17T15:28:07.000",
    "request_status": "Pending",
    "responsible_agency": "Department of Public Works",
    "final_address": "417 N White St",
    "address_councildis": "B",
    "status": "Pending",
    "rowid": "854643",
    "final_x": "3675667.10049",
    "final_y": "536544.897671",
    "longitude": "-90.08631585864285",
    "latitude": "29.96948826993826",
    "geocoded_column": {
      "latitude": "29.96948826993826",
      "longitude": "-90.08631585864285"
    }
  },
  {
    "service_request": "2022-854642",
    "request_type": "Traffic Signals/Signs/Striping/Streetlights",
    "request_reason": "Traffic Sign Missing/Damaged",
    "date_created": "2022-01-17T15:25:47.000",
    "date_modified": "2022-01-17T15:25:47.000",
    "request_status": "Pending",
    "responsible_agency": "Department of Public Works",
    "final_address": "FIG ST & S CARROLLTON AVE",
    "address_councildis": "A",
    "status": "Pending",
    "rowid": "854642",
    "final_x": "3666327.2",
    "final_y": "533117.88",
    "longitude": "-90.11592713838606",
    "latitude": "29.96034129002307",
    "geocoded_column": {
      "latitude": "29.96034129002307",
      "longitude": "-90.11592713838606"
    }
  },
  {
    "service_request": "2022-854641",
    "request_type": "Tax and Revenue",
    "request_reason": "Pay Property Tax",
    "date_created": "2022-01-17T15:18:44.000",
    "date_modified": "2022-01-17T15:18:44.000",
    "request_status": "Pending",
    "responsible_agency": "Bureau of Treasury",
    "final_address": "2748 Palmyra St",
    "address_councildis": "B",
    "status": "Pending",
    "rowid": "854641",
    "final_x": "3674482.83656",
    "final_y": "534668.327814",
    "longitude": "-90.09012016725505",
    "latitude": "29.964363721937996",
    "geocoded_column": {
      "latitude": "29.964363721937996",
      "longitude": "-90.09012016725505"
    }
  },
  {
    "service_request": "2022-854640",
    "request_type": "Roads/Drainage",
    "request_reason": "Debris in Roadway",
    "date_created": "2022-01-17T15:16:39.000",
    "date_modified": "2022-01-17T15:16:39.000",
    "request_status": "Pending",
    "responsible_agency": "Department of Public Works",
    "final_address": "1116 Burdette St",
    "address_councildis": "A",
    "status": "Pending",
    "rowid": "854640",
    "final_x": "3662660.02349",
    "final_y": "527523.028799",
    "longitude": "-90.12769327499441",
    "latitude": "29.94506387778022",
    "geocoded_column": {
      "latitude": "29.94506387778022",
      "longitude": "-90.12769327499441"
    }
  },
  {
    "service_request": "2022-854639",
    "request_type": "COVID-19",
    "request_reason": "COVID-19 Business Non-Compliance",
    "date_created": "2022-01-17T15:15:15.000",
    "date_modified": "2022-01-17T15:15:17.000",
    "request_status": "Pending",
    "responsible_agency": "Safety and Permits",
    "final_address": "833 Poydras St",
    "address_councildis": "B",
    "status": "Pending",
    "rowid": "854639",
    "final_x": "3680011.55458",
    "final_y": "529610.537345",
    "longitude": "-90.07283662222024",
    "latitude": "29.950290412537097",
    "geocoded_column": {
      "latitude": "29.950290412537097",
      "longitude": "-90.07283662222024"
    }
  },
  {
    "service_request": "2022-854638",
    "request_type": "COVID-19",
    "request_reason": "COVID-19 Business Non-Compliance",
    "date_created": "2022-01-17T15:14:27.000",
    "date_modified": "2022-01-17T15:14:28.000",
    "request_status": "Pending",
    "responsible_agency": "Safety and Permits",
    "final_address": "833 Poydras St",
    "address_councildis": "B",
    "status": "Pending",
    "rowid": "854638",
    "final_x": "3680011.55458",
    "final_y": "529610.537345",
    "longitude": "-90.07283662222024",
    "latitude": "29.950290412537097",
    "geocoded_column": {
      "latitude": "29.950290412537097",
      "longitude": "-90.07283662222024"
    }
  },
  {
    "service_request": "2022-854637",
    "request_type": "COVID-19",
    "request_reason": "COVID-19 Business Non-Compliance",
    "date_created": "2022-01-17T15:13:58.000",
    "date_modified": "2022-01-17T15:13:59.000",
    "request_status": "Pending",
    "responsible_agency": "Safety and Permits",
    "final_address": "833 Poydras St",
    "address_councildis": "B",
    "status": "Pending",
    "rowid": "854637",
    "final_x": "3680011.55458",
    "final_y": "529610.537345",
    "longitude": "-90.07283662222024",
    "latitude": "29.950290412537097",
    "geocoded_column": {
      "latitude": "29.950290412537097",
      "longitude": "-90.07283662222024"
    }
  },
  {
    "service_request": "2022-854636",
    "request_type": "Roads/Drainage",
    "request_reason": "Catch Basin - Clogged",
    "date_created": "2022-01-17T15:12:45.000",
    "date_modified": "2022-01-17T15:12:45.000",
    "request_status": "Pending",
    "responsible_agency": "Department of Public Works",
    "final_address": "1233 Ursulines Ave",
    "address_councildis": "C",
    "status": "Pending",
    "rowid": "854636",
    "final_x": "3681754.21634",
    "final_y": "534991.015814",
    "longitude": "-90.06714648496964",
    "latitude": "29.96503207114525",
    "geocoded_column": {
      "latitude": "29.96503207114525",
      "longitude": "-90.06714648496964"
    }
  },
  {
    "service_request": "2022-854635",
    "request_type": "COVID-19",
    "request_reason": "COVID-19 Business Non-Compliance",
    "date_created": "2022-01-17T15:06:51.000",
    "date_modified": "2022-01-17T15:06:52.000",
    "request_status": "Pending",
    "responsible_agency": "Safety and Permits",
    "final_address": "833 Poydras St",
    "address_councildis": "B",
    "status": "Pending",
    "rowid": "854635",
    "final_x": "3680011.55458",
    "final_y": "529610.537345",
    "longitude": "-90.07283662222024",
    "latitude": "29.950290412537097",
    "geocoded_column": {
      "latitude": "29.950290412537097",
      "longitude": "-90.07283662222024"
    }
  },
  {
    "service_request": "2022-854634",
    "request_type": "Traffic Signals/Signs/Striping/Streetlights",
    "request_reason": "Street Name Sign Damaged or Missing",
    "date_created": "2022-01-17T15:01:22.000",
    "date_modified": "2022-01-17T15:01:22.000",
    "request_status": "Pending",
    "responsible_agency": "Department of Public Works",
    "final_address": "5803 Fontainebleau Dr",
    "address_councildis": "B",
    "status": "Pending",
    "rowid": "854634",
    "final_x": "3668512.14887",
    "final_y": "529857.889601",
    "longitude": "-90.1091374829572",
    "latitude": "29.951313375380714",
    "geocoded_column": {
      "latitude": "29.951313375380714",
      "longitude": "-90.1091374829572"
    }
  },
  {
    "service_request": "2022-854633",
    "request_type": "Traffic Signals/Signs/Striping/Streetlights",
    "request_reason": "Street Name Sign Damaged or Missing",
    "date_created": "2022-01-17T15:00:02.000",
    "date_modified": "2022-01-17T15:00:02.000",
    "request_status": "Pending",
    "responsible_agency": "Department of Public Works",
    "final_address": "7228 Earhart Blvd",
    "address_councildis": "B",
    "status": "Pending",
    "rowid": "854633",
    "final_x": "3667913.71335",
    "final_y": "532544.627588",
    "longitude": "-90.11093655197844",
    "latitude": "29.9587185909794",
    "geocoded_column": {
      "latitude": "29.9587185909794",
      "longitude": "-90.11093655197844"
    }
  },
  {
    "service_request": "2022-854632",
    "request_type": "Traffic Signals/Signs/Striping/Streetlights",
    "request_reason": "Request for Stop Sign",
    "date_created": "2022-01-17T15:00:01.000",
    "date_modified": "2022-01-17T15:00:01.000",
    "request_status": "Pending",
    "responsible_agency": "Department of Public Works",
    "final_address": "10200 Hillwood St",
    "address_councildis": "E",
    "status": "Pending",
    "rowid": "854632",
    "final_x": "3713152.50328",
    "final_y": "556606.582874",
    "longitude": "-89.9671797335103",
    "latitude": "30.02347524822249",
    "geocoded_column": {
      "latitude": "30.02347524822249",
      "longitude": "-89.9671797335103"
    }
  },
  {
    "service_request": "2022-854631",
    "request_type": "Trash/Recycling",
    "request_reason": "Illegal Dumping",
    "date_created": "2022-01-17T14:59:56.000",
    "date_modified": "2022-01-17T14:59:56.000",
    "request_status": "Pending",
    "responsible_agency": "Department of Sanitation",
    "final_address": "3025 Seine St",
    "address_councildis": "C",
    "status": "Pending",
    "rowid": "854631",
    "final_x": "3694706.17046",
    "final_y": "520290.236088",
    "longitude": "-90.02677451883866",
    "latitude": "29.924210121091697",
    "geocoded_column": {
      "latitude": "29.924210121091697",
      "longitude": "-90.02677451883866"
    }
  },
  {
    "service_request": "2022-854630",
    "request_type": "Trash/Recycling",
    "request_reason": "Illegal Dumping",
    "date_created": "2022-01-17T14:58:55.000",
    "date_modified": "2022-01-17T14:58:55.000",
    "request_status": "Pending",
    "responsible_agency": "Department of Sanitation",
    "final_address": "411 Bienville St",
    "address_councildis": "C",
    "status": "Pending",
    "rowid": "854630",
    "final_x": "3682381.96456",
    "final_y": "530787.44333",
    "longitude": "-90.06531099576203",
    "latitude": "29.953454592579792",
    "geocoded_column": {
      "latitude": "29.953454592579792",
      "longitude": "-90.06531099576203"
    }
  },
  {
    "service_request": "2022-854629",
    "request_type": "Trash/Recycling",
    "request_reason": "Missed Trash Pick-Up",
    "date_created": "2022-01-17T14:58:00.000",
    "date_modified": "2022-01-17T14:58:01.000",
    "request_status": "Pending",
    "responsible_agency": "Department of Sanitation",
    "final_address": "307 Audubon Blvd",
    "address_councildis": "A",
    "status": "Assigned to Contractor",
    "contractor": "Richards Disposal",
    "rowid": "854629",
    "final_x": "3667194.45665",
    "final_y": "529827.094913",
    "longitude": "-90.11329915632001",
    "latitude": "29.951267344036953",
    "geocoded_column": {
      "latitude": "29.951267344036953",
      "longitude": "-90.11329915632001"
    }
  },
  {
    "service_request": "2022-854628",
    "request_type": "Mosquito, Termite & Rodent Control",
    "request_reason": "Rodent Complaint (Rats)",
    "date_created": "2022-01-17T14:56:12.000",
    "date_modified": "2022-01-17T14:56:40.000",
    "request_status": "Pending",
    "responsible_agency": "Mosquito, Termite & Rodent Control Board",
    "final_address": "6963 Salem Dr",
    "address_councildis": "E",
    "status": "Pending",
    "rowid": "854628",
    "final_x": "3706804.06859",
    "final_y": "560618.045534",
    "longitude": "-89.98709037280047",
    "latitude": "30.034711793025984",
    "geocoded_column": {
      "latitude": "30.034711793025984",
      "longitude": "-89.98709037280047"
    }
  },
  {
    "service_request": "2022-854627",
    "request_type": "Trash/Recycling",
    "request_reason": "Replace Trash Cart",
    "date_created": "2022-01-17T14:53:53.000",
    "date_modified": "2022-01-17T14:54:12.000",
    "request_status": "Pending",
    "responsible_agency": "Department of Sanitation",
    "final_address": "848 Weiblen Pl",
    "address_councildis": "A",
    "status": "Assigned to Contractor",
    "contractor": "Metro Disposal",
    "rowid": "854627",
    "final_x": "3668839.6779",
    "final_y": "542486.950605",
    "longitude": "-90.10767676363982",
    "latitude": "29.98602945149896",
    "geocoded_column": {
      "latitude": "29.98602945149896",
      "longitude": "-90.10767676363982"
    }
  },
  {
    "service_request": "2022-854626",
    "request_type": "Trash/Recycling",
    "request_reason": "Request a Large Item Pick Up",
    "date_created": "2022-01-17T14:47:11.000",
    "date_modified": "2022-01-17T14:47:11.000",
    "request_status": "Pending",
    "responsible_agency": "Department of Sanitation",
    "final_address": "6047 General Diaz St",
    "address_councildis": "A",
    "status": "Assigned to Contractor",
    "contractor": "Metro Disposal",
    "rowid": "854626",
    "final_x": "3669631.45761",
    "final_y": "547555.54165",
    "longitude": "-90.10500421380162",
    "latitude": "29.999943020524483",
    "geocoded_column": {
      "latitude": "29.999943020524483",
      "longitude": "-90.10500421380162"
    }
  },
  {
    "service_request": "2022-854625",
    "request_type": "Trash/Recycling",
    "request_reason": "Order Trash Cart",
    "date_created": "2022-01-17T14:46:06.000",
    "date_modified": "2022-01-17T14:46:07.000",
    "request_status": "Pending",
    "responsible_agency": "Department of Sanitation",
    "final_address": "14606 Beekman Rd",
    "address_councildis": "E",
    "status": "Assigned to Contractor",
    "contractor": "Metro Disposal",
    "rowid": "854625",
    "final_x": "3721372.12844",
    "final_y": "573133.521193",
    "longitude": "-89.94057302803701",
    "latitude": "30.068645488543552",
    "geocoded_column": {
      "latitude": "30.068645488543552",
      "longitude": "-89.94057302803701"
    }
  },
  {
    "service_request": "2022-854624",
    "request_type": "Trash/Recycling",
    "request_reason": "Repair Recycling Cart",
    "date_created": "2022-01-17T14:42:04.000",
    "date_modified": "2022-01-17T14:42:04.000",
    "request_status": "Pending",
    "responsible_agency": "Department of Sanitation",
    "final_address": "2406 Joseph St",
    "address_councildis": "A",
    "status": "Pending",
    "rowid": "854624",
    "final_x": "3667300.66874",
    "final_y": "524897.923324",
    "longitude": "-90.1131295296233",
    "latitude": "29.937710605519367",
    "geocoded_column": {
      "latitude": "29.937710605519367",
      "longitude": "-90.1131295296233"
    }
  },
  {
    "service_request": "2022-854623",
    "request_type": "COVID-19",
    "request_reason": "COVID-19 Business Non-Compliance",
    "date_created": "2022-01-17T14:39:56.000",
    "date_modified": "2022-01-17T14:39:57.000",
    "request_status": "Pending",
    "responsible_agency": "Safety and Permits",
    "final_address": "833 Poydras St",
    "address_councildis": "B",
    "status": "Pending",
    "rowid": "854623",
    "final_x": "3680011.55458",
    "final_y": "529610.537345",
    "longitude": "-90.07283662222024",
    "latitude": "29.950290412537097",
    "geocoded_column": {
      "latitude": "29.950290412537097",
      "longitude": "-90.07283662222024"
    }
  },
  {
    "service_request": "2022-854622",
    "request_type": "Trash/Recycling",
    "request_reason": "Order Recycling Cart",
    "date_created": "2022-01-17T14:20:40.000",
    "date_modified": "2022-01-17T14:20:40.000",
    "request_status": "Pending",
    "responsible_agency": "Department of Sanitation",
    "final_address": "3823 Chestnut St",
    "address_councildis": "B",
    "status": "Pending",
    "rowid": "854622",
    "final_x": "3673007.91003",
    "final_y": "519777.355768",
    "longitude": "-90.09528596337066",
    "latitude": "29.923462348557187",
    "geocoded_column": {
      "latitude": "29.923462348557187",
      "longitude": "-90.09528596337066"
    }
  },
  {
    "service_request": "2022-854621",
    "request_type": "COVID-19",
    "request_reason": "COVID-19 Business Non-Compliance",
    "date_created": "2022-01-17T14:16:58.000",
    "date_modified": "2022-01-17T14:17:00.000",
    "request_status": "Pending",
    "responsible_agency": "Safety and Permits",
    "final_address": "833 Poydras St",
    "address_councildis": "B",
    "status": "Pending",
    "rowid": "854621",
    "final_x": "3680011.55458",
    "final_y": "529610.537345",
    "longitude": "-90.07283662222024",
    "latitude": "29.950290412537097",
    "geocoded_column": {
      "latitude": "29.950290412537097",
      "longitude": "-90.07283662222024"
    }
  },
  {
    "service_request": "2022-854620",
    "request_type": "COVID-19",
    "request_reason": "COVID-19 Business Non-Compliance",
    "date_created": "2022-01-17T14:15:55.000",
    "date_modified": "2022-01-17T14:15:56.000",
    "request_status": "Pending",
    "responsible_agency": "Safety and Permits",
    "final_address": "111 Robert E Lee Blvd",
    "address_councildis": "D",
    "status": "Pending",
    "rowid": "854620",
    "final_x": "3667124.95469",
    "final_y": "555326.527193",
    "longitude": "-90.11266088073394",
    "latitude": "30.021384156574168",
    "geocoded_column": {
      "latitude": "30.021384156574168",
      "longitude": "-90.11266088073394"
    }
  },
  {
    "service_request": "2022-854619",
    "request_type": "COVID-19",
    "request_reason": "COVID-19 Business Non-Compliance",
    "date_created": "2022-01-17T14:13:04.000",
    "date_modified": "2022-01-17T14:13:05.000",
    "request_status": "Pending",
    "responsible_agency": "Safety and Permits",
    "final_address": "833 Poydras St",
    "address_councildis": "B",
    "status": "Pending",
    "rowid": "854619",
    "final_x": "3680011.55458",
    "final_y": "529610.537345",
    "longitude": "-90.07283662222024",
    "latitude": "29.950290412537097",
    "geocoded_column": {
      "latitude": "29.950290412537097",
      "longitude": "-90.07283662222024"
    }
  },
  {
    "service_request": "2022-854618",
    "request_type": "Trash/Recycling",
    "request_reason": "Illegal Dumping",
    "date_created": "2022-01-17T13:58:04.000",
    "date_modified": "2022-01-17T14:00:25.000",
    "request_status": "Pending",
    "responsible_agency": "Department of Code Enforcement",
    "final_address": "JACKSON AVE & S ROMAN ST",
    "address_councildis": "B",
    "status": "Pending",
    "rowid": "854618",
    "final_x": "3674137.3",
    "final_y": "528245.28",
    "longitude": "-90.09143118546986",
    "latitude": "29.946712783318823",
    "geocoded_column": {
      "latitude": "29.946712783318823",
      "longitude": "-90.09143118546986"
    }
  },
  {
    "service_request": "2022-854617",
    "request_type": "COVID-19",
    "request_reason": "COVID-19 Business Non-Compliance",
    "date_created": "2022-01-17T13:54:32.000",
    "date_modified": "2022-01-17T13:54:33.000",
    "request_status": "Pending",
    "responsible_agency": "Safety and Permits",
    "final_address": "833 Poydras St",
    "address_councildis": "B",
    "status": "Pending",
    "rowid": "854617",
    "final_x": "3680011.55458",
    "final_y": "529610.537345",
    "longitude": "-90.07283662222024",
    "latitude": "29.950290412537097",
    "geocoded_column": {
      "latitude": "29.950290412537097",
      "longitude": "-90.07283662222024"
    }
  },
  {
    "service_request": "2022-854616",
    "request_type": "Trash/Recycling",
    "request_reason": "Illegal Dumping",
    "date_created": "2022-01-17T13:51:51.000",
    "date_modified": "2022-01-17T13:51:51.000",
    "request_status": "Pending",
    "responsible_agency": "Department of Sanitation",
    "final_address": "2401 Terpsichore St",
    "address_councildis": "B",
    "status": "Pending",
    "rowid": "854616",
    "final_x": "3676175.1732",
    "final_y": "527117.513215",
    "longitude": "-90.08503566772349",
    "latitude": "29.943550907894448",
    "geocoded_column": {
      "latitude": "29.943550907894448",
      "longitude": "-90.08503566772349"
    }
  },
  {
    "service_request": "2022-854615",
    "request_type": "Property Maintenance",
    "request_reason": "Property Maintenance",
    "date_created": "2022-01-17T13:46:40.000",
    "date_modified": "2022-01-17T13:46:40.000",
    "request_status": "Pending",
    "responsible_agency": "Department of Code Enforcement",
    "final_address": "4775 Lancelot Dr",
    "address_councildis": "E",
    "status": "Pending",
    "rowid": "854615",
    "final_x": "3707497.46705",
    "final_y": "555738.115481",
    "longitude": "-89.98508060436245",
    "latitude": "30.021271477618022",
    "geocoded_column": {
      "latitude": "30.021271477618022",
      "longitude": "-89.98508060436245"
    }
  },
  {
    "service_request": "2022-854614",
    "request_type": "COVID-19",
    "request_reason": "COVID-19 Business Non-Compliance",
    "date_created": "2022-01-17T13:30:21.000",
    "date_modified": "2022-01-17T13:30:22.000",
    "request_status": "Pending",
    "responsible_agency": "Safety and Permits",
    "final_address": "833 Poydras St",
    "address_councildis": "B",
    "status": "Pending",
    "rowid": "854614",
    "final_x": "3680011.55458",
    "final_y": "529610.537345",
    "longitude": "-90.07283662222024",
    "latitude": "29.950290412537097",
    "geocoded_column": {
      "latitude": "29.950290412537097",
      "longitude": "-90.07283662222024"
    }
  },
  {
    "service_request": "2022-854613",
    "request_type": "Roads/Drainage",
    "request_reason": "Pothole",
    "date_created": "2022-01-17T13:30:14.000",
    "date_modified": "2022-01-17T13:30:14.000",
    "request_status": "Pending",
    "responsible_agency": "Department of Public Works",
    "final_address": "3201 Ursulines Ave",
    "address_councildis": "A",
    "status": "Pending",
    "rowid": "854613",
    "final_x": "3675887.17832",
    "final_y": "539604.736842",
    "longitude": "-90.08551560162239",
    "latitude": "29.977895195074616",
    "geocoded_column": {
      "latitude": "29.977895195074616",
      "longitude": "-90.08551560162239"
    }
  },
  {
    "service_request": "2022-854612",
    "request_type": "Trash/Recycling",
    "request_reason": "Missed Trash Pick-Up",
    "date_created": "2022-01-17T13:25:45.000",
    "date_modified": "2022-01-17T13:25:46.000",
    "request_status": "Pending",
    "responsible_agency": "Department of Sanitation",
    "final_address": "5525 Marshal Foch St",
    "address_councildis": "A",
    "status": "Assigned to Contractor",
    "contractor": "Metro Disposal",
    "rowid": "854612",
    "final_x": "3669610.33274",
    "final_y": "543952.613326",
    "longitude": "-90.10519294175073",
    "latitude": "29.990036833547286",
    "geocoded_column": {
      "latitude": "29.990036833547286",
      "longitude": "-90.10519294175073"
    }
  },
  {
    "service_request": "2022-854611",
    "request_type": "COVID-19",
    "request_reason": "COVID-19 Business Non-Compliance",
    "date_created": "2022-01-17T13:23:56.000",
    "date_modified": "2022-01-17T13:23:57.000",
    "request_status": "Pending",
    "responsible_agency": "Safety and Permits",
    "final_address": "833 Poydras St",
    "address_councildis": "B",
    "status": "Pending",
    "rowid": "854611",
    "final_x": "3680011.55458",
    "final_y": "529610.537345",
    "longitude": "-90.07283662222024",
    "latitude": "29.950290412537097",
    "geocoded_column": {
      "latitude": "29.950290412537097",
      "longitude": "-90.07283662222024"
    }
  },
  {
    "service_request": "2022-854610",
    "request_type": "Trash/Recycling",
    "request_reason": "Request a Large Item Pick Up",
    "date_created": "2022-01-17T13:21:23.000",
    "date_modified": "2022-01-17T13:21:23.000",
    "request_status": "Pending",
    "responsible_agency": "Department of Sanitation",
    "final_address": "2116 Iberville St",
    "address_councildis": "B",
    "status": "Assigned to Contractor",
    "contractor": "Richards Disposal",
    "rowid": "854610",
    "final_x": "3677384.84123",
    "final_y": "534060.216645",
    "longitude": "-90.08097685091157",
    "latitude": "29.962604726893634",
    "geocoded_column": {
      "latitude": "29.962604726893634",
      "longitude": "-90.08097685091157"
    }
  },
  {
    "service_request": "2022-854609",
    "request_type": "Abandoned Vehicles",
    "request_reason": "Abandoned/Junk Vehicles",
    "date_created": "2022-01-17T13:19:29.000",
    "date_modified": "2022-01-17T13:20:48.000",
    "request_status": "Pending",
    "responsible_agency": "Department of Public Works",
    "final_address": "N TONTI ST & PAINTERS ST",
    "address_councildis": "D",
    "status": "Pending",
    "rowid": "854609",
    "final_x": "3687211.2",
    "final_y": "540926.58",
    "longitude": "-90.04970370967698",
    "latitude": "29.98118585462902",
    "geocoded_column": {
      "latitude": "29.98118585462902",
      "longitude": "-90.04970370967698"
    }
  },
  {
    "service_request": "2022-854608",
    "request_type": "Trash/Recycling",
    "request_reason": "Order Trash Cart",
    "date_created": "2022-01-17T13:19:02.000",
    "date_modified": "2022-01-17T13:19:02.000",
    "request_status": "Pending",
    "responsible_agency": "Department of Sanitation",
    "final_address": "7810 St Charles Ave",
    "address_councildis": "A",
    "status": "Assigned to Contractor",
    "contractor": "Richards Disposal",
    "rowid": "854608",
    "final_x": "3661285.4425",
    "final_y": "526091.573758",
    "longitude": "-90.13208065731001",
    "latitude": "29.941167528931338",
    "geocoded_column": {
      "latitude": "29.941167528931338",
      "longitude": "-90.13208065731001"
    }
  },
  {
    "service_request": "2022-854607",
    "request_type": "Abandoned Vehicles",
    "request_reason": "Abandoned/Junk Vehicles",
    "date_created": "2022-01-17T13:13:58.000",
    "date_modified": "2022-01-17T13:13:58.000",
    "request_status": "Pending",
    "responsible_agency": "Department of Public Works",
    "final_address": "2000 BLK Saint Thomas St",
    "address_councildis": "B",
    "status": "Pending",
    "rowid": "854607",
    "final_x": "3680587.07481",
    "final_y": "521109.481519",
    "longitude": "-90.07131506597797",
    "latitude": "29.926897910264767",
    "geocoded_column": {
      "latitude": "29.926897910264767",
      "longitude": "-90.07131506597797"
    }
  },
  {
    "service_request": "2022-854606",
    "request_type": "Trash/Recycling",
    "request_reason": "Order Recycling Cart",
    "date_created": "2022-01-17T13:10:04.000",
    "date_modified": "2022-01-17T13:10:04.000",
    "request_status": "Pending",
    "responsible_agency": "Department of Sanitation",
    "final_address": "1020 St Ann St",
    "address_councildis": "C",
    "status": "Pending",
    "rowid": "854606",
    "final_x": "3681760.19484",
    "final_y": "533501.91898",
    "longitude": "-90.06717956763326",
    "latitude": "29.96093738275563",
    "geocoded_column": {
      "latitude": "29.96093738275563",
      "longitude": "-90.06717956763326"
    }
  },
  {
    "service_request": "2022-854605",
    "request_type": "Trash/Recycling",
    "request_reason": "Replace Trash Cart",
    "date_created": "2022-01-17T13:08:06.000",
    "date_modified": "2022-01-17T13:08:07.000",
    "request_status": "Pending",
    "responsible_agency": "Department of Sanitation",
    "final_address": "4118 S Liberty St",
    "address_councildis": "B",
    "status": "Assigned to Contractor",
    "contractor": "Richards Disposal",
    "rowid": "854605",
    "final_x": "3671553.03515",
    "final_y": "523343.526459",
    "longitude": "-90.09975728049234",
    "latitude": "29.933311317314892",
    "geocoded_column": {
      "latitude": "29.933311317314892",
      "longitude": "-90.09975728049234"
    }
  },
  {
    "service_request": "2022-854604",
    "request_type": "Trash/Recycling",
    "request_reason": "Order Trash Cart",
    "date_created": "2022-01-17T13:06:13.000",
    "date_modified": "2022-01-17T13:06:14.000",
    "request_status": "Pending",
    "responsible_agency": "Department of Sanitation",
    "final_address": "1020 St Ann St",
    "address_councildis": "C",
    "status": "Assigned to Contractor",
    "contractor": "Empire Services",
    "rowid": "854604",
    "final_x": "3681760.19484",
    "final_y": "533501.91898",
    "longitude": "-90.06717956763326",
    "latitude": "29.96093738275563",
    "geocoded_column": {
      "latitude": "29.96093738275563",
      "longitude": "-90.06717956763326"
    }
  },
  {
    "service_request": "2022-854603",
    "request_type": "Traffic Signals/Signs/Striping/Streetlights",
    "request_reason": "Street Light Outage/Malfunction",
    "date_created": "2022-01-17T13:04:20.000",
    "date_modified": "2022-01-17T13:04:20.000",
    "request_status": "Pending",
    "responsible_agency": "Department of Public Works",
    "final_address": "1237 State St",
    "address_councildis": "A",
    "status": "Pending",
    "contractor": "Royal Engineering",
    "rowid": "854603",
    "final_x": "3665292.93031",
    "final_y": "520763.222905",
    "longitude": "-90.1196064108528",
    "latitude": "29.926400126675993",
    "geocoded_column": {
      "latitude": "29.926400126675993",
      "longitude": "-90.1196064108528"
    }
  },
  {
    "service_request": "2022-854602",
    "request_type": "Abandoned Vehicles",
    "request_reason": "Abandoned/Junk Vehicles",
    "date_created": "2022-01-17T13:04:16.000",
    "date_modified": "2022-01-17T13:04:16.000",
    "request_status": "Pending",
    "responsible_agency": "Department of Public Works",
    "final_address": "9002 Forshey St",
    "address_councildis": "A",
    "status": "Pending",
    "rowid": "854602",
    "final_x": "3664582.92442",
    "final_y": "536077.063943",
    "longitude": "-90.12133638367087",
    "latitude": "29.96852891519895",
    "geocoded_column": {
      "latitude": "29.96852891519895",
      "longitude": "-90.12133638367087"
    }
  },
  {
    "service_request": "2022-854601",
    "request_type": "Trash/Recycling",
    "request_reason": "Order Recycling Cart",
    "date_created": "2022-01-17T13:00:47.000",
    "date_modified": "2022-01-17T13:01:42.000",
    "request_status": "Pending",
    "responsible_agency": "Department of Sanitation",
    "final_address": "3207 Bienville Ave",
    "address_councildis": "B",
    "status": "Pending",
    "rowid": "854601",
    "final_x": "3674325.24129",
    "final_y": "536979.187336",
    "longitude": "-90.09053869145548",
    "latitude": "29.970722505628906",
    "geocoded_column": {
      "latitude": "29.970722505628906",
      "longitude": "-90.09053869145548"
    }
  },
  {
    "service_request": "2022-854600",
    "request_type": "Trash/Recycling",
    "request_reason": "Request a Large Item Pick Up",
    "date_created": "2022-01-17T12:58:01.000",
    "date_modified": "2022-01-17T12:58:02.000",
    "request_status": "Pending",
    "responsible_agency": "Department of Sanitation",
    "final_address": "8129 Hickory St",
    "address_councildis": "A",
    "status": "Assigned to Contractor",
    "contractor": "Richards Disposal",
    "rowid": "854600",
    "final_x": "3663231.30515",
    "final_y": "530125.988673",
    "longitude": "-90.12580294499652",
    "latitude": "29.952204639968194",
    "geocoded_column": {
      "latitude": "29.952204639968194",
      "longitude": "-90.12580294499652"
    }
  },
  {
    "service_request": "2022-854599",
    "request_type": "Abandoned Vehicles",
    "request_reason": "Abandoned/Junk Vehicles",
    "date_created": "2022-01-17T12:56:00.000",
    "date_modified": "2022-01-17T12:56:00.000",
    "request_status": "Pending",
    "responsible_agency": "Department of Public Works",
    "final_address": "8931 Forshey St",
    "address_councildis": "A",
    "status": "Pending",
    "rowid": "854599",
    "final_x": "3664736.88858",
    "final_y": "536035.914951",
    "longitude": "-90.12085152979147",
    "latitude": "29.96841129024832",
    "geocoded_column": {
      "latitude": "29.96841129024832",
      "longitude": "-90.12085152979147"
    }
  },
  {
    "service_request": "2022-854598",
    "request_type": "Trash/Recycling",
    "request_reason": "Replace Trash Cart",
    "date_created": "2022-01-17T12:53:22.000",
    "date_modified": "2022-01-17T12:53:22.000",
    "request_status": "Pending",
    "responsible_agency": "Department of Sanitation",
    "final_address": "716 N Rendon St",
    "address_councildis": "A",
    "status": "Assigned to Contractor",
    "contractor": "Richards Disposal",
    "rowid": "854598",
    "final_x": "3674998.19502",
    "final_y": "538251.992329",
    "longitude": "-90.08836974490248",
    "latitude": "29.974202199440988",
    "geocoded_column": {
      "latitude": "29.974202199440988",
      "longitude": "-90.08836974490248"
    }
  },
  {
    "service_request": "2022-854597",
    "request_type": "COVID-19",
    "request_reason": "COVID-19 Business Non-Compliance",
    "date_created": "2022-01-17T12:51:42.000",
    "date_modified": "2022-01-17T12:51:43.000",
    "request_status": "Pending",
    "responsible_agency": "Safety and Permits",
    "final_address": "833 Poydras St",
    "address_councildis": "B",
    "status": "Pending",
    "rowid": "854597",
    "final_x": "3680011.55458",
    "final_y": "529610.537345",
    "longitude": "-90.07283662222024",
    "latitude": "29.950290412537097",
    "geocoded_column": {
      "latitude": "29.950290412537097",
      "longitude": "-90.07283662222024"
    }
  },
  {
    "service_request": "2022-854595",
    "request_type": "Abandoned Vehicles",
    "request_reason": "Abandoned/Junk Vehicles",
    "date_created": "2022-01-17T12:50:46.000",
    "date_modified": "2022-01-17T12:50:46.000",
    "request_status": "Pending",
    "responsible_agency": "Department of Public Works",
    "final_address": "716 N Rendon St",
    "address_councildis": "A",
    "status": "Pending",
    "rowid": "854595",
    "final_x": "3674998.19502",
    "final_y": "538251.992329",
    "longitude": "-90.08836974490248",
    "latitude": "29.974202199440988",
    "geocoded_column": {
      "latitude": "29.974202199440988",
      "longitude": "-90.08836974490248"
    }
  },
  {
    "service_request": "2022-854594",
    "request_type": "Property Maintenance",
    "request_reason": "Property Maintenance",
    "date_created": "2022-01-17T12:50:32.000",
    "date_modified": "2022-01-17T12:50:32.000",
    "request_status": "Pending",
    "responsible_agency": "Department of Code Enforcement",
    "final_address": "9002 Forshey St",
    "address_councildis": "A",
    "status": "Pending",
    "rowid": "854594",
    "final_x": "3664582.92442",
    "final_y": "536077.063943",
    "longitude": "-90.12133638367087",
    "latitude": "29.96852891519895",
    "geocoded_column": {
      "latitude": "29.96852891519895",
      "longitude": "-90.12133638367087"
    }
  },
  {
    "service_request": "2022-854593",
    "request_type": "Trash/Recycling",
    "request_reason": "Order Recycling Cart",
    "date_created": "2022-01-17T12:49:21.000",
    "date_modified": "2022-01-17T12:49:21.000",
    "request_status": "Pending",
    "responsible_agency": "Department of Sanitation",
    "final_address": "7312 Amber St",
    "address_councildis": "D",
    "status": "Pending",
    "rowid": "854593",
    "final_x": "3669781.69844",
    "final_y": "555388.088729",
    "longitude": "-90.10426418807936",
    "latitude": "30.0214753396332",
    "geocoded_column": {
      "latitude": "30.0214753396332",
      "longitude": "-90.10426418807936"
    }
  },
  {
    "service_request": "2022-854592",
    "request_type": "Trash/Recycling",
    "request_reason": "Repair Trash Cart",
    "date_created": "2022-01-17T12:47:23.000",
    "date_modified": "2022-01-17T12:47:24.000",
    "request_status": "Pending",
    "responsible_agency": "Department of Sanitation",
    "final_address": "2322 Lowerline St",
    "address_councildis": "A",
    "status": "Assigned to Contractor",
    "contractor": "Richards Disposal",
    "rowid": "854592",
    "final_x": "3665920.83264",
    "final_y": "530237.001409",
    "longitude": "-90.11730691218729",
    "latitude": "29.952431680281247",
    "geocoded_column": {
      "latitude": "29.952431680281247",
      "longitude": "-90.11730691218729"
    }
  },
  {
    "service_request": "2022-854591",
    "request_type": "Trash/Recycling",
    "request_reason": "Repair Trash Cart",
    "date_created": "2022-01-17T12:45:53.000",
    "date_modified": "2022-01-17T12:45:53.000",
    "request_status": "Pending",
    "responsible_agency": "Department of Sanitation",
    "final_address": "2320 Lowerline St",
    "address_councildis": "A",
    "status": "Assigned to Contractor",
    "contractor": "Richards Disposal",
    "rowid": "854591",
    "final_x": "3665907.86106",
    "final_y": "530219.933697",
    "longitude": "-90.11734844258233",
    "latitude": "29.952385128138477",
    "geocoded_column": {
      "latitude": "29.952385128138477",
      "longitude": "-90.11734844258233"
    }
  },
  {
    "service_request": "2022-854590",
    "request_type": "Trash/Recycling",
    "request_reason": "Request a Large Item Pick Up",
    "date_created": "2022-01-17T12:44:12.000",
    "date_modified": "2022-01-17T12:44:13.000",
    "request_status": "Pending",
    "responsible_agency": "Department of Sanitation",
    "final_address": "1515 Pine St, New Orleans, Louisiana, 70118",
    "address_councildis": "A",
    "status": "Assigned to Contractor",
    "contractor": "Richards Disposal",
    "rowid": "854590",
    "final_x": "3664658.90349",
    "final_y": "527662.848575",
    "longitude": "-90.12137749492102",
    "latitude": "29.94539035482988",
    "geocoded_column": {
      "latitude": "29.94539035482988",
      "longitude": "-90.12137749492102"
    }
  },
  {
    "service_request": "2022-854589",
    "request_type": "Roads/Drainage",
    "request_reason": "Man hole cover issue",
    "date_created": "2022-01-17T12:36:58.000",
    "date_modified": "2022-01-17T12:36:58.000",
    "request_status": "Pending",
    "responsible_agency": "Department of Public Works",
    "final_address": "OLD GENTILLY RD & LOUISA ST",
    "address_councildis": "D",
    "status": "Pending",
    "rowid": "854589",
    "final_x": "3691562.7",
    "final_y": "549283.78",
    "longitude": "-90.03566081991953",
    "latitude": "30.004030369093243",
    "geocoded_column": {
      "latitude": "30.004030369093243",
      "longitude": "-90.03566081991953"
    }
  },
  {
    "service_request": "2022-854588",
    "request_type": "Traffic Signals/Signs/Striping/Streetlights",
    "request_reason": "Street Light Outage/Malfunction",
    "date_created": "2022-01-17T12:36:52.000",
    "date_modified": "2022-01-17T12:36:53.000",
    "request_status": "Pending",
    "responsible_agency": "Department of Public Works",
    "final_address": "1237 State St",
    "address_councildis": "A",
    "status": "Pending",
    "contractor": "Royal Engineering",
    "rowid": "854588",
    "final_x": "3665292.93031",
    "final_y": "520763.222905",
    "longitude": "-90.1196064108528",
    "latitude": "29.926400126675993",
    "geocoded_column": {
      "latitude": "29.926400126675993",
      "longitude": "-90.1196064108528"
    }
  },
  {
    "service_request": "2022-854587",
    "request_type": "Trash/Recycling",
    "request_reason": "Request a Large Item Pick Up",
    "date_created": "2022-01-17T12:36:32.000",
    "date_modified": "2022-01-17T12:36:32.000",
    "request_status": "Pending",
    "responsible_agency": "Department of Sanitation",
    "final_address": "2728 Milan St",
    "address_councildis": "B",
    "status": "Assigned to Contractor",
    "contractor": "Richards Disposal",
    "rowid": "854587",
    "final_x": "3671151.78759",
    "final_y": "525037.049149",
    "longitude": "-90.1009664965385",
    "latitude": "29.937979829218563",
    "geocoded_column": {
      "latitude": "29.937979829218563",
      "longitude": "-90.1009664965385"
    }
  },
  {
    "service_request": "2022-854586",
    "request_type": "Trash/Recycling",
    "request_reason": "Order Recycling Cart",
    "date_created": "2022-01-17T12:33:58.000",
    "date_modified": "2022-01-17T12:33:58.000",
    "request_status": "Pending",
    "responsible_agency": "Department of Sanitation",
    "final_address": "2733 Milan St",
    "address_councildis": "B",
    "status": "Pending",
    "rowid": "854586",
    "final_x": "3671228.80468",
    "final_y": "525073.397565",
    "longitude": "-90.10072211194637",
    "latitude": "29.938077497726592",
    "geocoded_column": {
      "latitude": "29.938077497726592",
      "longitude": "-90.10072211194637"
    }
  },
  {
    "service_request": "2022-854585",
    "request_type": "COVID-19",
    "request_reason": "COVID-19 Business Non-Compliance",
    "date_created": "2022-01-17T12:28:18.000",
    "date_modified": "2022-01-17T12:28:19.000",
    "request_status": "Pending",
    "responsible_agency": "Safety and Permits",
    "final_address": "833 Poydras St",
    "address_councildis": "B",
    "status": "Pending",
    "rowid": "854585",
    "final_x": "3680011.55458",
    "final_y": "529610.537345",
    "longitude": "-90.07283662222024",
    "latitude": "29.950290412537097",
    "geocoded_column": {
      "latitude": "29.950290412537097",
      "longitude": "-90.07283662222024"
    }
  },
  {
    "service_request": "2022-854584",
    "request_type": "Roads/Drainage",
    "request_reason": "Debris in Roadway",
    "date_created": "2022-01-17T12:25:43.000",
    "date_modified": "2022-01-17T12:25:43.000",
    "request_status": "Pending",
    "responsible_agency": "Department of Public Works",
    "final_address": "1349 Columbus St",
    "address_councildis": "C",
    "status": "Pending",
    "rowid": "854584",
    "final_x": "3682433.32616",
    "final_y": "536686.423559",
    "longitude": "-90.06494263169321",
    "latitude": "29.96967320653774",
    "geocoded_column": {
      "latitude": "29.96967320653774",
      "longitude": "-90.06494263169321"
    }
  },
  {
    "service_request": "2022-854583",
    "request_type": "Trash/Recycling",
    "request_reason": "Request a Large Item Pick Up",
    "date_created": "2022-01-17T12:22:49.000",
    "date_modified": "2022-01-17T12:22:49.000",
    "request_status": "Pending",
    "responsible_agency": "Department of Sanitation",
    "final_address": "1026 Conti St",
    "address_councildis": "C",
    "status": "Assigned to Contractor",
    "contractor": "Empire Services",
    "rowid": "854583",
    "final_x": "3680839.58319",
    "final_y": "532354.521795",
    "longitude": "-90.07012662868551",
    "latitude": "29.95781037016211",
    "geocoded_column": {
      "latitude": "29.95781037016211",
      "longitude": "-90.07012662868551"
    }
  },
  {
    "service_request": "2022-854582",
    "request_type": "COVID-19",
    "request_reason": "COVID-19 Business Non-Compliance",
    "date_created": "2022-01-17T12:18:56.000",
    "date_modified": "2022-01-17T12:18:57.000",
    "request_status": "Pending",
    "responsible_agency": "Safety and Permits",
    "final_address": "833 Poydras St",
    "address_councildis": "B",
    "status": "Pending",
    "rowid": "854582",
    "final_x": "3680011.55458",
    "final_y": "529610.537345",
    "longitude": "-90.07283662222024",
    "latitude": "29.950290412537097",
    "geocoded_column": {
      "latitude": "29.950290412537097",
      "longitude": "-90.07283662222024"
    }
  },
  {
    "service_request": "2022-854581",
    "request_type": "COVID-19",
    "request_reason": "COVID-19 Business Non-Compliance",
    "date_created": "2022-01-17T12:18:16.000",
    "date_modified": "2022-01-17T12:18:17.000",
    "request_status": "Pending",
    "responsible_agency": "Safety and Permits",
    "final_address": "833 Poydras St",
    "address_councildis": "B",
    "status": "Pending",
    "rowid": "854581",
    "final_x": "3680011.55458",
    "final_y": "529610.537345",
    "longitude": "-90.07283662222024",
    "latitude": "29.950290412537097",
    "geocoded_column": {
      "latitude": "29.950290412537097",
      "longitude": "-90.07283662222024"
    }
  },
  {
    "service_request": "2022-854580",
    "request_type": "Roads/Drainage",
    "request_reason": "Debris in Roadway",
    "date_created": "2022-01-17T12:15:03.000",
    "date_modified": "2022-01-17T12:15:03.000",
    "request_status": "Pending",
    "responsible_agency": "Department of Public Works",
    "final_address": "6011 Marigny St",
    "address_councildis": "D",
    "status": "Pending",
    "rowid": "854580",
    "final_x": "3683946.2022",
    "final_y": "555109.181017",
    "longitude": "-90.05951805576365",
    "latitude": "30.02028307783956",
    "geocoded_column": {
      "latitude": "30.02028307783956",
      "longitude": "-90.05951805576365"
    }
  },
  {
    "service_request": "2022-854579",
    "request_type": "COVID-19",
    "request_reason": "COVID-19 Business Non-Compliance",
    "date_created": "2022-01-17T12:14:36.000",
    "date_modified": "2022-01-17T12:14:37.000",
    "request_status": "Pending",
    "responsible_agency": "Safety and Permits",
    "final_address": "833 Poydras St",
    "address_councildis": "B",
    "status": "Pending",
    "rowid": "854579",
    "final_x": "3680011.55458",
    "final_y": "529610.537345",
    "longitude": "-90.07283662222024",
    "latitude": "29.950290412537097",
    "geocoded_column": {
      "latitude": "29.950290412537097",
      "longitude": "-90.07283662222024"
    }
  },
  {
    "service_request": "2022-854578",
    "request_type": "COVID-19",
    "request_reason": "COVID-19 Business Non-Compliance",
    "date_created": "2022-01-17T12:13:22.000",
    "date_modified": "2022-01-17T12:13:24.000",
    "request_status": "Pending",
    "responsible_agency": "Safety and Permits",
    "final_address": "2216 Magazine St",
    "address_councildis": "B",
    "status": "Pending",
    "rowid": "854578",
    "final_x": "3678756.91618",
    "final_y": "521921.538554",
    "longitude": "-90.07706428811788",
    "latitude": "29.929186100742413",
    "geocoded_column": {
      "latitude": "29.929186100742413",
      "longitude": "-90.07706428811788"
    }
  },
  {
    "service_request": "2022-854577",
    "request_type": "COVID-19",
    "request_reason": "COVID-19 Business Non-Compliance",
    "date_created": "2022-01-17T12:10:06.000",
    "date_modified": "2022-01-17T12:10:08.000",
    "request_status": "Pending",
    "responsible_agency": "Safety and Permits",
    "final_address": "833 Poydras St",
    "address_councildis": "B",
    "status": "Pending",
    "rowid": "854577",
    "final_x": "3680011.55458",
    "final_y": "529610.537345",
    "longitude": "-90.07283662222024",
    "latitude": "29.950290412537097",
    "geocoded_column": {
      "latitude": "29.950290412537097",
      "longitude": "-90.07283662222024"
    }
  },
  {
    "service_request": "2022-854576",
    "request_type": "COVID-19",
    "request_reason": "COVID-19 Business Non-Compliance",
    "date_created": "2022-01-17T12:09:21.000",
    "date_modified": "2022-01-17T12:09:22.000",
    "request_status": "Pending",
    "responsible_agency": "Safety and Permits",
    "final_address": "833 Poydras St",
    "address_councildis": "B",
    "status": "Pending",
    "rowid": "854576",
    "final_x": "3680011.55458",
    "final_y": "529610.537345",
    "longitude": "-90.07283662222024",
    "latitude": "29.950290412537097",
    "geocoded_column": {
      "latitude": "29.950290412537097",
      "longitude": "-90.07283662222024"
    }
  },
  {
    "service_request": "2022-854575",
    "request_type": "COVID-19",
    "request_reason": "COVID-19 Business Non-Compliance",
    "date_created": "2022-01-17T12:05:49.000",
    "date_modified": "2022-01-17T12:05:51.000",
    "request_status": "Pending",
    "responsible_agency": "Safety and Permits",
    "final_address": "833 Poydras St",
    "address_councildis": "B",
    "status": "Pending",
    "rowid": "854575",
    "final_x": "3680011.55458",
    "final_y": "529610.537345",
    "longitude": "-90.07283662222024",
    "latitude": "29.950290412537097",
    "geocoded_column": {
      "latitude": "29.950290412537097",
      "longitude": "-90.07283662222024"
    }
  },
  {
    "service_request": "2022-854574",
    "request_type": "Trash/Recycling",
    "request_reason": "Missed Trash Pick-Up",
    "date_created": "2022-01-17T12:04:05.000",
    "date_modified": "2022-01-17T14:43:54.000",
    "case_close_date": "2022-01-17T08:43:54.000",
    "request_status": "Closed",
    "responsible_agency": "Department of Sanitation",
    "final_address": "919 Toledano St",
    "address_councildis": "B",
    "status": "Resolved",
    "contractor": "Richards Disposal",
    "rowid": "854574",
    "final_x": "3675650.7595",
    "final_y": "519274.000439",
    "longitude": "-90.08696074843645",
    "latitude": "29.921999501387756",
    "geocoded_column": {
      "latitude": "29.921999501387756",
      "longitude": "-90.08696074843645"
    }
  },
  {
    "service_request": "2022-854573",
    "request_type": "Trash/Recycling",
    "request_reason": "Request a Large Item Pick Up",
    "date_created": "2022-01-17T12:01:44.000",
    "date_modified": "2022-01-17T12:01:46.000",
    "request_status": "Pending",
    "responsible_agency": "Department of Sanitation",
    "final_address": "834 Sixth St",
    "address_councildis": "B",
    "status": "Assigned to Contractor",
    "contractor": "Richards Disposal",
    "rowid": "854573",
    "final_x": "3677028.01314",
    "final_y": "519833.212728",
    "longitude": "-90.08259406575554",
    "latitude": "29.923495889976003",
    "geocoded_column": {
      "latitude": "29.923495889976003",
      "longitude": "-90.08259406575554"
    }
  },
  {
    "service_request": "2022-854572",
    "request_type": "Trash/Recycling",
    "request_reason": "MIssed Recycling Pick-Up",
    "date_created": "2022-01-17T11:58:59.000",
    "date_modified": "2022-01-17T11:59:01.000",
    "request_status": "Pending",
    "responsible_agency": "Department of Sanitation",
    "final_address": "826 Union St",
    "address_councildis": "B",
    "status": "Assigned to Contractor",
    "contractor": "Empire Services",
    "rowid": "854572",
    "final_x": "3680237.06101",
    "final_y": "530068.779137",
    "longitude": "-90.07210866562153",
    "latitude": "29.95154360031331",
    "geocoded_column": {
      "latitude": "29.95154360031331",
      "longitude": "-90.07210866562153"
    }
  },
  {
    "service_request": "2022-854571",
    "request_type": "Traffic Signals/Signs/Striping/Streetlights",
    "request_reason": "Traffic Signal Malfunctioning/Damaged",
    "date_created": "2022-01-17T11:55:56.000",
    "date_modified": "2022-01-17T11:55:56.000",
    "request_status": "Pending",
    "responsible_agency": "Department of Public Works",
    "final_address": "6300 Pontchartrain Blvd",
    "address_councildis": "A",
    "status": "Pending",
    "rowid": "854571",
    "final_x": "3666153.26593",
    "final_y": "549660.40674",
    "longitude": "-90.11592137999783",
    "latitude": "30.005832736501773",
    "geocoded_column": {
      "latitude": "30.005832736501773",
      "longitude": "-90.11592137999783"
    }
  },
  {
    "service_request": "2022-854570",
    "request_type": "Trash/Recycling",
    "request_reason": "Request a Large Item Pick Up",
    "date_created": "2022-01-17T11:53:25.000",
    "date_modified": "2022-01-17T11:57:50.000",
    "request_status": "Pending",
    "responsible_agency": "Department of Sanitation",
    "final_address": "6376 Vicksburg St",
    "address_councildis": "A",
    "status": "Assigned to Contractor",
    "contractor": "Metro Disposal",
    "rowid": "854570",
    "final_x": "3669036.06881",
    "final_y": "549915.473364",
    "longitude": "-90.10680527947031",
    "latitude": "30.006449547576718",
    "geocoded_column": {
      "latitude": "30.006449547576718",
      "longitude": "-90.10680527947031"
    }
  },
  {
    "service_request": "2022-854569",
    "request_type": "Trash/Recycling",
    "request_reason": "Order Trash Cart",
    "date_created": "2022-01-17T11:51:08.000",
    "date_modified": "2022-01-17T11:51:09.000",
    "request_status": "Pending",
    "responsible_agency": "Department of Sanitation",
    "final_address": "5551 Chamberlain Dr, New Orleans, Louisiana, 70122",
    "address_councildis": "D",
    "status": "Assigned to Contractor",
    "contractor": "Metro Disposal",
    "rowid": "854569",
    "final_x": "3679510.17435",
    "final_y": "552965.238039",
    "longitude": "-90.07360900749069",
    "latitude": "30.014522863927805",
    "geocoded_column": {
      "latitude": "30.014522863927805",
      "longitude": "-90.07360900749069"
    }
  },
  {
    "service_request": "2022-854568",
    "request_type": "COVID-19",
    "request_reason": "COVID-19 Business Non-Compliance",
    "date_created": "2022-01-17T11:48:03.000",
    "date_modified": "2022-01-17T11:52:27.000",
    "request_status": "Pending",
    "responsible_agency": "Safety and Permits",
    "final_address": "1100 S Claiborne Ave",
    "address_councildis": "B",
    "status": "Pending",
    "rowid": "854568",
    "final_x": "3675695.8084",
    "final_y": "528824.223488",
    "longitude": "-90.08649051442099",
    "latitude": "29.948258147692556",
    "geocoded_column": {
      "latitude": "29.948258147692556",
      "longitude": "-90.08649051442099"
    }
  },
  {
    "service_request": "2022-854567",
    "request_type": "Trash/Recycling",
    "request_reason": "Replace Trash Cart",
    "date_created": "2022-01-17T11:47:12.000",
    "date_modified": "2022-01-17T11:47:13.000",
    "request_status": "Pending",
    "responsible_agency": "Department of Sanitation",
    "final_address": "620 S Hennessey St",
    "address_councildis": "A",
    "status": "Assigned to Contractor",
    "contractor": "Richards Disposal",
    "rowid": "854567",
    "final_x": "3669010.08142",
    "final_y": "537201.474376",
    "longitude": "-90.10731715341927",
    "latitude": "29.971491165047542",
    "geocoded_column": {
      "latitude": "29.971491165047542",
      "longitude": "-90.10731715341927"
    }
  },
  {
    "service_request": "2022-854566",
    "request_type": "Trash/Recycling",
    "request_reason": "Illegal Dumping",
    "date_created": "2022-01-17T11:47:03.000",
    "date_modified": "2022-01-17T11:47:03.000",
    "request_status": "Pending",
    "responsible_agency": "Department of Sanitation",
    "final_address": "2700 BLK Seventh St",
    "address_councildis": "B",
    "status": "Pending",
    "rowid": "854566",
    "final_x": "3672984.72584",
    "final_y": "525502.46978",
    "longitude": "-90.09516386473778",
    "latitude": "29.939205251477865",
    "geocoded_column": {
      "latitude": "29.939205251477865",
      "longitude": "-90.09516386473778"
    }
  },
  {
    "service_request": "2022-854565",
    "request_type": "Trash/Recycling",
    "request_reason": "Order Recycling Cart",
    "date_created": "2022-01-17T11:46:40.000",
    "date_modified": "2022-01-17T11:46:40.000",
    "request_status": "Pending",
    "responsible_agency": "Department of Sanitation",
    "final_address": "1218 State St",
    "address_councildis": "A",
    "status": "Pending",
    "rowid": "854565",
    "final_x": "3665109.65268",
    "final_y": "520683.046841",
    "longitude": "-90.1201876489551",
    "latitude": "29.926185004585204",
    "geocoded_column": {
      "latitude": "29.926185004585204",
      "longitude": "-90.1201876489551"
    }
  },
  {
    "service_request": "2022-854564",
    "request_type": "Trash/Recycling",
    "request_reason": "Missed Trash Pick-Up",
    "date_created": "2022-01-17T11:44:48.000",
    "date_modified": "2022-01-17T11:44:54.000",
    "request_status": "Pending",
    "responsible_agency": "Department of Sanitation",
    "final_address": "623 Lesseps St",
    "address_councildis": "C",
    "status": "Assigned to Contractor",
    "contractor": "Metro Disposal",
    "rowid": "854564",
    "final_x": "3692331.29597",
    "final_y": "533435.978308",
    "longitude": "-90.03380051251919",
    "latitude": "29.96043064553935",
    "geocoded_column": {
      "latitude": "29.96043064553935",
      "longitude": "-90.03380051251919"
    }
  },
  {
    "service_request": "2022-854563",
    "request_type": "Property Maintenance",
    "request_reason": "Property Maintenance",
    "date_created": "2022-01-17T11:43:10.000",
    "date_modified": "2022-01-17T11:43:43.000",
    "request_status": "Pending",
    "responsible_agency": "Department of Code Enforcement",
    "final_address": "523 S Rendon St",
    "address_councildis": "B",
    "status": "Pending",
    "rowid": "854563",
    "final_x": "3672471.81614",
    "final_y": "535051.192454",
    "longitude": "-90.0964577715896",
    "latitude": "29.965476313377525",
    "geocoded_column": {
      "latitude": "29.965476313377525",
      "longitude": "-90.0964577715896"
    }
  },
  {
    "service_request": "2022-854562",
    "request_type": "Trash/Recycling",
    "request_reason": "Order Recycling Cart",
    "date_created": "2022-01-17T11:40:26.000",
    "date_modified": "2022-01-17T11:40:26.000",
    "request_status": "Pending",
    "responsible_agency": "Department of Sanitation",
    "final_address": "511 S Rendon St",
    "address_councildis": "B",
    "status": "Pending",
    "rowid": "854562",
    "final_x": "3672510.96097",
    "final_y": "535103.255174",
    "longitude": "-90.09633237877988",
    "latitude": "29.965618306466258",
    "geocoded_column": {
      "latitude": "29.965618306466258",
      "longitude": "-90.09633237877988"
    }
  },
  {
    "service_request": "2022-854561",
    "request_type": "Traffic Signals/Signs/Striping/Streetlights",
    "request_reason": "Traffic Sign Missing/Damaged",
    "date_created": "2022-01-17T11:39:19.000",
    "date_modified": "2022-01-17T11:39:19.000",
    "request_status": "Pending",
    "responsible_agency": "Department of Public Works",
    "final_address": "432 N Galvez St",
    "address_councildis": "B",
    "status": "Pending",
    "rowid": "854561",
    "final_x": "3677919.49467",
    "final_y": "534972.447942",
    "longitude": "-90.07925695880938",
    "latitude": "29.965096974828068",
    "geocoded_column": {
      "latitude": "29.965096974828068",
      "longitude": "-90.07925695880938"
    }
  },
  {
    "service_request": "2022-854560",
    "request_type": "Traffic Signals/Signs/Striping/Streetlights",
    "request_reason": "Street Light Outage/Malfunction",
    "date_created": "2022-01-17T11:38:08.000",
    "date_modified": "2022-01-17T11:39:03.000",
    "request_status": "Pending",
    "responsible_agency": "Department of Public Works",
    "final_address": "7421 Sheffield St",
    "address_councildis": "E",
    "status": "Pending",
    "contractor": "Royal Engineering",
    "rowid": "854560",
    "final_x": "3699493.3537",
    "final_y": "559711.864925",
    "longitude": "-90.01022623807616",
    "latitude": "30.032454294719255",
    "geocoded_column": {
      "latitude": "30.032454294719255",
      "longitude": "-90.01022623807616"
    }
  },
  {
    "service_request": "2022-854559",
    "request_type": "Trash/Recycling",
    "request_reason": "Order Trash Cart",
    "date_created": "2022-01-17T11:38:02.000",
    "date_modified": "2022-01-17T11:38:03.000",
    "request_status": "Pending",
    "responsible_agency": "Department of Sanitation",
    "final_address": "815 Patterson St",
    "address_councildis": "C",
    "status": "Assigned to Contractor",
    "contractor": "Richards Disposal",
    "rowid": "854559",
    "final_x": "3688114.80079",
    "final_y": "531386.581955",
    "longitude": "-90.04718794814806",
    "latitude": "29.95492633026841",
    "geocoded_column": {
      "latitude": "29.95492633026841",
      "longitude": "-90.04718794814806"
    }
  },
  {
    "service_request": "2022-854558",
    "request_type": "Trash/Recycling",
    "request_reason": "Request a Large Item Pick Up",
    "date_created": "2022-01-17T11:27:18.000",
    "date_modified": "2022-01-17T11:28:38.000",
    "request_status": "Pending",
    "responsible_agency": "Department of Sanitation",
    "final_address": "4137 Prytania St",
    "address_councildis": "B",
    "status": "Assigned to Contractor",
    "contractor": "Richards Disposal",
    "rowid": "854558",
    "final_x": "3671684.28404",
    "final_y": "520445.012728",
    "longitude": "-90.0994414708776",
    "latitude": "29.92533744975293",
    "geocoded_column": {
      "latitude": "29.92533744975293",
      "longitude": "-90.0994414708776"
    }
  },