[
  {
    "service_request": "2026-1252903",
    "request_type": "Drainage",
    "request_reason": "Drainage Manhole Cover Missing or Damaged",
    "date_created": "2026-01-18T22:46:04.000",
    "date_modified": "2026-01-18T22:46:07.000",
    "request_status": "Pending",
    "responsible_agency": "Sewerage & Water Board",
    "final_address": "837 N Broad St",
    "address_councildis": "A",
    "status": "Pending",
    "rowid": "1252903",
    "final_x": "3677039.03669",
    "final_y": "537517.422024",
    "longitude": "-90.08194962572374",
    "latitude": "29.97212125411732",
    "geocoded_column": {
      "latitude": "29.97212125411732",
      "longitude": "-90.08194962572374"
    }
  },
  {
    "service_request": "2026-1252902",
    "request_type": "Roads and Streets",
    "request_reason": "Sidewalk Damaged or Missing",
    "date_created": "2026-01-18T21:47:44.000",
    "date_modified": "2026-01-18T21:47:46.000",
    "request_status": "Pending",
    "responsible_agency": "Department of Public Works",
    "final_address": "1309 St Anthony St",
    "address_councildis": "C",
    "status": "Pending",
    "rowid": "1252902",
    "final_x": "3683503.57225",
    "final_y": "536651.879879",
    "longitude": "-90.06156391499444",
    "latitude": "29.969545604486097",
    "geocoded_column": {
      "latitude": "29.969545604486097",
      "longitude": "-90.06156391499444"
    }
  },
  {
    "service_request": "2026-1252901",
    "request_type": "Trash/Recycling",
    "request_reason": "Request a Large Item Pick Up",
    "date_created": "2026-01-18T21:33:29.000",
    "date_modified": "2026-01-18T21:33:32.000",
    "request_status": "Pending",
    "responsible_agency": "Department of Sanitation",
    "final_address": "2775 Lavender St",
    "address_councildis": "D",
    "status": "Assigned to Contractor",
    "contractor": "IV Waste",
    "rowid": "1252901",
    "final_x": "3688390.77187",
    "final_y": "547077.126353",
    "longitude": "-90.04575980707013",
    "latitude": "29.99806126521298",
    "geocoded_column": {
      "latitude": "29.99806126521298",
      "longitude": "-90.04575980707013"
    }
  },
  {
    "service_request": "2026-1252900",
    "request_type": "Roads and Streets",
    "request_reason": "Pothole",
    "date_created": "2026-01-18T21:24:31.000",
    "date_modified": "2026-01-18T21:24:32.000",
    "request_status": "Pending",
    "responsible_agency": "Department of Public Works",
    "final_address": "3535 Lancaster St",
    "address_councildis": "C",
    "status": "Pending",
    "rowid": "1252900",
    "final_x": "3709795.58456",
    "final_y": "517609.450358",
    "longitude": "-89.97924297333053",
    "latitude": "29.9163571714331",
    "geocoded_column": {
      "latitude": "29.9163571714331",
      "longitude": "-89.97924297333053"
    }
  },
  {
    "service_request": "2026-1252899",
    "request_type": "Roads and Streets",
    "request_reason": "Pothole",
    "date_created": "2026-01-18T21:20:23.000",
    "date_modified": "2026-01-18T21:20:25.000",
    "request_status": "Pending",
    "responsible_agency": "Department of Public Works",
    "final_address": "3335 Lancaster St",
    "address_councildis": "C",
    "status": "Pending",
    "rowid": "1252899",
    "final_x": "3709867.72721",
    "final_y": "518360.845302",
    "longitude": "-89.97898723163478",
    "latitude": "29.918420900402264",
    "geocoded_column": {
      "latitude": "29.918420900402264",
      "longitude": "-89.97898723163478"
    }
  },
  {
    "service_request": "2026-1252898",
    "request_type": "Trash/Recycling",
    "request_reason": "Request a Large Item Pick Up",
    "date_created": "2026-01-18T21:00:23.000",
    "date_modified": "2026-01-18T21:00:29.000",
    "request_status": "Pending",
    "responsible_agency": "Department of Sanitation",
    "final_address": "7640 Morrison Rd",
    "address_councildis": "E",
    "status": "Assigned to Contractor",
    "contractor": "Waste Pro",
    "rowid": "1252898",
    "final_x": "3701631.15946",
    "final_y": "559759.055197",
    "longitude": "-90.00346892404156",
    "latitude": "30.032516000937527",
    "geocoded_column": {
      "latitude": "30.032516000937527",
      "longitude": "-90.00346892404156"
    }
  },
  {
    "service_request": "2026-1252897",
    "request_type": "Roads and Streets",
    "request_reason": "Sidewalk Damaged or Missing",
    "date_created": "2026-01-18T20:33:21.000",
    "date_modified": "2026-01-18T20:33:23.000",
    "request_status": "Pending",
    "responsible_agency": "Department of Public Works",
    "final_address": "4734 Perrier St",
    "address_councildis": "B",
    "status": "Pending",
    "rowid": "1252897",
    "final_x": "3669535.14055",
    "final_y": "519891.41932",
    "longitude": "-90.10624437589556",
    "latitude": "29.92387870444023",
    "geocoded_column": {
      "latitude": "29.92387870444023",
      "longitude": "-90.10624437589556"
    }
  },
  {
    "service_request": "2026-1252896",
    "request_type": "Trash/Recycling",
    "request_reason": "Order Recycling Cart",
    "date_created": "2026-01-18T20:32:27.000",
    "date_modified": "2026-01-18T20:32:28.000",
    "request_status": "Pending",
    "responsible_agency": "Department of Sanitation",
    "final_address": "1722 Dublin St",
    "address_councildis": "A",
    "status": "Pending",
    "rowid": "1252896",
    "final_x": "3662985.82951",
    "final_y": "530081.946753",
    "longitude": "-90.12657951140606",
    "latitude": "29.952090649777386",
    "geocoded_column": {
      "latitude": "29.952090649777386",
      "longitude": "-90.12657951140606"
    }
  },
  {
    "service_request": "2026-1252895",
    "request_type": "Trash/Recycling",
    "request_reason": "Start Trash Service",
    "date_created": "2026-01-18T20:28:27.000",
    "date_modified": "2026-01-18T20:28:29.000",
    "request_status": "Pending",
    "responsible_agency": "Department of Sanitation",
    "final_address": "8118 Birch St",
    "address_councildis": "A",
    "status": "Assigned to Contractor",
    "contractor": "IV Waste",
    "rowid": "1252895",
    "final_x": "3662767.75911",
    "final_y": "529479.717377",
    "longitude": "-90.12728809379948",
    "latitude": "29.950441026181636",
    "geocoded_column": {
      "latitude": "29.950441026181636",
      "longitude": "-90.12728809379948"
    }
  },
  {
    "service_request": "2026-1252894",
    "request_type": "Trash/Recycling",
    "request_reason": "Illegal Dumping",
    "date_created": "2026-01-18T20:23:45.000",
    "date_modified": "2026-01-18T20:23:46.000",
    "request_status": "Pending",
    "responsible_agency": "Department of Sanitation",
    "final_address": "11297 Lake Forest Blvd",
    "address_councildis": "E",
    "status": "Pending",
    "rowid": "1252894",
    "final_x": "3716618.45644",
    "final_y": "562213.001247",
    "longitude": "-89.95601523386672",
    "latitude": "30.038776569790986",
    "geocoded_column": {
      "latitude": "30.038776569790986",
      "longitude": "-89.95601523386672"
    }
  },
  {
    "service_request": "2026-1252893",
    "request_type": "Trash/Recycling",
    "request_reason": "Illegal Dumping",
    "date_created": "2026-01-18T20:20:45.000",
    "date_modified": "2026-01-18T20:20:47.000",
    "request_status": "Pending",
    "responsible_agency": "Department of Sanitation",
    "final_address": "11040 Morrison Rd",
    "address_councildis": "E",
    "status": "Pending",
    "rowid": "1252893",
    "final_x": "3711375.19538",
    "final_y": "564974.300898",
    "longitude": "-89.97248158496139",
    "latitude": "30.04654128636643",
    "geocoded_column": {
      "latitude": "30.04654128636643",
      "longitude": "-89.97248158496139"
    }
  },
  {
    "service_request": "2026-1252892",
    "request_type": "Trash/Recycling",
    "request_reason": "Illegal Dumping",
    "date_created": "2026-01-18T20:17:52.000",
    "date_modified": "2026-01-18T20:17:53.000",
    "request_status": "Pending",
    "responsible_agency": "Department of Sanitation",
    "final_address": "11950 Lincoln Beach Blvd",
    "address_councildis": "E",
    "status": "Pending",
    "rowid": "1252892",
    "final_x": "3712231.53406",
    "final_y": "568775.111973",
    "longitude": "-89.96963217012487",
    "latitude": "30.056963979213325",
    "geocoded_column": {
      "latitude": "30.056963979213325",
      "longitude": "-89.96963217012487"
    }
  },
  {
    "service_request": "2026-1252891",
    "request_type": "Trash/Recycling",
    "request_reason": "Illegal Dumping",
    "date_created": "2026-01-18T20:14:30.000",
    "date_modified": "2026-01-18T20:14:32.000",
    "request_status": "Pending",
    "responsible_agency": "Department of Sanitation",
    "final_address": "7975 Read Blvd",
    "address_councildis": "E",
    "status": "Pending",
    "rowid": "1252891",
    "final_x": "3707908.01387",
    "final_y": "565876.443043",
    "longitude": "-89.98340600354112",
    "latitude": "30.04913458285041",
    "geocoded_column": {
      "latitude": "30.04913458285041",
      "longitude": "-89.98340600354112"
    }
  },
  {
    "service_request": "2026-1252890",
    "request_type": "Trash/Recycling",
    "request_reason": "Replace Trash Cart",
    "date_created": "2026-01-18T20:08:26.000",
    "date_modified": "2026-01-18T20:08:28.000",
    "request_status": "Pending",
    "responsible_agency": "Department of Sanitation",
    "final_address": "2606 Halsey Ave",
    "address_councildis": "C",
    "status": "Assigned to Contractor",
    "contractor": "Richards Disposal",
    "rowid": "1252890",
    "final_x": "3697745.79773",
    "final_y": "521633.434681",
    "longitude": "-90.01713082959868",
    "latitude": "29.927807805126047",
    "geocoded_column": {
      "latitude": "29.927807805126047",
      "longitude": "-90.01713082959868"
    }
  },
  {
    "service_request": "2026-1252889",
    "request_type": "Trash/Recycling",
    "request_reason": "Illegal Dumping",
    "date_created": "2026-01-18T20:05:06.000",
    "date_modified": "2026-01-18T20:05:08.000",
    "request_status": "Pending",
    "responsible_agency": "Department of Sanitation",
    "final_address": "4301 Downman Rd",
    "address_councildis": "D",
    "status": "Pending",
    "rowid": "1252889",
    "final_x": "3696178.34186",
    "final_y": "552893.369303",
    "longitude": "-90.02094866260286",
    "latitude": "30.01381085442368",
    "geocoded_column": {
      "latitude": "30.01381085442368",
      "longitude": "-90.02094866260286"
    }
  },
  {
    "service_request": "2026-1252888",
    "request_type": "Trash/Recycling",
    "request_reason": "Repair Trash Cart",
    "date_created": "2026-01-18T20:04:43.000",
    "date_modified": "2026-01-18T20:04:44.000",
    "request_status": "Pending",
    "responsible_agency": "Department of Sanitation",
    "final_address": "7107 St Charles Ave",
    "address_councildis": "A",
    "status": "Assigned to Contractor",
    "contractor": "IV Waste",
    "rowid": "1252888",
    "final_x": "3663222.32224",
    "final_y": "524639.981372",
    "longitude": "-90.12601382602749",
    "latitude": "29.93712013595339",
    "geocoded_column": {
      "latitude": "29.93712013595339",
      "longitude": "-90.12601382602749"
    }
  },
  {
    "service_request": "2026-1252887",
    "request_type": "Drainage",
    "request_reason": "Catch Basin Not Draining",
    "date_created": "2026-01-18T20:01:02.000",
    "date_modified": "2026-01-18T20:01:04.000",
    "request_status": "Pending",
    "responsible_agency": "Sewerage & Water Board",
    "final_address": "7133 St Charles Ave",
    "address_councildis": "A",
    "status": "Pending",
    "rowid": "1252887",
    "final_x": "3663060.96986",
    "final_y": "524705.924796",
    "longitude": "-90.12652103472567",
    "latitude": "29.93730613317918",
    "geocoded_column": {
      "latitude": "29.93730613317918",
      "longitude": "-90.12652103472567"
    }
  },
  {
    "service_request": "2026-1252886",
    "request_type": "Trash/Recycling",
    "request_reason": "Request a Large Item Pick Up",
    "date_created": "2026-01-18T19:48:51.000",
    "date_modified": "2026-01-18T19:48:53.000",
    "request_status": "Pending",
    "responsible_agency": "Department of Sanitation",
    "final_address": "7540 Pineridge St",
    "address_councildis": "E",
    "status": "Assigned to Contractor",
    "contractor": "Waste Pro",
    "rowid": "1252886",
    "final_x": "3719252.56165",
    "final_y": "571623.097704",
    "longitude": "-89.94733112372384",
    "latitude": "30.064563126450206",
    "geocoded_column": {
      "latitude": "30.064563126450206",
      "longitude": "-89.94733112372384"
    }
  },
  {
    "service_request": "2026-1252885",
    "request_type": "General Services",
    "request_reason": "General Service Request",
    "date_created": "2026-01-18T19:35:48.000",
    "date_modified": "2026-01-18T19:35:51.000",
    "request_status": "Pending",
    "responsible_agency": "Orleans Parish Communication District",
    "final_address": "920 S Carrollton Ave",
    "address_councildis": "A",
    "status": "Pending",
    "rowid": "1252885",
    "final_x": "3661327.62195",
    "final_y": "527707.403967",
    "longitude": "-90.13189399798708",
    "latitude": "29.945609332135554",
    "geocoded_column": {
      "latitude": "29.945609332135554",
      "longitude": "-90.13189399798708"
    }
  },
  {
    "service_request": "2026-1252884",
    "request_type": "Trash/Recycling",
    "request_reason": "Request a Large Item Pick Up",
    "date_created": "2026-01-18T19:34:41.000",
    "date_modified": "2026-01-18T19:34:43.000",
    "request_status": "Pending",
    "responsible_agency": "Department of Sanitation",
    "final_address": "9815 E Wheaton Cir",
    "address_councildis": "E",
    "status": "Assigned to Contractor",
    "contractor": "Waste Pro",
    "rowid": "1252884",
    "final_x": "3708676.21643",
    "final_y": "562470.650975",
    "longitude": "-89.98110507268538",
    "latitude": "30.039745109982906",
    "geocoded_column": {
      "latitude": "30.039745109982906",
      "longitude": "-89.98110507268538"
    }
  },
  {
    "service_request": "2026-1252883",
    "request_type": "General Services",
    "request_reason": "General Service Request",
    "date_created": "2026-01-18T19:33:26.000",
    "date_modified": "2026-01-18T19:33:28.000",
    "request_status": "Pending",
    "responsible_agency": "Orleans Parish Communication District",
    "final_address": "920 S Carrollton Ave",
    "address_councildis": "A",
    "status": "Pending",
    "rowid": "1252883",
    "final_x": "3661327.62195",
    "final_y": "527707.403967",
    "longitude": "-90.13189399798708",
    "latitude": "29.945609332135554",
    "geocoded_column": {
      "latitude": "29.945609332135554",
      "longitude": "-90.13189399798708"
    }
  },
  {
    "service_request": "2026-1252882",
    "request_type": "Trash/Recycling",
    "request_reason": "Request a Large Item Pick Up",
    "date_created": "2026-01-18T19:01:58.000",
    "date_modified": "2026-01-18T19:01:59.000",
    "request_status": "Pending",
    "responsible_agency": "Department of Sanitation",
    "final_address": "1000 BLK N Johnson St",
    "address_councildis": "D",
    "status": "Assigned to Contractor",
    "contractor": "IV Waste",
    "rowid": "1252882",
    "final_x": "3679424.086",
    "final_y": "536506.200069",
    "longitude": "-90.07445233110926",
    "latitude": "29.969268904001336",
    "geocoded_column": {
      "latitude": "29.969268904001336",
      "longitude": "-90.07445233110926"
    }
  },
  {
    "service_request": "2026-1252881",
    "request_type": "Trash/Recycling",
    "request_reason": "Illegal Dumping",
    "date_created": "2026-01-18T18:45:51.000",
    "date_modified": "2026-01-18T18:45:52.000",
    "request_status": "Pending",
    "responsible_agency": "Department of Sanitation",
    "final_address": "812 Audubon St",
    "address_councildis": "A",
    "status": "Pending",
    "rowid": "1252881",
    "final_x": "3663685.2848",
    "final_y": "525303.965757",
    "longitude": "-90.12453010510716",
    "latitude": "29.93893246080904",
    "geocoded_column": {
      "latitude": "29.93893246080904",
      "longitude": "-90.12453010510716"
    }
  },
  {
    "service_request": "2026-1252880",
    "request_type": "Trash/Recycling",
    "request_reason": "Request a Large Item Pick Up",
    "date_created": "2026-01-18T18:45:12.000",
    "date_modified": "2026-01-18T18:45:15.000",
    "request_status": "Pending",
    "responsible_agency": "Department of Sanitation",
    "final_address": "2328 Ursulines Ave",
    "address_councildis": "D",
    "status": "Assigned to Contractor",
    "contractor": "IV Waste",
    "rowid": "1252880",
    "final_x": "3678749.15656",
    "final_y": "537195.416264",
    "longitude": "-90.07655993649146",
    "latitude": "29.971184384275006",
    "geocoded_column": {
      "latitude": "29.971184384275006",
      "longitude": "-90.07655993649146"
    }
  },
  {
    "service_request": "2026-1252879",
    "request_type": "Property Maintenance",
    "request_reason": "Property Maintenance",
    "date_created": "2026-01-18T18:38:35.000",
    "date_modified": "2026-01-18T18:38:36.000",
    "request_status": "Pending",
    "responsible_agency": "Department of Code Enforcement",
    "final_address": "8709 S Claiborne Ave",
    "address_councildis": "A",
    "status": "Pending",
    "rowid": "1252879",
    "final_x": "3663265.46151",
    "final_y": "533105.429444",
    "longitude": "-90.12559593557376",
    "latitude": "29.960396145521873",
    "geocoded_column": {
      "latitude": "29.960396145521873",
      "longitude": "-90.12559593557376"
    }
  },
  {
    "service_request": "2026-1252878",
    "request_type": "Streetlights",
    "request_reason": "Streetlight Outage/Malfunction",
    "date_created": "2026-01-18T18:34:58.000",
    "date_modified": "2026-01-18T18:35:00.000",
    "request_status": "Pending",
    "responsible_agency": "Department of Public Works",
    "final_address": "0 BLK Gull St",
    "address_councildis": "D",
    "status": "Pending",
    "rowid": "1252878",
    "final_x": "3674893.34112",
    "final_y": "555264.289193",
    "longitude": "-90.0881170125954",
    "latitude": "30.020983184263713",
    "geocoded_column": {
      "latitude": "30.020983184263713",
      "longitude": "-90.0881170125954"
    }
  },
  {
    "service_request": "2026-1252877",
    "request_type": "Trash/Recycling",
    "request_reason": "Order Trash Cart",
    "date_created": "2026-01-18T18:22:43.000",
    "date_modified": "2026-01-18T18:22:44.000",
    "request_status": "Pending",
    "responsible_agency": "Department of Sanitation",
    "final_address": "4314 Dumaine St",
    "address_councildis": "A",
    "status": "Assigned to Contractor",
    "contractor": "IV Waste",
    "rowid": "1252877",
    "final_x": "3671964.16705",
    "final_y": "541396.179404",
    "longitude": "-90.09784485970691",
    "latitude": "29.982937937400468",
    "geocoded_column": {
      "latitude": "29.982937937400468",
      "longitude": "-90.09784485970691"
    }
  },
  {
    "service_request": "2026-1252876",
    "request_type": "Trash/Recycling",
    "request_reason": "Stop Trash Service",
    "date_created": "2026-01-18T18:06:02.000",
    "date_modified": "2026-01-18T18:06:04.000",
    "request_status": "Pending",
    "responsible_agency": "Department of Sanitation",
    "final_address": "1930 Nie Prkwy",
    "address_councildis": "C",
    "status": "Assigned to Contractor",
    "contractor": "Richards Disposal",
    "rowid": "1252876",
    "final_x": "3701185.84375",
    "final_y": "523760.311163",
    "longitude": "-90.00619372665588",
    "latitude": "29.93354687657471",
    "geocoded_column": {
      "latitude": "29.93354687657471",
      "longitude": "-90.00619372665588"
    }
  },
  {
    "service_request": "2026-1252875",
    "request_type": "Trash/Recycling",
    "request_reason": "Order Recycling Cart",
    "date_created": "2026-01-18T17:51:47.000",
    "date_modified": "2026-01-18T17:51:48.000",
    "request_status": "Pending",
    "responsible_agency": "Department of Sanitation",
    "final_address": "4149 Toulouse St",
    "address_councildis": "A",
    "status": "Pending",
    "rowid": "1252875",
    "final_x": "3671905.8859",
    "final_y": "540027.762635",
    "longitude": "-90.09807553606677",
    "latitude": "29.979176985992996",
    "geocoded_column": {
      "latitude": "29.979176985992996",
      "longitude": "-90.09807553606677"
    }
  },
  {
    "service_request": "2026-1252874",
    "request_type": "Trash/Recycling",
    "request_reason": "Request a Large Item Pick Up",
    "date_created": "2026-01-18T17:49:58.000",
    "date_modified": "2026-01-18T17:50:00.000",
    "request_status": "Pending",
    "responsible_agency": "Department of Sanitation",
    "final_address": "4149 Toulouse St",
    "address_councildis": "A",
    "status": "Assigned to Contractor",
    "contractor": "IV Waste",
    "rowid": "1252874",
    "final_x": "3671905.8859",
    "final_y": "540027.762635",
    "longitude": "-90.09807553606677",
    "latitude": "29.979176985992996",
    "geocoded_column": {
      "latitude": "29.979176985992996",
      "longitude": "-90.09807553606677"
    }
  },
  {
    "service_request": "2026-1252873",
    "request_type": "Streetlights",
    "request_reason": "Streetlight Outage/Malfunction",
    "date_created": "2026-01-18T17:35:07.000",
    "date_modified": "2026-01-18T17:35:09.000",
    "request_status": "Pending",
    "responsible_agency": "Department of Public Works",
    "final_address": "7039 Vicksburg St",
    "address_councildis": "A",
    "status": "Pending",
    "rowid": "1252873",
    "final_x": "3669561.07252",
    "final_y": "554387.292824",
    "longitude": "-90.1049952074123",
    "latitude": "30.01873001213007",
    "geocoded_column": {
      "latitude": "30.01873001213007",
      "longitude": "-90.1049952074123"
    }
  },
  {
    "service_request": "2026-1252872",
    "request_type": "General Services",
    "request_reason": "General Service Request",
    "date_created": "2026-01-18T17:32:55.000",
    "date_modified": "2026-01-18T17:32:58.000",
    "request_status": "Pending",
    "responsible_agency": "Orleans Parish Communication District",
    "final_address": "7039 Vicksburg St",
    "address_councildis": "A",
    "status": "Pending",
    "rowid": "1252872",
    "final_x": "3669561.07252",
    "final_y": "554387.292824",
    "longitude": "-90.1049952074123",
    "latitude": "30.01873001213007",
    "geocoded_column": {
      "latitude": "30.01873001213007",
      "longitude": "-90.1049952074123"
    }
  },
  {
    "service_request": "2026-1252871",
    "request_type": "Abandoned Vehicles",
    "request_reason": "Abandoned/Junk Vehicles",
    "date_created": "2026-01-18T16:49:21.000",
    "date_modified": "2026-01-18T16:49:23.000",
    "request_status": "Pending",
    "responsible_agency": "Department of Public Works",
    "final_address": "920 Poeyfarre St",
    "address_councildis": "B",
    "status": "Pending",
    "rowid": "1252871",
    "final_x": "3681386.82191",
    "final_y": "526445.697534",
    "longitude": "-90.0686045498335",
    "latitude": "29.941546493588717",
    "geocoded_column": {
      "latitude": "29.941546493588717",
      "longitude": "-90.0686045498335"
    }
  },
  {
    "service_request": "2026-1252870",
    "request_type": "Roads and Streets",
    "request_reason": "Sidewalk Damaged or Missing",
    "date_created": "2026-01-18T16:38:31.000",
    "date_modified": "2026-01-18T16:38:34.000",
    "request_status": "Pending",
    "responsible_agency": "Department of Public Works",
    "final_address": "1912 Sixth St",
    "address_councildis": "B",
    "status": "Pending",
    "rowid": "1252870",
    "final_x": "3674797.10369",
    "final_y": "523248.706235",
    "longitude": "-90.08951919262306",
    "latitude": "29.93295416259662",
    "geocoded_column": {
      "latitude": "29.93295416259662",
      "longitude": "-90.08951919262306"
    }
  },
  {
    "service_request": "2026-1252869",
    "request_type": "Trash/Recycling",
    "request_reason": "Order Recycling Cart",
    "date_created": "2026-01-18T16:30:30.000",
    "date_modified": "2026-01-18T16:30:31.000",
    "request_status": "Pending",
    "responsible_agency": "Department of Sanitation",
    "final_address": "4639 S Carrollton Ave",
    "address_councildis": "A",
    "status": "Pending",
    "rowid": "1252869",
    "final_x": "3670724.82651",
    "final_y": "538022.833929",
    "longitude": "-90.1018738461472",
    "latitude": "29.973699066966873",
    "geocoded_column": {
      "latitude": "29.973699066966873",
      "longitude": "-90.1018738461472"
    }
  },
  {
    "service_request": "2026-1252868",
    "request_type": "Trash/Recycling",
    "request_reason": "Request a Large Item Pick Up",
    "date_created": "2026-01-18T16:27:31.000",
    "date_modified": "2026-01-18T16:27:35.000",
    "request_status": "Pending",
    "responsible_agency": "Department of Sanitation",
    "final_address": "1616 Charlton Dr",
    "address_councildis": "D",
    "status": "Assigned to Contractor",
    "contractor": "IV Waste",
    "rowid": "1252868",
    "final_x": "3679897.72072",
    "final_y": "550664.678292",
    "longitude": "-90.07246453481575",
    "latitude": "30.008185432966",
    "geocoded_column": {
      "latitude": "30.008185432966",
      "longitude": "-90.07246453481575"
    }
  },
  {
    "service_request": "2026-1252867",
    "request_type": "Drainage",
    "request_reason": "Drainage Manhole Cover Missing or Damaged",
    "date_created": "2026-01-18T16:16:13.000",
    "date_modified": "2026-01-18T16:16:15.000",
    "request_status": "Pending",
    "responsible_agency": "Sewerage & Water Board",
    "final_address": "306 S Murat St",
    "address_councildis": "A",
    "status": "Pending",
    "rowid": "1252867",
    "final_x": "3669207.60308",
    "final_y": "538676.676553",
    "longitude": "-90.10664347293086",
    "latitude": "29.97554166270201",
    "geocoded_column": {
      "latitude": "29.97554166270201",
      "longitude": "-90.10664347293086"
    }
  },
  {
    "service_request": "2026-1252866",
    "request_type": "General Services",
    "request_reason": "General Service Request",
    "date_created": "2026-01-18T15:39:55.000",
    "date_modified": "2026-01-18T15:39:57.000",
    "request_status": "Pending",
    "responsible_agency": "Orleans Parish Communication District",
    "final_address": "1027 N Rocheblave St",
    "address_councildis": "D",
    "status": "Pending",
    "rowid": "1252866",
    "final_x": "3678301.94581",
    "final_y": "537412.715336",
    "longitude": "-90.07796477083768",
    "latitude": "29.97179536194093",
    "geocoded_column": {
      "latitude": "29.97179536194093",
      "longitude": "-90.07796477083768"
    }
  },
  {
    "service_request": "2026-1252865",
    "request_type": "Mosquito, Termite & Rodent Control",
    "request_reason": "Non-Rodent Complaint (Possums & Snakes)",
    "date_created": "2026-01-18T15:22:49.000",
    "date_modified": "2026-01-18T15:22:51.000",
    "request_status": "Pending",
    "responsible_agency": "Mosquito, Termite & Rodent Control Board",
    "final_address": "3500 BLK Republic St",
    "address_councildis": "D",
    "status": "Pending",
    "rowid": "1252865",
    "final_x": "3680472.21612",
    "final_y": "545389.606187",
    "longitude": "-90.0708331508246",
    "latitude": "29.99366347040658",
    "geocoded_column": {
      "latitude": "29.99366347040658",
      "longitude": "-90.0708331508246"
    }
  },
  {
    "service_request": "2026-1252864",
    "request_type": "Trash/Recycling",
    "request_reason": "Request a Large Item Pick Up",
    "date_created": "2026-01-18T14:59:03.000",
    "date_modified": "2026-01-18T14:59:05.000",
    "request_status": "Pending",
    "responsible_agency": "Department of Sanitation",
    "final_address": "4719 Toulouse St",
    "address_councildis": "A",
    "status": "Assigned to Contractor",
    "contractor": "IV Waste",
    "rowid": "1252864",
    "final_x": "3670081.77498",
    "final_y": "541390.35918",
    "longitude": "-90.10379062445499",
    "latitude": "29.982977608286028",
    "geocoded_column": {
      "latitude": "29.982977608286028",
      "longitude": "-90.10379062445499"
    }
  },
  {
    "service_request": "2026-1252863",
    "request_type": "Property Maintenance",
    "request_reason": "Property Maintenance",
    "date_created": "2026-01-18T14:52:06.000",
    "date_modified": "2026-01-18T14:52:09.000",
    "request_status": "Pending",
    "responsible_agency": "Department of Code Enforcement",
    "final_address": "1437 Port St",
    "address_councildis": "C",
    "status": "Pending",
    "rowid": "1252863",
    "final_x": "3687800.51023",
    "final_y": "537784.907528",
    "longitude": "-90.04795371795691",
    "latitude": "29.972529197948365",
    "geocoded_column": {
      "latitude": "29.972529197948365",
      "longitude": "-90.04795371795691"
    }
  },
  {
    "service_request": "2026-1252862",
    "request_type": "Trash/Recycling",
    "request_reason": "Return Recycling Cart",
    "date_created": "2026-01-18T14:13:40.000",
    "date_modified": "2026-01-18T14:13:41.000",
    "request_status": "Pending",
    "responsible_agency": "Department of Sanitation",
    "final_address": "827 N Rendon St",
    "address_councildis": "A",
    "status": "Pending",
    "rowid": "1252862",
    "final_x": "3675246.59937",
    "final_y": "538798.875657",
    "longitude": "-90.08756644733037",
    "latitude": "29.975698518361373",
    "geocoded_column": {
      "latitude": "29.975698518361373",
      "longitude": "-90.08756644733037"
    }
  },
  {
    "service_request": "2026-1252861",
    "request_type": "Trash/Recycling",
    "request_reason": "Repair Trash Cart",
    "date_created": "2026-01-18T13:22:38.000",
    "date_modified": "2026-01-18T13:22:46.000",
    "request_status": "Pending",
    "responsible_agency": "Department of Sanitation",
    "final_address": "1316 Octavia St",
    "address_councildis": "A",
    "status": "Assigned to Contractor",
    "contractor": "IV Waste",
    "rowid": "1252861",
    "final_x": "3666808.88717",
    "final_y": "520772.012217",
    "longitude": "-90.11482064747497",
    "latitude": "29.926380053936185",
    "geocoded_column": {
      "latitude": "29.926380053936185",
      "longitude": "-90.11482064747497"
    }
  },
  {
    "service_request": "2026-1252860",
    "request_type": "Trash/Recycling",
    "request_reason": "Illegal Dumping",
    "date_created": "2026-01-18T13:21:06.000",
    "date_modified": "2026-01-18T13:21:08.000",
    "request_status": "Pending",
    "responsible_agency": "Department of Sanitation",
    "final_address": "13113 St Stephen Dr",
    "address_councildis": "E",
    "status": "Pending",
    "rowid": "1252860",
    "final_x": "3716987.39186",
    "final_y": "569719.925606",
    "longitude": "-89.95456384458635",
    "latitude": "30.059405337273613",
    "geocoded_column": {
      "latitude": "30.059405337273613",
      "longitude": "-89.95456384458635"
    }
  },
  {
    "service_request": "2026-1252859",
    "request_type": "Trash/Recycling",
    "request_reason": "Request a Large Item Pick Up",
    "date_created": "2026-01-18T13:15:50.000",
    "date_modified": "2026-01-18T13:15:52.000",
    "request_status": "Pending",
    "responsible_agency": "Department of Sanitation",
    "final_address": "309 S Cortez St",
    "address_councildis": "A",
    "status": "Assigned to Contractor",
    "contractor": "IV Waste",
    "rowid": "1252859",
    "final_x": "3671499.01703",
    "final_y": "536923.54804",
    "longitude": "-90.09946616458961",
    "latitude": "29.97065350063678",
    "geocoded_column": {
      "latitude": "29.97065350063678",
      "longitude": "-90.09946616458961"
    }
  },
  {
    "service_request": "2026-1252858",
    "request_type": "Mosquito, Termite & Rodent Control",
    "request_reason": "Rodent Complaint (Mice & Rats)",
    "date_created": "2026-01-18T12:58:24.000",
    "date_modified": "2026-01-18T12:58:26.000",
    "request_status": "Pending",
    "responsible_agency": "Mosquito, Termite & Rodent Control Board",
    "final_address": "4323 Cleveland Ave",
    "address_councildis": "A",
    "status": "Pending",
    "rowid": "1252858",
    "final_x": "3669899.14081",
    "final_y": "538783.071113",
    "longitude": "-90.10445579726044",
    "latitude": "29.975813837126523",
    "geocoded_column": {
      "latitude": "29.975813837126523",
      "longitude": "-90.10445579726044"
    }
  },
  {
    "service_request": "2026-1252857",
    "request_type": "Mosquito, Termite & Rodent Control",
    "request_reason": "Rodent Complaint (Mice & Rats)",
    "date_created": "2026-01-18T12:55:15.000",
    "date_modified": "2026-01-18T12:55:17.000",
    "request_status": "Pending",
    "responsible_agency": "Mosquito, Termite & Rodent Control Board",
    "final_address": "4323 Cleveland Ave",
    "address_councildis": "A",
    "status": "Pending",
    "rowid": "1252857",
    "final_x": "3669899.14081",
    "final_y": "538783.071113",
    "longitude": "-90.10445579726044",
    "latitude": "29.975813837126523",
    "geocoded_column": {
      "latitude": "29.975813837126523",
      "longitude": "-90.10445579726044"
    }
  },
  {
    "service_request": "2026-1252856",
    "request_type": "Mosquito, Termite & Rodent Control",
    "request_reason": "Rodent Complaint (Mice & Rats)",
    "date_created": "2026-01-18T12:46:25.000",
    "date_modified": "2026-01-18T12:46:27.000",
    "request_status": "Pending",
    "responsible_agency": "Mosquito, Termite & Rodent Control Board",
    "final_address": "4323 Cleveland Ave",
    "address_councildis": "A",
    "status": "Pending",
    "rowid": "1252856",
    "final_x": "3669899.14081",
    "final_y": "538783.071113",
    "longitude": "-90.10445579726044",
    "latitude": "29.975813837126523",
    "geocoded_column": {
      "latitude": "29.975813837126523",
      "longitude": "-90.10445579726044"
    }
  },
  {
    "service_request": "2026-1252855",
    "request_type": "Trash/Recycling",
    "request_reason": "Replace Recycling Cart",
    "date_created": "2026-01-18T12:29:59.000",
    "date_modified": "2026-01-18T12:30:00.000",
    "request_status": "Pending",
    "responsible_agency": "Department of Sanitation",
    "final_address": "3430 Baronne St",
    "address_councildis": "B",
    "status": "Pending",
    "rowid": "1252855",
    "final_x": "3673667.245",
    "final_y": "522088.526778",
    "longitude": "-90.09312572219564",
    "latitude": "29.929797719966434",
    "geocoded_column": {
      "latitude": "29.929797719966434",
      "longitude": "-90.09312572219564"
    }
  },
  {
    "service_request": "2026-1252854",
    "request_type": "Trash/Recycling",
    "request_reason": "Repair Trash Cart",
    "date_created": "2026-01-18T12:28:09.000",
    "date_modified": "2026-01-18T12:28:11.000",
    "request_status": "Pending",
    "responsible_agency": "Department of Sanitation",
    "final_address": "3430 Baronne St",
    "address_councildis": "B",
    "status": "Assigned to Contractor",
    "contractor": "IV Waste",
    "rowid": "1252854",
    "final_x": "3673667.245",
    "final_y": "522088.526778",
    "longitude": "-90.09312572219564",
    "latitude": "29.929797719966434",
    "geocoded_column": {
      "latitude": "29.929797719966434",
      "longitude": "-90.09312572219564"
    }
  },
  {
    "service_request": "2026-1252853",
    "request_type": "General Services",
    "request_reason": "General Service Request",
    "date_created": "2026-01-18T12:18:43.000",
    "date_modified": "2026-01-18T12:18:45.000",
    "request_status": "Pending",
    "responsible_agency": "Orleans Parish Communication District",
    "final_address": "2016 Seventh St",
    "address_councildis": "B",
    "status": "Pending",
    "rowid": "1252853",
    "final_x": "3674350.60334",
    "final_y": "523387.842683",
    "longitude": "-90.09092400098878",
    "latitude": "29.933350062137272",
    "geocoded_column": {
      "latitude": "29.933350062137272",
      "longitude": "-90.09092400098878"
    }
  },
  {
    "service_request": "2026-1252852",
    "request_type": "Trash/Recycling",
    "request_reason": "Request a Large Item Pick Up",
    "date_created": "2026-01-18T11:02:11.000",
    "date_modified": "2026-01-18T11:02:13.000",
    "request_status": "Pending",
    "responsible_agency": "Department of Sanitation",
    "final_address": "6130 Canal Blvd",
    "address_councildis": "A",
    "status": "Assigned to Contractor",
    "contractor": "IV Waste",
    "rowid": "1252852",
    "final_x": "3668437.95649",
    "final_y": "548246.730002",
    "longitude": "-90.10875121645137",
    "latitude": "30.001878674502535",
    "geocoded_column": {
      "latitude": "30.001878674502535",
      "longitude": "-90.10875121645137"
    }
  },
  {
    "service_request": "2026-1252851",
    "request_type": "Trash/Recycling",
    "request_reason": "Request a Large Item Pick Up",
    "date_created": "2026-01-18T10:53:07.000",
    "date_modified": "2026-01-18T10:53:09.000",
    "request_status": "Pending",
    "responsible_agency": "Department of Sanitation",
    "final_address": "917 Race St",
    "address_councildis": "B",
    "status": "Assigned to Contractor",
    "contractor": "IV Waste",
    "rowid": "1252851",
    "final_x": "3680858.10882",
    "final_y": "523726.966843",
    "longitude": "-90.07036841082439",
    "latitude": "29.934086922209712",
    "geocoded_column": {
      "latitude": "29.934086922209712",
      "longitude": "-90.07036841082439"
    }
  },
  {
    "service_request": "2026-1252850",
    "request_type": "Trash/Recycling",
    "request_reason": "Order Recycling Cart",
    "date_created": "2026-01-18T10:43:47.000",
    "date_modified": "2026-01-18T10:43:49.000",
    "request_status": "Pending",
    "responsible_agency": "Department of Sanitation",
    "final_address": "90 Yellowstone Dr",
    "address_councildis": "C",
    "status": "Pending",
    "rowid": "1252850",
    "final_x": "3700612.61284",
    "final_y": "515746.925812",
    "longitude": "-90.00829591405584",
    "latitude": "29.911531061182938",
    "geocoded_column": {
      "latitude": "29.911531061182938",
      "longitude": "-90.00829591405584"
    }
  },
  {
    "service_request": "2026-1252849",
    "request_type": "General Services",
    "request_reason": "General Service Request",
    "date_created": "2026-01-18T10:08:20.000",
    "date_modified": "2026-01-18T10:08:21.000",
    "request_status": "Pending",
    "responsible_agency": "Orleans Parish Communication District",
    "final_address": "1445 Pauger St",
    "address_councildis": "C",
    "status": "Pending",
    "rowid": "1252849",
    "final_x": "3684005.90191",
    "final_y": "534964.092486",
    "longitude": "-90.06003674845844",
    "latitude": "29.964889432790503",
    "geocoded_column": {
      "latitude": "29.964889432790503",
      "longitude": "-90.06003674845844"
    }
  },
  {
    "service_request": "2026-1252848",
    "request_type": "Safety & Permits",
    "request_reason": "Licenses & Permits",
    "date_created": "2026-01-18T10:03:07.000",
    "date_modified": "2026-01-18T10:03:09.000",
    "request_status": "Pending",
    "responsible_agency": "Safety and Permits",
    "final_address": "610 N Hennessey St",
    "address_councildis": "A",
    "status": "Pending",
    "rowid": "1252848",
    "final_x": "3671472.3403",
    "final_y": "540439.496203",
    "longitude": "-90.09943084148277",
    "latitude": "29.98032195733845",
    "geocoded_column": {
      "latitude": "29.98032195733845",
      "longitude": "-90.09943084148277"
    }
  },
  {
    "service_request": "2026-1252847",
    "request_type": "Streetlights",
    "request_reason": "Streetlight Outage/Malfunction",
    "date_created": "2026-01-18T09:41:45.000",
    "date_modified": "2026-01-18T09:41:47.000",
    "request_status": "Pending",
    "responsible_agency": "Department of Public Works",
    "final_address": "0 BLK Ani St",
    "address_councildis": "D",
    "status": "Pending",
    "rowid": "1252847",
    "final_x": "3672561.96849",
    "final_y": "554474.005997",
    "longitude": "-90.0955104718156",
    "latitude": "30.01887964634331",
    "geocoded_column": {
      "latitude": "30.01887964634331",
      "longitude": "-90.0955104718156"
    }
  },
  {
    "service_request": "2026-1252846",
    "request_type": "Trash/Recycling",
    "request_reason": "Order Recycling Cart",
    "date_created": "2026-01-18T09:40:00.000",
    "date_modified": "2026-01-18T09:40:01.000",
    "request_status": "Pending",
    "responsible_agency": "Department of Sanitation",
    "final_address": "1410 Third St",
    "address_councildis": "B",
    "status": "Pending",
    "rowid": "1252846",
    "final_x": "3676858.08853",
    "final_y": "522138.553466",
    "longitude": "-90.08305105084322",
    "latitude": "29.929839927888427",
    "geocoded_column": {
      "latitude": "29.929839927888427",
      "longitude": "-90.08305105084322"
    }
  },
  {
    "service_request": "2026-1252845",
    "request_type": "Trash/Recycling",
    "request_reason": "Order Second Trash Cart",
    "date_created": "2026-01-18T09:38:37.000",
    "date_modified": "2026-01-18T09:38:38.000",
    "request_status": "Pending",
    "responsible_agency": "Department of Sanitation",
    "final_address": "1410 Third St",
    "address_councildis": "B",
    "status": "Assigned to Contractor",
    "contractor": "IV Waste",
    "rowid": "1252845",
    "final_x": "3676858.08853",
    "final_y": "522138.553466",
    "longitude": "-90.08305105084322",
    "latitude": "29.929839927888427",
    "geocoded_column": {
      "latitude": "29.929839927888427",
      "longitude": "-90.08305105084322"
    }
  },
  {
    "service_request": "2026-1252844",
    "request_type": "Trash/Recycling",
    "request_reason": "Request a Large Item Pick Up",
    "date_created": "2026-01-18T09:31:03.000",
    "date_modified": "2026-01-18T09:31:05.000",
    "request_status": "Pending",
    "responsible_agency": "Department of Sanitation",
    "final_address": "146 N Telemachus St",
    "address_councildis": "B",
    "status": "Assigned to Contractor",
    "contractor": "IV Waste",
    "rowid": "1252844",
    "final_x": "3672605.61556",
    "final_y": "537695.302216",
    "longitude": "-90.09594506695397",
    "latitude": "29.97274275211505",
    "geocoded_column": {
      "latitude": "29.97274275211505",
      "longitude": "-90.09594506695397"
    }
  },
  {
    "service_request": "2026-1252843",
    "request_type": "Trash/Recycling",
    "request_reason": "Damaged Caused By Contractor",
    "date_created": "2026-01-18T08:57:33.000",
    "date_modified": "2026-01-18T08:57:35.000",
    "request_status": "Pending",
    "responsible_agency": "Department of Sanitation",
    "final_address": "6147 Stratford Pl",
    "address_councildis": "C",
    "status": "Assigned to Contractor",
    "contractor": "Richards Disposal",
    "rowid": "1252843",
    "final_x": "3706721.94199",
    "final_y": "516108.64754",
    "longitude": "-89.98900011876539",
    "latitude": "29.912329999965294",
    "geocoded_column": {
      "latitude": "29.912329999965294",
      "longitude": "-89.98900011876539"
    }
  },
  {
    "service_request": "2026-1252842",
    "request_type": "Trash/Recycling",
    "request_reason": "Damaged Caused By Contractor",
    "date_created": "2026-01-18T08:57:33.000",
    "date_modified": "2026-01-18T08:57:35.000",
    "request_status": "Pending",
    "responsible_agency": "Department of Sanitation",
    "final_address": "6147 Stratford Pl",
    "address_councildis": "C",
    "status": "Assigned to Contractor",
    "contractor": "Richards Disposal",
    "rowid": "1252842",
    "final_x": "3706721.94199",
    "final_y": "516108.64754",
    "longitude": "-89.98900011876539",
    "latitude": "29.912329999965294",
    "geocoded_column": {
      "latitude": "29.912329999965294",
      "longitude": "-89.98900011876539"
    }
  },
  {
    "service_request": "2026-1252841",
    "request_type": "Trash/Recycling",
    "request_reason": "Request a Large Item Pick Up",
    "date_created": "2026-01-18T08:29:17.000",
    "date_modified": "2026-01-18T08:29:18.000",
    "request_status": "Pending",
    "responsible_agency": "Department of Sanitation",
    "final_address": "4718 Iberville St",
    "address_councildis": "A",
    "status": "Assigned to Contractor",
    "contractor": "IV Waste",
    "rowid": "1252841",
    "final_x": "3669202.4329",
    "final_y": "540216.899403",
    "longitude": "-90.1066077234874",
    "latitude": "29.979776907681767",
    "geocoded_column": {
      "latitude": "29.979776907681767",
      "longitude": "-90.1066077234874"
    }
  },
  {
    "service_request": "2026-1252840",
    "request_type": "Trash/Recycling",
    "request_reason": "Request a Large Item Pick Up",
    "date_created": "2026-01-18T08:26:35.000",
    "date_modified": "2026-01-18T08:26:40.000",
    "request_status": "Pending",
    "responsible_agency": "Department of Sanitation",
    "final_address": "7000 W Tamaron Blvd",
    "address_councildis": "E",
    "status": "Assigned to Contractor",
    "contractor": "Waste Pro",
    "rowid": "1252840",
    "final_x": "3718849.73874",
    "final_y": "568144.118117",
    "longitude": "-89.94873735727423",
    "latitude": "30.055010772635498",
    "geocoded_column": {
      "latitude": "30.055010772635498",
      "longitude": "-89.94873735727423"
    }
  },
  {
    "service_request": "2026-1252838",
    "request_type": "Abandoned Vehicles",
    "request_reason": "Abandoned/Junk Vehicles",
    "date_created": "2026-01-18T07:37:54.000",
    "date_modified": "2026-01-18T07:37:57.000",
    "request_status": "Pending",
    "responsible_agency": "Department of Public Works",
    "final_address": "4300 LaSalle St",
    "address_councildis": "B",
    "status": "Pending",
    "rowid": "1252838",
    "final_x": "3670898.85134",
    "final_y": "523697.840827",
    "longitude": "-90.1018104815208",
    "latitude": "29.9343049166786",
    "geocoded_column": {
      "latitude": "29.9343049166786",
      "longitude": "-90.1018104815208"
    }
  },
  {
    "service_request": "2026-1252837",
    "request_type": "Health Related Request",
    "request_reason": "Noise Ordinance Complaint",
    "date_created": "2026-01-18T02:11:45.000",
    "date_modified": "2026-01-18T02:11:47.000",
    "request_status": "Pending",
    "responsible_agency": "Health Department",
    "final_address": "601 Lyons St",
    "address_councildis": "B",
    "status": "Pending",
    "rowid": "1252837",
    "final_x": "3669373.41882",
    "final_y": "517605.11679",
    "longitude": "-90.10683212544802",
    "latitude": "29.917596856751924",
    "geocoded_column": {
      "latitude": "29.917596856751924",
      "longitude": "-90.10683212544802"
    }
  },
  {
    "service_request": "2026-1252836",
    "request_type": "Health Related Request",
    "request_reason": "Noise Ordinance Complaint",
    "date_created": "2026-01-17T23:54:37.000",
    "date_modified": "2026-01-17T23:54:38.000",
    "request_status": "Pending",
    "responsible_agency": "Health Department",
    "final_address": "530 Lyons St",
    "address_councildis": "B",
    "status": "Pending",
    "rowid": "1252836",
    "final_x": "3669312.65748",
    "final_y": "517527.298038",
    "longitude": "-90.10702654441026",
    "latitude": "29.91738466791682",
    "geocoded_column": {
      "latitude": "29.91738466791682",
      "longitude": "-90.10702654441026"
    }
  },
  {
    "service_request": "2026-1252835",
    "request_type": "Health Related Request",
    "request_reason": "Noise Ordinance Complaint",
    "date_created": "2026-01-17T23:50:50.000",
    "date_modified": "2026-01-17T23:50:53.000",
    "request_status": "Pending",
    "responsible_agency": "Health Department",
    "final_address": "601 Lyons St",
    "address_councildis": "B",
    "status": "Pending",
    "rowid": "1252835",
    "final_x": "3669373.41882",
    "final_y": "517605.11679",
    "longitude": "-90.10683212544802",
    "latitude": "29.917596856751924",
    "geocoded_column": {
      "latitude": "29.917596856751924",
      "longitude": "-90.10683212544802"
    }
  },
  {
    "service_request": "2026-1252834",
    "request_type": "Roads and Streets",
    "request_reason": "Debris in Driving Lanes",
    "date_created": "2026-01-17T21:41:35.000",
    "date_modified": "2026-01-17T21:41:37.000",
    "request_status": "Pending",
    "responsible_agency": "Department of Public Works",
    "final_address": "5900 Almonaster Ave",
    "address_councildis": "E",
    "status": "Pending",
    "rowid": "1252834",
    "final_x": "3698161.74531",
    "final_y": "549080.420243",
    "longitude": "-90.01482078709545",
    "latitude": "30.0032640615742",
    "geocoded_column": {
      "latitude": "30.0032640615742",
      "longitude": "-90.01482078709545"
    }
  },
  {
    "service_request": "2026-1252833",
    "request_type": "Trash/Recycling",
    "request_reason": "Request a Large Item Pick Up",
    "date_created": "2026-01-17T21:36:18.000",
    "date_modified": "2026-01-17T21:36:21.000",
    "request_status": "Pending",
    "responsible_agency": "Department of Sanitation",
    "final_address": "7532 Horizon Dr",
    "address_councildis": "E",
    "status": "Assigned to Contractor",
    "contractor": "Waste Pro",
    "rowid": "1252833",
    "final_x": "3725273.33702",
    "final_y": "569708.616998",
    "longitude": "-89.92837336730125",
    "latitude": "30.059097494703302",
    "geocoded_column": {
      "latitude": "30.059097494703302",
      "longitude": "-89.92837336730125"
    }
  },
  {
    "service_request": "2026-1252832",
    "request_type": "Trash/Recycling",
    "request_reason": "Order Recycling Cart",
    "date_created": "2026-01-17T20:56:16.000",
    "date_modified": "2026-01-17T20:56:17.000",
    "request_status": "Pending",
    "responsible_agency": "Department of Sanitation",
    "final_address": "5930 Orleans Ave",
    "address_councildis": "A",
    "status": "Pending",
    "rowid": "1252832",
    "final_x": "3670751.77934",
    "final_y": "546669.172881",
    "longitude": "-90.10149515829322",
    "latitude": "29.99747274435227",
    "geocoded_column": {
      "latitude": "29.99747274435227",
      "longitude": "-90.10149515829322"
    }
  },
  {
    "service_request": "2026-1252831",
    "request_type": "Property Maintenance",
    "request_reason": "Property Maintenance",
    "date_created": "2026-01-17T19:38:04.000",
    "date_modified": "2026-01-17T19:38:07.000",
    "request_status": "Pending",
    "responsible_agency": "Department of Code Enforcement",
    "final_address": "0 BLK Cypress Point Ct",
    "address_councildis": "E",
    "status": "Pending",
    "rowid": "1252831",
    "final_x": "3719849.26236",
    "final_y": "563249.100652",
    "longitude": "-89.94576547267701",
    "latitude": "30.041518243642397",
    "geocoded_column": {
      "latitude": "30.041518243642397",
      "longitude": "-89.94576547267701"
    }
  },
  {
    "service_request": "2026-1252830",
    "request_type": "Abandoned Vehicles",
    "request_reason": "Abandoned/Junk Vehicles",
    "date_created": "2026-01-17T19:35:18.000",
    "date_modified": "2026-01-17T19:35:20.000",
    "request_status": "Pending",
    "responsible_agency": "Department of Public Works",
    "final_address": "206 N Tonti St",
    "address_councildis": "B",
    "status": "Pending",
    "rowid": "1252830",
    "final_x": "3676755.93646",
    "final_y": "534681.807174",
    "longitude": "-90.08294142861776",
    "latitude": "29.964332775888707",
    "geocoded_column": {
      "latitude": "29.964332775888707",
      "longitude": "-90.08294142861776"
    }
  },
  {
    "service_request": "2026-1252828",
    "request_type": "Trash/Recycling",
    "request_reason": "Request a Large Item Pick Up",
    "date_created": "2026-01-17T18:15:39.000",
    "date_modified": "2026-01-17T18:15:43.000",
    "request_status": "Pending",
    "responsible_agency": "Department of Sanitation",
    "final_address": "4709 Marigny St",
    "address_councildis": "D",
    "status": "Assigned to Contractor",
    "contractor": "IV Waste",
    "rowid": "1252828",
    "final_x": "3684508.58421",
    "final_y": "550208.6925",
    "longitude": "-90.05791345573856",
    "latitude": "30.006791321945908",
    "geocoded_column": {
      "latitude": "30.006791321945908",
      "longitude": "-90.05791345573856"
    }
  },
  {
    "service_request": "2026-1252827",
    "request_type": "Streetlights",
    "request_reason": "Streetlight Outage/Malfunction",
    "date_created": "2026-01-17T17:51:43.000",
    "date_modified": "2026-01-17T17:51:44.000",
    "request_status": "Pending",
    "responsible_agency": "Department of Public Works",
    "final_address": "1215 Chartres St",
    "address_councildis": "C",
    "status": "Pending",
    "rowid": "1252827",
    "final_x": "3684039.271",
    "final_y": "533832.018693",
    "longitude": "-90.05997109995783",
    "latitude": "29.96177559992882",
    "geocoded_column": {
      "latitude": "29.96177559992882",
      "longitude": "-90.05997109995783"
    }
  },
  {
    "service_request": "2026-1252826",
    "request_type": "Trash/Recycling",
    "request_reason": "Missed Trash Pick-Up",
    "date_created": "2026-01-17T17:47:32.000",
    "date_modified": "2026-01-17T17:47:35.000",
    "request_status": "Pending",
    "responsible_agency": "Department of Sanitation",
    "final_address": "406 Tricou St",
    "address_councildis": "E",
    "status": "Assigned to Contractor",
    "contractor": "Waste Pro",
    "rowid": "1252826",
    "final_x": "3699180.75095",
    "final_y": "530744.117378",
    "longitude": "-90.0122694663844",
    "latitude": "29.952813606803037",
    "geocoded_column": {
      "latitude": "29.952813606803037",
      "longitude": "-90.0122694663844"
    }
  },
  {
    "service_request": "2026-1252825",
    "request_type": "Trash/Recycling",
    "request_reason": "Request a Large Item Pick Up",
    "date_created": "2026-01-17T17:30:41.000",
    "date_modified": "2026-01-17T17:30:43.000",
    "request_status": "Pending",
    "responsible_agency": "Department of Sanitation",
    "final_address": "4017 Camp St",
    "address_councildis": "B",
    "status": "Assigned to Contractor",
    "contractor": "IV Waste",
    "rowid": "1252825",
    "final_x": "3672329.80276",
    "final_y": "519328.723063",
    "longitude": "-90.09744177389936",
    "latitude": "29.922248880712925",
    "geocoded_column": {
      "latitude": "29.922248880712925",
      "longitude": "-90.09744177389936"
    }
  },
  {
    "service_request": "2026-1252824",
    "request_type": "Roads and Streets",
    "request_reason": "Pothole",
    "date_created": "2026-01-17T17:19:31.000",
    "date_modified": "2026-01-17T17:19:32.000",
    "request_status": "Pending",
    "responsible_agency": "Department of Public Works",
    "final_address": "0 BLK Greenbrier Dr",
    "address_councildis": "E",
    "status": "Pending",
    "rowid": "1252824",
    "final_x": "3717358.9829",
    "final_y": "564762.172757",
    "longitude": "-89.95357798693622",
    "latitude": "30.045761258368728",
    "geocoded_column": {
      "latitude": "30.045761258368728",
      "longitude": "-89.95357798693622"
    }
  },
  {
    "service_request": "2026-1252823",
    "request_type": "Abandoned Vehicles",
    "request_reason": "Abandoned/Junk Vehicles",
    "date_created": "2026-01-17T17:14:33.000",
    "date_modified": "2026-01-17T17:14:35.000",
    "request_status": "Pending",
    "responsible_agency": "Department of Public Works",
    "final_address": "4623 Cartier Ave",
    "address_councildis": "D",
    "status": "Pending",
    "rowid": "1252823",
    "final_x": "3677969.63118",
    "final_y": "549626.525011",
    "longitude": "-90.07859188136828",
    "latitude": "30.005389078720462",
    "geocoded_column": {
      "latitude": "30.005389078720462",
      "longitude": "-90.07859188136828"
    }
  },
  {
    "service_request": "2026-1252822",
    "request_type": "Trash/Recycling",
    "request_reason": "Request a Large Item Pick Up",
    "date_created": "2026-01-17T16:51:40.000",
    "date_modified": "2026-01-17T16:51:41.000",
    "request_status": "Pending",
    "responsible_agency": "Department of Sanitation",
    "final_address": "5825 Clara St",
    "address_councildis": "A",
    "status": "Assigned to Contractor",
    "contractor": "IV Waste",
    "rowid": "1252822",
    "final_x": "3666933.70951",
    "final_y": "525319.321661",
    "longitude": "-90.11427389849432",
    "latitude": "29.938880055738096",
    "geocoded_column": {
      "latitude": "29.938880055738096",
      "longitude": "-90.11427389849432"
    }
  },
  {
    "service_request": "2026-1252821",
    "request_type": "General Services",
    "request_reason": "General Service Request",
    "date_created": "2026-01-17T16:43:46.000",
    "date_modified": "2026-01-17T16:43:48.000",
    "request_status": "Pending",
    "responsible_agency": "Orleans Parish Communication District",
    "final_address": "3200 Somerset Dr",
    "address_councildis": "C",
    "status": "Pending",
    "rowid": "1252821",
    "final_x": "3702616.47287",
    "final_y": "519444.380663",
    "longitude": "-90.00183566887375",
    "latitude": "29.92163392546993",
    "geocoded_column": {
      "latitude": "29.92163392546993",
      "longitude": "-90.00183566887375"
    }
  },
  {
    "service_request": "2026-1252820",
    "request_type": "Trash/Recycling",
    "request_reason": "Order Trash Cart",
    "date_created": "2026-01-17T16:42:37.000",
    "date_modified": "2026-01-17T16:42:39.000",
    "request_status": "Pending",
    "responsible_agency": "Department of Sanitation",
    "final_address": "4430 Bancroft Dr",
    "address_councildis": "D",
    "status": "Assigned to Contractor",
    "contractor": "IV Waste",
    "rowid": "1252820",
    "final_x": "3676525.79285",
    "final_y": "548567.490898",
    "longitude": "-90.08318978985807",
    "latitude": "30.002520504868496",
    "geocoded_column": {
      "latitude": "30.002520504868496",
      "longitude": "-90.08318978985807"
    }
  },
  {
    "service_request": "2026-1252819",
    "request_type": "Roads and Streets",
    "request_reason": "Push-up/Pavement Expansion",
    "date_created": "2026-01-17T16:33:14.000",
    "date_modified": "2026-01-17T16:33:15.000",
    "request_status": "Pending",
    "responsible_agency": "Department of Public Works",
    "final_address": "3960 Peach Tree Ct",
    "address_councildis": "C",
    "status": "Pending",
    "rowid": "1252819",
    "final_x": "3704044.46174",
    "final_y": "512796.735281",
    "longitude": "-89.9975727753838",
    "latitude": "29.903309475002168",
    "geocoded_column": {
      "latitude": "29.903309475002168",
      "longitude": "-89.9975727753838"
    }
  },
  {
    "service_request": "2026-1252818",
    "request_type": "Trash/Recycling",
    "request_reason": "Request a Large Item Pick Up",
    "date_created": "2026-01-17T16:24:32.000",
    "date_modified": "2026-01-17T16:24:34.000",
    "request_status": "Pending",
    "responsible_agency": "Department of Sanitation",
    "final_address": "914 Lowerline St",
    "address_councildis": "A",
    "status": "Assigned to Contractor",
    "contractor": "IV Waste",
    "rowid": "1252818",
    "final_x": "3663136.68307",
    "final_y": "526082.05523",
    "longitude": "-90.12623623411938",
    "latitude": "29.941087861485936",
    "geocoded_column": {
      "latitude": "29.941087861485936",
      "longitude": "-90.12623623411938"
    }
  },
  {
    "service_request": "2026-1252817",
    "request_type": "Roads and Streets",
    "request_reason": "Pothole",
    "date_created": "2026-01-17T15:47:41.000",
    "date_modified": "2026-01-17T15:47:46.000",
    "request_status": "Pending",
    "responsible_agency": "Department of Public Works",
    "final_address": "920 Poeyfarre St Unit 414",
    "address_councildis": "B",
    "status": "Pending",
    "rowid": "1252817",
    "final_x": "3681516.42735",
    "final_y": "526223.121086",
    "longitude": "-90.06820311876257",
    "latitude": "29.940930548520427",
    "geocoded_column": {
      "latitude": "29.940930548520427",
      "longitude": "-90.06820311876257"
    }
  },
  {
    "service_request": "2026-1252816",
    "request_type": "Streetlights",
    "request_reason": "Streetlight Outage/Malfunction",
    "date_created": "2026-01-17T15:40:24.000",
    "date_modified": "2026-01-17T15:40:25.000",
    "request_status": "Pending",
    "responsible_agency": "Department of Public Works",
    "final_address": "920 Poeyfarre St Unit 414",
    "address_councildis": "B",
    "status": "Pending",
    "rowid": "1252816",
    "final_x": "3681516.42735",
    "final_y": "526223.121086",
    "longitude": "-90.06820311876257",
    "latitude": "29.940930548520427",
    "geocoded_column": {
      "latitude": "29.940930548520427",
      "longitude": "-90.06820311876257"
    }
  },
  {
    "service_request": "2026-1252815",
    "request_type": "Roads and Streets",
    "request_reason": "Street Subsidence (Sinking)",
    "date_created": "2026-01-17T15:38:40.000",
    "date_modified": "2026-01-17T15:38:42.000",
    "request_status": "Pending",
    "responsible_agency": "Sewerage & Water Board",
    "final_address": "5700 E Louis Prima Dr",
    "address_councildis": "E",
    "status": "Pending",
    "rowid": "1252815",
    "final_x": "3716335.15768",
    "final_y": "561893.531743",
    "longitude": "-89.95692265359399",
    "latitude": "30.03790751799672",
    "geocoded_column": {
      "latitude": "30.03790751799672",
      "longitude": "-89.95692265359399"
    }
  },
  {
    "service_request": "2026-1252814",
    "request_type": "Roads and Streets",
    "request_reason": "Pothole",
    "date_created": "2026-01-17T15:37:39.000",
    "date_modified": "2026-01-17T15:37:42.000",
    "request_status": "Pending",
    "responsible_agency": "Department of Public Works",
    "final_address": "9010 Quince St",
    "address_councildis": "A",
    "status": "Pending",
    "rowid": "1252814",
    "final_x": "3667144.14445",
    "final_y": "538928.124426",
    "longitude": "-90.11315200808153",
    "latitude": "29.976293640132575",
    "geocoded_column": {
      "latitude": "29.976293640132575",
      "longitude": "-90.11315200808153"
    }
  },
  {
    "service_request": "2026-1252813",
    "request_type": "Roads and Streets",
    "request_reason": "Abandoned Service Cut",
    "date_created": "2026-01-17T15:23:45.000",
    "date_modified": "2026-01-17T15:23:47.000",
    "request_status": "Pending",
    "responsible_agency": "Department of Public Works",
    "final_address": "9010 Quince St",
    "address_councildis": "A",
    "status": "Pending",
    "rowid": "1252813",
    "final_x": "3667144.14445",
    "final_y": "538928.124426",
    "longitude": "-90.11315200808153",
    "latitude": "29.976293640132575",
    "geocoded_column": {
      "latitude": "29.976293640132575",
      "longitude": "-90.11315200808153"
    }
  },
  {
    "service_request": "2026-1252812",
    "request_type": "Abandoned Vehicles",
    "request_reason": "Abandoned/Junk Vehicles",
    "date_created": "2026-01-17T15:18:03.000",
    "date_modified": "2026-01-17T15:18:06.000",
    "request_status": "Pending",
    "responsible_agency": "Department of Public Works",
    "final_address": "4654 Chrysler St",
    "address_councildis": "E",
    "status": "Pending",
    "rowid": "1252812",
    "final_x": "3715256.44555",
    "final_y": "556499.81673",
    "longitude": "-89.96053583054572",
    "latitude": "30.02311254227688",
    "geocoded_column": {
      "latitude": "30.02311254227688",
      "longitude": "-89.96053583054572"
    }
  },
  {
    "service_request": "2026-1252811",
    "request_type": "General Services",
    "request_reason": "General Service Request",
    "date_created": "2026-01-17T15:12:03.000",
    "date_modified": "2026-01-17T15:12:06.000",
    "request_status": "Pending",
    "responsible_agency": "Orleans Parish Communication District",
    "final_address": "5703 Laurel St",
    "address_councildis": "A",
    "status": "Pending",
    "rowid": "1252811",
    "final_x": "3665536.96173",
    "final_y": "517980.047542",
    "longitude": "-90.1189291832297",
    "latitude": "29.9187401580138",
    "geocoded_column": {
      "latitude": "29.9187401580138",
      "longitude": "-90.1189291832297"
    }
  },
  {
    "service_request": "2026-1252810",
    "request_type": "Street and Traffic Signs",
    "request_reason": "Street Name Sign Damaged or Missing",
    "date_created": "2026-01-17T15:06:38.000",
    "date_modified": "2026-01-17T15:06:40.000",
    "request_status": "Pending",
    "responsible_agency": "Department of Public Works",
    "final_address": "N ROBERTSON ST & FRANCE ST",
    "address_councildis": "D",
    "status": "Pending",
    "rowid": "1252810",
    "final_x": "3692757.8",
    "final_y": "536645.08",
    "longitude": "-90.03233864701068",
    "latitude": "29.9692412374848",
    "geocoded_column": {
      "latitude": "29.9692412374848",
      "longitude": "-90.03233864701068"
    }
  },
  {
    "service_request": "2026-1252809",
    "request_type": "Trash/Recycling",
    "request_reason": "Request a Large Item Pick Up",
    "date_created": "2026-01-17T14:47:55.000",
    "date_modified": "2026-01-17T14:47:57.000",
    "request_status": "Pending",
    "responsible_agency": "Department of Sanitation",
    "final_address": "2416 Lake Oaks Prkwy",
    "address_councildis": "D",
    "status": "Assigned to Contractor",
    "contractor": "IV Waste",
    "rowid": "1252809",
    "final_x": "3684684.01813",
    "final_y": "558378.582236",
    "longitude": "-90.0570717281825",
    "latitude": "30.029250146759917",
    "geocoded_column": {
      "latitude": "30.029250146759917",
      "longitude": "-90.0570717281825"
    }
  },
  {
    "service_request": "2026-1252808",
    "request_type": "Trash/Recycling",
    "request_reason": "Request a Large Item Pick Up",
    "date_created": "2026-01-17T14:45:10.000",
    "date_modified": "2026-01-17T14:45:12.000",
    "request_status": "Pending",
    "responsible_agency": "Department of Sanitation",
    "final_address": "2019 Burgundy St",
    "address_councildis": "C",
    "status": "Assigned to Contractor",
    "contractor": "IV Waste",
    "rowid": "1252808",
    "final_x": "3684451.28969",
    "final_y": "535649.416198",
    "longitude": "-90.05860616765877",
    "latitude": "29.96676021978141",
    "geocoded_column": {
      "latitude": "29.96676021978141",
      "longitude": "-90.05860616765877"
    }
  },
  {
    "service_request": "2026-1252806",
    "request_type": "Trash/Recycling",
    "request_reason": "Request a Large Item Pick Up",
    "date_created": "2026-01-17T14:25:11.000",
    "date_modified": "2026-01-17T14:25:12.000",
    "request_status": "Pending",
    "responsible_agency": "Department of Sanitation",
    "final_address": "8320 Birch St",
    "address_councildis": "A",
    "status": "Assigned to Contractor",
    "contractor": "IV Waste",
    "rowid": "1252806",
    "final_x": "3662198.07475",
    "final_y": "529994.535937",
    "longitude": "-90.12906978568132",
    "latitude": "29.95187308680227",
    "geocoded_column": {
      "latitude": "29.95187308680227",
      "longitude": "-90.12906978568132"
    }
  },
  {
    "service_request": "2026-1252805",
    "request_type": "Trash/Recycling",
    "request_reason": "Request a Large Item Pick Up",
    "date_created": "2026-01-17T14:18:07.000",
    "date_modified": "2026-01-17T14:18:08.000",
    "request_status": "Pending",
    "responsible_agency": "Department of Sanitation",
    "final_address": "422 Opelousas Ave",
    "address_councildis": "C",
    "status": "Assigned to Contractor",
    "contractor": "Richards Disposal",
    "rowid": "1252805",
    "final_x": "3686761.60873",
    "final_y": "529193.673856",
    "longitude": "-90.05153826667927",
    "latitude": "29.948938278178264",
    "geocoded_column": {
      "latitude": "29.948938278178264",
      "longitude": "-90.05153826667927"
    }
  },
  {
    "service_request": "2026-1252804",
    "request_type": "Trash/Recycling",
    "request_reason": "Request a Large Item Pick Up",
    "date_created": "2026-01-17T13:42:34.000",
    "date_modified": "2026-01-17T13:42:36.000",
    "request_status": "Pending",
    "responsible_agency": "Department of Sanitation",
    "final_address": "4567 Viola St",
    "address_councildis": "E",
    "status": "Assigned to Contractor",
    "contractor": "Waste Pro",
    "rowid": "1252804",
    "final_x": "3704137.24074",
    "final_y": "554058.446936",
    "longitude": "-89.99575985778762",
    "latitude": "30.016761322194686",
    "geocoded_column": {
      "latitude": "30.016761322194686",
      "longitude": "-89.99575985778762"
    }
  },
  {
    "service_request": "2026-1252803",
    "request_type": "Graffiti Removal",
    "request_reason": "Graffiti Removal",
    "date_created": "2026-01-17T13:32:11.000",
    "date_modified": "2026-01-17T13:32:14.000",
    "request_status": "Pending",
    "responsible_agency": "Department of Code Enforcement",
    "final_address": "1600 BLK Napoleon Ave",
    "address_councildis": "B",
    "status": "Pending",
    "rowid": "1252803",
    "final_x": "3670790.41298",
    "final_y": "521061.214227",
    "longitude": "-90.1022422494342",
    "latitude": "29.927058244091356",
    "geocoded_column": {
      "latitude": "29.927058244091356",
      "longitude": "-90.1022422494342"
    }
  },
  {
    "service_request": "2026-1252802",
    "request_type": "Drainage",
    "request_reason": "Catch Basin Not Draining",
    "date_created": "2026-01-17T13:24:49.000",
    "date_modified": "2026-01-17T13:24:50.000",
    "request_status": "Pending",
    "responsible_agency": "Sewerage & Water Board",
    "final_address": "4047 Buick St",
    "address_councildis": "D",
    "status": "Pending",
    "rowid": "1252802",
    "final_x": "3688884.67081",
    "final_y": "548239.559314",
    "longitude": "-90.04415827666648",
    "latitude": "30.001242264299787",
    "geocoded_column": {
      "latitude": "30.001242264299787",
      "longitude": "-90.04415827666648"
    }
  },
  {
    "service_request": "2026-1252801",
    "request_type": "Trash/Recycling",
    "request_reason": "Request a Large Item Pick Up",
    "date_created": "2026-01-17T13:21:35.000",
    "date_modified": "2026-01-17T13:21:38.000",
    "request_status": "Pending",
    "responsible_agency": "Department of Sanitation",
    "final_address": "3121 Orleans Ave",
    "address_councildis": "A",
    "status": "Assigned to Contractor",
    "contractor": "IV Waste",
    "rowid": "1252801",
    "final_x": "3675182.12865",
    "final_y": "538290.144969",
    "longitude": "-90.08778752934143",
    "latitude": "29.974301609846606",
    "geocoded_column": {
      "latitude": "29.974301609846606",
      "longitude": "-90.08778752934143"
    }
  },
  {
    "service_request": "2026-1252800",
    "request_type": "Trash/Recycling",
    "request_reason": "Request a Large Item Pick Up",
    "date_created": "2026-01-17T13:04:04.000",
    "date_modified": "2026-01-17T13:04:05.000",
    "request_status": "Pending",
    "responsible_agency": "Department of Sanitation",
    "final_address": "7820 Newcastle St",
    "address_councildis": "E",
    "status": "Assigned to Contractor",
    "contractor": "Waste Pro",
    "rowid": "1252800",
    "final_x": "3696940.6353",
    "final_y": "559904.389981",
    "longitude": "-90.01828599773117",
    "latitude": "30.033064466478933",
    "geocoded_column": {
      "latitude": "30.033064466478933",
      "longitude": "-90.01828599773117"
    }
  },
  {
    "service_request": "2026-1252799",
    "request_type": "Trash/Recycling",
    "request_reason": "Order Trash Cart",
    "date_created": "2026-01-17T12:52:48.000",
    "date_modified": "2026-01-17T12:52:50.000",
    "request_status": "Pending",
    "responsible_agency": "Department of Sanitation",
    "final_address": "1804 Bienville Ave",
    "address_councildis": "B",
    "status": "Assigned to Contractor",
    "contractor": "IV Waste",
    "rowid": "1252799",
    "final_x": "3678470.31259",
    "final_y": "533627.324357",
    "longitude": "-90.07756405991674",
    "latitude": "29.961381753934745",
    "geocoded_column": {
      "latitude": "29.961381753934745",
      "longitude": "-90.07756405991674"
    }
  },
  {
    "service_request": "2026-1252798",
    "request_type": "Street and Traffic Signs",
    "request_reason": "Traffic or Parking Sign Damaged or Missing",
    "date_created": "2026-01-17T12:36:01.000",
    "date_modified": "2026-01-17T12:36:03.000",
    "request_status": "Pending",
    "responsible_agency": "Department of Public Works",
    "final_address": "4800 BLK Marconi Dr",
    "address_councildis": "A",
    "status": "Pending",
    "rowid": "1252798",
    "final_x": "3670716.09554",
    "final_y": "543128.826916",
    "longitude": "-90.1017280920835",
    "latitude": "29.987739069059227",
    "geocoded_column": {
      "latitude": "29.987739069059227",
      "longitude": "-90.1017280920835"
    }
  },
  {
    "service_request": "2026-1252797",
    "request_type": "General Services",
    "request_reason": "General Service Request",
    "date_created": "2026-01-17T12:24:15.000",
    "date_modified": "2026-01-17T12:24:17.000",
    "request_status": "Pending",
    "responsible_agency": "Orleans Parish Communication District",
    "final_address": "0 BLK Bienville St",
    "address_councildis": "C",
    "status": "Pending",
    "rowid": "1252797",
    "final_x": "3682796.7971",
    "final_y": "530442.12099",
    "longitude": "-90.06401321104035",
    "latitude": "29.95249244398008",
    "geocoded_column": {
      "latitude": "29.95249244398008",
      "longitude": "-90.06401321104035"
    }
  },
  {
    "service_request": "2026-1252796",
    "request_type": "Trash/Recycling",
    "request_reason": "Start Trash Service",
    "date_created": "2026-01-17T11:54:33.000",
    "date_modified": "2026-01-17T11:54:35.000",
    "request_status": "Pending",
    "responsible_agency": "Department of Sanitation",
    "final_address": "104 Kingston Ct",
    "address_councildis": "C",
    "status": "Assigned to Contractor",
    "contractor": "Richards Disposal",
    "rowid": "1252796",
    "final_x": "3705758.34775",
    "final_y": "517847.94975",
    "longitude": "-89.99197719750389",
    "latitude": "29.91714353119783",
    "geocoded_column": {
      "latitude": "29.91714353119783",
      "longitude": "-89.99197719750389"
    }
  },
  {
    "service_request": "2026-1252795",
    "request_type": "Abandoned Vehicles",
    "request_reason": "Abandoned/Junk Vehicles",
    "date_created": "2026-01-17T11:51:45.000",
    "date_modified": "2026-01-17T11:51:47.000",
    "request_status": "Pending",
    "responsible_agency": "Department of Public Works",
    "final_address": "2407 Broadway St",
    "address_councildis": "A",
    "status": "Pending",
    "rowid": "1252795",
    "final_x": "3666692.42017",
    "final_y": "530149.969217",
    "longitude": "-90.11487350458366",
    "latitude": "29.95216983190709",
    "geocoded_column": {
      "latitude": "29.95216983190709",
      "longitude": "-90.11487350458366"
    }
  },
  {
    "service_request": "2026-1252794",
    "request_type": "General Services",
    "request_reason": "General Service Request",
    "date_created": "2026-01-17T11:34:38.000",
    "date_modified": "2026-01-17T11:34:41.000",
    "request_status": "Pending",
    "responsible_agency": "Orleans Parish Communication District",
    "final_address": "7420 Adventure Ave",
    "address_councildis": "E",
    "status": "Pending",
    "rowid": "1252794",
    "final_x": "3725896.85894",
    "final_y": "570180.067431",
    "longitude": "-89.92638419513118",
    "latitude": "30.06037274786767",
    "geocoded_column": {
      "latitude": "30.06037274786767",
      "longitude": "-89.92638419513118"
    }
  },
  {
    "service_request": "2026-1252793",
    "request_type": "Trash/Recycling",
    "request_reason": "Order Recycling Cart",
    "date_created": "2026-01-17T11:14:42.000",
    "date_modified": "2026-01-17T11:14:45.000",
    "request_status": "Pending",
    "responsible_agency": "Department of Sanitation",
    "final_address": "1560 N Tonti St",
    "address_councildis": "D",
    "status": "Pending",
    "rowid": "1252793",
    "final_x": "3680172.76322",
    "final_y": "539111.193802",
    "longitude": "-90.07199739256839",
    "latitude": "29.976409100542057",
    "geocoded_column": {
      "latitude": "29.976409100542057",
      "longitude": "-90.07199739256839"
    }
  },
  {
    "service_request": "2026-1252792",
    "request_type": "Roads and Streets",
    "request_reason": "Sidewalk Damaged or Missing",
    "date_created": "2026-01-17T11:08:55.000",
    "date_modified": "2026-01-17T11:08:57.000",
    "request_status": "Pending",
    "responsible_agency": "Department of Public Works",
    "final_address": "0 BLK Grand Teton Ct",
    "address_councildis": "C",
    "status": "Pending",
    "rowid": "1252792",
    "final_x": "3699218.36531",
    "final_y": "516557.634323",
    "longitude": "-90.01266698772893",
    "latitude": "29.913804494248108",
    "geocoded_column": {
      "latitude": "29.913804494248108",
      "longitude": "-90.01266698772893"
    }
  },
  {
    "service_request": "2026-1252791",
    "request_type": "Utility Poles",
    "request_reason": "Utility Pole Leaning",
    "date_created": "2026-01-17T10:59:56.000",
    "date_modified": "2026-01-17T10:59:59.000",
    "request_status": "Pending",
    "responsible_agency": "Utility Company Collective",
    "final_address": "2112 Delachaise St",
    "address_councildis": "B",
    "status": "Pending",
    "rowid": "1252791",
    "final_x": "3673042.68564",
    "final_y": "523128.982075",
    "longitude": "-90.09506185676771",
    "latitude": "29.93267720883131",
    "geocoded_column": {
      "latitude": "29.93267720883131",
      "longitude": "-90.09506185676771"
    }
  },
  {
    "service_request": "2026-1252790",
    "request_type": "Trash/Recycling",
    "request_reason": "Repair Trash Cart",
    "date_created": "2026-01-17T10:57:20.000",
    "date_modified": "2026-01-17T10:57:23.000",
    "request_status": "Pending",
    "responsible_agency": "Department of Sanitation",
    "final_address": "400 Pine St",
    "address_councildis": "A",
    "status": "Assigned to Contractor",
    "contractor": "IV Waste",
    "rowid": "1252790",
    "final_x": "3661993.25082",
    "final_y": "523851.040443",
    "longitude": "-90.12992025511808",
    "latitude": "29.934986349108765",
    "geocoded_column": {
      "latitude": "29.934986349108765",
      "longitude": "-90.12992025511808"
    }
  },
  {
    "service_request": "2026-1252789",
    "request_type": "Trash/Recycling",
    "request_reason": "Order Recycling Cart",
    "date_created": "2026-01-17T10:41:35.000",
    "date_modified": "2026-01-17T10:41:37.000",
    "request_status": "Pending",
    "responsible_agency": "Department of Sanitation",
    "final_address": "1129 Bordeaux St",
    "address_councildis": "B",
    "status": "Pending",
    "rowid": "1252789",
    "final_x": "3669526.98279",
    "final_y": "519640.784504",
    "longitude": "-90.10627859948332",
    "latitude": "29.923189778462497",
    "geocoded_column": {
      "latitude": "29.923189778462497",
      "longitude": "-90.10627859948332"
    }
  },
  {
    "service_request": "2026-1252788",
    "request_type": "Trash/Recycling",
    "request_reason": "Request a Large Item Pick Up",
    "date_created": "2026-01-17T10:36:42.000",
    "date_modified": "2026-01-17T10:36:46.000",
    "request_status": "Pending",
    "responsible_agency": "Department of Sanitation",
    "final_address": "2733 Peniston St",
    "address_councildis": "B",
    "status": "Assigned to Contractor",
    "contractor": "IV Waste",
    "rowid": "1252788",
    "final_x": "3671933.53166",
    "final_y": "525185.115453",
    "longitude": "-90.09849342040846",
    "latitude": "29.93836382174906",
    "geocoded_column": {
      "latitude": "29.93836382174906",
      "longitude": "-90.09849342040846"
    }
  },
  {
    "service_request": "2026-1252787",
    "request_type": "Trash/Recycling",
    "request_reason": "Request a Large Item Pick Up",
    "date_created": "2026-01-17T10:21:32.000",
    "date_modified": "2026-01-17T10:21:34.000",
    "request_status": "Pending",
    "responsible_agency": "Department of Sanitation",
    "final_address": "4432 Laurel St",
    "address_councildis": "B",
    "status": "Assigned to Contractor",
    "contractor": "IV Waste",
    "rowid": "1252787",
    "final_x": "3670808.59521",
    "final_y": "517977.753718",
    "longitude": "-90.10228942749852",
    "latitude": "29.918579171652286",
    "geocoded_column": {
      "latitude": "29.918579171652286",
      "longitude": "-90.10228942749852"
    }
  },
  {
    "service_request": "2026-1252786",
    "request_type": "Streetlights",
    "request_reason": "Streetlight Outage/Malfunction",
    "date_created": "2026-01-17T09:50:10.000",
    "date_modified": "2026-01-17T09:50:12.000",
    "request_status": "Pending",
    "responsible_agency": "Department of Public Works",
    "final_address": "700 BLK Tchoupitoulas St",
    "address_councildis": "B",
    "status": "Pending",
    "rowid": "1252786",
    "final_x": "3681750.65615",
    "final_y": "528103.458345",
    "longitude": "-90.06739802939278",
    "latitude": "29.946093733431002",
    "geocoded_column": {
      "latitude": "29.946093733431002",
      "longitude": "-90.06739802939278"
    }
  },
  {
    "service_request": "2026-1252785",
    "request_type": "Trash/Recycling",
    "request_reason": "Request a Large Item Pick Up",
    "date_created": "2026-01-17T09:45:31.000",
    "date_modified": "2026-01-17T09:45:32.000",
    "request_status": "Pending",
    "responsible_agency": "Department of Sanitation",
    "final_address": "36 Fontainebleau Dr",
    "address_councildis": "A",
    "status": "Assigned to Contractor",
    "contractor": "IV Waste",
    "rowid": "1252785",
    "final_x": "3666024.12327",
    "final_y": "531424.331011",
    "longitude": "-90.11694096744584",
    "latitude": "29.955693435294833",
    "geocoded_column": {
      "latitude": "29.955693435294833",
      "longitude": "-90.11694096744584"
    }
  },
  {
    "service_request": "2026-1252784",
    "request_type": "Trash/Recycling",
    "request_reason": "Replace Trash Cart",
    "date_created": "2026-01-17T09:40:37.000",
    "date_modified": "2026-01-17T09:40:39.000",
    "request_status": "Pending",
    "responsible_agency": "Department of Sanitation",
    "final_address": "3518 Gentilly Blvd",
    "address_councildis": "D",
    "status": "Assigned to Contractor",
    "contractor": "IV Waste",
    "rowid": "1252784",
    "final_x": "3685631.41372",
    "final_y": "548656.356499",
    "longitude": "-90.05442088594712",
    "latitude": "30.00248854753401",
    "geocoded_column": {
      "latitude": "30.00248854753401",
      "longitude": "-90.05442088594712"
    }
  },
  {
    "service_request": "2026-1252783",
    "request_type": "Trash/Recycling",
    "request_reason": "Return Trash Cart",
    "date_created": "2026-01-17T09:40:13.000",
    "date_modified": "2026-01-17T11:01:06.000",
    "request_status": "Pending",
    "responsible_agency": "Department of Sanitation",
    "final_address": "1110 General Pershing St",
    "address_councildis": "B",
    "status": "Assigned to Contractor",
    "contractor": "IV Waste",
    "rowid": "1252783",
    "final_x": "3671317.34132",
    "final_y": "519654.714424",
    "longitude": "-90.1006266350525",
    "latitude": "29.923175241588424",
    "geocoded_column": {
      "latitude": "29.923175241588424",
      "longitude": "-90.1006266350525"
    }
  },
  {
    "service_request": "2026-1252782",
    "request_type": "Roads and Streets",
    "request_reason": "Push-up/Pavement Expansion",
    "date_created": "2026-01-17T09:24:57.000",
    "date_modified": "2026-01-17T09:24:59.000",
    "request_status": "Pending",
    "responsible_agency": "Department of Public Works",
    "final_address": "0 BLK Cypress Point Ct",
    "address_councildis": "E",
    "status": "Pending",
    "rowid": "1252782",
    "final_x": "3719849.26236",
    "final_y": "563249.100652",
    "longitude": "-89.94576547267701",
    "latitude": "30.041518243642397",
    "geocoded_column": {
      "latitude": "30.041518243642397",
      "longitude": "-89.94576547267701"
    }
  },
  {
    "service_request": "2026-1252781",
    "request_type": "Trash/Recycling",
    "request_reason": "Order Trash Cart",
    "date_created": "2026-01-17T08:40:55.000",
    "date_modified": "2026-01-17T08:40:58.000",
    "request_status": "Pending",
    "responsible_agency": "Department of Sanitation",
    "final_address": "11013 S Hardy St",
    "address_councildis": "E",
    "status": "Assigned to Contractor",
    "contractor": "Waste Pro",
    "rowid": "1252781",
    "final_x": "3713270.13842",
    "final_y": "561952.963231",
    "longitude": "-89.96660653520388",
    "latitude": "30.03817180925248",
    "geocoded_column": {
      "latitude": "30.03817180925248",
      "longitude": "-89.96660653520388"
    }
  },
  {
    "service_request": "2026-1252780",
    "request_type": "Abandoned Vehicles",
    "request_reason": "Abandoned/Junk Vehicles",
    "date_created": "2026-01-17T08:21:10.000",
    "date_modified": "2026-01-17T08:21:12.000",
    "request_status": "Pending",
    "responsible_agency": "Department of Public Works",
    "final_address": "1111 Shirley Dr",
    "address_councildis": "C",
    "status": "Pending",
    "rowid": "1252780",
    "final_x": "3693048.87305",
    "final_y": "527209.981119",
    "longitude": "-90.03175788517305",
    "latitude": "29.94328891987638",
    "geocoded_column": {
      "latitude": "29.94328891987638",
      "longitude": "-90.03175788517305"
    }
  },
  {
    "service_request": "2026-1252779",
    "request_type": "Trash/Recycling",
    "request_reason": "Request a Large Item Pick Up",
    "date_created": "2026-01-17T08:14:16.000",
    "date_modified": "2026-01-17T08:14:18.000",
    "request_status": "Pending",
    "responsible_agency": "Department of Sanitation",
    "final_address": "121 Sherwood Forest Dr",
    "address_councildis": "A",
    "status": "Assigned to Contractor",
    "contractor": "IV Waste",
    "rowid": "1252779",
    "final_x": "3673251.68046",
    "final_y": "541138.594572",
    "longitude": "-90.09378703163449",
    "latitude": "29.98219143267326",
    "geocoded_column": {
      "latitude": "29.98219143267326",
      "longitude": "-90.09378703163449"
    }
  },
  {
    "service_request": "2026-1252778",
    "request_type": "Trash/Recycling",
    "request_reason": "Order Recycling Cart",
    "date_created": "2026-01-17T07:59:16.000",
    "date_modified": "2026-01-17T07:59:18.000",
    "request_status": "Pending",
    "responsible_agency": "Department of Sanitation",
    "final_address": "1926 Spain St",
    "address_councildis": "D",
    "status": "Pending",
    "rowid": "1252778",
    "final_x": "3685839.48508",
    "final_y": "539577.309194",
    "longitude": "-90.05408377579967",
    "latitude": "29.97751801666192",
    "geocoded_column": {
      "latitude": "29.97751801666192",
      "longitude": "-90.05408377579967"
    }
  },
  {
    "service_request": "2026-1252776",
    "request_type": "Trash/Recycling",
    "request_reason": "Replace Trash Cart",
    "date_created": "2026-01-17T07:00:29.000",
    "date_modified": "2026-01-17T09:29:52.000",
    "request_status": "Pending",
    "responsible_agency": "Department of Sanitation",
    "final_address": "2713 S Rocheblave St",
    "address_councildis": "B",
    "status": "Assigned to Contractor",
    "contractor": "IV Waste",
    "rowid": "1252776",
    "final_x": "3671818.46279",
    "final_y": "529080.56096",
    "longitude": "-90.09872419423507",
    "latitude": "29.949078433791502",
    "geocoded_column": {
      "latitude": "29.949078433791502",
      "longitude": "-90.09872419423507"
    }
  },
  {
    "service_request": "2026-1252774",
    "request_type": "Trash/Recycling",
    "request_reason": "Order Recycling Cart",
    "date_created": "2026-01-16T22:48:24.000",
    "date_modified": "2026-01-16T22:48:27.000",
    "request_status": "Pending",
    "responsible_agency": "Department of Sanitation",
    "final_address": "1617 Foucher St",
    "address_councildis": "B",
    "status": "Pending",
    "rowid": "1252774",
    "final_x": "3673500.12321",
    "final_y": "521436.794297",
    "longitude": "-90.09367555628937",
    "latitude": "29.928010638568235",
    "geocoded_column": {
      "latitude": "29.928010638568235",
      "longitude": "-90.09367555628937"
    }
  },
  {
    "service_request": "2026-1252773",
    "request_type": "Streetlights",
    "request_reason": "Streetlight Outage/Malfunction",
    "date_created": "2026-01-16T21:53:08.000",
    "date_modified": "2026-01-16T21:53:10.000",
    "request_status": "Pending",
    "responsible_agency": "Department of Public Works",
    "final_address": "3RD ST & LA SALLE ST",
    "address_councildis": "B",
    "status": "Pending",
    "rowid": "1252773",
    "final_x": "3674878.4",
    "final_y": "525245.18",
    "longitude": "-90.08919411159962",
    "latitude": "29.938441387501125",
    "geocoded_column": {
      "latitude": "29.938441387501125",
      "longitude": "-90.08919411159962"
    }
  },
  {
    "service_request": "2026-1252772",
    "request_type": "Abandoned Vehicles",
    "request_reason": "Abandoned/Junk Vehicles",
    "date_created": "2026-01-16T21:29:30.000",
    "date_modified": "2026-01-16T21:29:32.000",
    "request_status": "Pending",
    "responsible_agency": "Department of Public Works",
    "final_address": "226 N Alexander St",
    "address_councildis": "A",
    "status": "Pending",
    "rowid": "1252772",
    "final_x": "3670429.58215",
    "final_y": "539671.558858",
    "longitude": "-90.10275037276143",
    "latitude": "29.978241224818877",
    "geocoded_column": {
      "latitude": "29.978241224818877",
      "longitude": "-90.10275037276143"
    }
  },
  {
    "service_request": "2026-1252771",
    "request_type": "Trash/Recycling",
    "request_reason": "Replace Trash Cart",
    "date_created": "2026-01-16T21:23:27.000",
    "date_modified": "2026-01-16T21:23:30.000",
    "request_status": "Pending",
    "responsible_agency": "Department of Sanitation",
    "final_address": "1955 N Prieur St",
    "address_councildis": "D",
    "status": "Assigned to Contractor",
    "contractor": "IV Waste",
    "rowid": "1252771",
    "final_x": "3683368.60124",
    "final_y": "539180.365258",
    "longitude": "-90.06190156039172",
    "latitude": "29.976502179050755",
    "geocoded_column": {
      "latitude": "29.976502179050755",
      "longitude": "-90.06190156039172"
    }
  },
  {
    "service_request": "2026-1252770",
    "request_type": "Roads and Streets",
    "request_reason": "Street Subsidence (Sinking)",
    "date_created": "2026-01-16T20:55:08.000",
    "date_modified": "2026-01-16T20:55:10.000",
    "request_status": "Pending",
    "responsible_agency": "Sewerage & Water Board",
    "final_address": "4756 Lonely Oak Dr",
    "address_councildis": "E",
    "status": "Pending",
    "rowid": "1252770",
    "final_x": "3702247.15767",
    "final_y": "554467.702616",
    "longitude": "-90.0017166556246",
    "latitude": "30.017947149932315",
    "geocoded_column": {
      "latitude": "30.017947149932315",
      "longitude": "-90.0017166556246"
    }
  },
  {
    "service_request": "2026-1252769",
    "request_type": "Abandoned Vehicles",
    "request_reason": "Abandoned/Junk Vehicles",
    "date_created": "2026-01-16T20:51:54.000",
    "date_modified": "2026-01-16T20:51:57.000",
    "request_status": "Pending",
    "responsible_agency": "Department of Public Works",
    "final_address": "4800 Annunciation St",
    "address_councildis": "B",
    "status": "Pending",
    "rowid": "1252769",
    "final_x": "3669664.87246",
    "final_y": "517567.753462",
    "longitude": "-90.10591342986729",
    "latitude": "29.917485537982923",
    "geocoded_column": {
      "latitude": "29.917485537982923",
      "longitude": "-90.10591342986729"
    }
  },
  {
    "service_request": "2026-1252768",
    "request_type": "Trash/Recycling",
    "request_reason": "Request a Large Item Pick Up",
    "date_created": "2026-01-16T19:19:28.000",
    "date_modified": "2026-01-16T19:19:31.000",
    "request_status": "Pending",
    "responsible_agency": "Department of Sanitation",
    "final_address": "1600 Numa St",
    "address_councildis": "C",
    "status": "Assigned to Contractor",
    "contractor": "Richards Disposal",
    "rowid": "1252768",
    "final_x": "3691793.46262",
    "final_y": "525451.958077",
    "longitude": "-90.0357843731309",
    "latitude": "29.938494109817714",
    "geocoded_column": {
      "latitude": "29.938494109817714",
      "longitude": "-90.0357843731309"
    }
  },
  {
    "service_request": "2026-1252767",
    "request_type": "Trash/Recycling",
    "request_reason": "Request a Large Item Pick Up",
    "date_created": "2026-01-16T18:54:56.000",
    "date_modified": "2026-01-17T11:03:38.000",
    "request_status": "Pending",
    "responsible_agency": "Department of Sanitation",
    "final_address": "609 N Rendon St",
    "address_councildis": "A",
    "status": "Assigned to Contractor",
    "contractor": "IV Waste",
    "rowid": "1252767",
    "final_x": "3674703.61537",
    "final_y": "537958.365577",
    "longitude": "-90.08931016503591",
    "latitude": "29.973403623222808",
    "geocoded_column": {
      "latitude": "29.973403623222808",
      "longitude": "-90.08931016503591"
    }
  },
  {
    "service_request": "2026-1252766",
    "request_type": "Streetlights",
    "request_reason": "Streetlight Outage/Malfunction",
    "date_created": "2026-01-16T18:19:35.000",
    "date_modified": "2026-01-16T18:19:37.000",
    "request_status": "Pending",
    "responsible_agency": "Department of Public Works",
    "final_address": "30195 W Laverne St",
    "address_councildis": "D",
    "status": "Pending",
    "rowid": "1252766",
    "final_x": "3695288.15037",
    "final_y": "557807.970651",
    "longitude": "-90.0235837085885",
    "latitude": "30.0273521571435",
    "geocoded_column": {
      "latitude": "30.0273521571435",
      "longitude": "-90.0235837085885"
    }
  },
  {
    "service_request": "2026-1252765",
    "request_type": "Abandoned Vehicles",
    "request_reason": "Abandoned/Junk Vehicles",
    "date_created": "2026-01-16T18:05:54.000",
    "date_modified": "2026-01-16T18:05:56.000",
    "request_status": "Pending",
    "responsible_agency": "Department of Public Works",
    "final_address": "2728 Upperline St",
    "address_councildis": "B",
    "status": "Pending",
    "rowid": "1252765",
    "final_x": "3669141.09569",
    "final_y": "524887.124092",
    "longitude": "-90.10731950687494",
    "latitude": "29.93762689285509",
    "geocoded_column": {
      "latitude": "29.93762689285509",
      "longitude": "-90.10731950687494"
    }
  },
  {
    "service_request": "2026-1252764",
    "request_type": "Abandoned Vehicles",
    "request_reason": "Abandoned/Junk Vehicles",
    "date_created": "2026-01-16T17:09:17.000",
    "date_modified": "2026-01-16T17:09:18.000",
    "request_status": "Pending",
    "responsible_agency": "Department of Public Works",
    "final_address": "1737 General Taylor St",
    "address_councildis": "B",
    "status": "Pending",
    "rowid": "1252764",
    "final_x": "3672528.50151",
    "final_y": "521734.579514",
    "longitude": "-90.09673260413953",
    "latitude": "29.92885832027035",
    "geocoded_column": {
      "latitude": "29.92885832027035",
      "longitude": "-90.09673260413953"
    }
  },
  {
    "service_request": "2026-1252763",
    "request_type": "Trash/Recycling",
    "request_reason": "Replace Trash Cart",
    "date_created": "2026-01-16T17:08:18.000",
    "date_modified": "2026-01-17T09:29:03.000",
    "request_status": "Pending",
    "responsible_agency": "Department of Sanitation",
    "final_address": "2107 Magazine St",
    "address_councildis": "B",
    "status": "Assigned to Contractor",
    "contractor": "IV Waste",
    "rowid": "1252763",
    "final_x": "3679085.93634",
    "final_y": "522307.399098",
    "longitude": "-90.07601226874984",
    "latitude": "29.930237167916765",
    "geocoded_column": {
      "latitude": "29.930237167916765",
      "longitude": "-90.07601226874984"
    }
  },
  {
    "service_request": "2026-1252762",
    "request_type": "Trash/Recycling",
    "request_reason": "Repair Trash Cart",
    "date_created": "2026-01-16T17:06:20.000",
    "date_modified": "2026-01-17T09:53:48.000",
    "request_status": "Pending",
    "responsible_agency": "Department of Sanitation",
    "final_address": "2014 N Roman St",
    "address_councildis": "D",
    "status": "Assigned to Contractor",
    "contractor": "IV Waste",
    "rowid": "1252762",
    "final_x": "3684166.55145",
    "final_y": "538797.082889",
    "longitude": "-90.05939485279828",
    "latitude": "29.97542391658076",
    "geocoded_column": {
      "latitude": "29.97542391658076",
      "longitude": "-90.05939485279828"
    }
  },
  {
    "service_request": "2026-1252761",
    "request_type": "Trash/Recycling",
    "request_reason": "Replace Recycling Cart",
    "date_created": "2026-01-16T16:56:29.000",
    "date_modified": "2026-01-16T16:56:30.000",
    "request_status": "Pending",
    "responsible_agency": "Department of Sanitation",
    "final_address": "927 Mazant St",
    "address_councildis": "C",
    "status": "Pending",
    "rowid": "1252761",
    "final_x": "3691996.71728",
    "final_y": "534654.041606",
    "longitude": "-90.03481345053619",
    "latitude": "29.963790322129714",
    "geocoded_column": {
      "latitude": "29.963790322129714",
      "longitude": "-90.03481345053619"
    }
  },
  {
    "service_request": "2026-1252760",
    "request_type": "Trash/Recycling",
    "request_reason": "Replace Recycling Cart",
    "date_created": "2026-01-16T16:50:54.000",
    "date_modified": "2026-01-16T16:50:56.000",
    "request_status": "Pending",
    "responsible_agency": "Department of Sanitation",
    "final_address": "908 French St",
    "address_councildis": "A",
    "status": "Pending",
    "rowid": "1252760",
    "final_x": "3670025.93562",
    "final_y": "548384.404818",
    "longitude": "-90.103729937536",
    "latitude": "30.002210472326265",
    "geocoded_column": {
      "latitude": "30.002210472326265",
      "longitude": "-90.103729937536"
    }
  },
  {
    "service_request": "2026-1252759",
    "request_type": "Trash/Recycling",
    "request_reason": "Illegal Dumping",
    "date_created": "2026-01-16T16:49:09.000",
    "date_modified": "2026-01-16T16:49:11.000",
    "request_status": "Pending",
    "responsible_agency": "Department of Sanitation",
    "final_address": "631 Broadway St",
    "address_councildis": "A",
    "status": "Pending",
    "rowid": "1252759",
    "final_x": "3663189.55655",
    "final_y": "524927.238972",
    "longitude": "-90.12610771497562",
    "latitude": "29.93791095243781",
    "geocoded_column": {
      "latitude": "29.93791095243781",
      "longitude": "-90.12610771497562"
    }
  },