[
  {
    "service_request": "2025-1226900",
    "request_type": "Traffic Signals",
    "request_reason": "Traffic Signal Malfunctioning or Damaged",
    "date_created": "2025-09-16T22:46:24.000",
    "date_modified": "2025-09-16T22:46:26.000",
    "request_status": "Pending",
    "responsible_agency": "Department of Public Works",
    "final_address": "6300 BLK Lincoln Beach Blvd",
    "address_councildis": "E",
    "status": "Pending",
    "rowid": "1226900",
    "final_x": "3696281.21337",
    "final_y": "560559.959048",
    "longitude": "-90.02034608487857",
    "latitude": "30.0348878220876",
    "geocoded_column": {
      "latitude": "30.0348878220876",
      "longitude": "-90.02034608487857"
    }
  },
  {
    "service_request": "2025-1226899",
    "request_type": "Trash/Recycling",
    "request_reason": "Order Second Trash Cart",
    "date_created": "2025-09-16T22:32:30.000",
    "date_modified": "2025-09-16T22:32:34.000",
    "request_status": "Pending",
    "responsible_agency": "Department of Sanitation",
    "final_address": "3231 Belfort St",
    "address_councildis": "A",
    "status": "Assigned to Contractor",
    "contractor": "IV Waste",
    "rowid": "1226899",
    "final_x": "3678085.74888",
    "final_y": "542578.785293",
    "longitude": "-90.07846887849993",
    "latitude": "29.986006780873996",
    "geocoded_column": {
      "latitude": "29.986006780873996",
      "longitude": "-90.07846887849993"
    }
  },
  {
    "service_request": "2025-1226898",
    "request_type": "Trash/Recycling",
    "request_reason": "Request a Large Item Pick Up",
    "date_created": "2025-09-16T22:23:33.000",
    "date_modified": "2025-09-16T22:23:35.000",
    "request_status": "Pending",
    "responsible_agency": "Department of Sanitation",
    "final_address": "4842 Gabriel Dr",
    "address_councildis": "E",
    "status": "Assigned to Contractor",
    "contractor": "Waste Pro",
    "rowid": "1226898",
    "final_x": "3708759.61144",
    "final_y": "556382.21609",
    "longitude": "-89.98106859726059",
    "latitude": "30.023001607871134",
    "geocoded_column": {
      "latitude": "30.023001607871134",
      "longitude": "-89.98106859726059"
    }
  },
  {
    "service_request": "2025-1226897",
    "request_type": "Streetlights",
    "request_reason": "Streetlight Outage/Malfunction",
    "date_created": "2025-09-16T21:51:20.000",
    "date_modified": "2025-09-16T21:51:22.000",
    "request_status": "Pending",
    "responsible_agency": "Department of Public Works",
    "final_address": "5128 Venus St",
    "address_councildis": "D",
    "status": "Pending",
    "rowid": "1226897",
    "final_x": "3686311.06089",
    "final_y": "551799.906518",
    "longitude": "-90.0521627609675",
    "latitude": "30.011111290453147",
    "geocoded_column": {
      "latitude": "30.011111290453147",
      "longitude": "-90.0521627609675"
    }
  },
  {
    "service_request": "2025-1226896",
    "request_type": "Trash/Recycling",
    "request_reason": "Return Trash Cart",
    "date_created": "2025-09-16T21:32:17.000",
    "date_modified": "2025-09-16T21:32:20.000",
    "request_status": "Pending",
    "responsible_agency": "Department of Sanitation",
    "final_address": "7037 Magazine St",
    "address_councildis": "A",
    "status": "Assigned to Contractor",
    "contractor": "IV Waste",
    "rowid": "1226896",
    "final_x": "3661075.43008",
    "final_y": "521104.801849",
    "longitude": "-90.1329086512856",
    "latitude": "29.927461526825315",
    "geocoded_column": {
      "latitude": "29.927461526825315",
      "longitude": "-90.1329086512856"
    }
  },
  {
    "service_request": "2025-1226895",
    "request_type": "Trash/Recycling",
    "request_reason": "Replace Trash Cart",
    "date_created": "2025-09-16T21:29:14.000",
    "date_modified": "2025-09-16T21:29:16.000",
    "request_status": "Pending",
    "responsible_agency": "Department of Sanitation",
    "final_address": "4224 Prentiss Ave",
    "address_councildis": "D",
    "status": "Assigned to Contractor",
    "contractor": "IV Waste",
    "rowid": "1226895",
    "final_x": "3689647.00361",
    "final_y": "554088.727",
    "longitude": "-90.04154169150111",
    "latitude": "30.017301718541834",
    "geocoded_column": {
      "latitude": "30.017301718541834",
      "longitude": "-90.04154169150111"
    }
  },
  {
    "service_request": "2025-1226894",
    "request_type": "Property Maintenance",
    "request_reason": "Property Maintenance",
    "date_created": "2025-09-16T21:15:43.000",
    "date_modified": "2025-09-16T21:15:46.000",
    "request_status": "Pending",
    "responsible_agency": "Department of Code Enforcement",
    "final_address": "4516 S Robertson St",
    "address_councildis": "B",
    "status": "Pending",
    "rowid": "1226894",
    "final_x": "3669948.49806",
    "final_y": "524303.036476",
    "longitude": "-90.10479024132798",
    "latitude": "29.935997061313838",
    "geocoded_column": {
      "latitude": "29.935997061313838",
      "longitude": "-90.10479024132798"
    }
  },
  {
    "service_request": "2025-1226893",
    "request_type": "Trash/Recycling",
    "request_reason": "Request a Large Item Pick Up",
    "date_created": "2025-09-16T21:09:10.000",
    "date_modified": "2025-09-16T21:09:12.000",
    "request_status": "Pending",
    "responsible_agency": "Department of Sanitation",
    "final_address": "4231 Palmyra St",
    "address_councildis": "A",
    "status": "Assigned to Contractor",
    "contractor": "IV Waste",
    "rowid": "1226893",
    "final_x": "3669917.13082",
    "final_y": "538291.341577",
    "longitude": "-90.10441563577841",
    "latitude": "29.9744612161979",
    "geocoded_column": {
      "latitude": "29.9744612161979",
      "longitude": "-90.10441563577841"
    }
  },
  {
    "service_request": "2025-1226892",
    "request_type": "Trash/Recycling",
    "request_reason": "Illegal Dumping",
    "date_created": "2025-09-16T20:20:36.000",
    "date_modified": "2025-09-16T20:20:39.000",
    "request_status": "Pending",
    "responsible_agency": "Department of Sanitation",
    "final_address": "1725 Delachaise St",
    "address_councildis": "B",
    "status": "Pending",
    "rowid": "1226892",
    "final_x": "3673621.01499",
    "final_y": "521958.910842",
    "longitude": "-90.0932760907818",
    "latitude": "29.929442693780985",
    "geocoded_column": {
      "latitude": "29.929442693780985",
      "longitude": "-90.0932760907818"
    }
  },
  {
    "service_request": "2025-1226891",
    "request_type": "General Services",
    "request_reason": "General Service Request",
    "date_created": "2025-09-16T20:14:09.000",
    "date_modified": "2025-09-16T20:14:11.000",
    "request_status": "Pending",
    "responsible_agency": "Orleans Parish Communication District",
    "final_address": "4037 Banks St",
    "address_councildis": "A",
    "status": "Pending",
    "rowid": "1226891",
    "final_x": "3670538.96327",
    "final_y": "537335.927176",
    "longitude": "-90.10248414740127",
    "latitude": "29.971815795895292",
    "geocoded_column": {
      "latitude": "29.971815795895292",
      "longitude": "-90.10248414740127"
    }
  },
  {
    "service_request": "2025-1226890",
    "request_type": "Trash/Recycling",
    "request_reason": "Replace Trash Cart",
    "date_created": "2025-09-16T20:09:34.000",
    "date_modified": "2025-09-16T20:09:36.000",
    "request_status": "Pending",
    "responsible_agency": "Department of Sanitation",
    "final_address": "3525 Clematis St",
    "address_councildis": "D",
    "status": "Assigned to Contractor",
    "contractor": "IV Waste",
    "rowid": "1226890",
    "final_x": "3686499.2077",
    "final_y": "545953.07848",
    "longitude": "-90.05177493524461",
    "latitude": "29.99502884704932",
    "geocoded_column": {
      "latitude": "29.99502884704932",
      "longitude": "-90.05177493524461"
    }
  },
  {
    "service_request": "2025-1226889",
    "request_type": "Property Maintenance",
    "request_reason": "Property Maintenance",
    "date_created": "2025-09-16T20:03:06.000",
    "date_modified": "2025-09-16T20:03:09.000",
    "request_status": "Pending",
    "responsible_agency": "Department of Code Enforcement",
    "final_address": "1438 Strand Ct",
    "address_councildis": "E",
    "status": "Pending",
    "rowid": "1226889",
    "final_x": "3699858.9112",
    "final_y": "534748.29863",
    "longitude": "-90.0099821310415",
    "latitude": "29.96380216419895",
    "geocoded_column": {
      "latitude": "29.96380216419895",
      "longitude": "-90.0099821310415"
    }
  },
  {
    "service_request": "2025-1226888",
    "request_type": "Trash/Recycling",
    "request_reason": "Replace Recycling Cart",
    "date_created": "2025-09-16T19:33:37.000",
    "date_modified": "2025-09-16T19:33:40.000",
    "request_status": "Pending",
    "responsible_agency": "Department of Sanitation",
    "final_address": "142 N Alexander St",
    "address_councildis": "A",
    "status": "Pending",
    "rowid": "1226888",
    "final_x": "3670333.62113",
    "final_y": "539421.099018",
    "longitude": "-90.10306194629837",
    "latitude": "29.977555378471028",
    "geocoded_column": {
      "latitude": "29.977555378471028",
      "longitude": "-90.10306194629837"
    }
  },
  {
    "service_request": "2025-1226887",
    "request_type": "Trash/Recycling",
    "request_reason": "Order Trash Cart",
    "date_created": "2025-09-16T19:20:19.000",
    "date_modified": "2025-09-16T19:20:22.000",
    "request_status": "Pending",
    "responsible_agency": "Department of Sanitation",
    "final_address": "9130 Tilford Rd",
    "address_councildis": "E",
    "status": "Assigned to Contractor",
    "contractor": "Waste Pro",
    "rowid": "1226887",
    "final_x": "3708540.27704",
    "final_y": "557252.558811",
    "longitude": "-89.98172919948294",
    "latitude": "30.025401825725705",
    "geocoded_column": {
      "latitude": "30.025401825725705",
      "longitude": "-89.98172919948294"
    }
  },
  {
    "service_request": "2025-1226886",
    "request_type": "Roads and Streets",
    "request_reason": "Sidewalk Damaged or Missing",
    "date_created": "2025-09-16T19:09:19.000",
    "date_modified": "2025-09-16T19:09:21.000",
    "request_status": "Pending",
    "responsible_agency": "Department of Public Works",
    "final_address": "1537 Conery St",
    "address_councildis": "B",
    "status": "Pending",
    "rowid": "1226886",
    "final_x": "3675841.8635",
    "final_y": "522240.815354",
    "longitude": "-90.0862555886067",
    "latitude": "29.930151565561278",
    "geocoded_column": {
      "latitude": "29.930151565561278",
      "longitude": "-90.0862555886067"
    }
  },
  {
    "service_request": "2025-1226885",
    "request_type": "General Services",
    "request_reason": "General Service Request",
    "date_created": "2025-09-16T18:43:04.000",
    "date_modified": "2025-09-16T18:43:07.000",
    "request_status": "Pending",
    "responsible_agency": "Orleans Parish Communication District",
    "final_address": "3277 Potomac St",
    "address_councildis": "C",
    "status": "Pending",
    "rowid": "1226885",
    "final_x": "3694691.76061",
    "final_y": "517706.521654",
    "longitude": "-90.02691299394021",
    "latitude": "29.917106230076584",
    "geocoded_column": {
      "latitude": "29.917106230076584",
      "longitude": "-90.02691299394021"
    }
  },
  {
    "service_request": "2025-1226884",
    "request_type": "Property Maintenance",
    "request_reason": "Property Maintenance",
    "date_created": "2025-09-16T18:23:03.000",
    "date_modified": "2025-09-16T18:23:05.000",
    "request_status": "Pending",
    "responsible_agency": "Department of Code Enforcement",
    "final_address": "4975 Piety Dr",
    "address_councildis": "D",
    "status": "Pending",
    "rowid": "1226884",
    "final_x": "3691350.44227",
    "final_y": "552381.577366",
    "longitude": "-90.03622059227412",
    "latitude": "30.012554777212607",
    "geocoded_column": {
      "latitude": "30.012554777212607",
      "longitude": "-90.03622059227412"
    }
  },
  {
    "service_request": "2025-1226883",
    "request_type": "Property Maintenance",
    "request_reason": "Property Maintenance",
    "date_created": "2025-09-16T18:21:23.000",
    "date_modified": "2025-09-16T18:21:24.000",
    "request_status": "Pending",
    "responsible_agency": "Department of Code Enforcement",
    "final_address": "4967 Piety Dr",
    "address_councildis": "D",
    "status": "Pending",
    "rowid": "1226883",
    "final_x": "3691365.98563",
    "final_y": "552323.693206",
    "longitude": "-90.0361735543754",
    "latitude": "30.01239513340953",
    "geocoded_column": {
      "latitude": "30.01239513340953",
      "longitude": "-90.0361735543754"
    }
  },
  {
    "service_request": "2025-1226882",
    "request_type": "Property Maintenance",
    "request_reason": "Property Maintenance",
    "date_created": "2025-09-16T18:19:46.000",
    "date_modified": "2025-09-16T18:19:49.000",
    "request_status": "Pending",
    "responsible_agency": "Department of Code Enforcement",
    "final_address": "4911 Piety Dr",
    "address_councildis": "D",
    "status": "Pending",
    "rowid": "1226882",
    "final_x": "3691506.88182",
    "final_y": "551928.933078",
    "longitude": "-90.03574252678328",
    "latitude": "30.011305302814833",
    "geocoded_column": {
      "latitude": "30.011305302814833",
      "longitude": "-90.03574252678328"
    }
  },
  {
    "service_request": "2025-1226881",
    "request_type": "Abandoned Vehicles",
    "request_reason": "Abandoned/Junk Vehicles",
    "date_created": "2025-09-16T17:53:44.000",
    "date_modified": "2025-09-16T17:53:45.000",
    "request_status": "Pending",
    "responsible_agency": "Department of Public Works",
    "final_address": "3526 Danneel St",
    "address_councildis": "B",
    "status": "Pending",
    "rowid": "1226881",
    "final_x": "3673124.14452",
    "final_y": "522606.910202",
    "longitude": "-90.0948225116188",
    "latitude": "29.93123925921304",
    "geocoded_column": {
      "latitude": "29.93123925921304",
      "longitude": "-90.0948225116188"
    }
  },
  {
    "service_request": "2025-1226880",
    "request_type": "Roads and Streets",
    "request_reason": "Pothole",
    "date_created": "2025-09-16T17:51:31.000",
    "date_modified": "2025-09-16T17:51:33.000",
    "request_status": "Pending",
    "responsible_agency": "Department of Public Works",
    "final_address": "7421 W Laverne St",
    "address_councildis": "E",
    "status": "Pending",
    "rowid": "1226880",
    "final_x": "3695387.80541",
    "final_y": "558072.885147",
    "longitude": "-90.02325923780543",
    "latitude": "30.02807743864034",
    "geocoded_column": {
      "latitude": "30.02807743864034",
      "longitude": "-90.02325923780543"
    }
  },
  {
    "service_request": "2025-1226879",
    "request_type": "Roads and Streets",
    "request_reason": "Pothole",
    "date_created": "2025-09-16T17:37:47.000",
    "date_modified": "2025-09-16T17:37:51.000",
    "request_status": "Pending",
    "responsible_agency": "Department of Public Works",
    "final_address": "7421 W Laverne St",
    "address_councildis": "E",
    "status": "Pending",
    "rowid": "1226879",
    "final_x": "3695387.80541",
    "final_y": "558072.885147",
    "longitude": "-90.02325923780543",
    "latitude": "30.02807743864034",
    "geocoded_column": {
      "latitude": "30.02807743864034",
      "longitude": "-90.02325923780543"
    }
  },
  {
    "service_request": "2025-1226878",
    "request_type": "Parks & Parkways",
    "request_reason": "Request Tree Service (Right of Way/Public Property)",
    "date_created": "2025-09-16T17:32:57.000",
    "date_modified": "2025-09-16T17:32:58.000",
    "request_status": "Pending",
    "responsible_agency": "Department of Parks & Parkway",
    "final_address": "1010 Joseph St",
    "address_councildis": "A",
    "status": "Pending",
    "rowid": "1226878",
    "final_x": "3666234.2626",
    "final_y": "519638.903736",
    "longitude": "-90.11667256258782",
    "latitude": "29.923281152686286",
    "geocoded_column": {
      "latitude": "29.923281152686286",
      "longitude": "-90.11667256258782"
    }
  },
  {
    "service_request": "2025-1226877",
    "request_type": "Trash/Recycling",
    "request_reason": "Order Recycling Cart",
    "date_created": "2025-09-16T17:31:23.000",
    "date_modified": "2025-09-16T17:31:26.000",
    "request_status": "Pending",
    "responsible_agency": "Department of Sanitation",
    "final_address": "2616 Calhoun St",
    "address_councildis": "A",
    "status": "Pending",
    "rowid": "1226877",
    "final_x": "3666343.76276",
    "final_y": "526531.382526",
    "longitude": "-90.11609578435562",
    "latitude": "29.942230079004645",
    "geocoded_column": {
      "latitude": "29.942230079004645",
      "longitude": "-90.11609578435562"
    }
  },
  {
    "service_request": "2025-1226876",
    "request_type": "Roads and Streets",
    "request_reason": "Debris in Driving Lanes",
    "date_created": "2025-09-16T17:27:31.000",
    "date_modified": "2025-09-16T17:27:32.000",
    "request_status": "Pending",
    "responsible_agency": "Department of Public Works",
    "final_address": "11300 BLK Lake Forest Blvd",
    "address_councildis": "E",
    "status": "Pending",
    "rowid": "1226876",
    "final_x": "3720154.87527",
    "final_y": "562479.576272",
    "longitude": "-89.9448291072418",
    "latitude": "30.03939218659508",
    "geocoded_column": {
      "latitude": "30.03939218659508",
      "longitude": "-89.9448291072418"
    }
  },
  {
    "service_request": "2025-1226875",
    "request_type": "Parks & Parkways",
    "request_reason": "Request Tree Service (Right of Way/Public Property)",
    "date_created": "2025-09-16T17:25:31.000",
    "date_modified": "2025-09-16T17:25:33.000",
    "request_status": "Pending",
    "responsible_agency": "Department of Parks & Parkway",
    "final_address": "503 Polk St",
    "address_councildis": "A",
    "status": "Pending",
    "rowid": "1226875",
    "final_x": "3667805.64596",
    "final_y": "547417.864785",
    "longitude": "-90.11077669853321",
    "latitude": "29.999618147890775",
    "geocoded_column": {
      "latitude": "29.999618147890775",
      "longitude": "-90.11077669853321"
    }
  },
  {
    "service_request": "2025-1226874",
    "request_type": "Drainage",
    "request_reason": "Drainage Manhole Cover Missing or Damaged",
    "date_created": "2025-09-16T17:17:35.000",
    "date_modified": "2025-09-16T17:17:37.000",
    "request_status": "Pending",
    "responsible_agency": "Sewerage & Water Board",
    "final_address": "5929 Camp St",
    "address_councildis": "A",
    "status": "Pending",
    "rowid": "1226874",
    "final_x": "3665081.97088",
    "final_y": "519490.934007",
    "longitude": "-90.12031487069862",
    "latitude": "29.922907874664983",
    "geocoded_column": {
      "latitude": "29.922907874664983",
      "longitude": "-90.12031487069862"
    }
  },
  {
    "service_request": "2025-1226873",
    "request_type": "Trash/Recycling",
    "request_reason": "Request a Large Item Pick Up",
    "date_created": "2025-09-16T17:12:33.000",
    "date_modified": "2025-09-16T17:12:34.000",
    "request_status": "Pending",
    "responsible_agency": "Department of Sanitation",
    "final_address": "50 Flamingo St",
    "address_councildis": "D",
    "status": "Assigned to Contractor",
    "contractor": "IV Waste",
    "rowid": "1226873",
    "final_x": "3674610.44251",
    "final_y": "555486.215577",
    "longitude": "-90.08900327738064",
    "latitude": "30.021601852115214",
    "geocoded_column": {
      "latitude": "30.021601852115214",
      "longitude": "-90.08900327738064"
    }
  },
  {
    "service_request": "2025-1226872",
    "request_type": "Drainage",
    "request_reason": "Catch Basin Not Draining",
    "date_created": "2025-09-16T17:01:33.000",
    "date_modified": "2025-09-16T17:01:34.000",
    "request_status": "Pending",
    "responsible_agency": "Sewerage & Water Board",
    "final_address": "8400 Earhart Blvd",
    "address_councildis": "A",
    "status": "Pending",
    "rowid": "1226872",
    "final_x": "3665629.47706",
    "final_y": "534035.157765",
    "longitude": "-90.11809969208407",
    "latitude": "29.962883867453268",
    "geocoded_column": {
      "latitude": "29.962883867453268",
      "longitude": "-90.11809969208407"
    }
  },
  {
    "service_request": "2025-1226871",
    "request_type": "Trash/Recycling",
    "request_reason": "Repair Trash Cart",
    "date_created": "2025-09-16T16:56:51.000",
    "date_modified": "2025-09-16T16:56:53.000",
    "request_status": "Pending",
    "responsible_agency": "Department of Sanitation",
    "final_address": "6311 St Roch Ave",
    "address_councildis": "D",
    "status": "Assigned to Contractor",
    "contractor": "IV Waste",
    "rowid": "1226871",
    "final_x": "3684975.02524",
    "final_y": "556467.65385",
    "longitude": "-90.05621945734437",
    "latitude": "30.0239868878123",
    "geocoded_column": {
      "latitude": "30.0239868878123",
      "longitude": "-90.05621945734437"
    }
  },
  {
    "service_request": "2025-1226870",
    "request_type": "Abandoned Vehicles",
    "request_reason": "Abandoned/Junk Vehicles",
    "date_created": "2025-09-16T16:55:49.000",
    "date_modified": "2025-09-16T16:55:51.000",
    "request_status": "Pending",
    "responsible_agency": "Department of Public Works",
    "final_address": "2800 N Johnson St",
    "address_councildis": "D",
    "status": "Pending",
    "rowid": "1226870",
    "final_x": "3688701.25257",
    "final_y": "539544.822794",
    "longitude": "-90.04504652989057",
    "latitude": "29.977340529916486",
    "geocoded_column": {
      "latitude": "29.977340529916486",
      "longitude": "-90.04504652989057"
    }
  },
  {
    "service_request": "2025-1226869",
    "request_type": "Trash/Recycling",
    "request_reason": "Request a Large Item Pick Up",
    "date_created": "2025-09-16T16:50:58.000",
    "date_modified": "2025-09-16T16:51:00.000",
    "request_status": "Pending",
    "responsible_agency": "Department of Sanitation",
    "final_address": "3111 General Taylor St",
    "address_councildis": "B",
    "status": "Assigned to Contractor",
    "contractor": "IV Waste",
    "rowid": "1226869",
    "final_x": "3671402.90759",
    "final_y": "526479.83347",
    "longitude": "-90.10012466423501",
    "latitude": "29.941939588575426",
    "geocoded_column": {
      "latitude": "29.941939588575426",
      "longitude": "-90.10012466423501"
    }
  },
  {
    "service_request": "2025-1226868",
    "request_type": "Trash/Recycling",
    "request_reason": "Request a Large Item Pick Up",
    "date_created": "2025-09-16T16:49:21.000",
    "date_modified": "2025-09-16T16:49:23.000",
    "request_status": "Pending",
    "responsible_agency": "Department of Sanitation",
    "final_address": "622 Nashville Ave",
    "address_councildis": "A",
    "status": "Assigned to Contractor",
    "contractor": "IV Waste",
    "rowid": "1226868",
    "final_x": "3665331.76192",
    "final_y": "518538.530295",
    "longitude": "-90.11955822089102",
    "latitude": "29.920281789372734",
    "geocoded_column": {
      "latitude": "29.920281789372734",
      "longitude": "-90.11955822089102"
    }
  },
  {
    "service_request": "2025-1226867",
    "request_type": "Mosquito, Termite & Rodent Control",
    "request_reason": "Mosquito Complaint",
    "date_created": "2025-09-16T16:45:00.000",
    "date_modified": "2025-09-16T16:45:02.000",
    "request_status": "Pending",
    "responsible_agency": "Mosquito, Termite & Rodent Control Board",
    "final_address": "7691 Stonewood St",
    "address_councildis": "E",
    "status": "Pending",
    "rowid": "1226867",
    "final_x": "3719183.56901",
    "final_y": "572713.100393",
    "longitude": "-89.94750754088899",
    "latitude": "30.067562470831557",
    "geocoded_column": {
      "latitude": "30.067562470831557",
      "longitude": "-89.94750754088899"
    }
  },
  {
    "service_request": "2025-1226866",
    "request_type": "Trash/Recycling",
    "request_reason": "Illegal Dumping",
    "date_created": "2025-09-16T16:43:43.000",
    "date_modified": "2025-09-16T16:43:44.000",
    "request_status": "Pending",
    "responsible_agency": "Department of Sanitation",
    "final_address": "STEPHEN GIRARD AVE & PIETY DR",
    "address_councildis": "D",
    "status": "Pending",
    "rowid": "1226866",
    "final_x": "3691844.9",
    "final_y": "550734.08",
    "longitude": "-90.03471737748241",
    "latitude": "30.00800936926706",
    "geocoded_column": {
      "latitude": "30.00800936926706",
      "longitude": "-90.03471737748241"
    }
  },
  {
    "service_request": "2025-1226865",
    "request_type": "Trash/Recycling",
    "request_reason": "Request a Large Item Pick Up",
    "date_created": "2025-09-16T16:42:55.000",
    "date_modified": "2025-09-16T16:42:57.000",
    "request_status": "Pending",
    "responsible_agency": "Department of Sanitation",
    "final_address": "5432 Music St",
    "address_councildis": "D",
    "status": "Assigned to Contractor",
    "contractor": "IV Waste",
    "rowid": "1226865",
    "final_x": "3685464.55926",
    "final_y": "553070.774359",
    "longitude": "-90.05479239184324",
    "latitude": "30.014631709697756",
    "geocoded_column": {
      "latitude": "30.014631709697756",
      "longitude": "-90.05479239184324"
    }
  },
  {
    "service_request": "2025-1226864",
    "request_type": "Trash/Recycling",
    "request_reason": "Request a Large Item Pick Up",
    "date_created": "2025-09-16T16:40:04.000",
    "date_modified": "2025-09-16T16:40:15.000",
    "request_status": "Pending",
    "responsible_agency": "Department of Sanitation",
    "final_address": "6415 Perlita Dr",
    "address_councildis": "D",
    "status": "Assigned to Contractor",
    "contractor": "IV Waste",
    "rowid": "1226864",
    "final_x": "3677796.31419",
    "final_y": "556742.833754",
    "longitude": "-90.07889330034071",
    "latitude": "30.024961580586684",
    "geocoded_column": {
      "latitude": "30.024961580586684",
      "longitude": "-90.07889330034071"
    }
  },
  {
    "service_request": "2025-1226863",
    "request_type": "Trash/Recycling",
    "request_reason": "Repair Trash Cart",
    "date_created": "2025-09-16T16:20:58.000",
    "date_modified": "2025-09-16T16:21:00.000",
    "request_status": "Pending",
    "responsible_agency": "Department of Sanitation",
    "final_address": "3524 Cecil St",
    "address_councildis": "A",
    "status": "Assigned to Contractor",
    "contractor": "IV Waste",
    "rowid": "1226863",
    "final_x": "3663533.85952",
    "final_y": "538403.144009",
    "longitude": "-90.12457190816217",
    "latitude": "29.974955335567888",
    "geocoded_column": {
      "latitude": "29.974955335567888",
      "longitude": "-90.12457190816217"
    }
  },
  {
    "service_request": "2025-1226862",
    "request_type": "Abandoned Vehicles",
    "request_reason": "Abandoned/Junk Vehicles",
    "date_created": "2025-09-16T16:19:21.000",
    "date_modified": "2025-09-16T16:19:23.000",
    "request_status": "Pending",
    "responsible_agency": "Department of Public Works",
    "final_address": "5218 Timber Haven Ln",
    "address_councildis": "C",
    "status": "Pending",
    "rowid": "1226862",
    "final_x": "3703523.74756",
    "final_y": "511470.433776",
    "longitude": "-89.99926486529269",
    "latitude": "29.899679275697935",
    "geocoded_column": {
      "latitude": "29.899679275697935",
      "longitude": "-89.99926486529269"
    }
  },
  {
    "service_request": "2025-1226861",
    "request_type": "Trash/Recycling",
    "request_reason": "Illegal Dumping",
    "date_created": "2025-09-16T16:19:04.000",
    "date_modified": "2025-09-16T16:19:05.000",
    "request_status": "Pending",
    "responsible_agency": "Department of Sanitation",
    "final_address": "HAYNE BLVD & CONGRESS DR",
    "address_councildis": "D",
    "status": "Pending",
    "rowid": "1226861",
    "final_x": "3690423.8",
    "final_y": "558659.28",
    "longitude": "-90.03892420159148",
    "latitude": "30.029844924240702",
    "geocoded_column": {
      "latitude": "30.029844924240702",
      "longitude": "-90.03892420159148"
    }
  },
  {
    "service_request": "2025-1226860",
    "request_type": "Healthy Homes",
    "request_reason": "Healthy Homes",
    "date_created": "2025-09-16T16:17:28.000",
    "date_modified": "2025-09-16T16:17:30.000",
    "request_status": "Pending",
    "responsible_agency": "Department of Code Enforcement",
    "final_address": "13000 BLK Lincoln Beach Blvd",
    "address_councildis": "E",
    "status": "Pending",
    "rowid": "1226860",
    "final_x": "3715182.01284",
    "final_y": "571089.827424",
    "longitude": "-89.96021856809055",
    "latitude": "30.063231608747888",
    "geocoded_column": {
      "latitude": "30.063231608747888",
      "longitude": "-89.96021856809055"
    }
  },
  {
    "service_request": "2025-1226859",
    "request_type": "Parks & Parkways",
    "request_reason": "Park Maintenance/Clean Up",
    "date_created": "2025-09-16T16:17:06.000",
    "date_modified": "2025-09-16T16:17:08.000",
    "request_status": "Pending",
    "responsible_agency": "Department of Parks & Parkway",
    "final_address": "600 BLK S Norman C Francis Pkwy",
    "address_councildis": "B",
    "status": "Pending",
    "rowid": "1226859",
    "final_x": "3671875.17524",
    "final_y": "535127.287145",
    "longitude": "-90.09833935127043",
    "latitude": "29.96570324379388",
    "geocoded_column": {
      "latitude": "29.96570324379388",
      "longitude": "-90.09833935127043"
    }
  },
  {
    "service_request": "2025-1226858",
    "request_type": "Trash/Recycling",
    "request_reason": "Request a Large Item Pick Up",
    "date_created": "2025-09-16T16:09:27.000",
    "date_modified": "2025-09-16T16:09:30.000",
    "request_status": "Pending",
    "responsible_agency": "Department of Sanitation",
    "final_address": "4428 Longfellow Dr",
    "address_councildis": "E",
    "status": "Assigned to Contractor",
    "contractor": "Waste Pro",
    "rowid": "1226858",
    "final_x": "3709713.14008",
    "final_y": "554253.8374",
    "longitude": "-89.97813522744202",
    "latitude": "30.017118420405904",
    "geocoded_column": {
      "latitude": "30.017118420405904",
      "longitude": "-89.97813522744202"
    }
  },
  {
    "service_request": "2025-1226857",
    "request_type": "Trash/Recycling",
    "request_reason": "Replace Trash Cart",
    "date_created": "2025-09-16T15:59:21.000",
    "date_modified": "2025-09-16T15:59:23.000",
    "request_status": "Pending",
    "responsible_agency": "Department of Sanitation",
    "final_address": "1342 St Bernard Ave",
    "address_councildis": "C",
    "status": "Assigned to Contractor",
    "contractor": "IV Waste",
    "rowid": "1226857",
    "final_x": "3682655.78191",
    "final_y": "536842.34356",
    "longitude": "-90.06423464369658",
    "latitude": "29.970095159800493",
    "geocoded_column": {
      "latitude": "29.970095159800493",
      "longitude": "-90.06423464369658"
    }
  },
  {
    "service_request": "2025-1226856",
    "request_type": "Trash/Recycling",
    "request_reason": "Replace Trash Cart",
    "date_created": "2025-09-16T15:52:53.000",
    "date_modified": "2025-09-16T15:52:54.000",
    "request_status": "Pending",
    "responsible_agency": "Department of Sanitation",
    "final_address": "4118 General Ogden St",
    "address_councildis": "A",
    "status": "Assigned to Contractor",
    "contractor": "IV Waste",
    "rowid": "1226856",
    "final_x": "3666849.70836",
    "final_y": "538066.813065",
    "longitude": "-90.11411087339326",
    "latitude": "29.973933940150513",
    "geocoded_column": {
      "latitude": "29.973933940150513",
      "longitude": "-90.11411087339326"
    }
  },
  {
    "service_request": "2025-1226855",
    "request_type": "Trash/Recycling",
    "request_reason": "Request a Large Item Pick Up",
    "date_created": "2025-09-16T15:46:47.000",
    "date_modified": "2025-09-16T15:46:48.000",
    "request_status": "Pending",
    "responsible_agency": "Department of Sanitation",
    "final_address": "4729 Corinne St",
    "address_councildis": "E",
    "status": "Assigned to Contractor",
    "contractor": "Waste Pro",
    "rowid": "1226855",
    "final_x": "3715115.48043",
    "final_y": "556819.672538",
    "longitude": "-89.96096913964354",
    "latitude": "30.023996661919245",
    "geocoded_column": {
      "latitude": "30.023996661919245",
      "longitude": "-89.96096913964354"
    }
  },
  {
    "service_request": "2025-1226854",
    "request_type": "Trash/Recycling",
    "request_reason": "Repair Recycling Cart",
    "date_created": "2025-09-16T15:46:19.000",
    "date_modified": "2025-09-16T15:46:22.000",
    "request_status": "Pending",
    "responsible_agency": "Department of Sanitation",
    "final_address": "6707 Canal Blvd",
    "address_councildis": "A",
    "status": "Pending",
    "rowid": "1226854",
    "final_x": "3669046.78823",
    "final_y": "552109.98031",
    "longitude": "-90.10669719529568",
    "latitude": "30.012483356509442",
    "geocoded_column": {
      "latitude": "30.012483356509442",
      "longitude": "-90.10669719529568"
    }
  },
  {
    "service_request": "2025-1226853",
    "request_type": "Health Related Request",
    "request_reason": "Homeless Encampment Complaint",
    "date_created": "2025-09-16T15:38:10.000",
    "date_modified": "2025-09-16T15:48:44.000",
    "request_status": "Pending",
    "responsible_agency": "Office Of Homeless Services And Strategy",
    "final_address": "1441 France St",
    "address_councildis": "D",
    "status": "Pending",
    "rowid": "1226853",
    "final_x": "3692782.12387",
    "final_y": "536606.685895",
    "longitude": "-90.03226320750355",
    "latitude": "29.969134907879464",
    "geocoded_column": {
      "latitude": "29.969134907879464",
      "longitude": "-90.03226320750355"
    }
  },
  {
    "service_request": "2025-1226852",
    "request_type": "Roads and Streets",
    "request_reason": "Debris in Driving Lanes",
    "date_created": "2025-09-16T15:37:39.000",
    "date_modified": "2025-09-16T15:37:49.000",
    "request_status": "Pending",
    "responsible_agency": "Department of Public Works",
    "final_address": "4201 Industrial Prkwy",
    "address_councildis": "E",
    "status": "Pending",
    "rowid": "1226852",
    "final_x": "3736015.9049",
    "final_y": "562837.45168",
    "longitude": "-89.89469027031693",
    "latitude": "30.03983817663541",
    "geocoded_column": {
      "latitude": "30.03983817663541",
      "longitude": "-89.89469027031693"
    }
  },
  {
    "service_request": "2025-1226851",
    "request_type": "Trash/Recycling",
    "request_reason": "Repair Trash Cart",
    "date_created": "2025-09-16T15:32:52.000",
    "date_modified": "2025-09-16T15:32:54.000",
    "request_status": "Pending",
    "responsible_agency": "Department of Sanitation",
    "final_address": "5717 Elysian Fields Ave",
    "address_councildis": "D",
    "status": "Assigned to Contractor",
    "contractor": "IV Waste",
    "rowid": "1226851",
    "final_x": "3683754.63356",
    "final_y": "554051.95708",
    "longitude": "-90.06016046982417",
    "latitude": "30.01738195429778",
    "geocoded_column": {
      "latitude": "30.01738195429778",
      "longitude": "-90.06016046982417"
    }
  },
  {
    "service_request": "2025-1226850",
    "request_type": "Trash/Recycling",
    "request_reason": "Repair Recycling Cart",
    "date_created": "2025-09-16T15:31:12.000",
    "date_modified": "2025-09-16T15:31:13.000",
    "request_status": "Pending",
    "responsible_agency": "Department of Sanitation",
    "final_address": "4318 Annette St",
    "address_councildis": "D",
    "status": "Pending",
    "rowid": "1226850",
    "final_x": "3682106.75317",
    "final_y": "548489.755666",
    "longitude": "-90.06556155146042",
    "latitude": "30.00213815491465",
    "geocoded_column": {
      "latitude": "30.00213815491465",
      "longitude": "-90.06556155146042"
    }
  },
  {
    "service_request": "2025-1226849",
    "request_type": "Trash/Recycling",
    "request_reason": "Start Trash Service",
    "date_created": "2025-09-16T15:31:05.000",
    "date_modified": "2025-09-16T15:31:06.000",
    "request_status": "Pending",
    "responsible_agency": "Department of Sanitation",
    "final_address": "4104 Tchoupitoulas St",
    "address_councildis": "B",
    "status": "Assigned to Contractor",
    "contractor": "IV Waste",
    "rowid": "1226849",
    "final_x": "3672223.58107",
    "final_y": "517525.535862",
    "longitude": "-90.09783844553236",
    "latitude": "29.91729383966223",
    "geocoded_column": {
      "latitude": "29.91729383966223",
      "longitude": "-90.09783844553236"
    }
  },
  {
    "service_request": "2025-1226848",
    "request_type": "Trash/Recycling",
    "request_reason": "Repair Trash Cart",
    "date_created": "2025-09-16T15:30:25.000",
    "date_modified": "2025-09-16T15:30:26.000",
    "request_status": "Pending",
    "responsible_agency": "Department of Sanitation",
    "final_address": "8800 Oleander St",
    "address_councildis": "A",
    "status": "Assigned to Contractor",
    "contractor": "IV Waste",
    "rowid": "1226848",
    "final_x": "3664867.6864",
    "final_y": "535348.334662",
    "longitude": "-90.1204614465796",
    "latitude": "29.96651686510512",
    "geocoded_column": {
      "latitude": "29.96651686510512",
      "longitude": "-90.1204614465796"
    }
  },
  {
    "service_request": "2025-1226847",
    "request_type": "Trash/Recycling",
    "request_reason": "Replace Trash Cart",
    "date_created": "2025-09-16T15:30:15.000",
    "date_modified": "2025-09-16T15:30:17.000",
    "request_status": "Pending",
    "responsible_agency": "Department of Sanitation",
    "final_address": "2725 St Nick Dr",
    "address_councildis": "C",
    "status": "Assigned to Contractor",
    "contractor": "Richards Disposal",
    "rowid": "1226847",
    "final_x": "3699271.27818",
    "final_y": "520891.807225",
    "longitude": "-90.0123422676576",
    "latitude": "29.925720314241033",
    "geocoded_column": {
      "latitude": "29.925720314241033",
      "longitude": "-90.0123422676576"
    }
  },
  {
    "service_request": "2025-1226846",
    "request_type": "Trash/Recycling",
    "request_reason": "Request a Large Item Pick Up",
    "date_created": "2025-09-16T15:28:48.000",
    "date_modified": "2025-09-16T15:28:50.000",
    "request_status": "Pending",
    "responsible_agency": "Department of Sanitation",
    "final_address": "7807 Sun St",
    "address_councildis": "E",
    "status": "Assigned to Contractor",
    "contractor": "Waste Pro",
    "rowid": "1226846",
    "final_x": "3720604.28006",
    "final_y": "574293.011498",
    "longitude": "-89.94295586048672",
    "latitude": "30.071859236463474",
    "geocoded_column": {
      "latitude": "30.071859236463474",
      "longitude": "-89.94295586048672"
    }
  },
  {
    "service_request": "2025-1226845",
    "request_type": "Trash/Recycling",
    "request_reason": "Order Recycling Cart",
    "date_created": "2025-09-16T15:27:17.000",
    "date_modified": "2025-09-16T15:27:19.000",
    "request_status": "Pending",
    "responsible_agency": "Department of Sanitation",
    "final_address": "8425 Pritchard Pl",
    "address_councildis": "A",
    "status": "Pending",
    "rowid": "1226845",
    "final_x": "3665123.65696",
    "final_y": "533791.123845",
    "longitude": "-90.11970517695349",
    "latitude": "29.962227595271084",
    "geocoded_column": {
      "latitude": "29.962227595271084",
      "longitude": "-90.11970517695349"
    }
  },
  {
    "service_request": "2025-1226844",
    "request_type": "Trash/Recycling",
    "request_reason": "Repair Trash Cart",
    "date_created": "2025-09-16T15:26:06.000",
    "date_modified": "2025-09-16T15:26:15.000",
    "request_status": "Pending",
    "responsible_agency": "Department of Sanitation",
    "final_address": "8427 Pritchard Pl",
    "address_councildis": "A",
    "status": "Assigned to Contractor",
    "contractor": "IV Waste",
    "rowid": "1226844",
    "final_x": "3665106.10176",
    "final_y": "533803.540933",
    "longitude": "-90.11976019863295",
    "latitude": "29.96226224944151",
    "geocoded_column": {
      "latitude": "29.96226224944151",
      "longitude": "-90.11976019863295"
    }
  },
  {
    "service_request": "2025-1226843",
    "request_type": "Streetlights",
    "request_reason": "Streetlight Outage/Malfunction",
    "date_created": "2025-09-16T15:23:18.000",
    "date_modified": "2025-09-16T15:23:19.000",
    "request_status": "Pending",
    "responsible_agency": "Department of Public Works",
    "final_address": "3251 St Ferdinand St",
    "address_councildis": "D",
    "status": "Pending",
    "rowid": "1226843",
    "final_x": "3689913.11312",
    "final_y": "544797.423055",
    "longitude": "-90.04103198660441",
    "latitude": "29.991745781806454",
    "geocoded_column": {
      "latitude": "29.991745781806454",
      "longitude": "-90.04103198660441"
    }
  },
  {
    "service_request": "2025-1226842",
    "request_type": "Trash/Recycling",
    "request_reason": "Order Recycling Cart",
    "date_created": "2025-09-16T15:22:31.000",
    "date_modified": "2025-09-16T15:22:32.000",
    "request_status": "Pending",
    "responsible_agency": "Department of Sanitation",
    "final_address": "4401 Lancelot Dr",
    "address_councildis": "E",
    "status": "Pending",
    "rowid": "1226842",
    "final_x": "3707712.73028",
    "final_y": "553584.121687",
    "longitude": "-89.98448055681503",
    "latitude": "30.015341863070322",
    "geocoded_column": {
      "latitude": "30.015341863070322",
      "longitude": "-89.98448055681503"
    }
  },
  {
    "service_request": "2025-1226841",
    "request_type": "Abandoned Vehicles",
    "request_reason": "Abandoned/Junk Vehicles",
    "date_created": "2025-09-16T15:21:48.000",
    "date_modified": "2025-09-16T15:21:49.000",
    "request_status": "Pending",
    "responsible_agency": "Department of Public Works",
    "final_address": "6218 Cambridge St",
    "address_councildis": "C",
    "status": "Pending",
    "rowid": "1226841",
    "final_x": "3707098.50372",
    "final_y": "518465.167158",
    "longitude": "-89.98772425163699",
    "latitude": "29.91879745907295",
    "geocoded_column": {
      "latitude": "29.91879745907295",
      "longitude": "-89.98772425163699"
    }
  },
  {
    "service_request": "2025-1226840",
    "request_type": "Trash/Recycling",
    "request_reason": "Request a Large Item Pick Up",
    "date_created": "2025-09-16T15:21:01.000",
    "date_modified": "2025-09-16T15:21:05.000",
    "request_status": "Pending",
    "responsible_agency": "Department of Sanitation",
    "final_address": "4758 Charlmark Dr",
    "address_councildis": "E",
    "status": "Assigned to Contractor",
    "contractor": "Waste Pro",
    "rowid": "1226840",
    "final_x": "3711336.68178",
    "final_y": "556142.57129",
    "longitude": "-89.97293470141582",
    "latitude": "30.022258801712216",
    "geocoded_column": {
      "latitude": "30.022258801712216",
      "longitude": "-89.97293470141582"
    }
  },
  {
    "service_request": "2025-1226839",
    "request_type": "Trash/Recycling",
    "request_reason": "Request a Large Item Pick Up",
    "date_created": "2025-09-16T15:14:37.000",
    "date_modified": "2025-09-16T15:14:39.000",
    "request_status": "Pending",
    "responsible_agency": "Department of Sanitation",
    "final_address": "4435 Wilson Ave",
    "address_councildis": "E",
    "status": "Assigned to Contractor",
    "contractor": "Waste Pro",
    "rowid": "1226839",
    "final_x": "3703296.29681",
    "final_y": "553001.520727",
    "longitude": "-89.99845577075233",
    "latitude": "30.013882144342805",
    "geocoded_column": {
      "latitude": "30.013882144342805",
      "longitude": "-89.99845577075233"
    }
  },
  {
    "service_request": "2025-1226838",
    "request_type": "Trash/Recycling",
    "request_reason": "Request a Large Item Pick Up",
    "date_created": "2025-09-16T15:13:58.000",
    "date_modified": "2025-09-16T15:14:03.000",
    "request_status": "Pending",
    "responsible_agency": "Department of Sanitation",
    "final_address": "910 Chartres St",
    "address_councildis": "C",
    "status": "Assigned to Contractor",
    "contractor": "IV Waste",
    "rowid": "1226838",
    "final_x": "3683363.16188",
    "final_y": "532882.476932",
    "longitude": "-90.0621394060553",
    "latitude": "29.959185327723926",
    "geocoded_column": {
      "latitude": "29.959185327723926",
      "longitude": "-90.0621394060553"
    }
  },
  {
    "service_request": "2025-1226837",
    "request_type": "Trash/Recycling",
    "request_reason": "Return Trash Cart",
    "date_created": "2025-09-16T15:13:58.000",
    "date_modified": "2025-09-16T15:14:36.000",
    "request_status": "Pending",
    "responsible_agency": "Department of Sanitation",
    "final_address": "5911 Wright Rd",
    "address_councildis": "E",
    "status": "Assigned to Contractor",
    "contractor": "Waste Pro",
    "rowid": "1226837",
    "final_x": "3713784.86386",
    "final_y": "561977.132767",
    "longitude": "-89.96497897563148",
    "latitude": "30.038221374429288",
    "geocoded_column": {
      "latitude": "30.038221374429288",
      "longitude": "-89.96497897563148"
    }
  },
  {
    "service_request": "2025-1226836",
    "request_type": "Trash/Recycling",
    "request_reason": "Request a Large Item Pick Up",
    "date_created": "2025-09-16T15:13:27.000",
    "date_modified": "2025-09-16T15:13:29.000",
    "request_status": "Pending",
    "responsible_agency": "Department of Sanitation",
    "final_address": "1640 Andry St",
    "address_councildis": "E",
    "status": "Assigned to Contractor",
    "contractor": "Waste Pro",
    "rowid": "1226836",
    "final_x": "3697723.80099",
    "final_y": "536172.918407",
    "longitude": "-90.01667286798723",
    "latitude": "29.967786990417608",
    "geocoded_column": {
      "latitude": "29.967786990417608",
      "longitude": "-90.01667286798723"
    }
  },
  {
    "service_request": "2025-1226835",
    "request_type": "Trash/Recycling",
    "request_reason": "Illegal Dumping",
    "date_created": "2025-09-16T15:12:46.000",
    "date_modified": "2025-09-16T15:12:47.000",
    "request_status": "Pending",
    "responsible_agency": "Department of Sanitation",
    "final_address": "MAYO RD & FARWOOD DR",
    "address_councildis": "E",
    "status": "Pending",
    "rowid": "1226835",
    "final_x": "3702137.1",
    "final_y": "557081.08",
    "longitude": "-90.0019684512954",
    "latitude": "30.025136450642826",
    "geocoded_column": {
      "latitude": "30.025136450642826",
      "longitude": "-90.0019684512954"
    }
  },
  {
    "service_request": "2025-1226834",
    "request_type": "Trash/Recycling",
    "request_reason": "Repair Trash Cart",
    "date_created": "2025-09-16T15:09:17.000",
    "date_modified": "2025-09-16T15:09:20.000",
    "request_status": "Pending",
    "responsible_agency": "Department of Sanitation",
    "final_address": "2000 Franklin Ave",
    "address_councildis": "D",
    "status": "Assigned to Contractor",
    "contractor": "IV Waste",
    "rowid": "1226834",
    "final_x": "3687570.31919",
    "final_y": "539875.452234",
    "longitude": "-90.04860667490911",
    "latitude": "29.97828455825788",
    "geocoded_column": {
      "latitude": "29.97828455825788",
      "longitude": "-90.04860667490911"
    }
  },
  {
    "service_request": "2025-1226833",
    "request_type": "Property Maintenance",
    "request_reason": "Property Maintenance",
    "date_created": "2025-09-16T15:07:09.000",
    "date_modified": "2025-09-16T15:07:11.000",
    "request_status": "Pending",
    "responsible_agency": "Department of Code Enforcement",
    "final_address": "6801 Mayo Rd",
    "address_councildis": "E",
    "status": "Pending",
    "rowid": "1226833",
    "final_x": "3702182.34026",
    "final_y": "557172.671771",
    "longitude": "-90.00182213699544",
    "latitude": "30.025386847267303",
    "geocoded_column": {
      "latitude": "30.025386847267303",
      "longitude": "-90.00182213699544"
    }
  },
  {
    "service_request": "2025-1226832",
    "request_type": "Trash/Recycling",
    "request_reason": "Repair Trash Cart",
    "date_created": "2025-09-16T15:03:33.000",
    "date_modified": "2025-09-16T15:03:35.000",
    "request_status": "Pending",
    "responsible_agency": "Department of Sanitation",
    "final_address": "4417 Elba St B",
    "address_councildis": "B",
    "status": "Assigned to Contractor",
    "contractor": "IV Waste",
    "rowid": "1226832",
    "final_x": "3669691.60826",
    "final_y": "530485.57357",
    "longitude": "-90.10539208116015",
    "latitude": "29.953004598737003",
    "geocoded_column": {
      "latitude": "29.953004598737003",
      "longitude": "-90.10539208116015"
    }
  },
  {
    "service_request": "2025-1226831",
    "request_type": "Trash/Recycling",
    "request_reason": "Repair Trash Cart",
    "date_created": "2025-09-16T15:03:20.000",
    "date_modified": "2025-09-16T15:03:21.000",
    "request_status": "Pending",
    "responsible_agency": "Department of Sanitation",
    "final_address": "35 Fontainebleau Dr",
    "address_councildis": "A",
    "status": "Assigned to Contractor",
    "contractor": "IV Waste",
    "rowid": "1226831",
    "final_x": "3666106.64685",
    "final_y": "531504.560835",
    "longitude": "-90.11667769621988",
    "latitude": "29.955911632014594",
    "geocoded_column": {
      "latitude": "29.955911632014594",
      "longitude": "-90.11667769621988"
    }
  },
  {
    "service_request": "2025-1226830",
    "request_type": "Roads and Streets",
    "request_reason": "Sidewalk Damaged or Missing",
    "date_created": "2025-09-16T15:00:54.000",
    "date_modified": "2025-09-16T15:00:56.000",
    "request_status": "Pending",
    "responsible_agency": "Department of Public Works",
    "final_address": "3243 Chestnut St",
    "address_councildis": "B",
    "status": "Pending",
    "rowid": "1226830",
    "final_x": "3675112.89147",
    "final_y": "520528.477496",
    "longitude": "-90.0886155585535",
    "latitude": "29.925464985569292",
    "geocoded_column": {
      "latitude": "29.925464985569292",
      "longitude": "-90.0886155585535"
    }
  },
  {
    "service_request": "2025-1226829",
    "request_type": "Streetlights",
    "request_reason": "Streetlight Outage/Malfunction",
    "date_created": "2025-09-16T15:00:35.000",
    "date_modified": "2025-09-16T15:00:37.000",
    "request_status": "Pending",
    "responsible_agency": "Department of Public Works",
    "final_address": "6615 Argonne Blvd",
    "address_councildis": "A",
    "status": "Pending",
    "rowid": "1226829",
    "final_x": "3670604.76263",
    "final_y": "551357.605205",
    "longitude": "-90.10180039819696",
    "latitude": "30.010368639035526",
    "geocoded_column": {
      "latitude": "30.010368639035526",
      "longitude": "-90.10180039819696"
    }
  },
  {
    "service_request": "2025-1226828",
    "request_type": "Property Maintenance",
    "request_reason": "Property Maintenance",
    "date_created": "2025-09-16T14:58:53.000",
    "date_modified": "2025-09-16T15:26:27.000",
    "case_close_date": "2025-09-16T10:26:26.000",
    "request_status": "Closed",
    "responsible_agency": "Department of Code Enforcement",
    "final_address": "3237 Vincennes Pl",
    "address_councildis": "A",
    "status": "Referred to Code Enforcement",
    "rowid": "1226828",
    "final_x": "3667854.60065",
    "final_y": "528104.627199",
    "longitude": "-90.11127274539099",
    "latitude": "29.946511774604744",
    "geocoded_column": {
      "latitude": "29.946511774604744",
      "longitude": "-90.11127274539099"
    }
  },
  {
    "service_request": "2025-1226827",
    "request_type": "Property Maintenance",
    "request_reason": "Property Maintenance",
    "date_created": "2025-09-16T14:57:52.000",
    "date_modified": "2025-09-16T15:32:18.000",
    "case_close_date": "2025-09-16T10:32:17.000",
    "request_status": "Closed",
    "responsible_agency": "Department of Code Enforcement",
    "final_address": "3231 Vincennes Pl",
    "address_councildis": "A",
    "status": "Referred to Code Enforcement",
    "rowid": "1226827",
    "final_x": "3667846.84385",
    "final_y": "528079.769407",
    "longitude": "-90.1112980734902",
    "latitude": "29.946443651213052",
    "geocoded_column": {
      "latitude": "29.946443651213052",
      "longitude": "-90.1112980734902"
    }
  },
  {
    "service_request": "2025-1226826",
    "request_type": "Roads and Streets",
    "request_reason": "Street Subsidence (Sinking)",
    "date_created": "2025-09-16T14:57:51.000",
    "date_modified": "2025-09-16T14:57:52.000",
    "request_status": "Pending",
    "responsible_agency": "Sewerage & Water Board",
    "final_address": "7329 Sycamore St",
    "address_councildis": "A",
    "status": "Pending",
    "rowid": "1226826",
    "final_x": "3665734.0064",
    "final_y": "529814.018753",
    "longitude": "-90.11791099335059",
    "latitude": "29.951274065785174",
    "geocoded_column": {
      "latitude": "29.951274065785174",
      "longitude": "-90.11791099335059"
    }
  },
  {
    "service_request": "2025-1226825",
    "request_type": "Streetlights",
    "request_reason": "Streetlight Outage/Malfunction",
    "date_created": "2025-09-16T14:57:17.000",
    "date_modified": "2025-09-16T14:57:19.000",
    "request_status": "Pending",
    "responsible_agency": "Department of Public Works",
    "final_address": "2437 Frenchmen St",
    "address_councildis": "D",
    "status": "Pending",
    "rowid": "1226825",
    "final_x": "3684208.98492",
    "final_y": "541361.06446",
    "longitude": "-90.05917079056783",
    "latitude": "29.982472669746127",
    "geocoded_column": {
      "latitude": "29.982472669746127",
      "longitude": "-90.05917079056783"
    }
  },
  {
    "service_request": "2025-1226824",
    "request_type": "Streetlights",
    "request_reason": "Streetlight Outage/Malfunction",
    "date_created": "2025-09-16T14:48:45.000",
    "date_modified": "2025-09-16T14:48:48.000",
    "request_status": "Pending",
    "responsible_agency": "Department of Public Works",
    "final_address": "5900 BLK General Diaz St",
    "address_councildis": "A",
    "status": "Pending",
    "rowid": "1226824",
    "final_x": "3669472.17086",
    "final_y": "546854.508113",
    "longitude": "-90.10553113968012",
    "latitude": "29.99802011545594",
    "geocoded_column": {
      "latitude": "29.99802011545594",
      "longitude": "-90.10553113968012"
    }
  },
  {
    "service_request": "2025-1226823",
    "request_type": "Property Maintenance",
    "request_reason": "Property Maintenance",
    "date_created": "2025-09-16T14:45:36.000",
    "date_modified": "2025-09-16T14:45:38.000",
    "request_status": "Pending",
    "responsible_agency": "Department of Code Enforcement",
    "final_address": "7820 Placid St",
    "address_councildis": "E",
    "status": "Pending",
    "rowid": "1226823",
    "final_x": "3714115.51877",
    "final_y": "569220.88887",
    "longitude": "-89.96366039301043",
    "latitude": "30.05812789636533",
    "geocoded_column": {
      "latitude": "30.05812789636533",
      "longitude": "-89.96366039301043"
    }
  },
  {
    "service_request": "2025-1226822",
    "request_type": "Trash/Recycling",
    "request_reason": "Repair Trash Cart",
    "date_created": "2025-09-16T14:41:35.000",
    "date_modified": "2025-09-16T14:41:36.000",
    "request_status": "Pending",
    "responsible_agency": "Department of Sanitation",
    "final_address": "7815 Buffalo St",
    "address_councildis": "E",
    "status": "Assigned to Contractor",
    "contractor": "Waste Pro",
    "rowid": "1226822",
    "final_x": "3719813.36255",
    "final_y": "573650.562538",
    "longitude": "-89.94548077574316",
    "latitude": "30.070119137795306",
    "geocoded_column": {
      "latitude": "30.070119137795306",
      "longitude": "-89.94548077574316"
    }
  },
  {
    "service_request": "2025-1226821",
    "request_type": "Street and Traffic Signs",
    "request_reason": "Traffic or Parking Sign Damaged or Missing",
    "date_created": "2025-09-16T14:40:14.000",
    "date_modified": "2025-09-16T14:40:17.000",
    "request_status": "Pending",
    "responsible_agency": "Department of Public Works",
    "final_address": "3368 Esplanade Ave",
    "address_councildis": "A",
    "status": "Pending",
    "rowid": "1226821",
    "final_x": "3675552.58568",
    "final_y": "540901.820107",
    "longitude": "-90.08652778688347",
    "latitude": "29.981471742994145",
    "geocoded_column": {
      "latitude": "29.981471742994145",
      "longitude": "-90.08652778688347"
    }
  },
  {
    "service_request": "2025-1226820",
    "request_type": "Parks & Parkways",
    "request_reason": "Request Tree Service (Right of Way/Public Property)",
    "date_created": "2025-09-16T14:37:06.000",
    "date_modified": "2025-09-16T14:37:08.000",
    "request_status": "Pending",
    "responsible_agency": "Department of Parks & Parkway",
    "final_address": "5930 Providence Pl",
    "address_councildis": "D",
    "status": "Pending",
    "rowid": "1226820",
    "final_x": "3688112.83964",
    "final_y": "555197.816793",
    "longitude": "-90.04634965846998",
    "latitude": "30.020398772239123",
    "geocoded_column": {
      "latitude": "30.020398772239123",
      "longitude": "-90.04634965846998"
    }
  },
  {
    "service_request": "2025-1226819",
    "request_type": "Trash/Recycling",
    "request_reason": "Request a Large Item Pick Up",
    "date_created": "2025-09-16T14:35:48.000",
    "date_modified": "2025-09-16T14:35:49.000",
    "request_status": "Pending",
    "responsible_agency": "Department of Sanitation",
    "final_address": "4603 Arts St",
    "address_councildis": "D",
    "status": "Assigned to Contractor",
    "contractor": "IV Waste",
    "rowid": "1226819",
    "final_x": "3686075.61398",
    "final_y": "549639.599188",
    "longitude": "-90.05298289541811",
    "latitude": "30.00517846870325",
    "geocoded_column": {
      "latitude": "30.00517846870325",
      "longitude": "-90.05298289541811"
    }
  },
  {
    "service_request": "2025-1226818",
    "request_type": "Trash/Recycling",
    "request_reason": "Request a Large Item Pick Up",
    "date_created": "2025-09-16T14:35:11.000",
    "date_modified": "2025-09-16T14:35:13.000",
    "request_status": "Pending",
    "responsible_agency": "Department of Sanitation",
    "final_address": "11983 Curran Rd",
    "address_councildis": "E",
    "status": "Assigned to Contractor",
    "contractor": "Waste Pro",
    "rowid": "1226818",
    "final_x": "3713352.21086",
    "final_y": "568103.781477",
    "longitude": "-89.96611523224992",
    "latitude": "30.05508137470077",
    "geocoded_column": {
      "latitude": "30.05508137470077",
      "longitude": "-89.96611523224992"
    }
  },
  {
    "service_request": "2025-1226817",
    "request_type": "Roads and Streets",
    "request_reason": "Sidewalk Damaged or Missing",
    "date_created": "2025-09-16T14:33:47.000",
    "date_modified": "2025-09-16T14:33:50.000",
    "request_status": "Pending",
    "responsible_agency": "Department of Public Works",
    "final_address": "1629 Washington Ave",
    "address_councildis": "B",
    "status": "Pending",
    "rowid": "1226817",
    "final_x": "3675845.54472",
    "final_y": "522803.958587",
    "longitude": "-90.0862246188927",
    "latitude": "29.931699916139575",
    "geocoded_column": {
      "latitude": "29.931699916139575",
      "longitude": "-90.0862246188927"
    }
  },
  {
    "service_request": "2025-1226816",
    "request_type": "Trash/Recycling",
    "request_reason": "Request a Large Item Pick Up",
    "date_created": "2025-09-16T14:33:23.000",
    "date_modified": "2025-09-16T14:33:24.000",
    "request_status": "Pending",
    "responsible_agency": "Department of Sanitation",
    "final_address": "1809 Paul Morphy St",
    "address_councildis": "D",
    "status": "Assigned to Contractor",
    "contractor": "IV Waste",
    "rowid": "1226816",
    "final_x": "3679721.51541",
    "final_y": "541662.884684",
    "longitude": "-90.07333394988439",
    "latitude": "29.983439015170894",
    "geocoded_column": {
      "latitude": "29.983439015170894",
      "longitude": "-90.07333394988439"
    }
  },
  {
    "service_request": "2025-1226815",
    "request_type": "Trash/Recycling",
    "request_reason": "Request a Large Item Pick Up",
    "date_created": "2025-09-16T14:32:53.000",
    "date_modified": "2025-09-16T14:32:54.000",
    "request_status": "Pending",
    "responsible_agency": "Department of Sanitation",
    "final_address": "1482 Wakefield Pl",
    "address_councildis": "D",
    "status": "Assigned to Contractor",
    "contractor": "IV Waste",
    "rowid": "1226815",
    "final_x": "3678567.95675",
    "final_y": "549686.801748",
    "longitude": "-90.07669955086592",
    "latitude": "30.005536789266234",
    "geocoded_column": {
      "latitude": "30.005536789266234",
      "longitude": "-90.07669955086592"
    }
  },
  {
    "service_request": "2025-1226814",
    "request_type": "Street and Traffic Signs",
    "request_reason": "Traffic or Parking Sign Damaged or Missing",
    "date_created": "2025-09-16T14:32:36.000",
    "date_modified": "2025-09-16T14:32:38.000",
    "request_status": "Pending",
    "responsible_agency": "Department of Public Works",
    "final_address": "2039 Evergreen Ave",
    "address_councildis": "C",
    "status": "Pending",
    "rowid": "1226814",
    "final_x": "3688089.70031",
    "final_y": "524267.307772",
    "longitude": "-90.04751946634568",
    "latitude": "29.935351526674243",
    "geocoded_column": {
      "latitude": "29.935351526674243",
      "longitude": "-90.04751946634568"
    }
  },
  {
    "service_request": "2025-1226813",
    "request_type": "Trash/Recycling",
    "request_reason": "Request a Large Item Pick Up",
    "date_created": "2025-09-16T14:31:58.000",
    "date_modified": "2025-09-16T14:32:00.000",
    "request_status": "Pending",
    "responsible_agency": "Department of Sanitation",
    "final_address": "401 Elmira Ave",
    "address_councildis": "C",
    "status": "Assigned to Contractor",
    "contractor": "Richards Disposal",
    "rowid": "1226813",
    "final_x": "3688188.60598",
    "final_y": "530288.369409",
    "longitude": "-90.04699382929253",
    "latitude": "29.95190434538229",
    "geocoded_column": {
      "latitude": "29.95190434538229",
      "longitude": "-90.04699382929253"
    }
  },
  {
    "service_request": "2025-1226812",
    "request_type": "Roads and Streets",
    "request_reason": "Abandoned Service Cut",
    "date_created": "2025-09-16T14:30:49.000",
    "date_modified": "2025-09-16T14:30:51.000",
    "request_status": "Pending",
    "responsible_agency": "Department of Public Works",
    "final_address": "540 Audubon St",
    "address_councildis": "A",
    "status": "Pending",
    "rowid": "1226812",
    "final_x": "3662849.61095",
    "final_y": "524071.19782",
    "longitude": "-90.12720940469075",
    "latitude": "29.93556695424618",
    "geocoded_column": {
      "latitude": "29.93556695424618",
      "longitude": "-90.12720940469075"
    }
  },
  {
    "service_request": "2025-1226811",
    "request_type": "Trash/Recycling",
    "request_reason": "Order Trash Cart",
    "date_created": "2025-09-16T14:29:14.000",
    "date_modified": "2025-09-16T14:29:15.000",
    "request_status": "Pending",
    "responsible_agency": "Department of Sanitation",
    "final_address": "1000 Broadway St",
    "address_councildis": "A",
    "status": "Assigned to Contractor",
    "contractor": "IV Waste",
    "rowid": "1226811",
    "final_x": "3663748.49779",
    "final_y": "525959.537853",
    "longitude": "-90.12430869496454",
    "latitude": "29.940733241356003",
    "geocoded_column": {
      "latitude": "29.940733241356003",
      "longitude": "-90.12430869496454"
    }
  },
  {
    "service_request": "2025-1226810",
    "request_type": "Property Maintenance",
    "request_reason": "Property Maintenance",
    "date_created": "2025-09-16T14:28:30.000",
    "date_modified": "2025-09-16T15:15:13.000",
    "request_status": "Pending",
    "responsible_agency": "Department of Code Enforcement",
    "final_address": "1155 N Broad St",
    "address_councildis": "A",
    "status": "Pending",
    "rowid": "1226810",
    "final_x": "3677796.86664",
    "final_y": "538573.247689",
    "longitude": "-90.07951978507798",
    "latitude": "29.97500163364654",
    "geocoded_column": {
      "latitude": "29.97500163364654",
      "longitude": "-90.07951978507798"
    }
  },
  {
    "service_request": "2025-1226809",
    "request_type": "Parks & Parkways",
    "request_reason": "Request Grass Cutting Service (City Owned Property)",
    "date_created": "2025-09-16T14:26:09.000",
    "date_modified": "2025-09-16T14:40:19.000",
    "case_close_date": "2025-09-16T09:40:18.000",
    "request_status": "Closed",
    "responsible_agency": "Department of Parks & Parkway",
    "final_address": "2039 Evergreen Ave",
    "address_councildis": "C",
    "status": "Referred to Property Owner",
    "rowid": "1226809",
    "final_x": "3688089.70031",
    "final_y": "524267.307772",
    "longitude": "-90.04751946634568",
    "latitude": "29.935351526674243",
    "geocoded_column": {
      "latitude": "29.935351526674243",
      "longitude": "-90.04751946634568"
    }
  },
  {
    "service_request": "2025-1226808",
    "request_type": "Property Maintenance",
    "request_reason": "Property Maintenance",
    "date_created": "2025-09-16T14:25:59.000",
    "date_modified": "2025-09-16T14:26:01.000",
    "request_status": "Pending",
    "responsible_agency": "Department of Code Enforcement",
    "final_address": "5763 Dauphine St",
    "address_councildis": "E",
    "status": "Pending",
    "rowid": "1226808",
    "final_x": "3698547.98116",
    "final_y": "532443.103875",
    "longitude": "-90.01420570049427",
    "latitude": "29.957505263550086",
    "geocoded_column": {
      "latitude": "29.957505263550086",
      "longitude": "-90.01420570049427"
    }
  },
  {
    "service_request": "2025-1226807",
    "request_type": "Trash/Recycling",
    "request_reason": "Repair Recycling Cart",
    "date_created": "2025-09-16T14:25:11.000",
    "date_modified": "2025-09-16T14:25:13.000",
    "request_status": "Pending",
    "responsible_agency": "Department of Sanitation",
    "final_address": "7540 Parry St",
    "address_councildis": "E",
    "status": "Pending",
    "rowid": "1226807",
    "final_x": "3714646.74053",
    "final_y": "568044.416037",
    "longitude": "-89.9620257820946",
    "latitude": "30.05487560911948",
    "geocoded_column": {
      "latitude": "30.05487560911948",
      "longitude": "-89.9620257820946"
    }
  },
  {
    "service_request": "2025-1226806",
    "request_type": "Property Maintenance",
    "request_reason": "Property Maintenance",
    "date_created": "2025-09-16T14:21:14.000",
    "date_modified": "2025-09-16T14:21:15.000",
    "request_status": "Pending",
    "responsible_agency": "Department of Code Enforcement",
    "final_address": "5909 Dauphine St",
    "address_councildis": "E",
    "status": "Pending",
    "rowid": "1226806",
    "final_x": "3698701.2584",
    "final_y": "532407.539203",
    "longitude": "-90.01372299267838",
    "latitude": "29.95740262044336",
    "geocoded_column": {
      "latitude": "29.95740262044336",
      "longitude": "-90.01372299267838"
    }
  },
  {
    "service_request": "2025-1226805",
    "request_type": "Property Maintenance",
    "request_reason": "Property Maintenance",
    "date_created": "2025-09-16T14:20:50.000",
    "date_modified": "2025-09-16T14:20:53.000",
    "request_status": "Pending",
    "responsible_agency": "Department of Code Enforcement",
    "final_address": "5909 Dauphine St",
    "address_councildis": "E",
    "status": "Pending",
    "rowid": "1226805",
    "final_x": "3698701.2584",
    "final_y": "532407.539203",
    "longitude": "-90.01372299267838",
    "latitude": "29.95740262044336",
    "geocoded_column": {
      "latitude": "29.95740262044336",
      "longitude": "-90.01372299267838"
    }
  },
  {
    "service_request": "2025-1226804",
    "request_type": "Abandoned Vehicles",
    "request_reason": "Abandoned/Junk Vehicles",
    "date_created": "2025-09-16T14:15:39.000",
    "date_modified": "2025-09-16T14:15:41.000",
    "request_status": "Pending",
    "responsible_agency": "Department of Public Works",
    "final_address": "1420 Charbonnet St",
    "address_councildis": "E",
    "status": "Pending",
    "rowid": "1226804",
    "final_x": "3698889.86039",
    "final_y": "534910.40167",
    "longitude": "-90.01303638214634",
    "latitude": "29.96427862746914",
    "geocoded_column": {
      "latitude": "29.96427862746914",
      "longitude": "-90.01303638214634"
    }
  },
  {
    "service_request": "2025-1226803",
    "request_type": "Trash/Recycling",
    "request_reason": "Request a Large Item Pick Up",
    "date_created": "2025-09-16T14:14:41.000",
    "date_modified": "2025-09-16T14:14:43.000",
    "request_status": "Pending",
    "responsible_agency": "Department of Sanitation",
    "final_address": "4954 Marigny St",
    "address_councildis": "D",
    "status": "Assigned to Contractor",
    "contractor": "IV Waste",
    "rowid": "1226803",
    "final_x": "3684300.56841",
    "final_y": "551192.527381",
    "longitude": "-90.05853605151043",
    "latitude": "30.00950287581917",
    "geocoded_column": {
      "latitude": "30.00950287581917",
      "longitude": "-90.05853605151043"
    }
  },
  {
    "service_request": "2025-1226802",
    "request_type": "Healthy Homes",
    "request_reason": "Healthy Homes",
    "date_created": "2025-09-16T14:14:40.000",
    "date_modified": "2025-09-16T14:14:41.000",
    "request_status": "Pending",
    "responsible_agency": "Department of Code Enforcement",
    "final_address": "3354 Dumaine St",
    "address_councildis": "A",
    "status": "Pending",
    "rowid": "1226802",
    "final_x": "3674750.43617",
    "final_y": "539301.013898",
    "longitude": "-90.08911625086832",
    "latitude": "29.977094050168063",
    "geocoded_column": {
      "latitude": "29.977094050168063",
      "longitude": "-90.08911625086832"
    }
  },
  {
    "service_request": "2025-1226801",
    "request_type": "Roads and Streets",
    "request_reason": "Abandoned Service Cut",
    "date_created": "2025-09-16T14:12:52.000",
    "date_modified": "2025-09-16T14:12:53.000",
    "request_status": "Pending",
    "responsible_agency": "Department of Public Works",
    "final_address": "2300 BLK Saint Claude Ave",
    "address_councildis": "C",
    "status": "Pending",
    "rowid": "1226801",
    "final_x": "3686287.70416",
    "final_y": "536477.369746",
    "longitude": "-90.05277756922612",
    "latitude": "29.968980501306376",
    "geocoded_column": {
      "latitude": "29.968980501306376",
      "longitude": "-90.05277756922612"
    }
  },
  {
    "service_request": "2025-1226800",
    "request_type": "Trash/Recycling",
    "request_reason": "Replace Recycling Cart",
    "date_created": "2025-09-16T14:08:49.000",
    "date_modified": "2025-09-16T14:08:50.000",
    "request_status": "Pending",
    "responsible_agency": "Department of Sanitation",
    "final_address": "6562 Center St",
    "address_councildis": "A",
    "status": "Pending",
    "rowid": "1226800",
    "final_x": "3664890.56628",
    "final_y": "551787.403862",
    "longitude": "-90.11983939551926",
    "latitude": "30.01171806835394",
    "geocoded_column": {
      "latitude": "30.01171806835394",
      "longitude": "-90.11983939551926"
    }
  },
  {
    "service_request": "2025-1226799",
    "request_type": "Abandoned Vehicles",
    "request_reason": "Abandoned/Junk Vehicles",
    "date_created": "2025-09-16T14:07:59.000",
    "date_modified": "2025-09-16T14:08:01.000",
    "request_status": "Pending",
    "responsible_agency": "Department of Public Works",
    "final_address": "3717 Dumaine St",
    "address_councildis": "A",
    "status": "Pending",
    "rowid": "1226799",
    "final_x": "3673949.56116",
    "final_y": "540015.071435",
    "longitude": "-90.09162123799247",
    "latitude": "29.97908135205108",
    "geocoded_column": {
      "latitude": "29.97908135205108",
      "longitude": "-90.09162123799247"
    }
  },
  {
    "service_request": "2025-1226798",
    "request_type": "Abandoned Vehicles",
    "request_reason": "Abandoned/Junk Vehicles",
    "date_created": "2025-09-16T14:05:24.000",
    "date_modified": "2025-09-16T14:05:26.000",
    "request_status": "Pending",
    "responsible_agency": "Department of Public Works",
    "final_address": "1832 Felicity St",
    "address_councildis": "B",
    "status": "Pending",
    "rowid": "1226798",
    "final_x": "3677652.66779",
    "final_y": "525347.990973",
    "longitude": "-90.08043191648206",
    "latitude": "29.93864096489939",
    "geocoded_column": {
      "latitude": "29.93864096489939",
      "longitude": "-90.08043191648206"
    }
  },
  {
    "service_request": "2025-1226797",
    "request_type": "Trash/Recycling",
    "request_reason": "Request a Large Item Pick Up",
    "date_created": "2025-09-16T13:55:49.000",
    "date_modified": "2025-09-16T13:55:51.000",
    "request_status": "Pending",
    "responsible_agency": "Department of Sanitation",
    "final_address": "2009 Joseph St",
    "address_councildis": "A",
    "status": "Assigned to Contractor",
    "contractor": "IV Waste",
    "rowid": "1226797",
    "final_x": "3667219.39181",
    "final_y": "523522.650107",
    "longitude": "-90.11343235289782",
    "latitude": "29.93393142386048",
    "geocoded_column": {
      "latitude": "29.93393142386048",
      "longitude": "-90.11343235289782"
    }
  },
  {
    "service_request": "2025-1226796",
    "request_type": "Property Maintenance",
    "request_reason": "Property Maintenance",
    "date_created": "2025-09-16T13:52:28.000",
    "date_modified": "2025-09-16T15:42:51.000",
    "case_close_date": "2025-09-16T10:42:51.000",
    "request_status": "Closed",
    "responsible_agency": "Department of Code Enforcement",
    "final_address": "3732 S Galvez St",
    "address_councildis": "B",
    "status": "Referred to Code Enforcement",
    "rowid": "1226796",
    "final_x": "3671159.03988",
    "final_y": "527538.046015",
    "longitude": "-90.10085867183123",
    "latitude": "29.944856542720636",
    "geocoded_column": {
      "latitude": "29.944856542720636",
      "longitude": "-90.10085867183123"
    }
  },
  {
    "service_request": "2025-1226795",
    "request_type": "Trash/Recycling",
    "request_reason": "Request a Large Item Pick Up",
    "date_created": "2025-09-16T13:52:16.000",
    "date_modified": "2025-09-16T13:52:21.000",
    "request_status": "Pending",
    "responsible_agency": "Department of Sanitation",
    "final_address": "4783 Citrus Dr",
    "address_councildis": "E",
    "status": "Assigned to Contractor",
    "contractor": "Waste Pro",
    "rowid": "1226795",
    "final_x": "3710824.87998",
    "final_y": "556092.008346",
    "longitude": "-89.97455374754624",
    "latitude": "30.02213647123841",
    "geocoded_column": {
      "latitude": "30.02213647123841",
      "longitude": "-89.97455374754624"
    }
  },
  {
    "service_request": "2025-1226793",
    "request_type": "Streetlights",
    "request_reason": "Streetlight Outage/Malfunction",
    "date_created": "2025-09-16T13:47:41.000",
    "date_modified": "2025-09-16T13:47:43.000",
    "request_status": "Pending",
    "responsible_agency": "Department of Public Works",
    "final_address": "8016 Hickory St",
    "address_councildis": "A",
    "status": "Pending",
    "rowid": "1226793",
    "final_x": "3663592.30138",
    "final_y": "529680.123393",
    "longitude": "-90.12467793135957",
    "latitude": "29.95096818889096",
    "geocoded_column": {
      "latitude": "29.95096818889096",
      "longitude": "-90.12467793135957"
    }
  },
  {
    "service_request": "2025-1226792",
    "request_type": "Trash/Recycling",
    "request_reason": "Repair Recycling Cart",
    "date_created": "2025-09-16T13:46:12.000",
    "date_modified": "2025-09-16T13:46:14.000",
    "request_status": "Pending",
    "responsible_agency": "Department of Sanitation",
    "final_address": "4519 Majestic Oaks Dr",
    "address_councildis": "D",
    "status": "Pending",
    "rowid": "1226792",
    "final_x": "3697943.79971",
    "final_y": "553195.540631",
    "longitude": "-90.01535977415654",
    "latitude": "30.01458599418889",
    "geocoded_column": {
      "latitude": "30.01458599418889",
      "longitude": "-90.01535977415654"
    }
  },
  {
    "service_request": "2025-1226791",
    "request_type": "Trash/Recycling",
    "request_reason": "Return Trash Cart",
    "date_created": "2025-09-16T13:44:27.000",
    "date_modified": "2025-09-16T13:44:29.000",
    "request_status": "Pending",
    "responsible_agency": "Department of Sanitation",
    "final_address": "526 Vallette St",
    "address_councildis": "C",
    "status": "Assigned to Contractor",
    "contractor": "Richards Disposal",
    "rowid": "1226791",
    "final_x": "3687567.99535",
    "final_y": "529711.365121",
    "longitude": "-90.04897384017586",
    "latitude": "29.950336923748267",
    "geocoded_column": {
      "latitude": "29.950336923748267",
      "longitude": "-90.04897384017586"
    }
  },
  {
    "service_request": "2025-1226790",
    "request_type": "Trash/Recycling",
    "request_reason": "Illegal Dumping",
    "date_created": "2025-09-16T13:39:05.000",
    "date_modified": "2025-09-16T13:39:06.000",
    "request_status": "Pending",
    "responsible_agency": "Department of Sanitation",
    "final_address": "PAPANIA DR & CHEF MENTEUR HWY",
    "address_councildis": "E",
    "status": "Pending",
    "rowid": "1226790",
    "final_x": "3715673.4",
    "final_y": "555662.08",
    "longitude": "-89.95925010436123",
    "latitude": "30.020795356145197",
    "geocoded_column": {
      "latitude": "30.020795356145197",
      "longitude": "-89.95925010436123"
    }
  },
  {
    "service_request": "2025-1226789",
    "request_type": "Trash/Recycling",
    "request_reason": "Illegal Dumping",
    "date_created": "2025-09-16T13:38:36.000",
    "date_modified": "2025-09-16T13:38:37.000",
    "request_status": "Pending",
    "responsible_agency": "Department of Sanitation",
    "final_address": "CHEF MENTEUR HWY & PAPANIA DR",
    "address_councildis": "E",
    "status": "Pending",
    "rowid": "1226789",
    "final_x": "3715732.4",
    "final_y": "555678.38",
    "longitude": "-89.95906306607667",
    "latitude": "30.020838229136608",
    "geocoded_column": {
      "latitude": "30.020838229136608",
      "longitude": "-89.95906306607667"
    }
  },
  {
    "service_request": "2025-1226788",
    "request_type": "Trash/Recycling",
    "request_reason": "Request a Large Item Pick Up",
    "date_created": "2025-09-16T13:37:43.000",
    "date_modified": "2025-09-16T13:37:45.000",
    "request_status": "Pending",
    "responsible_agency": "Department of Sanitation",
    "final_address": "4550 Lynhuber Dr",
    "address_councildis": "D",
    "status": "Assigned to Contractor",
    "contractor": "Waste Pro",
    "rowid": "1226788",
    "final_x": "3698055.02736",
    "final_y": "553336.524567",
    "longitude": "-90.0150032263222",
    "latitude": "30.014970128540018",
    "geocoded_column": {
      "latitude": "30.014970128540018",
      "longitude": "-90.0150032263222"
    }
  },
  {
    "service_request": "2025-1226787",
    "request_type": "Trash/Recycling",
    "request_reason": "Illegal Dumping",
    "date_created": "2025-09-16T13:35:41.000",
    "date_modified": "2025-09-16T13:35:43.000",
    "request_status": "Pending",
    "responsible_agency": "Department of Sanitation",
    "final_address": "4145 Cleveland Ave",
    "address_councildis": "A",
    "status": "Pending",
    "rowid": "1226787",
    "final_x": "3670532.5483",
    "final_y": "538288.640841",
    "longitude": "-90.10247208618843",
    "latitude": "29.97443562696582",
    "geocoded_column": {
      "latitude": "29.97443562696582",
      "longitude": "-90.10247208618843"
    }
  },
  {
    "service_request": "2025-1226786",
    "request_type": "Abandoned Vehicles",
    "request_reason": "Abandoned/Junk Vehicles",
    "date_created": "2025-09-16T13:34:06.000",
    "date_modified": "2025-09-16T13:34:08.000",
    "request_status": "Pending",
    "responsible_agency": "Department of Public Works",
    "final_address": "541 Webster St",
    "address_councildis": "A",
    "status": "Pending",
    "rowid": "1226786",
    "final_x": "3663903.38759",
    "final_y": "518734.188151",
    "longitude": "-90.12406042429113",
    "latitude": "29.92086131449269",
    "geocoded_column": {
      "latitude": "29.92086131449269",
      "longitude": "-90.12406042429113"
    }
  },
  {
    "service_request": "2025-1226785",
    "request_type": "Trash/Recycling",
    "request_reason": "Replace Trash Cart",
    "date_created": "2025-09-16T13:31:10.000",
    "date_modified": "2025-09-16T13:31:12.000",
    "request_status": "Pending",
    "responsible_agency": "Department of Sanitation",
    "final_address": "3315 Magazine St",
    "address_councildis": "B",
    "status": "Assigned to Contractor",
    "contractor": "IV Waste",
    "rowid": "1226785",
    "final_x": "3675272.08366",
    "final_y": "519790.647224",
    "longitude": "-90.08813834812666",
    "latitude": "29.92343143425982",
    "geocoded_column": {
      "latitude": "29.92343143425982",
      "longitude": "-90.08813834812666"
    }
  },
  {
    "service_request": "2025-1226784",
    "request_type": "Abandoned Vehicles",
    "request_reason": "Abandoned/Junk Vehicles",
    "date_created": "2025-09-16T13:25:29.000",
    "date_modified": "2025-09-16T13:25:31.000",
    "request_status": "Pending",
    "responsible_agency": "Department of Public Works",
    "final_address": "2426 Simon Bolivar Ave",
    "address_councildis": "B",
    "status": "Pending",
    "rowid": "1226784",
    "final_x": "3675194.60833",
    "final_y": "525396.529597",
    "longitude": "-90.08819061659715",
    "latitude": "29.93884810495521",
    "geocoded_column": {
      "latitude": "29.93884810495521",
      "longitude": "-90.08819061659715"
    }
  },
  {
    "service_request": "2025-1226783",
    "request_type": "Trash/Recycling",
    "request_reason": "Request a Large Item Pick Up",
    "date_created": "2025-09-16T13:23:47.000",
    "date_modified": "2025-09-16T13:23:49.000",
    "request_status": "Pending",
    "responsible_agency": "Department of Sanitation",
    "final_address": "1611 Odeon St",
    "address_councildis": "C",
    "status": "Assigned to Contractor",
    "contractor": "Richards Disposal",
    "rowid": "1226783",
    "final_x": "3695891.22346",
    "final_y": "525315.910525",
    "longitude": "-90.02285230293315",
    "latitude": "29.937991797140196",
    "geocoded_column": {
      "latitude": "29.937991797140196",
      "longitude": "-90.02285230293315"
    }
  },
  {
    "service_request": "2025-1226782",
    "request_type": "Mosquito, Termite & Rodent Control",
    "request_reason": "Rodent Complaint (Mice & Rats)",
    "date_created": "2025-09-16T13:22:59.000",
    "date_modified": "2025-09-16T13:23:00.000",
    "request_status": "Pending",
    "responsible_agency": "Mosquito, Termite & Rodent Control Board",
    "final_address": "1614 Simon Bolivar Ave",
    "address_councildis": "B",
    "status": "Pending",
    "rowid": "1226782",
    "final_x": "3677135.02856",
    "final_y": "526306.382654",
    "longitude": "-90.0820331175139",
    "latitude": "29.941291779238668",
    "geocoded_column": {
      "latitude": "29.941291779238668",
      "longitude": "-90.0820331175139"
    }
  },
  {
    "service_request": "2025-1226781",
    "request_type": "Trash/Recycling",
    "request_reason": "Request a Large Item Pick Up",
    "date_created": "2025-09-16T13:22:54.000",
    "date_modified": "2025-09-16T13:22:56.000",
    "request_status": "Pending",
    "responsible_agency": "Department of Sanitation",
    "final_address": "11026 Vienna St",
    "address_councildis": "E",
    "status": "Assigned to Contractor",
    "contractor": "Waste Pro",
    "rowid": "1226781",
    "final_x": "3715902.57036",
    "final_y": "557810.302939",
    "longitude": "-89.95844455583878",
    "latitude": "30.02669455732732",
    "geocoded_column": {
      "latitude": "30.02669455732732",
      "longitude": "-89.95844455583878"
    }
  },
  {
    "service_request": "2025-1226780",
    "request_type": "Parks & Parkways",
    "request_reason": "Request Tree Service (Right of Way/Public Property)",
    "date_created": "2025-09-16T13:17:02.000",
    "date_modified": "2025-09-16T13:17:04.000",
    "request_status": "Pending",
    "responsible_agency": "Department of Parks & Parkway",
    "final_address": "COHN ST & HOLLYGROVE ST",
    "address_councildis": "A",
    "status": "Pending",
    "rowid": "1226780",
    "final_x": "3661266.8",
    "final_y": "532332.48",
    "longitude": "-90.13193292404881",
    "latitude": "29.958328558884165",
    "geocoded_column": {
      "latitude": "29.958328558884165",
      "longitude": "-90.13193292404881"
    }
  },
  {
    "service_request": "2025-1226779",
    "request_type": "Trash/Recycling",
    "request_reason": "Request a Large Item Pick Up",
    "date_created": "2025-09-16T13:15:40.000",
    "date_modified": "2025-09-16T13:15:42.000",
    "request_status": "Pending",
    "responsible_agency": "Department of Sanitation",
    "final_address": "1633 Lauradale Dr",
    "address_councildis": "C",
    "status": "Assigned to Contractor",
    "contractor": "Richards Disposal",
    "rowid": "1226779",
    "final_x": "3692718.50461",
    "final_y": "525170.140221",
    "longitude": "-90.0328740311639",
    "latitude": "29.937690371483743",
    "geocoded_column": {
      "latitude": "29.937690371483743",
      "longitude": "-90.0328740311639"
    }
  },
  {
    "service_request": "2025-1226778",
    "request_type": "Trash/Recycling",
    "request_reason": "Replace Trash Cart",
    "date_created": "2025-09-16T13:14:56.000",
    "date_modified": "2025-09-16T13:14:58.000",
    "request_status": "Pending",
    "responsible_agency": "Department of Sanitation",
    "final_address": "2515 Banks St",
    "address_councildis": "B",
    "status": "Assigned to Contractor",
    "contractor": "IV Waste",
    "rowid": "1226778",
    "final_x": "3675334.74779",
    "final_y": "533687.012293",
    "longitude": "-90.0874635906162",
    "latitude": "29.961639992040475",
    "geocoded_column": {
      "latitude": "29.961639992040475",
      "longitude": "-90.0874635906162"
    }
  },
  {
    "service_request": "2025-1226777",
    "request_type": "Trash/Recycling",
    "request_reason": "Request a Large Item Pick Up",
    "date_created": "2025-09-16T13:13:42.000",
    "date_modified": "2025-09-16T13:13:44.000",
    "request_status": "Pending",
    "responsible_agency": "Department of Sanitation",
    "final_address": "10714 Dreux Ave",
    "address_councildis": "E",
    "status": "Assigned to Contractor",
    "contractor": "Waste Pro",
    "rowid": "1226777",
    "final_x": "3715221.80773",
    "final_y": "555936.225369",
    "longitude": "-89.96066661064356",
    "latitude": "30.02156403023815",
    "geocoded_column": {
      "latitude": "30.02156403023815",
      "longitude": "-89.96066661064356"
    }
  },
  {
    "service_request": "2025-1226776",
    "request_type": "Trash/Recycling",
    "request_reason": "Return Trash Cart",
    "date_created": "2025-09-16T13:12:38.000",
    "date_modified": "2025-09-16T14:22:02.000",
    "request_status": "Pending",
    "responsible_agency": "Department of Sanitation",
    "final_address": "5911 Wright Rd",
    "address_councildis": "E",
    "status": "Assigned to Contractor",
    "contractor": "Waste Pro",
    "rowid": "1226776",
    "final_x": "3713784.86386",
    "final_y": "561977.132767",
    "longitude": "-89.96497897563148",
    "latitude": "30.038221374429288",
    "geocoded_column": {
      "latitude": "30.038221374429288",
      "longitude": "-89.96497897563148"
    }
  },
  {
    "service_request": "2025-1226775",
    "request_type": "Health Related Request",
    "request_reason": "Homeless Encampment Complaint",
    "date_created": "2025-09-16T13:11:58.000",
    "date_modified": "2025-09-16T13:12:00.000",
    "request_status": "Pending",
    "responsible_agency": "Office Of Homeless Services And Strategy",
    "final_address": "433 N Bernadotte St",
    "address_councildis": "A",
    "status": "Pending",
    "rowid": "1226775",
    "final_x": "3669616.25422",
    "final_y": "541212.019084",
    "longitude": "-90.10526701762241",
    "latitude": "29.98250096070414",
    "geocoded_column": {
      "latitude": "29.98250096070414",
      "longitude": "-90.10526701762241"
    }
  },
  {
    "service_request": "2025-1226774",
    "request_type": "Trash/Recycling",
    "request_reason": "Order Recycling Cart",
    "date_created": "2025-09-16T13:08:09.000",
    "date_modified": "2025-09-16T13:08:12.000",
    "request_status": "Pending",
    "responsible_agency": "Department of Sanitation",
    "final_address": "638 Seguin St",
    "address_councildis": "C",
    "status": "Pending",
    "rowid": "1226774",
    "final_x": "3686888.66351",
    "final_y": "529436.816833",
    "longitude": "-90.05112851003524",
    "latitude": "29.94960292968739",
    "geocoded_column": {
      "latitude": "29.94960292968739",
      "longitude": "-90.05112851003524"
    }
  },
  {
    "service_request": "2025-1226773",
    "request_type": "Trash/Recycling",
    "request_reason": "Request a Large Item Pick Up",
    "date_created": "2025-09-16T13:05:46.000",
    "date_modified": "2025-09-16T13:05:48.000",
    "request_status": "Pending",
    "responsible_agency": "Department of Sanitation",
    "final_address": "11100 Ivy Ln",
    "address_councildis": "E",
    "status": "Assigned to Contractor",
    "contractor": "Waste Pro",
    "rowid": "1226773",
    "final_x": "3715962.50424",
    "final_y": "559712.801181",
    "longitude": "-89.9581830258378",
    "latitude": "30.031923689391434",
    "geocoded_column": {
      "latitude": "30.031923689391434",
      "longitude": "-89.9581830258378"
    }
  },
  {
    "service_request": "2025-1226772",
    "request_type": "Trash/Recycling",
    "request_reason": "Order Recycling Cart",
    "date_created": "2025-09-16T13:04:39.000",
    "date_modified": "2025-09-16T13:04:41.000",
    "request_status": "Pending",
    "responsible_agency": "Department of Sanitation",
    "final_address": "906 Eleonore St",
    "address_councildis": "A",
    "status": "Pending",
    "rowid": "1226772",
    "final_x": "3665271.5088",
    "final_y": "519472.724727",
    "longitude": "-90.11971717988939",
    "latitude": "29.92285228626449",
    "geocoded_column": {
      "latitude": "29.92285228626449",
      "longitude": "-90.11971717988939"
    }
  },
  {
    "service_request": "2025-1226771",
    "request_type": "Trash/Recycling",
    "request_reason": "Request a Large Item Pick Up",
    "date_created": "2025-09-16T13:04:13.000",
    "date_modified": "2025-09-16T13:04:14.000",
    "request_status": "Pending",
    "responsible_agency": "Department of Sanitation",
    "final_address": "1635 Louisa St",
    "address_councildis": "D",
    "status": "Assigned to Contractor",
    "contractor": "IV Waste",
    "rowid": "1226771",
    "final_x": "3690126.04656",
    "final_y": "537970.850377",
    "longitude": "-90.04060265746352",
    "latitude": "29.972968538954685",
    "geocoded_column": {
      "latitude": "29.972968538954685",
      "longitude": "-90.04060265746352"
    }
  },
  {
    "service_request": "2025-1226770",
    "request_type": "Streetlights",
    "request_reason": "Streetlight Outage/Malfunction",
    "date_created": "2025-09-16T13:03:34.000",
    "date_modified": "2025-09-16T13:03:36.000",
    "request_status": "Pending",
    "responsible_agency": "Department of Public Works",
    "final_address": "6524 Colbert St",
    "address_councildis": "A",
    "status": "Pending",
    "rowid": "1226770",
    "final_x": "3667648.91073",
    "final_y": "551017.258389",
    "longitude": "-90.11115055051812",
    "latitude": "30.009519826771232",
    "geocoded_column": {
      "latitude": "30.009519826771232",
      "longitude": "-90.11115055051812"
    }
  },
  {
    "service_request": "2025-1226769",
    "request_type": "Trash/Recycling",
    "request_reason": "Change Size of Trash Cart",
    "date_created": "2025-09-16T13:01:43.000",
    "date_modified": "2025-09-16T13:01:45.000",
    "request_status": "Pending",
    "responsible_agency": "Department of Sanitation",
    "final_address": "906 Eleonore St",
    "address_councildis": "A",
    "status": "Assigned to Contractor",
    "contractor": "IV Waste",
    "rowid": "1226769",
    "final_x": "3665271.5088",
    "final_y": "519472.724727",
    "longitude": "-90.11971717988939",
    "latitude": "29.92285228626449",
    "geocoded_column": {
      "latitude": "29.92285228626449",
      "longitude": "-90.11971717988939"
    }
  },
  {
    "service_request": "2025-1226768",
    "request_type": "Trash/Recycling",
    "request_reason": "Missed Trash Pick-Up",
    "date_created": "2025-09-16T13:01:27.000",
    "date_modified": "2025-09-16T13:01:29.000",
    "request_status": "Pending",
    "responsible_agency": "Department of Sanitation",
    "final_address": "7650 Mackenzie St",
    "address_councildis": "E",
    "status": "Assigned to Contractor",
    "contractor": "Waste Pro",
    "rowid": "1226768",
    "final_x": "3710932.44229",
    "final_y": "566150.440675",
    "longitude": "-89.97383679919646",
    "latitude": "30.049789646800086",
    "geocoded_column": {
      "latitude": "30.049789646800086",
      "longitude": "-89.97383679919646"
    }
  },
  {
    "service_request": "2025-1226766",
    "request_type": "Trash/Recycling",
    "request_reason": "Order Recycling Cart",
    "date_created": "2025-09-16T13:01:02.000",
    "date_modified": "2025-09-16T13:01:03.000",
    "request_status": "Pending",
    "responsible_agency": "Department of Sanitation",
    "final_address": "24 Marywood Ct",
    "address_councildis": "E",
    "status": "Pending",
    "rowid": "1226766",
    "final_x": "3712499.54757",
    "final_y": "566760.130275",
    "longitude": "-89.96886087036509",
    "latitude": "30.051414828461617",
    "geocoded_column": {
      "latitude": "30.051414828461617",
      "longitude": "-89.96886087036509"
    }
  },
  {
    "service_request": "2025-1226765",
    "request_type": "Parks & Parkways",
    "request_reason": "Request Tree Service (Right of Way/Public Property)",
    "date_created": "2025-09-16T12:59:52.000",
    "date_modified": "2025-09-16T12:59:53.000",
    "request_status": "Pending",
    "responsible_agency": "Department of Parks & Parkway",
    "final_address": "3962 Louisiana Avenue Prkwy",
    "address_councildis": "B",
    "status": "Pending",
    "rowid": "1226765",
    "final_x": "3670994.24647",
    "final_y": "529470.204225",
    "longitude": "-90.1013133835753",
    "latitude": "29.950174218096507",
    "geocoded_column": {
      "latitude": "29.950174218096507",
      "longitude": "-90.1013133835753"
    }
  },
  {
    "service_request": "2025-1226764",
    "request_type": "Trash/Recycling",
    "request_reason": "Request a Large Item Pick Up",
    "date_created": "2025-09-16T12:51:42.000",
    "date_modified": "2025-09-16T12:51:48.000",
    "request_status": "Pending",
    "responsible_agency": "Department of Sanitation",
    "final_address": "7902 Freret St",
    "address_councildis": "A",
    "status": "Assigned to Contractor",
    "contractor": "IV Waste",
    "rowid": "1226764",
    "final_x": "3661995.03879",
    "final_y": "527344.024063",
    "longitude": "-90.1297987847559",
    "latitude": "29.94459089428192",
    "geocoded_column": {
      "latitude": "29.94459089428192",
      "longitude": "-90.1297987847559"
    }
  },
  {
    "service_request": "2025-1226763",
    "request_type": "Trash/Recycling",
    "request_reason": "Request a Large Item Pick Up",
    "date_created": "2025-09-16T12:50:47.000",
    "date_modified": "2025-09-16T12:50:49.000",
    "request_status": "Pending",
    "responsible_agency": "Department of Sanitation",
    "final_address": "3615 Banks St",
    "address_councildis": "B",
    "status": "Assigned to Contractor",
    "contractor": "IV Waste",
    "rowid": "1226763",
    "final_x": "3671805.58593",
    "final_y": "536366.788935",
    "longitude": "-90.09851692967594",
    "latitude": "29.969113519792653",
    "geocoded_column": {
      "latitude": "29.969113519792653",
      "longitude": "-90.09851692967594"
    }
  },
  {
    "service_request": "2025-1226762",
    "request_type": "Trash/Recycling",
    "request_reason": "Repair Trash Cart",
    "date_created": "2025-09-16T12:50:14.000",
    "date_modified": "2025-09-16T12:50:16.000",
    "request_status": "Pending",
    "responsible_agency": "Department of Sanitation",
    "final_address": "1520 Spain St",
    "address_councildis": "C",
    "status": "Assigned to Contractor",
    "contractor": "IV Waste",
    "rowid": "1226762",
    "final_x": "3685962.05487",
    "final_y": "538044.312713",
    "longitude": "-90.05375072830579",
    "latitude": "29.973299050655573",
    "geocoded_column": {
      "latitude": "29.973299050655573",
      "longitude": "-90.05375072830579"
    }
  },
  {
    "service_request": "2025-1226761",
    "request_type": "Roads and Streets",
    "request_reason": "Sidewalk Damaged or Missing",
    "date_created": "2025-09-16T12:48:16.000",
    "date_modified": "2025-09-16T12:48:17.000",
    "request_status": "Pending",
    "responsible_agency": "Department of Public Works",
    "final_address": "4640 Franklin Ave",
    "address_councildis": "D",
    "status": "Pending",
    "rowid": "1226761",
    "final_x": "3686779.30127",
    "final_y": "549957.25602",
    "longitude": "-90.05074856966391",
    "latitude": "30.00603027042841",
    "geocoded_column": {
      "latitude": "30.00603027042841",
      "longitude": "-90.05074856966391"
    }
  },
  {
    "service_request": "2025-1226760",
    "request_type": "Trash/Recycling",
    "request_reason": "Request a Large Item Pick Up",
    "date_created": "2025-09-16T12:48:09.000",
    "date_modified": "2025-09-16T12:48:14.000",
    "request_status": "Pending",
    "responsible_agency": "Department of Sanitation",
    "final_address": "5617 St Claude Ave",
    "address_councildis": "E",
    "status": "Assigned to Contractor",
    "contractor": "Waste Pro",
    "rowid": "1226760",
    "final_x": "3698309.74371",
    "final_y": "533815.879173",
    "longitude": "-90.01490810215277",
    "latitude": "29.96128744759274",
    "geocoded_column": {
      "latitude": "29.96128744759274",
      "longitude": "-90.01490810215277"
    }
  },