[
  {
    "service_request": "2026-1262804",
    "request_type": "Trash/Recycling",
    "request_reason": "Replace Trash Cart",
    "date_created": "2026-03-04T22:41:03.000",
    "date_modified": "2026-03-04T22:41:05.000",
    "request_status": "Pending",
    "responsible_agency": "Department of Sanitation",
    "final_address": "1305 General Taylor St",
    "address_councildis": "B",
    "status": "Assigned to Contractor",
    "contractor": "IV Waste",
    "rowid": "1262804",
    "final_x": "3672835.63592",
    "final_y": "520330.183928",
    "longitude": "-90.0958109224427",
    "latitude": "29.924987565948786",
    "geocoded_column": {
      "latitude": "29.924987565948786",
      "longitude": "-90.0958109224427"
    }
  },
  {
    "service_request": "2026-1262803",
    "request_type": "Mosquito, Termite & Rodent Control",
    "request_reason": "Mosquito Complaint",
    "date_created": "2026-03-04T22:38:48.000",
    "date_modified": "2026-03-04T22:38:51.000",
    "request_status": "Pending",
    "responsible_agency": "Mosquito, Termite & Rodent Control Board",
    "final_address": "3001 Lafitte Ave",
    "address_councildis": "A",
    "status": "Pending",
    "rowid": "1262803",
    "final_x": "3675264.68577",
    "final_y": "537175.236808",
    "longitude": "-90.08756507643518",
    "latitude": "29.97123352437133",
    "geocoded_column": {
      "latitude": "29.97123352437133",
      "longitude": "-90.08756507643518"
    }
  },
  {
    "service_request": "2026-1262802",
    "request_type": "Trash/Recycling",
    "request_reason": "Replace Trash Cart",
    "date_created": "2026-03-04T22:15:03.000",
    "date_modified": "2026-03-04T22:15:05.000",
    "request_status": "Pending",
    "responsible_agency": "Department of Sanitation",
    "final_address": "2227 Port St",
    "address_councildis": "D",
    "status": "Assigned to Contractor",
    "contractor": "IV Waste",
    "rowid": "1262802",
    "final_x": "3688574.72559",
    "final_y": "540740.201355",
    "longitude": "-90.04540370722174",
    "latitude": "29.98063130839238",
    "geocoded_column": {
      "latitude": "29.98063130839238",
      "longitude": "-90.04540370722174"
    }
  },
  {
    "service_request": "2026-1262801",
    "request_type": "Property Maintenance",
    "request_reason": "Property Maintenance",
    "date_created": "2026-03-04T21:22:51.000",
    "date_modified": "2026-03-04T21:22:53.000",
    "request_status": "Pending",
    "responsible_agency": "Department of Code Enforcement",
    "final_address": "3213 Fern St",
    "address_councildis": "B",
    "status": "Pending",
    "rowid": "1262801",
    "final_x": "3667454.35565",
    "final_y": "533205.57114",
    "longitude": "-90.11236485076957",
    "latitude": "29.960549434906948",
    "geocoded_column": {
      "latitude": "29.960549434906948",
      "longitude": "-90.11236485076957"
    }
  },
  {
    "service_request": "2026-1262800",
    "request_type": "Trash/Recycling",
    "request_reason": "Start Trash Service",
    "date_created": "2026-03-04T21:21:46.000",
    "date_modified": "2026-03-04T21:21:48.000",
    "request_status": "Pending",
    "responsible_agency": "Department of Sanitation",
    "final_address": "7924 S Claiborne Ave",
    "address_councildis": "A",
    "status": "Assigned to Contractor",
    "contractor": "IV Waste",
    "rowid": "1262800",
    "final_x": "3665233.25901",
    "final_y": "531047.467714",
    "longitude": "-90.11945085398385",
    "latitude": "29.954680245335663",
    "geocoded_column": {
      "latitude": "29.954680245335663",
      "longitude": "-90.11945085398385"
    }
  },
  {
    "service_request": "2026-1262799",
    "request_type": "Trash/Recycling",
    "request_reason": "Repair Recycling Cart",
    "date_created": "2026-03-04T21:17:19.000",
    "date_modified": "2026-03-04T21:17:21.000",
    "request_status": "Pending",
    "responsible_agency": "Department of Sanitation",
    "final_address": "4929 S Tonti St",
    "address_councildis": "B",
    "status": "Pending",
    "rowid": "1262799",
    "final_x": "3669037.80807",
    "final_y": "528078.675263",
    "longitude": "-90.10753780396585",
    "latitude": "29.946405663751957",
    "geocoded_column": {
      "latitude": "29.946405663751957",
      "longitude": "-90.10753780396585"
    }
  },
  {
    "service_request": "2026-1262798",
    "request_type": "Trash/Recycling",
    "request_reason": "Request a Large Item Pick Up",
    "date_created": "2026-03-04T21:07:24.000",
    "date_modified": "2026-03-04T21:07:26.000",
    "request_status": "Pending",
    "responsible_agency": "Department of Sanitation",
    "final_address": "5252 Annunciation St",
    "address_councildis": "B",
    "status": "Assigned to Contractor",
    "contractor": "IV Waste",
    "rowid": "1262798",
    "final_x": "3667535.18861",
    "final_y": "517534.757814",
    "longitude": "-90.11263677711774",
    "latitude": "29.91745736721848",
    "geocoded_column": {
      "latitude": "29.91745736721848",
      "longitude": "-90.11263677711774"
    }
  },
  {
    "service_request": "2026-1262797",
    "request_type": "Trash/Recycling",
    "request_reason": "Request a Large Item Pick Up",
    "date_created": "2026-03-04T20:58:32.000",
    "date_modified": "2026-03-04T20:58:35.000",
    "request_status": "Pending",
    "responsible_agency": "Department of Sanitation",
    "final_address": "3202 General Taylor St",
    "address_councildis": "B",
    "status": "Assigned to Contractor",
    "contractor": "IV Waste",
    "rowid": "1262797",
    "final_x": "3671237.95047",
    "final_y": "526711.396158",
    "longitude": "-90.10063760481563",
    "latitude": "29.94258119115884",
    "geocoded_column": {
      "latitude": "29.94258119115884",
      "longitude": "-90.10063760481563"
    }
  },
  {
    "service_request": "2026-1262796",
    "request_type": "Health Related Request",
    "request_reason": "Noise Ordinance Complaint",
    "date_created": "2026-03-04T20:42:12.000",
    "date_modified": "2026-03-04T20:42:14.000",
    "request_status": "Pending",
    "responsible_agency": "Health Department",
    "final_address": "801 Bourbon St, New Orleans, Louisiana, 70116",
    "address_councildis": "C",
    "status": "Pending",
    "rowid": "1262796",
    "final_x": "3682490.98735",
    "final_y": "533018.672772",
    "longitude": "-90.06488875731978",
    "latitude": "29.959586396383013",
    "geocoded_column": {
      "latitude": "29.959586396383013",
      "longitude": "-90.06488875731978"
    }
  },
  {
    "service_request": "2026-1262795",
    "request_type": "Health Related Request",
    "request_reason": "Noise Ordinance Complaint",
    "date_created": "2026-03-04T20:38:46.000",
    "date_modified": "2026-03-04T20:38:49.000",
    "request_status": "Pending",
    "responsible_agency": "Health Department",
    "final_address": "801 Bourbon St, New Orleans, Louisiana, 70116",
    "address_councildis": "C",
    "status": "Pending",
    "rowid": "1262795",
    "final_x": "3682490.98735",
    "final_y": "533018.672772",
    "longitude": "-90.06488875731978",
    "latitude": "29.959586396383013",
    "geocoded_column": {
      "latitude": "29.959586396383013",
      "longitude": "-90.06488875731978"
    }
  },
  {
    "service_request": "2026-1262794",
    "request_type": "Health Related Request",
    "request_reason": "Noise Ordinance Complaint",
    "date_created": "2026-03-04T20:35:31.000",
    "date_modified": "2026-03-04T20:35:34.000",
    "request_status": "Pending",
    "responsible_agency": "Health Department",
    "final_address": "801 Bourbon St",
    "address_councildis": "C",
    "status": "Pending",
    "rowid": "1262794",
    "final_x": "3682490.98735",
    "final_y": "533018.672772",
    "longitude": "-90.06488875731978",
    "latitude": "29.959586396383013",
    "geocoded_column": {
      "latitude": "29.959586396383013",
      "longitude": "-90.06488875731978"
    }
  },
  {
    "service_request": "2026-1262793",
    "request_type": "Trash/Recycling",
    "request_reason": "Request a Large Item Pick Up",
    "date_created": "2026-03-04T20:32:29.000",
    "date_modified": "2026-03-04T20:32:31.000",
    "request_status": "Pending",
    "responsible_agency": "Department of Sanitation",
    "final_address": "2920 Magazine St",
    "address_councildis": "B",
    "status": "Assigned to Contractor",
    "contractor": "IV Waste",
    "rowid": "1262793",
    "final_x": "3676513.80936",
    "final_y": "520382.574328",
    "longitude": "-90.08419831239577",
    "latitude": "29.925021880027106",
    "geocoded_column": {
      "latitude": "29.925021880027106",
      "longitude": "-90.08419831239577"
    }
  },
  {
    "service_request": "2026-1262792",
    "request_type": "Roads and Streets",
    "request_reason": "Pothole",
    "date_created": "2026-03-04T20:26:45.000",
    "date_modified": "2026-03-04T20:26:46.000",
    "request_status": "Pending",
    "responsible_agency": "Department of Public Works",
    "final_address": "Camp Street & Pontchartrain Expressway",
    "address_councildis": "B",
    "status": "Pending",
    "rowid": "1262792",
    "final_x": "3680400.11471",
    "final_y": "526346.816446",
    "longitude": "-90.0717232165824",
    "latitude": "29.941304512830204",
    "geocoded_column": {
      "latitude": "29.941304512830204",
      "longitude": "-90.0717232165824"
    }
  },
  {
    "service_request": "2026-1262791",
    "request_type": "Trash/Recycling",
    "request_reason": "Request a Large Item Pick Up",
    "date_created": "2026-03-04T20:22:34.000",
    "date_modified": "2026-03-04T20:22:37.000",
    "request_status": "Pending",
    "responsible_agency": "Department of Sanitation",
    "final_address": "2501 Amelia St",
    "address_councildis": "B",
    "status": "Assigned to Contractor",
    "contractor": "IV Waste",
    "rowid": "1262791",
    "final_x": "3672390.71553",
    "final_y": "524322.746748",
    "longitude": "-90.09707941732725",
    "latitude": "29.93597903240438",
    "geocoded_column": {
      "latitude": "29.93597903240438",
      "longitude": "-90.09707941732725"
    }
  },
  {
    "service_request": "2026-1262790",
    "request_type": "Roads and Streets",
    "request_reason": "Curb Damage",
    "date_created": "2026-03-04T20:11:46.000",
    "date_modified": "2026-03-04T20:11:49.000",
    "request_status": "Pending",
    "responsible_agency": "Department of Public Works",
    "final_address": "8329 Hickory St",
    "address_councildis": "A",
    "status": "Pending",
    "rowid": "1262790",
    "final_x": "3662684.26682",
    "final_y": "530626.369858",
    "longitude": "-90.12751361976352",
    "latitude": "29.95359636696716",
    "geocoded_column": {
      "latitude": "29.95359636696716",
      "longitude": "-90.12751361976352"
    }
  },
  {
    "service_request": "2026-1262789",
    "request_type": "Trash/Recycling",
    "request_reason": "Missed Trash Pick-Up",
    "date_created": "2026-03-04T20:05:18.000",
    "date_modified": "2026-03-04T20:05:19.000",
    "request_status": "Pending",
    "responsible_agency": "Department of Sanitation",
    "final_address": "7330 S Claiborne Ave",
    "address_councildis": "A",
    "status": "Assigned to Contractor",
    "contractor": "IV Waste",
    "rowid": "1262789",
    "final_x": "3666048.00474",
    "final_y": "530244.128577",
    "longitude": "-90.11690512033951",
    "latitude": "29.952447566063064",
    "geocoded_column": {
      "latitude": "29.952447566063064",
      "longitude": "-90.11690512033951"
    }
  },
  {
    "service_request": "2026-1262788",
    "request_type": "Traffic Signals",
    "request_reason": "Traffic Signal Malfunctioning or Damaged",
    "date_created": "2026-03-04T19:52:26.000",
    "date_modified": "2026-03-04T19:52:27.000",
    "request_status": "Pending",
    "responsible_agency": "Department of Public Works",
    "final_address": "846 Howard Ave",
    "address_councildis": "B",
    "status": "Pending",
    "rowid": "1262788",
    "final_x": "3679453.33045",
    "final_y": "527486.561855",
    "longitude": "-90.0746728681028",
    "latitude": "29.94446706335573",
    "geocoded_column": {
      "latitude": "29.94446706335573",
      "longitude": "-90.0746728681028"
    }
  },
  {
    "service_request": "2026-1262787",
    "request_type": "Abandoned Vehicles",
    "request_reason": "Abandoned/Junk Vehicles",
    "date_created": "2026-03-04T19:49:06.000",
    "date_modified": "2026-03-04T19:49:07.000",
    "request_status": "Pending",
    "responsible_agency": "Department of Public Works",
    "final_address": "4750 Knight Dr",
    "address_councildis": "E",
    "status": "Pending",
    "rowid": "1262787",
    "final_x": "3708054.22692",
    "final_y": "555615.101081",
    "longitude": "-89.98332599307837",
    "latitude": "30.020915210999327",
    "geocoded_column": {
      "latitude": "30.020915210999327",
      "longitude": "-89.98332599307837"
    }
  },
  {
    "service_request": "2026-1262786",
    "request_type": "Property Maintenance",
    "request_reason": "Property Maintenance",
    "date_created": "2026-03-04T19:48:39.000",
    "date_modified": "2026-03-04T19:48:40.000",
    "request_status": "Pending",
    "responsible_agency": "Department of Code Enforcement",
    "final_address": "1351 Tennessee St",
    "address_councildis": "E",
    "status": "Pending",
    "rowid": "1262786",
    "final_x": "3696075.35242",
    "final_y": "535400.052486",
    "longitude": "-90.02190662342059",
    "latitude": "29.96571386505037",
    "geocoded_column": {
      "latitude": "29.96571386505037",
      "longitude": "-90.02190662342059"
    }
  },
  {
    "service_request": "2026-1262785",
    "request_type": "Roads and Streets",
    "request_reason": "Road Shoulder Damage",
    "date_created": "2026-03-04T19:45:52.000",
    "date_modified": "2026-03-04T19:45:54.000",
    "request_status": "Pending",
    "responsible_agency": "Department of Public Works",
    "final_address": "8800 S Claiborne Ave",
    "address_councildis": "A",
    "status": "Pending",
    "rowid": "1262785",
    "final_x": "3662885.68538",
    "final_y": "533135.999876",
    "longitude": "-90.12679418003505",
    "latitude": "29.960491205453938",
    "geocoded_column": {
      "latitude": "29.960491205453938",
      "longitude": "-90.12679418003505"
    }
  },
  {
    "service_request": "2026-1262784",
    "request_type": "Trash/Recycling",
    "request_reason": "Order Trash Cart",
    "date_created": "2026-03-04T19:19:56.000",
    "date_modified": "2026-03-04T19:19:58.000",
    "request_status": "Pending",
    "responsible_agency": "Department of Sanitation",
    "final_address": "2908 Banks St",
    "address_councildis": "B",
    "status": "Assigned to Contractor",
    "contractor": "IV Waste",
    "rowid": "1262784",
    "final_x": "3673762.23233",
    "final_y": "534711.06215",
    "longitude": "-90.09239432034342",
    "latitude": "29.96450270528861",
    "geocoded_column": {
      "latitude": "29.96450270528861",
      "longitude": "-90.09239432034342"
    }
  },
  {
    "service_request": "2026-1262783",
    "request_type": "General Services",
    "request_reason": "General Service Request",
    "date_created": "2026-03-04T19:16:07.000",
    "date_modified": "2026-03-04T19:16:09.000",
    "request_status": "Pending",
    "responsible_agency": "Orleans Parish Communication District",
    "final_address": "1327 Gallier St",
    "address_councildis": "C",
    "status": "Pending",
    "rowid": "1262783",
    "final_x": "3690739.28611",
    "final_y": "536591.840519",
    "longitude": "-90.03871514211163",
    "latitude": "29.969157710776702",
    "geocoded_column": {
      "latitude": "29.969157710776702",
      "longitude": "-90.03871514211163"
    }
  },
  {
    "service_request": "2026-1262782",
    "request_type": "Trash/Recycling",
    "request_reason": "Request a Large Item Pick Up",
    "date_created": "2026-03-04T18:59:42.000",
    "date_modified": "2026-03-04T18:59:44.000",
    "request_status": "Pending",
    "responsible_agency": "Department of Sanitation",
    "final_address": "8831 Dinkins St",
    "address_councildis": "E",
    "status": "Assigned to Contractor",
    "contractor": "Waste Pro",
    "rowid": "1262782",
    "final_x": "3704557.24727",
    "final_y": "563392.377568",
    "longitude": "-89.99408813428248",
    "latitude": "30.042412506398385",
    "geocoded_column": {
      "latitude": "30.042412506398385",
      "longitude": "-89.99408813428248"
    }
  },
  {
    "service_request": "2026-1262781",
    "request_type": "Trash/Recycling",
    "request_reason": "Request a Large Item Pick Up",
    "date_created": "2026-03-04T18:56:47.000",
    "date_modified": "2026-03-04T18:56:49.000",
    "request_status": "Pending",
    "responsible_agency": "Department of Sanitation",
    "final_address": "3531 Robert St",
    "address_councildis": "B",
    "status": "Assigned to Contractor",
    "contractor": "IV Waste",
    "rowid": "1262781",
    "final_x": "3668982.21268",
    "final_y": "527885.405055",
    "longitude": "-90.10771986579726",
    "latitude": "29.945875868777932",
    "geocoded_column": {
      "latitude": "29.945875868777932",
      "longitude": "-90.10771986579726"
    }
  },
  {
    "service_request": "2026-1262780",
    "request_type": "Streetlights",
    "request_reason": "Streetlight Outage/Malfunction",
    "date_created": "2026-03-04T18:54:08.000",
    "date_modified": "2026-03-04T18:54:09.000",
    "request_status": "Pending",
    "responsible_agency": "Department of Public Works",
    "final_address": "1102 Napoleon Ave",
    "address_councildis": "B",
    "status": "Pending",
    "rowid": "1262780",
    "final_x": "3670849.32795",
    "final_y": "519551.032375",
    "longitude": "-90.10210749471138",
    "latitude": "29.922903985104078",
    "geocoded_column": {
      "latitude": "29.922903985104078",
      "longitude": "-90.10210749471138"
    }
  },
  {
    "service_request": "2026-1262779",
    "request_type": "Trash/Recycling",
    "request_reason": "Order Recycling Cart",
    "date_created": "2026-03-04T18:52:24.000",
    "date_modified": "2026-03-04T18:52:26.000",
    "request_status": "Pending",
    "responsible_agency": "Department of Sanitation",
    "final_address": "4422 Palmyra St",
    "address_councildis": "A",
    "status": "Pending",
    "rowid": "1262779",
    "final_x": "3669342.12218",
    "final_y": "538633.096009",
    "longitude": "-90.10622009748091",
    "latitude": "29.97541787040225",
    "geocoded_column": {
      "latitude": "29.97541787040225",
      "longitude": "-90.10622009748091"
    }
  },
  {
    "service_request": "2026-1262778",
    "request_type": "Trash/Recycling",
    "request_reason": "Replace Trash Cart",
    "date_created": "2026-03-04T18:50:22.000",
    "date_modified": "2026-03-04T18:50:24.000",
    "request_status": "Pending",
    "responsible_agency": "Department of Sanitation",
    "final_address": "4422 Palmyra St",
    "address_councildis": "A",
    "status": "Assigned to Contractor",
    "contractor": "IV Waste",
    "rowid": "1262778",
    "final_x": "3669342.12218",
    "final_y": "538633.096009",
    "longitude": "-90.10622009748091",
    "latitude": "29.97541787040225",
    "geocoded_column": {
      "latitude": "29.97541787040225",
      "longitude": "-90.10622009748091"
    }
  },
  {
    "service_request": "2026-1262777",
    "request_type": "Trash/Recycling",
    "request_reason": "Order Trash Cart",
    "date_created": "2026-03-04T18:35:54.000",
    "date_modified": "2026-03-04T18:35:56.000",
    "request_status": "Pending",
    "responsible_agency": "Department of Sanitation",
    "final_address": "321 Webster St",
    "address_councildis": "A",
    "status": "Assigned to Contractor",
    "contractor": "IV Waste",
    "rowid": "1262777",
    "final_x": "3663616.11827",
    "final_y": "517927.649398",
    "longitude": "-90.12499405427005",
    "latitude": "29.91865191713978",
    "geocoded_column": {
      "latitude": "29.91865191713978",
      "longitude": "-90.12499405427005"
    }
  },
  {
    "service_request": "2026-1262776",
    "request_type": "Healthy Homes",
    "request_reason": "Healthy Homes",
    "date_created": "2026-03-04T18:34:31.000",
    "date_modified": "2026-03-04T18:34:33.000",
    "request_status": "Pending",
    "responsible_agency": "Department of Code Enforcement",
    "final_address": "5594 Tullis Dr",
    "address_councildis": "C",
    "status": "Pending",
    "rowid": "1262776",
    "final_x": "3704678.25764",
    "final_y": "512378.522929",
    "longitude": "-89.99558794725907",
    "latitude": "29.902139202141637",
    "geocoded_column": {
      "latitude": "29.902139202141637",
      "longitude": "-89.99558794725907"
    }
  },
  {
    "service_request": "2026-1262775",
    "request_type": "Healthy Homes",
    "request_reason": "Healthy Homes",
    "date_created": "2026-03-04T18:34:31.000",
    "date_modified": "2026-03-04T18:34:33.000",
    "request_status": "Pending",
    "responsible_agency": "Department of Code Enforcement",
    "final_address": "5594 Tullis Dr",
    "address_councildis": "C",
    "status": "Pending",
    "rowid": "1262775",
    "final_x": "3704678.25764",
    "final_y": "512378.522929",
    "longitude": "-89.99558794725907",
    "latitude": "29.902139202141637",
    "geocoded_column": {
      "latitude": "29.902139202141637",
      "longitude": "-89.99558794725907"
    }
  },
  {
    "service_request": "2026-1262774",
    "request_type": "Trash/Recycling",
    "request_reason": "Request a Large Item Pick Up",
    "date_created": "2026-03-04T18:31:46.000",
    "date_modified": "2026-03-04T18:31:48.000",
    "request_status": "Pending",
    "responsible_agency": "Department of Sanitation",
    "final_address": "8831 Dinkins St",
    "address_councildis": "E",
    "status": "Assigned to Contractor",
    "contractor": "Waste Pro",
    "rowid": "1262774",
    "final_x": "3704557.24727",
    "final_y": "563392.377568",
    "longitude": "-89.99408813428248",
    "latitude": "30.042412506398385",
    "geocoded_column": {
      "latitude": "30.042412506398385",
      "longitude": "-89.99408813428248"
    }
  },
  {
    "service_request": "2026-1262773",
    "request_type": "Roads and Streets",
    "request_reason": "Pothole",
    "date_created": "2026-03-04T18:29:24.000",
    "date_modified": "2026-03-04T18:29:27.000",
    "request_status": "Pending",
    "responsible_agency": "Department of Public Works",
    "final_address": "1639 Independence St",
    "address_councildis": "D",
    "status": "Pending",
    "rowid": "1262773",
    "final_x": "3691537.72176",
    "final_y": "537719.541768",
    "longitude": "-90.0361533168936",
    "latitude": "29.97223366161637",
    "geocoded_column": {
      "latitude": "29.97223366161637",
      "longitude": "-90.0361533168936"
    }
  },
  {
    "service_request": "2026-1262772",
    "request_type": "Trash/Recycling",
    "request_reason": "Dead Animal Pick Up",
    "date_created": "2026-03-04T18:17:15.000",
    "date_modified": "2026-03-04T18:17:17.000",
    "request_status": "Pending",
    "responsible_agency": "Department of Sanitation",
    "final_address": "5817 St Claude Ave",
    "address_councildis": "E",
    "status": "Assigned to Contractor",
    "contractor": "Waste Pro",
    "rowid": "1262772",
    "final_x": "3698804.8593",
    "final_y": "533684.134661",
    "longitude": "-90.0133494166915",
    "latitude": "29.960909523315223",
    "geocoded_column": {
      "latitude": "29.960909523315223",
      "longitude": "-90.0133494166915"
    }
  },
  {
    "service_request": "2026-1262771",
    "request_type": "Trash/Recycling",
    "request_reason": "Dead Animal Pick Up",
    "date_created": "2026-03-04T18:17:12.000",
    "date_modified": "2026-03-04T18:17:14.000",
    "request_status": "Pending",
    "responsible_agency": "Department of Sanitation",
    "final_address": "5817 St Claude Ave",
    "address_councildis": "E",
    "status": "Assigned to Contractor",
    "contractor": "Waste Pro",
    "rowid": "1262771",
    "final_x": "3698804.8593",
    "final_y": "533684.134661",
    "longitude": "-90.0133494166915",
    "latitude": "29.960909523315223",
    "geocoded_column": {
      "latitude": "29.960909523315223",
      "longitude": "-90.0133494166915"
    }
  },
  {
    "service_request": "2026-1262770",
    "request_type": "Trash/Recycling",
    "request_reason": "Order Trash Cart",
    "date_created": "2026-03-04T18:07:55.000",
    "date_modified": "2026-03-04T18:07:58.000",
    "request_status": "Pending",
    "responsible_agency": "Department of Sanitation",
    "final_address": "3900 Iroquois St",
    "address_councildis": "D",
    "status": "Assigned to Contractor",
    "contractor": "IV Waste",
    "rowid": "1262770",
    "final_x": "3689108.27644",
    "final_y": "547563.549778",
    "longitude": "-90.04347592878322",
    "latitude": "29.999376564472943",
    "geocoded_column": {
      "latitude": "29.999376564472943",
      "longitude": "-90.04347592878322"
    }
  },
  {
    "service_request": "2026-1262769",
    "request_type": "Trash/Recycling",
    "request_reason": "Missed Trash Pick-Up",
    "date_created": "2026-03-04T18:06:20.000",
    "date_modified": "2026-03-04T18:06:22.000",
    "request_status": "Pending",
    "responsible_agency": "Department of Sanitation",
    "final_address": "3531 Robert St, New Orleans, Louisiana, 70125",
    "address_councildis": "B",
    "status": "Assigned to Contractor",
    "contractor": "IV Waste",
    "rowid": "1262769",
    "final_x": "3668982.21268",
    "final_y": "527885.405055",
    "longitude": "-90.10771986579726",
    "latitude": "29.945875868777932",
    "geocoded_column": {
      "latitude": "29.945875868777932",
      "longitude": "-90.10771986579726"
    }
  },
  {
    "service_request": "2026-1262768",
    "request_type": "Parks & Parkways",
    "request_reason": "Request Tree Service (Right of Way/Public Property)",
    "date_created": "2026-03-04T18:04:52.000",
    "date_modified": "2026-03-04T18:04:55.000",
    "request_status": "Pending",
    "responsible_agency": "Department of Parks & Parkway",
    "final_address": "3900 Iroquois St",
    "address_councildis": "D",
    "status": "Pending",
    "rowid": "1262768",
    "final_x": "3689108.27644",
    "final_y": "547563.549778",
    "longitude": "-90.04347592878322",
    "latitude": "29.999376564472943",
    "geocoded_column": {
      "latitude": "29.999376564472943",
      "longitude": "-90.04347592878322"
    }
  },
  {
    "service_request": "2026-1262767",
    "request_type": "Abandoned Vehicles",
    "request_reason": "Abandoned/Junk Vehicles",
    "date_created": "2026-03-04T18:03:35.000",
    "date_modified": "2026-03-04T18:03:37.000",
    "request_status": "Pending",
    "responsible_agency": "Department of Public Works",
    "final_address": "5582 Tullis Dr",
    "address_councildis": "C",
    "status": "Pending",
    "rowid": "1262767",
    "final_x": "3704650.66743",
    "final_y": "512353.252721",
    "longitude": "-89.99567595098128",
    "latitude": "29.90207060332377",
    "geocoded_column": {
      "latitude": "29.90207060332377",
      "longitude": "-89.99567595098128"
    }
  },
  {
    "service_request": "2026-1262766",
    "request_type": "Trash/Recycling",
    "request_reason": "Illegal Dumping",
    "date_created": "2026-03-04T17:58:47.000",
    "date_modified": "2026-03-04T17:58:48.000",
    "request_status": "Pending",
    "responsible_agency": "Department of Sanitation",
    "final_address": "5582 Tullis Dr",
    "address_councildis": "C",
    "status": "Pending",
    "rowid": "1262766",
    "final_x": "3704650.66743",
    "final_y": "512353.252721",
    "longitude": "-89.99567595098128",
    "latitude": "29.90207060332377",
    "geocoded_column": {
      "latitude": "29.90207060332377",
      "longitude": "-89.99567595098128"
    }
  },
  {
    "service_request": "2026-1262765",
    "request_type": "Trash/Recycling",
    "request_reason": "Missed Trash Pick-Up",
    "date_created": "2026-03-04T17:54:41.000",
    "date_modified": "2026-03-04T17:54:44.000",
    "request_status": "Pending",
    "responsible_agency": "Department of Sanitation",
    "final_address": "327 Diana St",
    "address_councildis": "C",
    "status": "Assigned to Contractor",
    "contractor": "Richards Disposal",
    "rowid": "1262765",
    "final_x": "3686462.51318",
    "final_y": "527484.832959",
    "longitude": "-90.05254294857454",
    "latitude": "29.94424874304515",
    "geocoded_column": {
      "latitude": "29.94424874304515",
      "longitude": "-90.05254294857454"
    }
  },
  {
    "service_request": "2026-1262764",
    "request_type": "Trash/Recycling",
    "request_reason": "Replace Trash Cart",
    "date_created": "2026-03-04T17:34:24.000",
    "date_modified": "2026-03-04T17:34:26.000",
    "request_status": "Pending",
    "responsible_agency": "Department of Sanitation",
    "final_address": "1758 N Tonti St",
    "address_councildis": "D",
    "status": "Assigned to Contractor",
    "contractor": "IV Waste",
    "rowid": "1262764",
    "final_x": "3681072.87611",
    "final_y": "540405.876427",
    "longitude": "-90.06910945150494",
    "latitude": "29.97994175231305",
    "geocoded_column": {
      "latitude": "29.97994175231305",
      "longitude": "-90.06910945150494"
    }
  },
  {
    "service_request": "2026-1262763",
    "request_type": "Property Maintenance",
    "request_reason": "Property Maintenance",
    "date_created": "2026-03-04T17:32:00.000",
    "date_modified": "2026-03-04T17:32:02.000",
    "request_status": "Pending",
    "responsible_agency": "Department of Code Enforcement",
    "final_address": "5655 Woodlawn Pl",
    "address_councildis": "A",
    "status": "Pending",
    "rowid": "1262763",
    "final_x": "3667605.97575",
    "final_y": "545117.768463",
    "longitude": "-90.11148494707139",
    "latitude": "29.993299530663293",
    "geocoded_column": {
      "latitude": "29.993299530663293",
      "longitude": "-90.11148494707139"
    }
  },
  {
    "service_request": "2026-1262762",
    "request_type": "Trash/Recycling",
    "request_reason": "Return Recycling Cart",
    "date_created": "2026-03-04T17:27:49.000",
    "date_modified": "2026-03-04T17:27:51.000",
    "request_status": "Pending",
    "responsible_agency": "Department of Sanitation",
    "final_address": "4821 Laurel St",
    "address_councildis": "B",
    "status": "Pending",
    "rowid": "1262762",
    "final_x": "3669472.27521",
    "final_y": "517924.58079",
    "longitude": "-90.10650929377935",
    "latitude": "29.91847237203799",
    "geocoded_column": {
      "latitude": "29.91847237203799",
      "longitude": "-90.10650929377935"
    }
  },
  {
    "service_request": "2026-1262761",
    "request_type": "Utility Poles",
    "request_reason": "Utility Pole Leaning",
    "date_created": "2026-03-04T17:20:14.000",
    "date_modified": "2026-03-04T17:20:17.000",
    "request_status": "Pending",
    "responsible_agency": "Utility Company Collective",
    "final_address": "2937 Pauger St",
    "address_councildis": "D",
    "status": "Pending",
    "rowid": "1262761",
    "final_x": "3683558.54345",
    "final_y": "540565.575755",
    "longitude": "-90.06125309672285",
    "latitude": "29.9803052267929",
    "geocoded_column": {
      "latitude": "29.9803052267929",
      "longitude": "-90.06125309672285"
    }
  },
  {
    "service_request": "2026-1262760",
    "request_type": "Safety & Permits",
    "request_reason": "Licenses & Permits",
    "date_created": "2026-03-04T17:17:48.000",
    "date_modified": "2026-03-04T17:17:51.000",
    "request_status": "Pending",
    "responsible_agency": "Safety and Permits",
    "final_address": "2015 Calhoun St",
    "address_councildis": "A",
    "status": "Pending",
    "rowid": "1262760",
    "final_x": "3665612.03284",
    "final_y": "524546.792892",
    "longitude": "-90.11847245839458",
    "latitude": "29.936794446230707",
    "geocoded_column": {
      "latitude": "29.936794446230707",
      "longitude": "-90.11847245839458"
    }
  },
  {
    "service_request": "2026-1262758",
    "request_type": "Roads and Streets",
    "request_reason": "Sidewalk Damaged or Missing",
    "date_created": "2026-03-04T17:11:15.000",
    "date_modified": "2026-03-04T17:11:16.000",
    "request_status": "Pending",
    "responsible_agency": "Department of Public Works",
    "final_address": "3821 Ford St",
    "address_councildis": "D",
    "status": "Pending",
    "rowid": "1262758",
    "final_x": "3688961.64905",
    "final_y": "547411.796881",
    "longitude": "-90.04394452205305",
    "latitude": "29.998963836730898",
    "geocoded_column": {
      "latitude": "29.998963836730898",
      "longitude": "-90.04394452205305"
    }
  },
  {
    "service_request": "2026-1262757",
    "request_type": "Trash/Recycling",
    "request_reason": "Illegal Dumping",
    "date_created": "2026-03-04T17:03:57.000",
    "date_modified": "2026-03-04T17:03:59.000",
    "request_status": "Pending",
    "responsible_agency": "Department of Sanitation",
    "final_address": "1300 BLK Andry St",
    "address_councildis": "E",
    "status": "Pending",
    "rowid": "1262757",
    "final_x": "3697418.83183",
    "final_y": "534887.849303",
    "longitude": "-90.01768256099977",
    "latitude": "29.964263141014133",
    "geocoded_column": {
      "latitude": "29.964263141014133",
      "longitude": "-90.01768256099977"
    }
  },
  {
    "service_request": "2026-1262756",
    "request_type": "Trash/Recycling",
    "request_reason": "Illegal Dumping",
    "date_created": "2026-03-04T17:01:02.000",
    "date_modified": "2026-03-04T17:01:04.000",
    "request_status": "Pending",
    "responsible_agency": "Department of Sanitation",
    "final_address": "1400 BLK Gordon St",
    "address_councildis": "E",
    "status": "Pending",
    "rowid": "1262756",
    "final_x": "3699653.18629",
    "final_y": "534670.941601",
    "longitude": "-90.01063460608175",
    "latitude": "29.96359599149137",
    "geocoded_column": {
      "latitude": "29.96359599149137",
      "longitude": "-90.01063460608175"
    }
  },
  {
    "service_request": "2026-1262755",
    "request_type": "Trash/Recycling",
    "request_reason": "Order Trash Cart",
    "date_created": "2026-03-04T17:00:12.000",
    "date_modified": "2026-03-04T17:00:13.000",
    "request_status": "Pending",
    "responsible_agency": "Department of Sanitation",
    "final_address": "3126 Washington Ave",
    "address_councildis": "B",
    "status": "Assigned to Contractor",
    "contractor": "IV Waste",
    "rowid": "1262755",
    "final_x": "3672779.88225",
    "final_y": "527198.348735",
    "longitude": "-90.09575275497286",
    "latitude": "29.943874449517278",
    "geocoded_column": {
      "latitude": "29.943874449517278",
      "longitude": "-90.09575275497286"
    }
  },
  {
    "service_request": "2026-1262754",
    "request_type": "Trash/Recycling",
    "request_reason": "Request a Large Item Pick Up",
    "date_created": "2026-03-04T16:59:12.000",
    "date_modified": "2026-03-04T16:59:14.000",
    "request_status": "Pending",
    "responsible_agency": "Department of Sanitation",
    "final_address": "7230 Bunker Hill Rd",
    "address_councildis": "E",
    "status": "Assigned to Contractor",
    "contractor": "Waste Pro",
    "rowid": "1262754",
    "final_x": "3705501.7402",
    "final_y": "561134.244574",
    "longitude": "-89.99118678258259",
    "latitude": "30.036173145108922",
    "geocoded_column": {
      "latitude": "30.036173145108922",
      "longitude": "-89.99118678258259"
    }
  },
  {
    "service_request": "2026-1262753",
    "request_type": "Street and Traffic Signs",
    "request_reason": "Additional Signage Request",
    "date_created": "2026-03-04T16:57:15.000",
    "date_modified": "2026-03-04T16:57:16.000",
    "request_status": "Pending",
    "responsible_agency": "Department of Public Works",
    "final_address": "1003 Poland Ave",
    "address_councildis": "C",
    "status": "Pending",
    "rowid": "1262753",
    "final_x": "3692999.67446",
    "final_y": "534594.907397",
    "longitude": "-90.0316483445059",
    "latitude": "29.963596433226105",
    "geocoded_column": {
      "latitude": "29.963596433226105",
      "longitude": "-90.0316483445059"
    }
  },
  {
    "service_request": "2026-1262752",
    "request_type": "Trash/Recycling",
    "request_reason": "Request a Large Item Pick Up",
    "date_created": "2026-03-04T16:55:09.000",
    "date_modified": "2026-03-04T16:55:34.000",
    "request_status": "Pending",
    "responsible_agency": "Department of Sanitation",
    "final_address": "4762 Dodt Ave",
    "address_councildis": "E",
    "status": "Assigned to Contractor",
    "contractor": "Waste Pro",
    "rowid": "1262752",
    "final_x": "3705368.76497",
    "final_y": "555529.164825",
    "longitude": "-89.99181438689506",
    "latitude": "30.02076564324505",
    "geocoded_column": {
      "latitude": "30.02076564324505",
      "longitude": "-89.99181438689506"
    }
  },
  {
    "service_request": "2026-1262751",
    "request_type": "Trash/Recycling",
    "request_reason": "Request a Large Item Pick Up",
    "date_created": "2026-03-04T16:54:52.000",
    "date_modified": "2026-03-04T16:54:55.000",
    "request_status": "Pending",
    "responsible_agency": "Department of Sanitation",
    "final_address": "1439 N Claiborne Ave",
    "address_councildis": "D",
    "status": "Assigned to Contractor",
    "contractor": "IV Waste",
    "rowid": "1262751",
    "final_x": "3681375.98709",
    "final_y": "536921.434376",
    "longitude": "-90.06827360585392",
    "latitude": "29.970351545566505",
    "geocoded_column": {
      "latitude": "29.970351545566505",
      "longitude": "-90.06827360585392"
    }
  },
  {
    "service_request": "2026-1262750",
    "request_type": "Trash/Recycling",
    "request_reason": "Illegal Dumping",
    "date_created": "2026-03-04T16:54:42.000",
    "date_modified": "2026-03-04T16:54:43.000",
    "request_status": "Pending",
    "responsible_agency": "Department of Sanitation",
    "final_address": "2865 N Villere St",
    "address_councildis": "C",
    "status": "Pending",
    "rowid": "1262750",
    "final_x": "3688226.35907",
    "final_y": "537476.981512",
    "longitude": "-90.04661973527355",
    "latitude": "29.971669367364985",
    "geocoded_column": {
      "latitude": "29.971669367364985",
      "longitude": "-90.04661973527355"
    }
  },
  {
    "service_request": "2026-1262749",
    "request_type": "Trash/Recycling",
    "request_reason": "Illegal Dumping",
    "date_created": "2026-03-04T16:54:16.000",
    "date_modified": "2026-03-04T16:54:17.000",
    "request_status": "Pending",
    "responsible_agency": "Department of Sanitation",
    "final_address": "1500 BLK Tupelo St",
    "address_councildis": "E",
    "status": "Pending",
    "rowid": "1262749",
    "final_x": "3700070.69398",
    "final_y": "534890.36439",
    "longitude": "-90.0093081620199",
    "latitude": "29.96418606701858",
    "geocoded_column": {
      "latitude": "29.96418606701858",
      "longitude": "-90.0093081620199"
    }
  },
  {
    "service_request": "2026-1262748",
    "request_type": "Trash/Recycling",
    "request_reason": "Request a Large Item Pick Up",
    "date_created": "2026-03-04T16:53:37.000",
    "date_modified": "2026-03-04T16:53:40.000",
    "request_status": "Pending",
    "responsible_agency": "Department of Sanitation",
    "final_address": "5892 Rhodes Ave",
    "address_councildis": "C",
    "status": "Assigned to Contractor",
    "contractor": "Richards Disposal",
    "rowid": "1262748",
    "final_x": "3705461.201",
    "final_y": "519493.473847",
    "longitude": "-89.99285434943258",
    "latitude": "29.921677713750565",
    "geocoded_column": {
      "latitude": "29.921677713750565",
      "longitude": "-89.99285434943258"
    }
  },
  {
    "service_request": "2026-1262747",
    "request_type": "Trash/Recycling",
    "request_reason": "Request a Large Item Pick Up",
    "date_created": "2026-03-04T16:50:42.000",
    "date_modified": "2026-03-04T16:50:44.000",
    "request_status": "Pending",
    "responsible_agency": "Department of Sanitation",
    "final_address": "4512 Virgilian St",
    "address_councildis": "D",
    "status": "Assigned to Contractor",
    "contractor": "Waste Pro",
    "rowid": "1262747",
    "final_x": "3697515.51191",
    "final_y": "552527.696214",
    "longitude": "-90.01673719139977",
    "latitude": "30.01276321196407",
    "geocoded_column": {
      "latitude": "30.01276321196407",
      "longitude": "-90.01673719139977"
    }
  },
  {
    "service_request": "2026-1262746",
    "request_type": "Trash/Recycling",
    "request_reason": "Illegal Dumping",
    "date_created": "2026-03-04T16:50:24.000",
    "date_modified": "2026-03-04T16:50:26.000",
    "request_status": "Pending",
    "responsible_agency": "Department of Sanitation",
    "final_address": "1500 BLK Saint Maurice Ave",
    "address_councildis": "E",
    "status": "Pending",
    "rowid": "1262746",
    "final_x": "3700467.23748",
    "final_y": "534731.454931",
    "longitude": "-90.0080617236992",
    "latitude": "29.96373651789413",
    "geocoded_column": {
      "latitude": "29.96373651789413",
      "longitude": "-90.0080617236992"
    }
  },
  {
    "service_request": "2026-1262745",
    "request_type": "Trash/Recycling",
    "request_reason": "Illegal Dumping",
    "date_created": "2026-03-04T16:47:38.000",
    "date_modified": "2026-03-04T16:47:39.000",
    "request_status": "Pending",
    "responsible_agency": "Department of Sanitation",
    "final_address": "1500 BLK Tricou St",
    "address_councildis": "E",
    "status": "Pending",
    "rowid": "1262745",
    "final_x": "3700767.34285",
    "final_y": "534609.144152",
    "longitude": "-90.00711849755784",
    "latitude": "29.96339065966858",
    "geocoded_column": {
      "latitude": "29.96339065966858",
      "longitude": "-90.00711849755784"
    }
  },
  {
    "service_request": "2026-1262744",
    "request_type": "Parks & Parkways",
    "request_reason": "Request Tree Service (Right of Way/Public Property)",
    "date_created": "2026-03-04T16:46:10.000",
    "date_modified": "2026-03-04T16:46:11.000",
    "request_status": "Pending",
    "responsible_agency": "Department of Parks & Parkway",
    "final_address": "1136 St Bernard Ave",
    "address_councildis": "C",
    "status": "Pending",
    "rowid": "1262744",
    "final_x": "3683084.58933",
    "final_y": "536013.985799",
    "longitude": "-90.06290943245983",
    "latitude": "29.96780439624392",
    "geocoded_column": {
      "latitude": "29.96780439624392",
      "longitude": "-90.06290943245983"
    }
  },
  {
    "service_request": "2026-1262743",
    "request_type": "Trash/Recycling",
    "request_reason": "Request a Large Item Pick Up",
    "date_created": "2026-03-04T16:35:05.000",
    "date_modified": "2026-03-04T16:35:07.000",
    "request_status": "Pending",
    "responsible_agency": "Department of Sanitation",
    "final_address": "2125 Elysian Fields Ave",
    "address_councildis": "D",
    "status": "Assigned to Contractor",
    "contractor": "IV Waste",
    "rowid": "1262743",
    "final_x": "3684794.83221",
    "final_y": "540219.095115",
    "longitude": "-90.05736056407243",
    "latitude": "29.979314730080148",
    "geocoded_column": {
      "latitude": "29.979314730080148",
      "longitude": "-90.05736056407243"
    }
  },
  {
    "service_request": "2026-1262742",
    "request_type": "Trash/Recycling",
    "request_reason": "Request a Large Item Pick Up",
    "date_created": "2026-03-04T16:34:54.000",
    "date_modified": "2026-03-04T16:34:55.000",
    "request_status": "Pending",
    "responsible_agency": "Department of Sanitation",
    "final_address": "2218 Touro St",
    "address_councildis": "D",
    "status": "Assigned to Contractor",
    "contractor": "IV Waste",
    "rowid": "1262742",
    "final_x": "3683857.12853",
    "final_y": "540463.070027",
    "longitude": "-90.06031363635661",
    "latitude": "29.980014254048445",
    "geocoded_column": {
      "latitude": "29.980014254048445",
      "longitude": "-90.06031363635661"
    }
  },
  {
    "service_request": "2026-1262741",
    "request_type": "Trash/Recycling",
    "request_reason": "Repair Trash Cart",
    "date_created": "2026-03-04T16:33:15.000",
    "date_modified": "2026-03-04T16:33:16.000",
    "request_status": "Pending",
    "responsible_agency": "Department of Sanitation",
    "final_address": "2408 Desire St",
    "address_councildis": "D",
    "status": "Assigned to Contractor",
    "contractor": "IV Waste",
    "rowid": "1262741",
    "final_x": "3691369.59171",
    "final_y": "540713.997771",
    "longitude": "-90.03657727268671",
    "latitude": "29.980472583235144",
    "geocoded_column": {
      "latitude": "29.980472583235144",
      "longitude": "-90.03657727268671"
    }
  },
  {
    "service_request": "2026-1262740",
    "request_type": "Roads and Streets",
    "request_reason": "Pothole",
    "date_created": "2026-03-04T16:32:43.000",
    "date_modified": "2026-03-04T16:32:44.000",
    "request_status": "Pending",
    "responsible_agency": "Department of Public Works",
    "final_address": "2411 Republic St",
    "address_councildis": "D",
    "status": "Pending",
    "rowid": "1262740",
    "final_x": "3680864.634",
    "final_y": "540905.533963",
    "longitude": "-90.06974976300101",
    "latitude": "29.98132195230236",
    "geocoded_column": {
      "latitude": "29.98132195230236",
      "longitude": "-90.06974976300101"
    }
  },
  {
    "service_request": "2026-1262739",
    "request_type": "Trash/Recycling",
    "request_reason": "Repair Trash Cart",
    "date_created": "2026-03-04T16:31:58.000",
    "date_modified": "2026-03-04T16:31:59.000",
    "request_status": "Pending",
    "responsible_agency": "Department of Sanitation",
    "final_address": "2406 Desire St",
    "address_councildis": "D",
    "status": "Assigned to Contractor",
    "contractor": "IV Waste",
    "rowid": "1262739",
    "final_x": "3691366.67504",
    "final_y": "540702.747787",
    "longitude": "-90.03658688686954",
    "latitude": "29.980441740559023",
    "geocoded_column": {
      "latitude": "29.980441740559023",
      "longitude": "-90.03658688686954"
    }
  },
  {
    "service_request": "2026-1262738",
    "request_type": "Traffic Signals",
    "request_reason": "Traffic Signal Malfunctioning or Damaged",
    "date_created": "2026-03-04T16:31:12.000",
    "date_modified": "2026-03-04T16:31:13.000",
    "request_status": "Pending",
    "responsible_agency": "Department of Public Works",
    "final_address": "ELYSIAN FIELDS AVE & N CLAIBORNE AVE",
    "address_councildis": "D",
    "status": "Pending",
    "rowid": "1262738",
    "final_x": "3684815.6",
    "final_y": "538136.98",
    "longitude": "-90.05736820071654",
    "latitude": "29.973589006521028",
    "geocoded_column": {
      "latitude": "29.973589006521028",
      "longitude": "-90.05736820071654"
    }
  },
  {
    "service_request": "2026-1262737",
    "request_type": "Trash/Recycling",
    "request_reason": "Repair Trash Cart",
    "date_created": "2026-03-04T16:30:49.000",
    "date_modified": "2026-03-04T16:30:51.000",
    "request_status": "Pending",
    "responsible_agency": "Department of Sanitation",
    "final_address": "2407 Desire St",
    "address_councildis": "D",
    "status": "Assigned to Contractor",
    "contractor": "IV Waste",
    "rowid": "1262737",
    "final_x": "3691458.62793",
    "final_y": "540678.077323",
    "longitude": "-90.03629734326499",
    "latitude": "29.98037104391053",
    "geocoded_column": {
      "latitude": "29.98037104391053",
      "longitude": "-90.03629734326499"
    }
  },
  {
    "service_request": "2026-1262736",
    "request_type": "Trash/Recycling",
    "request_reason": "Request a Large Item Pick Up",
    "date_created": "2026-03-04T16:26:52.000",
    "date_modified": "2026-03-04T16:27:00.000",
    "request_status": "Pending",
    "responsible_agency": "Department of Sanitation",
    "final_address": "7504 Read Blvd",
    "address_councildis": "E",
    "status": "Assigned to Contractor",
    "contractor": "Waste Pro",
    "rowid": "1262736",
    "final_x": "3708580.93848",
    "final_y": "564204.077473",
    "longitude": "-89.98134154023148",
    "latitude": "30.04451443267971",
    "geocoded_column": {
      "latitude": "30.04451443267971",
      "longitude": "-89.98134154023148"
    }
  },
  {
    "service_request": "2026-1262735",
    "request_type": "Trash/Recycling",
    "request_reason": "Request a Large Item Pick Up",
    "date_created": "2026-03-04T16:26:09.000",
    "date_modified": "2026-03-04T16:26:11.000",
    "request_status": "Pending",
    "responsible_agency": "Department of Sanitation",
    "final_address": "7219 Chatelain Dr",
    "address_councildis": "E",
    "status": "Assigned to Contractor",
    "contractor": "Waste Pro",
    "rowid": "1262735",
    "final_x": "3715421.91845",
    "final_y": "566971.976356",
    "longitude": "-89.95961627618014",
    "latitude": "30.05190130879555",
    "geocoded_column": {
      "latitude": "30.05190130879555",
      "longitude": "-89.95961627618014"
    }
  },
  {
    "service_request": "2026-1262734",
    "request_type": "Trash/Recycling",
    "request_reason": "Request a Large Item Pick Up",
    "date_created": "2026-03-04T16:25:18.000",
    "date_modified": "2026-03-04T16:25:20.000",
    "request_status": "Pending",
    "responsible_agency": "Department of Sanitation",
    "final_address": "3941 Piedmont Dr",
    "address_councildis": "D",
    "status": "Assigned to Contractor",
    "contractor": "IV Waste",
    "rowid": "1262734",
    "final_x": "3685387.14588",
    "final_y": "547243.187025",
    "longitude": "-90.05524235424207",
    "latitude": "29.998610335142036",
    "geocoded_column": {
      "latitude": "29.998610335142036",
      "longitude": "-90.05524235424207"
    }
  },
  {
    "service_request": "2026-1262733",
    "request_type": "Trash/Recycling",
    "request_reason": "Replace Trash Cart",
    "date_created": "2026-03-04T16:23:42.000",
    "date_modified": "2026-03-04T16:35:02.000",
    "request_status": "Pending",
    "responsible_agency": "Department of Sanitation",
    "final_address": "2704 Soniat St, New Orleans, Louisiana, 70115",
    "address_councildis": "B",
    "status": "Assigned to Contractor",
    "contractor": "IV Waste",
    "rowid": "1262733",
    "final_x": "3668517.15054",
    "final_y": "525383.145021",
    "longitude": "-90.10927262577508",
    "latitude": "29.939009132840326",
    "geocoded_column": {
      "latitude": "29.939009132840326",
      "longitude": "-90.10927262577508"
    }
  },
  {
    "service_request": "2026-1262732",
    "request_type": "Parks & Parkways",
    "request_reason": "Request Tree Service (Right of Way/Public Property)",
    "date_created": "2026-03-04T16:23:16.000",
    "date_modified": "2026-03-04T16:23:18.000",
    "request_status": "Pending",
    "responsible_agency": "Department of Parks & Parkway",
    "final_address": "1234 Carondelet St",
    "address_councildis": "B",
    "status": "Pending",
    "rowid": "1262732",
    "final_x": "3679205.77083",
    "final_y": "526340.091134",
    "longitude": "-90.0754942213458",
    "latitude": "29.941322124937894",
    "geocoded_column": {
      "latitude": "29.941322124937894",
      "longitude": "-90.0754942213458"
    }
  },
  {
    "service_request": "2026-1262731",
    "request_type": "Trash/Recycling",
    "request_reason": "Repair Trash Cart",
    "date_created": "2026-03-04T16:22:19.000",
    "date_modified": "2026-03-04T16:22:21.000",
    "request_status": "Pending",
    "responsible_agency": "Department of Sanitation",
    "final_address": "2704 Soniat St, New Orleans, Louisiana, 70115",
    "address_councildis": "B",
    "status": "Assigned to Contractor",
    "contractor": "IV Waste",
    "rowid": "1262731",
    "final_x": "3668517.15054",
    "final_y": "525383.145021",
    "longitude": "-90.10927262577508",
    "latitude": "29.939009132840326",
    "geocoded_column": {
      "latitude": "29.939009132840326",
      "longitude": "-90.10927262577508"
    }
  },
  {
    "service_request": "2026-1262730",
    "request_type": "Trash/Recycling",
    "request_reason": "Request a Large Item Pick Up",
    "date_created": "2026-03-04T16:19:01.000",
    "date_modified": "2026-03-04T16:19:03.000",
    "request_status": "Pending",
    "responsible_agency": "Department of Sanitation",
    "final_address": "1450 Prentiss Ave",
    "address_councildis": "D",
    "status": "Assigned to Contractor",
    "contractor": "IV Waste",
    "rowid": "1262730",
    "final_x": "3678247.16834",
    "final_y": "553267.349463",
    "longitude": "-90.07758902634723",
    "latitude": "30.015391680609614",
    "geocoded_column": {
      "latitude": "30.015391680609614",
      "longitude": "-90.07758902634723"
    }
  },
  {
    "service_request": "2026-1262729",
    "request_type": "Trash/Recycling",
    "request_reason": "Replace Trash Cart",
    "date_created": "2026-03-04T16:18:36.000",
    "date_modified": "2026-03-04T16:18:37.000",
    "request_status": "Pending",
    "responsible_agency": "Department of Sanitation",
    "final_address": "5118 Mandeville St",
    "address_councildis": "D",
    "status": "Assigned to Contractor",
    "contractor": "IV Waste",
    "rowid": "1262729",
    "final_x": "3684526.56073",
    "final_y": "551552.411541",
    "longitude": "-90.05780940708394",
    "latitude": "30.010485511095226",
    "geocoded_column": {
      "latitude": "30.010485511095226",
      "longitude": "-90.05780940708394"
    }
  },
  {
    "service_request": "2026-1262728",
    "request_type": "Trash/Recycling",
    "request_reason": "Request a Large Item Pick Up",
    "date_created": "2026-03-04T16:18:25.000",
    "date_modified": "2026-03-04T16:18:27.000",
    "request_status": "Pending",
    "responsible_agency": "Department of Sanitation",
    "final_address": "4519 General Early Dr",
    "address_councildis": "D",
    "status": "Assigned to Contractor",
    "contractor": "IV Waste",
    "rowid": "1262728",
    "final_x": "3691348.62384",
    "final_y": "550711.232916",
    "longitude": "-90.03628607513652",
    "latitude": "30.007962004074034",
    "geocoded_column": {
      "latitude": "30.007962004074034",
      "longitude": "-90.03628607513652"
    }
  },
  {
    "service_request": "2026-1262727",
    "request_type": "Trash/Recycling",
    "request_reason": "Request a Large Item Pick Up",
    "date_created": "2026-03-04T16:13:45.000",
    "date_modified": "2026-03-04T16:13:47.000",
    "request_status": "Pending",
    "responsible_agency": "Department of Sanitation",
    "final_address": "7819 Sun St",
    "address_councildis": "E",
    "status": "Assigned to Contractor",
    "contractor": "Waste Pro",
    "rowid": "1262727",
    "final_x": "3720531.74911",
    "final_y": "574364.021931",
    "longitude": "-89.94318242794927",
    "latitude": "30.072056904786702",
    "geocoded_column": {
      "latitude": "30.072056904786702",
      "longitude": "-89.94318242794927"
    }
  },
  {
    "service_request": "2026-1262726",
    "request_type": "Trash/Recycling",
    "request_reason": "Return Trash Cart",
    "date_created": "2026-03-04T16:07:55.000",
    "date_modified": "2026-03-04T16:07:59.000",
    "request_status": "Pending",
    "responsible_agency": "Department of Sanitation",
    "final_address": "2300 BLK Harmony St",
    "address_councildis": "B",
    "status": "Assigned to Contractor",
    "contractor": "IV Waste",
    "rowid": "1262726",
    "final_x": "3673642.34494",
    "final_y": "524222.960528",
    "longitude": "-90.09313139822562",
    "latitude": "29.935667462108476",
    "geocoded_column": {
      "latitude": "29.935667462108476",
      "longitude": "-90.09313139822562"
    }
  },
  {
    "service_request": "2026-1262725",
    "request_type": "Trash/Recycling",
    "request_reason": "Request a Large Item Pick Up",
    "date_created": "2026-03-04T16:03:17.000",
    "date_modified": "2026-03-04T16:03:18.000",
    "request_status": "Pending",
    "responsible_agency": "Department of Sanitation",
    "final_address": "1465 N Villere St",
    "address_councildis": "C",
    "status": "Assigned to Contractor",
    "contractor": "IV Waste",
    "rowid": "1262725",
    "final_x": "3682145.71298",
    "final_y": "536635.752455",
    "longitude": "-90.06585270889092",
    "latitude": "29.969542629547686",
    "geocoded_column": {
      "latitude": "29.969542629547686",
      "longitude": "-90.06585270889092"
    }
  },
  {
    "service_request": "2026-1262724",
    "request_type": "Healthy Homes",
    "request_reason": "Healthy Homes",
    "date_created": "2026-03-04T15:58:29.000",
    "date_modified": "2026-03-04T15:58:31.000",
    "request_status": "Pending",
    "responsible_agency": "Department of Code Enforcement",
    "final_address": "12330 S Interstate 10 Service Rd",
    "address_councildis": "E",
    "status": "Pending",
    "rowid": "1262724",
    "final_x": "3717035.68165",
    "final_y": "566171.364003",
    "longitude": "-89.9545461761855",
    "latitude": "30.04964665808399",
    "geocoded_column": {
      "latitude": "30.04964665808399",
      "longitude": "-89.9545461761855"
    }
  },
  {
    "service_request": "2026-1262723",
    "request_type": "Streetlights",
    "request_reason": "Streetlight Outage/Malfunction",
    "date_created": "2026-03-04T15:58:01.000",
    "date_modified": "2026-03-04T15:58:03.000",
    "request_status": "Pending",
    "responsible_agency": "Department of Public Works",
    "final_address": "4616 Flake Ave",
    "address_councildis": "E",
    "status": "Pending",
    "rowid": "1262723",
    "final_x": "3706123.82519",
    "final_y": "554608.895768",
    "longitude": "-89.98946274141777",
    "latitude": "30.018210930663518",
    "geocoded_column": {
      "latitude": "30.018210930663518",
      "longitude": "-89.98946274141777"
    }
  },
  {
    "service_request": "2026-1262722",
    "request_type": "Trash/Recycling",
    "request_reason": "Illegal Dumping",
    "date_created": "2026-03-04T15:57:20.000",
    "date_modified": "2026-03-04T15:57:22.000",
    "request_status": "Pending",
    "responsible_agency": "Department of Sanitation",
    "final_address": "ST CHARLES AVE & CALLIOPE ST",
    "address_councildis": "B",
    "status": "Pending",
    "rowid": "1262722",
    "final_x": "3679819.05",
    "final_y": "526554.96",
    "longitude": "-90.07355052352129",
    "latitude": "29.941894417235446",
    "geocoded_column": {
      "latitude": "29.941894417235446",
      "longitude": "-90.07355052352129"
    }
  },
  {
    "service_request": "2026-1262721",
    "request_type": "Trash/Recycling",
    "request_reason": "Request a Large Item Pick Up",
    "date_created": "2026-03-04T15:56:18.000",
    "date_modified": "2026-03-04T15:56:20.000",
    "request_status": "Pending",
    "responsible_agency": "Department of Sanitation",
    "final_address": "3518 Third St",
    "address_councildis": "B",
    "status": "Assigned to Contractor",
    "contractor": "IV Waste",
    "rowid": "1262721",
    "final_x": "3672591.00136",
    "final_y": "528627.131136",
    "longitude": "-90.09630040380907",
    "latitude": "29.94780874047148",
    "geocoded_column": {
      "latitude": "29.94780874047148",
      "longitude": "-90.09630040380907"
    }
  },
  {
    "service_request": "2026-1262720",
    "request_type": "Streetlights",
    "request_reason": "Streetlight Knocked Down/Leaning",
    "date_created": "2026-03-04T15:56:00.000",
    "date_modified": "2026-03-04T15:56:01.000",
    "request_status": "Pending",
    "responsible_agency": "Department of Public Works",
    "final_address": "4616 Flake Ave",
    "address_councildis": "E",
    "status": "Pending",
    "rowid": "1262720",
    "final_x": "3706123.82519",
    "final_y": "554608.895768",
    "longitude": "-89.98946274141777",
    "latitude": "30.018210930663518",
    "geocoded_column": {
      "latitude": "30.018210930663518",
      "longitude": "-89.98946274141777"
    }
  },
  {
    "service_request": "2026-1262719",
    "request_type": "Trash/Recycling",
    "request_reason": "Illegal Dumping",
    "date_created": "2026-03-04T15:50:54.000",
    "date_modified": "2026-03-04T15:50:55.000",
    "request_status": "Pending",
    "responsible_agency": "Department of Sanitation",
    "final_address": "ST CHARLES AVE & CALLIOPE ST",
    "address_councildis": "B",
    "status": "Pending",
    "rowid": "1262719",
    "final_x": "3679819.05",
    "final_y": "526554.96",
    "longitude": "-90.07355052352129",
    "latitude": "29.941894417235446",
    "geocoded_column": {
      "latitude": "29.941894417235446",
      "longitude": "-90.07355052352129"
    }
  },
  {
    "service_request": "2026-1262718",
    "request_type": "Trash/Recycling",
    "request_reason": "Request a Large Item Pick Up",
    "date_created": "2026-03-04T15:50:49.000",
    "date_modified": "2026-03-04T15:50:53.000",
    "request_status": "Pending",
    "responsible_agency": "Department of Sanitation",
    "final_address": "631 Red Allen Way",
    "address_councildis": "C",
    "status": "Assigned to Contractor",
    "contractor": "Richards Disposal",
    "rowid": "1262718",
    "final_x": "3687389.04598",
    "final_y": "528695.804096",
    "longitude": "-90.04957479290772",
    "latitude": "29.947549991920592",
    "geocoded_column": {
      "latitude": "29.947549991920592",
      "longitude": "-90.04957479290772"
    }
  },
  {
    "service_request": "2026-1262717",
    "request_type": "Trash/Recycling",
    "request_reason": "Request a Large Item Pick Up",
    "date_created": "2026-03-04T15:49:15.000",
    "date_modified": "2026-03-04T15:49:16.000",
    "request_status": "Pending",
    "responsible_agency": "Department of Sanitation",
    "final_address": "712 Flood St",
    "address_councildis": "E",
    "status": "Assigned to Contractor",
    "contractor": "Waste Pro",
    "rowid": "1262717",
    "final_x": "3697292.7384",
    "final_y": "532490.602948",
    "longitude": "-90.0181676412299",
    "latitude": "29.957675544121685",
    "geocoded_column": {
      "latitude": "29.957675544121685",
      "longitude": "-90.0181676412299"
    }
  },
  {
    "service_request": "2026-1262716",
    "request_type": "Trash/Recycling",
    "request_reason": "Repair Trash Cart",
    "date_created": "2026-03-04T15:46:36.000",
    "date_modified": "2026-03-04T15:46:37.000",
    "request_status": "Pending",
    "responsible_agency": "Department of Sanitation",
    "final_address": "9 Kings Canyon Dr",
    "address_councildis": "C",
    "status": "Assigned to Contractor",
    "contractor": "Richards Disposal",
    "rowid": "1262716",
    "final_x": "3699336.67671",
    "final_y": "515745.686068",
    "longitude": "-90.0123231067199",
    "latitude": "29.91156816148862",
    "geocoded_column": {
      "latitude": "29.91156816148862",
      "longitude": "-90.0123231067199"
    }
  },
  {
    "service_request": "2026-1262715",
    "request_type": "Trash/Recycling",
    "request_reason": "Repair Recycling Cart",
    "date_created": "2026-03-04T15:45:11.000",
    "date_modified": "2026-03-04T15:45:13.000",
    "request_status": "Pending",
    "responsible_agency": "Department of Sanitation",
    "final_address": "9 Kings Canyon Dr",
    "address_councildis": "C",
    "status": "Pending",
    "rowid": "1262715",
    "final_x": "3699336.67671",
    "final_y": "515745.686068",
    "longitude": "-90.0123231067199",
    "latitude": "29.91156816148862",
    "geocoded_column": {
      "latitude": "29.91156816148862",
      "longitude": "-90.0123231067199"
    }
  },
  {
    "service_request": "2026-1262714",
    "request_type": "Safety & Permits",
    "request_reason": "Zoning Enforcement",
    "date_created": "2026-03-04T15:43:41.000",
    "date_modified": "2026-03-04T15:43:42.000",
    "request_status": "Pending",
    "responsible_agency": "Safety and Permits",
    "final_address": "2219 S Liberty St",
    "address_councildis": "B",
    "status": "Pending",
    "rowid": "1262714",
    "final_x": "3675852.66056",
    "final_y": "525724.225405",
    "longitude": "-90.08610180790679",
    "latitude": "29.93972948207271",
    "geocoded_column": {
      "latitude": "29.93972948207271",
      "longitude": "-90.08610180790679"
    }
  },
  {
    "service_request": "2026-1262713",
    "request_type": "Trash/Recycling",
    "request_reason": "Repair Trash Cart",
    "date_created": "2026-03-04T15:39:43.000",
    "date_modified": "2026-03-04T15:39:44.000",
    "request_status": "Pending",
    "responsible_agency": "Department of Sanitation",
    "final_address": "8328 Belfast St",
    "address_councildis": "A",
    "status": "Assigned to Contractor",
    "contractor": "IV Waste",
    "rowid": "1262713",
    "final_x": "3664865.71956",
    "final_y": "532975.34938",
    "longitude": "-90.12054697488267",
    "latitude": "29.959991992230044",
    "geocoded_column": {
      "latitude": "29.959991992230044",
      "longitude": "-90.12054697488267"
    }
  },
  {
    "service_request": "2026-1262712",
    "request_type": "Parks & Parkways",
    "request_reason": "Request Tree Service (Right of Way/Public Property)",
    "date_created": "2026-03-04T15:38:35.000",
    "date_modified": "2026-03-04T15:38:36.000",
    "request_status": "Pending",
    "responsible_agency": "Department of Parks & Parkway",
    "final_address": "1709 St Andrew St",
    "address_councildis": "B",
    "status": "Pending",
    "rowid": "1262712",
    "final_x": "3677876.75483",
    "final_y": "524605.040764",
    "longitude": "-90.07975011076678",
    "latitude": "29.9365913572462",
    "geocoded_column": {
      "latitude": "29.9365913572462",
      "longitude": "-90.07975011076678"
    }
  },
  {
    "service_request": "2026-1262711",
    "request_type": "Trash/Recycling",
    "request_reason": "Repair Trash Cart",
    "date_created": "2026-03-04T15:38:04.000",
    "date_modified": "2026-03-04T15:38:06.000",
    "request_status": "Pending",
    "responsible_agency": "Department of Sanitation",
    "final_address": "1509 Pauline St",
    "address_councildis": "D",
    "status": "Assigned to Contractor",
    "contractor": "IV Waste",
    "rowid": "1262711",
    "final_x": "3691642.20611",
    "final_y": "537021.213832",
    "longitude": "-90.03584831195987",
    "latitude": "29.97031025405768",
    "geocoded_column": {
      "latitude": "29.97031025405768",
      "longitude": "-90.03584831195987"
    }
  },
  {
    "service_request": "2026-1262710",
    "request_type": "Abandoned Vehicles",
    "request_reason": "Abandoned/Junk Vehicles",
    "date_created": "2026-03-04T15:37:01.000",
    "date_modified": "2026-03-04T15:37:03.000",
    "request_status": "Pending",
    "responsible_agency": "Department of Public Works",
    "final_address": "LUCERNE ST & MORRISON RD & WRIGHT RD",
    "address_councildis": "E",
    "status": "Pending",
    "rowid": "1262710",
    "final_x": "3711342.1",
    "final_y": "565182.68",
    "longitude": "-89.97257836152811",
    "latitude": "30.047115325517222",
    "geocoded_column": {
      "latitude": "30.047115325517222",
      "longitude": "-89.97257836152811"
    }
  },
  {
    "service_request": "2026-1262709",
    "request_type": "Trash/Recycling",
    "request_reason": "Request a Large Item Pick Up",
    "date_created": "2026-03-04T15:36:33.000",
    "date_modified": "2026-03-04T15:36:35.000",
    "request_status": "Pending",
    "responsible_agency": "Department of Sanitation",
    "final_address": "8617 Edinburgh St",
    "address_councildis": "A",
    "status": "Assigned to Contractor",
    "contractor": "IV Waste",
    "rowid": "1262709",
    "final_x": "3666084.47815",
    "final_y": "535760.638215",
    "longitude": "-90.11660499098915",
    "latitude": "29.96761509240878",
    "geocoded_column": {
      "latitude": "29.96761509240878",
      "longitude": "-90.11660499098915"
    }
  },
  {
    "service_request": "2026-1262708",
    "request_type": "Trash/Recycling",
    "request_reason": "Request a Large Item Pick Up",
    "date_created": "2026-03-04T15:34:24.000",
    "date_modified": "2026-03-04T15:34:26.000",
    "request_status": "Pending",
    "responsible_agency": "Department of Sanitation",
    "final_address": "7211 Boston Dr",
    "address_councildis": "E",
    "status": "Assigned to Contractor",
    "contractor": "Waste Pro",
    "rowid": "1262708",
    "final_x": "3706126.78993",
    "final_y": "561409.344286",
    "longitude": "-89.98920132226719",
    "latitude": "30.036909415160466",
    "geocoded_column": {
      "latitude": "30.036909415160466",
      "longitude": "-89.98920132226719"
    }
  },
  {
    "service_request": "2026-1262707",
    "request_type": "Trash/Recycling",
    "request_reason": "Return Trash Cart",
    "date_created": "2026-03-04T15:32:08.000",
    "date_modified": "2026-03-04T15:32:09.000",
    "request_status": "Pending",
    "responsible_agency": "Department of Sanitation",
    "final_address": "3616 Meadow Park Ln",
    "address_councildis": "C",
    "status": "Assigned to Contractor",
    "contractor": "Richards Disposal",
    "rowid": "1262707",
    "final_x": "3703989.0993",
    "final_y": "511151.209904",
    "longitude": "-89.99780802680037",
    "latitude": "29.898786612186456",
    "geocoded_column": {
      "latitude": "29.898786612186456",
      "longitude": "-89.99780802680037"
    }
  },
  {
    "service_request": "2026-1262706",
    "request_type": "Trash/Recycling",
    "request_reason": "Replace Recycling Cart",
    "date_created": "2026-03-04T15:29:32.000",
    "date_modified": "2026-03-04T15:29:34.000",
    "request_status": "Pending",
    "responsible_agency": "Department of Sanitation",
    "final_address": "3551 Post Oak Ave",
    "address_councildis": "C",
    "status": "Pending",
    "rowid": "1262706",
    "final_x": "3703493.22884",
    "final_y": "514638.711539",
    "longitude": "-89.99924476457502",
    "latitude": "29.908391941321934",
    "geocoded_column": {
      "latitude": "29.908391941321934",
      "longitude": "-89.99924476457502"
    }
  },
  {
    "service_request": "2026-1262705",
    "request_type": "Trash/Recycling",
    "request_reason": "Return Trash Cart",
    "date_created": "2026-03-04T15:27:16.000",
    "date_modified": "2026-03-04T15:27:17.000",
    "request_status": "Pending",
    "responsible_agency": "Department of Sanitation",
    "final_address": "4732 Lafaye St",
    "address_councildis": "D",
    "status": "Assigned to Contractor",
    "contractor": "IV Waste",
    "rowid": "1262705",
    "final_x": "3687393.95132",
    "final_y": "550605.248468",
    "longitude": "-90.04878379790328",
    "latitude": "30.00779308132189",
    "geocoded_column": {
      "latitude": "30.00779308132189",
      "longitude": "-90.04878379790328"
    }
  },
  {
    "service_request": "2026-1262704",
    "request_type": "Trash/Recycling",
    "request_reason": "Repair Trash Cart",
    "date_created": "2026-03-04T15:26:32.000",
    "date_modified": "2026-03-04T15:26:34.000",
    "request_status": "Pending",
    "responsible_agency": "Department of Sanitation",
    "final_address": "4159 State Street Dr",
    "address_councildis": "B",
    "status": "Assigned to Contractor",
    "contractor": "IV Waste",
    "rowid": "1262704",
    "final_x": "3668487.6699",
    "final_y": "531019.399106",
    "longitude": "-90.10917559425565",
    "latitude": "29.954507865356238",
    "geocoded_column": {
      "latitude": "29.954507865356238",
      "longitude": "-90.10917559425565"
    }
  },
  {
    "service_request": "2026-1262703",
    "request_type": "Healthy Homes",
    "request_reason": "Healthy Homes",
    "date_created": "2026-03-04T15:23:11.000",
    "date_modified": "2026-03-04T15:23:13.000",
    "request_status": "Pending",
    "responsible_agency": "Department of Code Enforcement",
    "final_address": "4705 Stemway Dr",
    "address_councildis": "D",
    "status": "Pending",
    "rowid": "1262703",
    "final_x": "3697005.48669",
    "final_y": "553959.817304",
    "longitude": "-90.01829665484335",
    "latitude": "30.016717109586086",
    "geocoded_column": {
      "latitude": "30.016717109586086",
      "longitude": "-90.01829665484335"
    }
  },
  {
    "service_request": "2026-1262702",
    "request_type": "Trash/Recycling",
    "request_reason": "Request a Large Item Pick Up",
    "date_created": "2026-03-04T15:17:52.000",
    "date_modified": "2026-03-04T15:17:54.000",
    "request_status": "Pending",
    "responsible_agency": "Department of Sanitation",
    "final_address": "3811 Iberville St",
    "address_councildis": "A",
    "status": "Assigned to Contractor",
    "contractor": "IV Waste",
    "rowid": "1262702",
    "final_x": "3672271.68833",
    "final_y": "538050.686409",
    "longitude": "-90.09698756313824",
    "latitude": "29.97372984961411",
    "geocoded_column": {
      "latitude": "29.97372984961411",
      "longitude": "-90.09698756313824"
    }
  },
  {
    "service_request": "2026-1262701",
    "request_type": "Trash/Recycling",
    "request_reason": "Request a Large Item Pick Up",
    "date_created": "2026-03-04T15:16:54.000",
    "date_modified": "2026-03-04T15:16:56.000",
    "request_status": "Pending",
    "responsible_agency": "Department of Sanitation",
    "final_address": "2218 Bartholomew St",
    "address_councildis": "D",
    "status": "Assigned to Contractor",
    "contractor": "IV Waste",
    "rowid": "1262701",
    "final_x": "3692818.64515",
    "final_y": "539586.306058",
    "longitude": "-90.032041006793",
    "latitude": "29.977326663410558",
    "geocoded_column": {
      "latitude": "29.977326663410558",
      "longitude": "-90.032041006793"
    }
  },
  {
    "service_request": "2026-1262700",
    "request_type": "Trash/Recycling",
    "request_reason": "Request a Large Item Pick Up",
    "date_created": "2026-03-04T15:11:34.000",
    "date_modified": "2026-03-04T15:11:37.000",
    "request_status": "Pending",
    "responsible_agency": "Department of Sanitation",
    "final_address": "7631 Poitevent Ave",
    "address_councildis": "E",
    "status": "Assigned to Contractor",
    "contractor": "Waste Pro",
    "rowid": "1262700",
    "final_x": "3706975.84862",
    "final_y": "564223.220385",
    "longitude": "-89.98641360570382",
    "latitude": "30.044619044432675",
    "geocoded_column": {
      "latitude": "30.044619044432675",
      "longitude": "-89.98641360570382"
    }
  },
  {
    "service_request": "2026-1262699",
    "request_type": "Abandoned Vehicles",
    "request_reason": "Abandoned/Junk Vehicles",
    "date_created": "2026-03-04T15:08:47.000",
    "date_modified": "2026-03-04T15:08:48.000",
    "request_status": "Pending",
    "responsible_agency": "Department of Public Works",
    "final_address": "2100 BLK Law St",
    "address_councildis": "D",
    "status": "Pending",
    "rowid": "1262699",
    "final_x": "3683608.4418",
    "final_y": "541752.910376",
    "longitude": "-90.0610538575802",
    "latitude": "29.98356845663024",
    "geocoded_column": {
      "latitude": "29.98356845663024",
      "longitude": "-90.0610538575802"
    }
  },
  {
    "service_request": "2026-1262698",
    "request_type": "Trash/Recycling",
    "request_reason": "Request a Large Item Pick Up",
    "date_created": "2026-03-04T15:08:34.000",
    "date_modified": "2026-03-04T15:08:35.000",
    "request_status": "Pending",
    "responsible_agency": "Department of Sanitation",
    "final_address": "1304 First St",
    "address_councildis": "B",
    "status": "Assigned to Contractor",
    "contractor": "IV Waste",
    "rowid": "1262698",
    "final_x": "3677569.65083",
    "final_y": "522116.004282",
    "longitude": "-90.08080554782089",
    "latitude": "29.92975655679384",
    "geocoded_column": {
      "latitude": "29.92975655679384",
      "longitude": "-90.08080554782089"
    }
  },
  {
    "service_request": "2026-1262697",
    "request_type": "Trash/Recycling",
    "request_reason": "Order Trash Cart",
    "date_created": "2026-03-04T15:01:04.000",
    "date_modified": "2026-03-04T15:01:06.000",
    "request_status": "Pending",
    "responsible_agency": "Department of Sanitation",
    "final_address": "1621 S Rampart St",
    "address_councildis": "B",
    "status": "Assigned to Contractor",
    "contractor": "IV Waste",
    "rowid": "1262697",
    "final_x": "3677454.91227",
    "final_y": "526032.986302",
    "longitude": "-90.08103261676976",
    "latitude": "29.940530420397273",
    "geocoded_column": {
      "latitude": "29.940530420397273",
      "longitude": "-90.08103261676976"
    }
  },
  {
    "service_request": "2026-1262696",
    "request_type": "Trash/Recycling",
    "request_reason": "Request a Large Item Pick Up",
    "date_created": "2026-03-04T15:00:04.000",
    "date_modified": "2026-03-04T15:00:07.000",
    "request_status": "Pending",
    "responsible_agency": "Department of Sanitation",
    "final_address": "1328 Harrison Ave",
    "address_councildis": "D",
    "status": "Assigned to Contractor",
    "contractor": "IV Waste",
    "rowid": "1262696",
    "final_x": "3677522.41973",
    "final_y": "547522.50517",
    "longitude": "-90.080077423001",
    "latitude": "29.999617228307688",
    "geocoded_column": {
      "latitude": "29.999617228307688",
      "longitude": "-90.080077423001"
    }
  },
  {
    "service_request": "2026-1262695",
    "request_type": "Trash/Recycling",
    "request_reason": "Illegal Dumping",
    "date_created": "2026-03-04T14:56:00.000",
    "date_modified": "2026-03-04T14:56:01.000",
    "request_status": "Pending",
    "responsible_agency": "Department of Sanitation",
    "final_address": "IDEAL PL & FRANKLIN AVE",
    "address_councildis": "D",
    "status": "Pending",
    "rowid": "1262695",
    "final_x": "3687443.5",
    "final_y": "542262.58",
    "longitude": "-90.04892270299928",
    "latitude": "29.9848522228194",
    "geocoded_column": {
      "latitude": "29.9848522228194",
      "longitude": "-90.04892270299928"
    }
  },
  {
    "service_request": "2026-1262694",
    "request_type": "Trash/Recycling",
    "request_reason": "Repair Recycling Cart",
    "date_created": "2026-03-04T14:54:32.000",
    "date_modified": "2026-03-04T14:54:33.000",
    "request_status": "Pending",
    "responsible_agency": "Department of Sanitation",
    "final_address": "9555 Palm St",
    "address_councildis": "A",
    "status": "Pending",
    "rowid": "1262694",
    "final_x": "3663791.27379",
    "final_y": "538334.090569",
    "longitude": "-90.1237612265331",
    "latitude": "29.97475799234642",
    "geocoded_column": {
      "latitude": "29.97475799234642",
      "longitude": "-90.1237612265331"
    }
  },
  {
    "service_request": "2026-1262693",
    "request_type": "Safety & Permits",
    "request_reason": "Zoning Enforcement",
    "date_created": "2026-03-04T14:54:29.000",
    "date_modified": "2026-03-04T14:54:33.000",
    "request_status": "Pending",
    "responsible_agency": "Safety and Permits",
    "final_address": "2825 Jefferson Ave",
    "address_councildis": "B",
    "status": "Pending",
    "rowid": "1262693",
    "final_x": "3668436.29722",
    "final_y": "525840.577725",
    "longitude": "-90.10951246555375",
    "latitude": "29.940269300037006",
    "geocoded_column": {
      "latitude": "29.940269300037006",
      "longitude": "-90.10951246555375"
    }
  },
  {
    "service_request": "2026-1262692",
    "request_type": "Roads and Streets",
    "request_reason": "Pothole",
    "date_created": "2026-03-04T14:53:33.000",
    "date_modified": "2026-03-04T14:53:34.000",
    "request_status": "Pending",
    "responsible_agency": "Department of Public Works",
    "final_address": "638 Toulouse St",
    "address_councildis": "C",
    "status": "Pending",
    "rowid": "1262692",
    "final_x": "3682346.84309",
    "final_y": "532100.274819",
    "longitude": "-90.06537602283233",
    "latitude": "29.95706550185521",
    "geocoded_column": {
      "latitude": "29.95706550185521",
      "longitude": "-90.06537602283233"
    }
  },
  {
    "service_request": "2026-1262691",
    "request_type": "Trash/Recycling",
    "request_reason": "Illegal Dumping",
    "date_created": "2026-03-04T14:52:58.000",
    "date_modified": "2026-03-04T14:53:36.000",
    "request_status": "Pending",
    "responsible_agency": "Department of Sanitation",
    "final_address": "BAUDIN ST & S BERNADOTTE ST",
    "address_councildis": "A",
    "status": "Pending",
    "rowid": "1262691",
    "final_x": "3667853.5",
    "final_y": "538792.68",
    "longitude": "-90.11091620782463",
    "latitude": "29.97590042408757",
    "geocoded_column": {
      "latitude": "29.97590042408757",
      "longitude": "-90.11091620782463"
    }
  },
  {
    "service_request": "2026-1262690",
    "request_type": "Trash/Recycling",
    "request_reason": "Repair Trash Cart",
    "date_created": "2026-03-04T14:50:29.000",
    "date_modified": "2026-03-04T14:50:31.000",
    "request_status": "Pending",
    "responsible_agency": "Department of Sanitation",
    "final_address": "4673 Warren Dr",
    "address_councildis": "E",
    "status": "Assigned to Contractor",
    "contractor": "Waste Pro",
    "rowid": "1262690",
    "final_x": "3713566.8533",
    "final_y": "555907.156761",
    "longitude": "-89.96589686206588",
    "latitude": "30.021538512250128",
    "geocoded_column": {
      "latitude": "30.021538512250128",
      "longitude": "-89.96589686206588"
    }
  },
  {
    "service_request": "2026-1262689",
    "request_type": "Abandoned Vehicles",
    "request_reason": "Abandoned/Junk Vehicles",
    "date_created": "2026-03-04T14:48:41.000",
    "date_modified": "2026-03-04T14:48:43.000",
    "request_status": "Pending",
    "responsible_agency": "Department of Public Works",
    "final_address": "AMERICA ST & RANSOM ST",
    "address_councildis": "E",
    "status": "Pending",
    "rowid": "1262689",
    "final_x": "3699906.3",
    "final_y": "553105.88",
    "longitude": "-90.00916254709244",
    "latitude": "30.01427724752525",
    "geocoded_column": {
      "latitude": "30.01427724752525",
      "longitude": "-90.00916254709244"
    }
  },
  {
    "service_request": "2026-1262688",
    "request_type": "Roads and Streets",
    "request_reason": "Pothole",
    "date_created": "2026-03-04T14:45:12.000",
    "date_modified": "2026-03-04T14:45:13.000",
    "request_status": "Pending",
    "responsible_agency": "Department of Public Works",
    "final_address": "301 N Peters St",
    "address_councildis": "C",
    "status": "Pending",
    "rowid": "1262688",
    "final_x": "3682420.31522",
    "final_y": "530780.516226",
    "longitude": "-90.06519014285749",
    "latitude": "29.95343437837939",
    "geocoded_column": {
      "latitude": "29.95343437837939",
      "longitude": "-90.06519014285749"
    }
  },
  {
    "service_request": "2026-1262687",
    "request_type": "Trash/Recycling",
    "request_reason": "Request a Large Item Pick Up",
    "date_created": "2026-03-04T14:43:51.000",
    "date_modified": "2026-03-04T14:43:53.000",
    "request_status": "Pending",
    "responsible_agency": "Department of Sanitation",
    "final_address": "2800 BLK N Rocheblave St",
    "address_councildis": "D",
    "status": "Assigned to Contractor",
    "contractor": "IV Waste",
    "rowid": "1262687",
    "final_x": "3688074.23799",
    "final_y": "541368.883257",
    "longitude": "-90.04696216891287",
    "latitude": "29.98237541918475",
    "geocoded_column": {
      "latitude": "29.98237541918475",
      "longitude": "-90.04696216891287"
    }
  },
  {
    "service_request": "2026-1262686",
    "request_type": "Abandoned Vehicles",
    "request_reason": "Abandoned/Junk Vehicles",
    "date_created": "2026-03-04T14:32:00.000",
    "date_modified": "2026-03-04T14:35:48.000",
    "request_status": "Pending",
    "responsible_agency": "Department of Public Works",
    "final_address": "2800 BLK Tchoupitoulas St",
    "address_councildis": "B",
    "status": "Inspected",
    "rowid": "1262686",
    "final_x": "3678144.94125",
    "final_y": "518705.369857",
    "longitude": "-90.07910730777478",
    "latitude": "29.920361116639945",
    "geocoded_column": {
      "latitude": "29.920361116639945",
      "longitude": "-90.07910730777478"
    }
  },
  {
    "service_request": "2026-1262685",
    "request_type": "Trash/Recycling",
    "request_reason": "Request a Large Item Pick Up",
    "date_created": "2026-03-04T14:29:50.000",
    "date_modified": "2026-03-04T14:29:52.000",
    "request_status": "Pending",
    "responsible_agency": "Department of Sanitation",
    "final_address": "2618 Martin Luther King, Jr. Blvd",
    "address_councildis": "B",
    "status": "Assigned to Contractor",
    "contractor": "IV Waste",
    "rowid": "1262685",
    "final_x": "3675969.84309",
    "final_y": "527482.198463",
    "longitude": "-90.08567141207493",
    "latitude": "29.944559821059116",
    "geocoded_column": {
      "latitude": "29.944559821059116",
      "longitude": "-90.08567141207493"
    }
  },
  {
    "service_request": "2026-1262684",
    "request_type": "Abandoned Vehicles",
    "request_reason": "Abandoned/Junk Vehicles",
    "date_created": "2026-03-04T14:26:46.000",
    "date_modified": "2026-03-04T14:28:20.000",
    "request_status": "Pending",
    "responsible_agency": "Department of Public Works",
    "final_address": "516 N Hennessey St",
    "address_councildis": "A",
    "status": "Inspected",
    "rowid": "1262684",
    "final_x": "3671307.69659",
    "final_y": "540221.109259",
    "longitude": "-90.0999582821525",
    "latitude": "29.979726341596002",
    "geocoded_column": {
      "latitude": "29.979726341596002",
      "longitude": "-90.0999582821525"
    }
  },
  {
    "service_request": "2026-1262683",
    "request_type": "Trash/Recycling",
    "request_reason": "Return Trash Cart",
    "date_created": "2026-03-04T14:25:31.000",
    "date_modified": "2026-03-04T14:25:33.000",
    "request_status": "Pending",
    "responsible_agency": "Department of Sanitation",
    "final_address": "5568 Rosemary Pl",
    "address_councildis": "A",
    "status": "Assigned to Contractor",
    "contractor": "IV Waste",
    "rowid": "1262683",
    "final_x": "3667037.87623",
    "final_y": "544503.581711",
    "longitude": "-90.11330014449095",
    "latitude": "29.99162737181356",
    "geocoded_column": {
      "latitude": "29.99162737181356",
      "longitude": "-90.11330014449095"
    }
  },
  {
    "service_request": "2026-1262682",
    "request_type": "Trash/Recycling",
    "request_reason": "Request a Large Item Pick Up",
    "date_created": "2026-03-04T14:25:26.000",
    "date_modified": "2026-03-04T14:25:28.000",
    "request_status": "Pending",
    "responsible_agency": "Department of Sanitation",
    "final_address": "1647 Shepherd St",
    "address_councildis": "C",
    "status": "Assigned to Contractor",
    "contractor": "Richards Disposal",
    "rowid": "1262682",
    "final_x": "3690254.89571",
    "final_y": "523630.211771",
    "longitude": "-90.04070665155326",
    "latitude": "29.93353274238107",
    "geocoded_column": {
      "latitude": "29.93353274238107",
      "longitude": "-90.04070665155326"
    }
  },
  {
    "service_request": "2026-1262681",
    "request_type": "Trash/Recycling",
    "request_reason": "Request a Large Item Pick Up",
    "date_created": "2026-03-04T14:24:48.000",
    "date_modified": "2026-03-04T14:24:50.000",
    "request_status": "Pending",
    "responsible_agency": "Department of Sanitation",
    "final_address": "7848 S Coronet Ct",
    "address_councildis": "E",
    "status": "Assigned to Contractor",
    "contractor": "Waste Pro",
    "rowid": "1262681",
    "final_x": "3703332.59806",
    "final_y": "557330.229467",
    "longitude": "-89.99818171781169",
    "latitude": "30.025783267088574",
    "geocoded_column": {
      "latitude": "30.025783267088574",
      "longitude": "-89.99818171781169"
    }
  },
  {
    "service_request": "2026-1262680",
    "request_type": "Trash/Recycling",
    "request_reason": "Illegal Dumping",
    "date_created": "2026-03-04T14:22:47.000",
    "date_modified": "2026-03-04T14:22:49.000",
    "request_status": "Pending",
    "responsible_agency": "Department of Sanitation",
    "final_address": "ST FERDINAND ST & N VILLERE ST",
    "address_councildis": "C",
    "status": "Pending",
    "rowid": "1262680",
    "final_x": "3687997.8",
    "final_y": "537429.48",
    "longitude": "-90.04734324121227",
    "latitude": "29.97154581012306",
    "geocoded_column": {
      "latitude": "29.97154581012306",
      "longitude": "-90.04734324121227"
    }
  },
  {
    "service_request": "2026-1262679",
    "request_type": "Trash/Recycling",
    "request_reason": "Request a Large Item Pick Up",
    "date_created": "2026-03-04T14:20:40.000",
    "date_modified": "2026-03-04T14:20:42.000",
    "request_status": "Pending",
    "responsible_agency": "Department of Sanitation",
    "final_address": "1621 Lamanche St",
    "address_councildis": "E",
    "status": "Assigned to Contractor",
    "contractor": "Waste Pro",
    "rowid": "1262679",
    "final_x": "3698990.52618",
    "final_y": "535692.897223",
    "longitude": "-90.01269000959418",
    "latitude": "29.96642702044575",
    "geocoded_column": {
      "latitude": "29.96642702044575",
      "longitude": "-90.01269000959418"
    }
  },
  {
    "service_request": "2026-1262678",
    "request_type": "Trash/Recycling",
    "request_reason": "Order Trash Cart",
    "date_created": "2026-03-04T14:18:56.000",
    "date_modified": "2026-03-04T14:19:01.000",
    "request_status": "Pending",
    "responsible_agency": "Department of Sanitation",
    "final_address": "3825 Constance St",
    "address_councildis": "B",
    "status": "Assigned to Contractor",
    "contractor": "IV Waste",
    "rowid": "1262678",
    "final_x": "3673258.18996",
    "final_y": "518676.457975",
    "longitude": "-90.09453349219997",
    "latitude": "29.92042779372342",
    "geocoded_column": {
      "latitude": "29.92042779372342",
      "longitude": "-90.09453349219997"
    }
  },
  {
    "service_request": "2026-1262677",
    "request_type": "Abandoned Vehicles",
    "request_reason": "Abandoned/Junk Vehicles",
    "date_created": "2026-03-04T14:12:15.000",
    "date_modified": "2026-03-04T14:12:17.000",
    "request_status": "Pending",
    "responsible_agency": "Department of Public Works",
    "final_address": "4751 Eastview Dr",
    "address_councildis": "E",
    "status": "Pending",
    "rowid": "1262677",
    "final_x": "3705143.15255",
    "final_y": "555459.714713",
    "longitude": "-89.99252981792566",
    "latitude": "30.020581943226095",
    "geocoded_column": {
      "latitude": "30.020581943226095",
      "longitude": "-89.99252981792566"
    }
  },
  {
    "service_request": "2026-1262676",
    "request_type": "Property Maintenance",
    "request_reason": "Property Maintenance",
    "date_created": "2026-03-04T14:09:11.000",
    "date_modified": "2026-03-04T14:09:13.000",
    "request_status": "Pending",
    "responsible_agency": "Department of Code Enforcement",
    "final_address": "6901 Pritchard Pl",
    "address_councildis": "B",
    "status": "Pending",
    "rowid": "1262676",
    "final_x": "3668093.09537",
    "final_y": "531119.838786",
    "longitude": "-90.11041812550769",
    "latitude": "29.954795626696427",
    "geocoded_column": {
      "latitude": "29.954795626696427",
      "longitude": "-90.11041812550769"
    }
  },
  {
    "service_request": "2026-1262675",
    "request_type": "Street and Traffic Signs",
    "request_reason": "Stop Sign Missing or Damaged",
    "date_created": "2026-03-04T14:08:50.000",
    "date_modified": "2026-03-04T14:08:51.000",
    "request_status": "Pending",
    "responsible_agency": "Department of Public Works",
    "final_address": "WILLOW ST & EAGLE ST",
    "address_councildis": "A",
    "status": "Pending",
    "rowid": "1262675",
    "final_x": "3660599.7",
    "final_y": "530557.88",
    "longitude": "-90.13409810545296",
    "latitude": "29.953468196262378",
    "geocoded_column": {
      "latitude": "29.953468196262378",
      "longitude": "-90.13409810545296"
    }
  },
  {
    "service_request": "2026-1262674",
    "request_type": "Trash/Recycling",
    "request_reason": "Repair Trash Cart",
    "date_created": "2026-03-04T14:07:58.000",
    "date_modified": "2026-03-04T14:08:01.000",
    "request_status": "Pending",
    "responsible_agency": "Department of Sanitation",
    "final_address": "4480 Perrault Walk",
    "address_councildis": "E",
    "status": "Assigned to Contractor",
    "contractor": "Waste Pro",
    "rowid": "1262674",
    "final_x": "3709979.70865",
    "final_y": "554674.142104",
    "longitude": "-89.97727727177595",
    "latitude": "30.01826542319009",
    "geocoded_column": {
      "latitude": "30.01826542319009",
      "longitude": "-89.97727727177595"
    }
  },
  {
    "service_request": "2026-1262673",
    "request_type": "Trash/Recycling",
    "request_reason": "Return Recycling Cart",
    "date_created": "2026-03-04T14:05:41.000",
    "date_modified": "2026-03-04T14:05:43.000",
    "request_status": "Pending",
    "responsible_agency": "Department of Sanitation",
    "final_address": "3825 Constance St",
    "address_councildis": "B",
    "status": "Pending",
    "rowid": "1262673",
    "final_x": "3673258.18996",
    "final_y": "518676.457975",
    "longitude": "-90.09453349219997",
    "latitude": "29.92042779372342",
    "geocoded_column": {
      "latitude": "29.92042779372342",
      "longitude": "-90.09453349219997"
    }
  },
  {
    "service_request": "2026-1262672",
    "request_type": "Healthy Homes",
    "request_reason": "Healthy Homes",
    "date_created": "2026-03-04T14:05:35.000",
    "date_modified": "2026-03-04T14:05:37.000",
    "request_status": "Pending",
    "responsible_agency": "Department of Code Enforcement",
    "final_address": "3620 Rue Renee",
    "address_councildis": "C",
    "status": "Pending",
    "rowid": "1262672",
    "final_x": "3705318.28382",
    "final_y": "517004.939637",
    "longitude": "-89.9933973320413",
    "latitude": "29.914839701969303",
    "geocoded_column": {
      "latitude": "29.914839701969303",
      "longitude": "-89.9933973320413"
    }
  },
  {
    "service_request": "2026-1262671",
    "request_type": "Street and Traffic Signs",
    "request_reason": "Additional Signage Request",
    "date_created": "2026-03-04T14:05:35.000",
    "date_modified": "2026-03-04T14:05:37.000",
    "request_status": "Pending",
    "responsible_agency": "Department of Public Works",
    "final_address": "2618 N Roman St",
    "address_councildis": "D",
    "status": "Pending",
    "rowid": "1262671",
    "final_x": "3687929.72956",
    "final_y": "539021.401674",
    "longitude": "-90.04750179966939",
    "latitude": "29.975925135403347",
    "geocoded_column": {
      "latitude": "29.975925135403347",
      "longitude": "-90.04750179966939"
    }
  },
  {
    "service_request": "2026-1262670",
    "request_type": "Health Related Request",
    "request_reason": "Noise Ordinance Complaint",
    "date_created": "2026-03-04T13:59:33.000",
    "date_modified": "2026-03-04T13:59:34.000",
    "request_status": "Pending",
    "responsible_agency": "Health Department",
    "final_address": "ST ANN ST & CHARTRES ST & PLACE JEAN PAUL DEUX",
    "address_councildis": "C",
    "status": "Pending",
    "rowid": "1262670",
    "final_x": "3683066.1",
    "final_y": "532554.28",
    "longitude": "-90.06308894292094",
    "latitude": "29.95829195672603",
    "geocoded_column": {
      "latitude": "29.95829195672603",
      "longitude": "-90.06308894292094"
    }
  },
  {
    "service_request": "2026-1262669",
    "request_type": "Trash/Recycling",
    "request_reason": "Request a Large Item Pick Up",
    "date_created": "2026-03-04T13:59:06.000",
    "date_modified": "2026-03-04T13:59:08.000",
    "request_status": "Pending",
    "responsible_agency": "Department of Sanitation",
    "final_address": "11211 Woodvine Ln",
    "address_councildis": "E",
    "status": "Assigned to Contractor",
    "contractor": "Waste Pro",
    "rowid": "1262669",
    "final_x": "3716310.526",
    "final_y": "559768.970589",
    "longitude": "-89.9570811372223",
    "latitude": "30.03206664381339",
    "geocoded_column": {
      "latitude": "30.03206664381339",
      "longitude": "-89.9570811372223"
    }
  },
  {
    "service_request": "2026-1262668",
    "request_type": "Trash/Recycling",
    "request_reason": "Illegal Dumping",
    "date_created": "2026-03-04T13:51:04.000",
    "date_modified": "2026-03-04T13:53:15.000",
    "request_status": "Pending",
    "responsible_agency": "Department of Sanitation",
    "final_address": "7800 Read Blvd",
    "address_councildis": "E",
    "status": "Pending",
    "rowid": "1262668",
    "final_x": "3708156.52062",
    "final_y": "565012.058466",
    "longitude": "-89.98265278247722",
    "latitude": "30.04674981970105",
    "geocoded_column": {
      "latitude": "30.04674981970105",
      "longitude": "-89.98265278247722"
    }
  },
  {
    "service_request": "2026-1262667",
    "request_type": "Drainage",
    "request_reason": "Catch Basin Not Draining",
    "date_created": "2026-03-04T13:50:25.000",
    "date_modified": "2026-03-04T13:50:27.000",
    "request_status": "Pending",
    "responsible_agency": "Sewerage & Water Board",
    "final_address": "920 N Carrollton Ave",
    "address_councildis": "A",
    "status": "Pending",
    "rowid": "1262667",
    "final_x": "3673321.16878",
    "final_y": "540639.565963",
    "longitude": "-90.09358460696197",
    "latitude": "29.98081720781783",
    "geocoded_column": {
      "latitude": "29.98081720781783",
      "longitude": "-90.09358460696197"
    }
  },
  {
    "service_request": "2026-1262666",
    "request_type": "Trash/Recycling",
    "request_reason": "Request a Large Item Pick Up",
    "date_created": "2026-03-04T13:48:12.000",
    "date_modified": "2026-03-04T13:48:31.000",
    "request_status": "Pending",
    "responsible_agency": "Department of Sanitation",
    "final_address": "2726 Cupid St",
    "address_councildis": "C",
    "status": "Assigned to Contractor",
    "contractor": "Richards Disposal",
    "rowid": "1262666",
    "final_x": "3700380.30564",
    "final_y": "520680.972729",
    "longitude": "-90.00884911884891",
    "latitude": "29.925105389433913",
    "geocoded_column": {
      "latitude": "29.925105389433913",
      "longitude": "-90.00884911884891"
    }
  },
  {
    "service_request": "2026-1262665",
    "request_type": "Trash/Recycling",
    "request_reason": "Order Trash Cart",
    "date_created": "2026-03-04T13:47:59.000",
    "date_modified": "2026-03-04T13:48:01.000",
    "request_status": "Pending",
    "responsible_agency": "Department of Sanitation",
    "final_address": "1116 L. B. Landry Ave B",
    "address_councildis": "C",
    "status": "Assigned to Contractor",
    "contractor": "Richards Disposal",
    "rowid": "1262665",
    "final_x": "3690208.8902",
    "final_y": "527286.304639",
    "longitude": "-90.0407216829318",
    "latitude": "29.943587181375385",
    "geocoded_column": {
      "latitude": "29.943587181375385",
      "longitude": "-90.0407216829318"
    }
  },