[
  {
    "service_request": "2024-1121939",
    "request_type": "Parks & Parkways",
    "request_reason": "Request Tree Service (Right of Way/Public Property)",
    "date_created": "2024-08-14T23:28:47.000",
    "date_modified": "2024-08-14T23:28:47.000",
    "request_status": "Pending",
    "responsible_agency": "Department of Parks & Parkway",
    "final_address": "625 Henry Clay Ave",
    "address_councildis": "A",
    "status": "Pending",
    "rowid": "1121939",
    "final_x": "3663680.45037",
    "final_y": "519135.056887",
    "longitude": "-90.12475079228065",
    "latitude": "29.921970045999675",
    "geocoded_column": {
      "latitude": "29.921970045999675",
      "longitude": "-90.12475079228065"
    }
  },
  {
    "service_request": "2024-1121938",
    "request_type": "Abandoned Vehicles",
    "request_reason": "Vehicle Blocking Your Driveway",
    "date_created": "2024-08-14T23:25:16.000",
    "date_modified": "2024-08-14T23:25:16.000",
    "request_status": "Pending",
    "responsible_agency": "Department of Public Works",
    "final_address": "3114 Bienville Ave",
    "address_councildis": "B",
    "status": "Pending",
    "rowid": "1121938",
    "final_x": "3674401.34152",
    "final_y": "536730.936839",
    "longitude": "-90.09030686233679",
    "latitude": "29.970037631146166",
    "geocoded_column": {
      "latitude": "29.970037631146166",
      "longitude": "-90.09030686233679"
    }
  },
  {
    "service_request": "2024-1121937",
    "request_type": "Trash/Recycling",
    "request_reason": "Illegal Dumping",
    "date_created": "2024-08-14T22:56:06.000",
    "date_modified": "2024-08-14T22:56:06.000",
    "request_status": "Pending",
    "responsible_agency": "Department of Sanitation",
    "final_address": "2785 Lavender St",
    "address_councildis": "D",
    "status": "Pending",
    "rowid": "1121937",
    "final_x": "3688455.70396",
    "final_y": "547082.945745",
    "longitude": "-90.0455544813979",
    "latitude": "29.99807526003097",
    "geocoded_column": {
      "latitude": "29.99807526003097",
      "longitude": "-90.0455544813979"
    }
  },
  {
    "service_request": "2024-1121936",
    "request_type": "Roads/Drainage",
    "request_reason": "Pothole",
    "date_created": "2024-08-14T22:39:40.000",
    "date_modified": "2024-08-14T22:39:40.000",
    "request_status": "Pending",
    "responsible_agency": "Department of Public Works",
    "final_address": "1621 Monroe St",
    "address_councildis": "A",
    "status": "Pending",
    "rowid": "1121936",
    "final_x": "3661494.45779",
    "final_y": "530968.621058",
    "longitude": "-90.1312592191754",
    "latitude": "29.95457182216671",
    "geocoded_column": {
      "latitude": "29.95457182216671",
      "longitude": "-90.1312592191754"
    }
  },
  {
    "service_request": "2024-1121935",
    "request_type": "Roads/Drainage",
    "request_reason": "Pothole",
    "date_created": "2024-08-14T22:35:58.000",
    "date_modified": "2024-08-14T22:35:58.000",
    "request_status": "Pending",
    "responsible_agency": "Department of Public Works",
    "final_address": "8700 BLK Green St",
    "address_councildis": "A",
    "status": "Pending",
    "rowid": "1121935",
    "final_x": "3661438.64067",
    "final_y": "531224.488848",
    "longitude": "-90.13142699419195",
    "latitude": "29.95527698606181",
    "geocoded_column": {
      "latitude": "29.95527698606181",
      "longitude": "-90.13142699419195"
    }
  },
  {
    "service_request": "2024-1121934",
    "request_type": "Trash/Recycling",
    "request_reason": "Request a Large Item Pick Up",
    "date_created": "2024-08-14T22:34:17.000",
    "date_modified": "2024-08-14T22:34:18.000",
    "request_status": "Pending",
    "responsible_agency": "Department of Sanitation",
    "final_address": "6103 Colbert St",
    "address_councildis": "A",
    "status": "Assigned to Contractor",
    "contractor": "IV Waste",
    "rowid": "1121934",
    "final_x": "3667571.90714",
    "final_y": "548074.559634",
    "longitude": "-90.1114929693629",
    "latitude": "30.00143068691018",
    "geocoded_column": {
      "latitude": "30.00143068691018",
      "longitude": "-90.1114929693629"
    }
  },
  {
    "service_request": "2024-1121933",
    "request_type": "Trash/Recycling",
    "request_reason": "Request a Large Item Pick Up",
    "date_created": "2024-08-14T22:19:54.000",
    "date_modified": "2024-08-14T22:19:55.000",
    "request_status": "Pending",
    "responsible_agency": "Department of Sanitation",
    "final_address": "5629 Marshal Foch St",
    "address_councildis": "A",
    "status": "Assigned to Contractor",
    "contractor": "IV Waste",
    "rowid": "1121933",
    "final_x": "3669645.75674",
    "final_y": "544568.408911",
    "longitude": "-90.10506019576123",
    "latitude": "29.99172901590333",
    "geocoded_column": {
      "latitude": "29.99172901590333",
      "longitude": "-90.10506019576123"
    }
  },
  {
    "service_request": "2024-1121931",
    "request_type": "Roads/Drainage",
    "request_reason": "Ditch Issue",
    "date_created": "2024-08-14T22:01:31.000",
    "date_modified": "2024-08-14T22:01:31.000",
    "request_status": "Pending",
    "responsible_agency": "Department of Public Works",
    "final_address": "823 Bordeaux St",
    "address_councildis": "B",
    "status": "Pending",
    "rowid": "1121931",
    "final_x": "3669656.43905",
    "final_y": "518478.14399",
    "longitude": "-90.1059092675477",
    "latitude": "29.919989072827008",
    "geocoded_column": {
      "latitude": "29.919989072827008",
      "longitude": "-90.1059092675477"
    }
  },
  {
    "service_request": "2024-1121930",
    "request_type": "Utility Poles",
    "request_reason": "Utility Pole Leaning",
    "date_created": "2024-08-14T21:51:42.000",
    "date_modified": "2024-08-14T21:51:47.000",
    "request_status": "Pending",
    "responsible_agency": "Utility Company Collective",
    "final_address": "943 Navarre St",
    "address_councildis": "A",
    "status": "Pending",
    "rowid": "1121930",
    "final_x": "3669856.67738",
    "final_y": "543782.11579",
    "longitude": "-90.1044205785955",
    "latitude": "29.989560761388745",
    "geocoded_column": {
      "latitude": "29.989560761388745",
      "longitude": "-90.1044205785955"
    }
  },
  {
    "service_request": "2024-1121929",
    "request_type": "Healthy Homes",
    "request_reason": "Healthy Homes",
    "date_created": "2024-08-14T20:59:45.000",
    "date_modified": "2024-08-14T20:59:45.000",
    "request_status": "Pending",
    "responsible_agency": "Department of Code Enforcement",
    "final_address": "1032 Fourth St",
    "address_councildis": "B",
    "status": "Pending",
    "rowid": "1121929",
    "final_x": "3677343.50709",
    "final_y": "520898.068281",
    "longitude": "-90.08156144719517",
    "latitude": "29.926414424395038",
    "geocoded_column": {
      "latitude": "29.926414424395038",
      "longitude": "-90.08156144719517"
    }
  },
  {
    "service_request": "2024-1121928",
    "request_type": "Trash/Recycling",
    "request_reason": "Replace Trash Cart",
    "date_created": "2024-08-14T20:57:33.000",
    "date_modified": "2024-08-14T20:57:34.000",
    "request_status": "Pending",
    "responsible_agency": "Department of Sanitation",
    "final_address": "847 Taft Pl",
    "address_councildis": "A",
    "status": "Assigned to Contractor",
    "contractor": "IV Waste",
    "rowid": "1121928",
    "final_x": "3673766.35182",
    "final_y": "539753.864202",
    "longitude": "-90.09220882079283",
    "latitude": "29.978368579288254",
    "geocoded_column": {
      "latitude": "29.978368579288254",
      "longitude": "-90.09220882079283"
    }
  },
  {
    "service_request": "2024-1121927",
    "request_type": "Trash/Recycling",
    "request_reason": "Replace Recycling Cart",
    "date_created": "2024-08-14T20:56:03.000",
    "date_modified": "2024-08-14T20:56:03.000",
    "request_status": "Pending",
    "responsible_agency": "Department of Sanitation",
    "final_address": "847 Taft Pl",
    "address_councildis": "A",
    "status": "Pending",
    "rowid": "1121927",
    "final_x": "3673766.35182",
    "final_y": "539753.864202",
    "longitude": "-90.09220882079283",
    "latitude": "29.978368579288254",
    "geocoded_column": {
      "latitude": "29.978368579288254",
      "longitude": "-90.09220882079283"
    }
  },
  {
    "service_request": "2024-1121926",
    "request_type": "Trash/Recycling",
    "request_reason": "Request a Large Item Pick Up",
    "date_created": "2024-08-14T20:52:19.000",
    "date_modified": "2024-08-14T20:52:20.000",
    "request_status": "Pending",
    "responsible_agency": "Department of Sanitation",
    "final_address": "2000 S Carrollton Ave",
    "address_councildis": "A",
    "status": "Assigned to Contractor",
    "contractor": "IV Waste",
    "rowid": "1121926",
    "final_x": "3663869.15655",
    "final_y": "530500.026242",
    "longitude": "-90.12377643009548",
    "latitude": "29.953214623781495",
    "geocoded_column": {
      "latitude": "29.953214623781495",
      "longitude": "-90.12377643009548"
    }
  },
  {
    "service_request": "2024-1121925",
    "request_type": "Trash/Recycling",
    "request_reason": "Order Trash Cart",
    "date_created": "2024-08-14T20:49:27.000",
    "date_modified": "2024-08-14T20:49:28.000",
    "request_status": "Pending",
    "responsible_agency": "Department of Sanitation",
    "final_address": "4811 Ken Ct",
    "address_councildis": "C",
    "status": "Assigned to Contractor",
    "contractor": "Richards Disposal",
    "rowid": "1121925",
    "final_x": "3701839.24714",
    "final_y": "518458.756854",
    "longitude": "-90.00432510332362",
    "latitude": "29.918948609567078",
    "geocoded_column": {
      "latitude": "29.918948609567078",
      "longitude": "-90.00432510332362"
    }
  },
  {
    "service_request": "2024-1121924",
    "request_type": "Trash/Recycling",
    "request_reason": "Illegal Dumping",
    "date_created": "2024-08-14T20:39:28.000",
    "date_modified": "2024-08-14T20:39:28.000",
    "request_status": "Pending",
    "responsible_agency": "Department of Sanitation",
    "final_address": "2778 Lavender St",
    "address_councildis": "D",
    "status": "Pending",
    "rowid": "1121924",
    "final_x": "3688441.67062",
    "final_y": "547000.781969",
    "longitude": "-90.04560172937256",
    "latitude": "29.997849773046255",
    "geocoded_column": {
      "latitude": "29.997849773046255",
      "longitude": "-90.04560172937256"
    }
  },
  {
    "service_request": "2024-1121922",
    "request_type": "Property Maintenance",
    "request_reason": "Property Maintenance",
    "date_created": "2024-08-14T20:27:47.000",
    "date_modified": "2024-08-14T20:27:47.000",
    "request_status": "Pending",
    "responsible_agency": "Department of Code Enforcement",
    "final_address": "1730 Rivertree Ct",
    "address_councildis": "C",
    "status": "Pending",
    "rowid": "1121922",
    "final_x": "3701492.51473",
    "final_y": "524299.851196",
    "longitude": "-90.00520584712814",
    "latitude": "29.935020653559558",
    "geocoded_column": {
      "latitude": "29.935020653559558",
      "longitude": "-90.00520584712814"
    }
  },
  {
    "service_request": "2024-1121921",
    "request_type": "Trash/Recycling",
    "request_reason": "Request a Large Item Pick Up",
    "date_created": "2024-08-14T19:53:45.000",
    "date_modified": "2024-08-14T19:53:45.000",
    "request_status": "Pending",
    "responsible_agency": "Department of Sanitation",
    "final_address": "1822 Robert St",
    "address_councildis": "B",
    "status": "Assigned to Contractor",
    "contractor": "IV Waste",
    "rowid": "1121921",
    "final_x": "3668705.13774",
    "final_y": "522326.204794",
    "longitude": "-90.10878226699315",
    "latitude": "29.930598004656478",
    "geocoded_column": {
      "latitude": "29.930598004656478",
      "longitude": "-90.10878226699315"
    }
  },
  {
    "service_request": "2024-1121920",
    "request_type": "Trash/Recycling",
    "request_reason": "Request a Large Item Pick Up",
    "date_created": "2024-08-14T19:52:06.000",
    "date_modified": "2024-08-14T19:52:07.000",
    "request_status": "Pending",
    "responsible_agency": "Department of Sanitation",
    "final_address": "5432 Douglass St",
    "address_councildis": "E",
    "status": "Assigned to Contractor",
    "contractor": "Waste Pro",
    "rowid": "1121920",
    "final_x": "3696835.45917",
    "final_y": "531717.414275",
    "longitude": "-90.0196395795817",
    "latitude": "29.95556397163048",
    "geocoded_column": {
      "latitude": "29.95556397163048",
      "longitude": "-90.0196395795817"
    }
  },
  {
    "service_request": "2024-1121919",
    "request_type": "Taxi Issues",
    "request_reason": "Taxi Lost & Found Item",
    "date_created": "2024-08-14T19:36:12.000",
    "date_modified": "2024-08-14T19:36:12.000",
    "request_status": "Pending",
    "responsible_agency": "Ground Transportation Bureau",
    "final_address": "0 BLK Alice Ct",
    "address_councildis": "E",
    "status": "Pending",
    "rowid": "1121919",
    "final_x": "3696830.85368",
    "final_y": "533835.980016",
    "longitude": "-90.01957742212986",
    "latitude": "29.961389424106756",
    "geocoded_column": {
      "latitude": "29.961389424106756",
      "longitude": "-90.01957742212986"
    }
  },
  {
    "service_request": "2024-1121918",
    "request_type": "Property Maintenance",
    "request_reason": "Property Maintenance",
    "date_created": "2024-08-14T19:34:06.000",
    "date_modified": "2024-08-14T19:34:06.000",
    "request_status": "Pending",
    "responsible_agency": "Department of Code Enforcement",
    "final_address": "333 N Diamond St",
    "address_councildis": "B",
    "status": "Pending",
    "rowid": "1121918",
    "final_x": "3681950.65077",
    "final_y": "526921.360062",
    "longitude": "-90.06680783230718",
    "latitude": "29.9428372824241",
    "geocoded_column": {
      "latitude": "29.9428372824241",
      "longitude": "-90.06680783230718"
    }
  },
  {
    "service_request": "2024-1121917",
    "request_type": "Trash/Recycling",
    "request_reason": "MIssed Recycling Pick-Up",
    "date_created": "2024-08-14T19:19:55.000",
    "date_modified": "2024-08-14T21:04:33.000",
    "case_close_date": "2024-08-14T16:04:33.000",
    "request_status": "Closed",
    "responsible_agency": "Department of Sanitation",
    "final_address": "5608 Arts St",
    "address_councildis": "D",
    "status": "Invalid Request",
    "contractor": "IV Waste",
    "contractor_action": "Invalid",
    "rowid": "1121917",
    "final_x": "3685754.12303",
    "final_y": "553634.016599",
    "longitude": "-90.05385764228234",
    "latitude": "30.01617153186429",
    "geocoded_column": {
      "latitude": "30.01617153186429",
      "longitude": "-90.05385764228234"
    }
  },
  {
    "service_request": "2024-1121916",
    "request_type": "Traffic Signals/Signs/Striping/Streetlights",
    "request_reason": "Street Light Outage/Malfunction",
    "date_created": "2024-08-14T19:18:27.000",
    "date_modified": "2024-08-14T19:18:28.000",
    "request_status": "Pending",
    "responsible_agency": "Department of Public Works",
    "final_address": "ST JOSEPH ST & TCHOUPITOULAS ST",
    "address_councildis": "B",
    "status": "Assigned to Contractor",
    "contractor": "Legacy Professional Services",
    "rowid": "1121916",
    "final_x": "3681709.4",
    "final_y": "527106.68",
    "longitude": "-90.06756305478176",
    "latitude": "29.943354180318213",
    "geocoded_column": {
      "latitude": "29.943354180318213",
      "longitude": "-90.06756305478176"
    }
  },
  {
    "service_request": "2024-1121914",
    "request_type": "Trash/Recycling",
    "request_reason": "Request a Large Item Pick Up",
    "date_created": "2024-08-14T19:03:55.000",
    "date_modified": "2024-08-14T19:03:56.000",
    "request_status": "Pending",
    "responsible_agency": "Department of Sanitation",
    "final_address": "4138 Cleveland Ave",
    "address_councildis": "A",
    "status": "Assigned to Contractor",
    "contractor": "IV Waste",
    "rowid": "1121914",
    "final_x": "3670547.49108",
    "final_y": "538181.209673",
    "longitude": "-90.10242853801051",
    "latitude": "29.974139786129367",
    "geocoded_column": {
      "latitude": "29.974139786129367",
      "longitude": "-90.10242853801051"
    }
  },
  {
    "service_request": "2024-1121913",
    "request_type": "Trash/Recycling",
    "request_reason": "Missed Trash Pick-Up",
    "date_created": "2024-08-14T19:03:42.000",
    "date_modified": "2024-08-14T20:54:57.000",
    "case_close_date": "2024-08-14T15:54:57.000",
    "request_status": "Closed",
    "responsible_agency": "Department of Sanitation",
    "final_address": "252 Audubon Blvd",
    "address_councildis": "A",
    "status": "Invalid Request",
    "contractor": "IV Waste",
    "contractor_action": "Invalid",
    "rowid": "1121913",
    "final_x": "3666659.46881",
    "final_y": "529268.423553",
    "longitude": "-90.11500714602647",
    "latitude": "29.949746831412483",
    "geocoded_column": {
      "latitude": "29.949746831412483",
      "longitude": "-90.11500714602647"
    }
  },
  {
    "service_request": "2024-1121912",
    "request_type": "Traffic Signals/Signs/Striping/Streetlights",
    "request_reason": "Street Name Sign Damaged or Missing",
    "date_created": "2024-08-14T19:02:41.000",
    "date_modified": "2024-08-14T19:02:41.000",
    "request_status": "Pending",
    "responsible_agency": "Department of Public Works",
    "final_address": "7838 Tulsa St",
    "address_councildis": "E",
    "status": "Pending",
    "rowid": "1121912",
    "final_x": "3704148.96202",
    "final_y": "553411.829975",
    "longitude": "-89.99574667291733",
    "latitude": "30.01498299715181",
    "geocoded_column": {
      "latitude": "30.01498299715181",
      "longitude": "-89.99574667291733"
    }
  },
  {
    "service_request": "2024-1121911",
    "request_type": "Trash/Recycling",
    "request_reason": "Request a Large Item Pick Up",
    "date_created": "2024-08-14T19:00:49.000",
    "date_modified": "2024-08-14T19:00:50.000",
    "request_status": "Pending",
    "responsible_agency": "Department of Sanitation",
    "final_address": "5204 Chestnut St",
    "address_councildis": "B",
    "status": "Assigned to Contractor",
    "contractor": "IV Waste",
    "rowid": "1121911",
    "final_x": "3668004.15975",
    "final_y": "519315.227191",
    "longitude": "-90.11109654800237",
    "latitude": "29.922339351419623",
    "geocoded_column": {
      "latitude": "29.922339351419623",
      "longitude": "-90.11109654800237"
    }
  },
  {
    "service_request": "2024-1121908",
    "request_type": "Trash/Recycling",
    "request_reason": "Replace Recycling Cart",
    "date_created": "2024-08-14T18:48:21.000",
    "date_modified": "2024-08-14T18:48:21.000",
    "request_status": "Pending",
    "responsible_agency": "Department of Sanitation",
    "final_address": "4423 Painters St",
    "address_councildis": "D",
    "status": "Pending",
    "rowid": "1121908",
    "final_x": "3686407.28284",
    "final_y": "549075.892947",
    "longitude": "-90.05195500044279",
    "latitude": "30.003618286712513",
    "geocoded_column": {
      "latitude": "30.003618286712513",
      "longitude": "-90.05195500044279"
    }
  },
  {
    "service_request": "2024-1121907",
    "request_type": "Trash/Recycling",
    "request_reason": "MIssed Recycling Pick-Up",
    "date_created": "2024-08-14T18:34:11.000",
    "date_modified": "2024-08-14T21:02:57.000",
    "case_close_date": "2024-08-14T16:02:57.000",
    "request_status": "Closed",
    "responsible_agency": "Department of Sanitation",
    "final_address": "1517 Broadway St",
    "address_councildis": "A",
    "status": "Invalid Request",
    "contractor": "IV Waste",
    "contractor_action": "Invalid",
    "rowid": "1121907",
    "final_x": "3664909.45504",
    "final_y": "527486.555839",
    "longitude": "-90.12059231120928",
    "latitude": "29.944898317257884",
    "geocoded_column": {
      "latitude": "29.944898317257884",
      "longitude": "-90.12059231120928"
    }
  },
  {
    "service_request": "2024-1121906",
    "request_type": "Abandoned Vehicles",
    "request_reason": "Abandoned/Junk Vehicles",
    "date_created": "2024-08-14T18:32:05.000",
    "date_modified": "2024-08-14T18:32:05.000",
    "request_status": "Pending",
    "responsible_agency": "Department of Public Works",
    "final_address": "3300 BLK Dumaine St",
    "address_councildis": "A",
    "status": "Pending",
    "rowid": "1121906",
    "final_x": "3674931.71506",
    "final_y": "539222.400674",
    "longitude": "-90.08854641002561",
    "latitude": "29.97687247695148",
    "geocoded_column": {
      "latitude": "29.97687247695148",
      "longitude": "-90.08854641002561"
    }
  },
  {
    "service_request": "2024-1121905",
    "request_type": "Trash/Recycling",
    "request_reason": "MIssed Recycling Pick-Up",
    "date_created": "2024-08-14T18:10:10.000",
    "date_modified": "2024-08-14T19:54:24.000",
    "case_close_date": "2024-08-14T14:54:24.000",
    "request_status": "Closed",
    "responsible_agency": "Department of Sanitation",
    "final_address": "6511 S Claiborne Ave",
    "address_councildis": "A",
    "status": "Invalid Request",
    "contractor": "IV Waste",
    "contractor_action": "Invalid",
    "rowid": "1121905",
    "final_x": "3666787.61857",
    "final_y": "528985.805568",
    "longitude": "-90.1146120081786",
    "latitude": "29.948965976484548",
    "geocoded_column": {
      "latitude": "29.948965976484548",
      "longitude": "-90.1146120081786"
    }
  },
  {
    "service_request": "2024-1121904",
    "request_type": "Trash/Recycling",
    "request_reason": "Request a Large Item Pick Up",
    "date_created": "2024-08-14T18:08:13.000",
    "date_modified": "2024-08-14T18:08:14.000",
    "request_status": "Pending",
    "responsible_agency": "Department of Sanitation",
    "final_address": "7118 E Laverne St",
    "address_councildis": "D",
    "status": "Assigned to Contractor",
    "contractor": "Waste Pro",
    "rowid": "1121904",
    "final_x": "3696981.52554",
    "final_y": "557096.609754",
    "longitude": "-90.01825861443858",
    "latitude": "30.02534285536819",
    "geocoded_column": {
      "latitude": "30.02534285536819",
      "longitude": "-90.01825861443858"
    }
  },
  {
    "service_request": "2024-1121903",
    "request_type": "Traffic Signals/Signs/Striping/Streetlights",
    "request_reason": "Traffic Signal Malfunctioning/Damaged",
    "date_created": "2024-08-14T18:05:50.000",
    "date_modified": "2024-08-14T18:05:50.000",
    "request_status": "Pending",
    "responsible_agency": "Department of Public Works",
    "final_address": "LA",
    "address_councildis": "A",
    "status": "Pending",
    "rowid": "1121903",
    "final_x": "3671421.65313",
    "final_y": "537615.406152",
    "longitude": "-90.09968696553598",
    "latitude": "29.972558167701763",
    "geocoded_column": {
      "latitude": "29.972558167701763",
      "longitude": "-90.09968696553598"
    }
  },
  {
    "service_request": "2024-1121902",
    "request_type": "Trash/Recycling",
    "request_reason": "Replace Trash Cart",
    "date_created": "2024-08-14T18:04:00.000",
    "date_modified": "2024-08-14T18:04:01.000",
    "request_status": "Pending",
    "responsible_agency": "Department of Sanitation",
    "final_address": "6021 West End Blvd",
    "address_councildis": "A",
    "status": "Assigned to Contractor",
    "contractor": "IV Waste",
    "rowid": "1121902",
    "final_x": "3666535.82612",
    "final_y": "547752.167762",
    "longitude": "-90.11477689007326",
    "latitude": "30.000574557964843",
    "geocoded_column": {
      "latitude": "30.000574557964843",
      "longitude": "-90.11477689007326"
    }
  },
  {
    "service_request": "2024-1121901",
    "request_type": "Trash/Recycling",
    "request_reason": "Missed Trash Pick-Up",
    "date_created": "2024-08-14T18:01:38.000",
    "date_modified": "2024-08-14T18:01:39.000",
    "request_status": "Pending",
    "responsible_agency": "Department of Sanitation",
    "final_address": "6021 West End Blvd",
    "address_councildis": "A",
    "status": "Assigned to Contractor",
    "contractor": "IV Waste",
    "rowid": "1121901",
    "final_x": "3666535.82612",
    "final_y": "547752.167762",
    "longitude": "-90.11477689007326",
    "latitude": "30.000574557964843",
    "geocoded_column": {
      "latitude": "30.000574557964843",
      "longitude": "-90.11477689007326"
    }
  },
  {
    "service_request": "2024-1121900",
    "request_type": "Trash/Recycling",
    "request_reason": "Request a Large Item Pick Up",
    "date_created": "2024-08-14T17:59:51.000",
    "date_modified": "2024-08-14T17:59:52.000",
    "request_status": "Pending",
    "responsible_agency": "Department of Sanitation",
    "final_address": "4926 Eunice Dr",
    "address_councildis": "E",
    "status": "Assigned to Contractor",
    "contractor": "Waste Pro",
    "rowid": "1121900",
    "final_x": "3710356.35281",
    "final_y": "556913.646298",
    "longitude": "-89.97600340831016",
    "latitude": "30.024410922000026",
    "geocoded_column": {
      "latitude": "30.024410922000026",
      "longitude": "-89.97600340831016"
    }
  },
  {
    "service_request": "2024-1121899",
    "request_type": "Trash/Recycling",
    "request_reason": "Replace Recycling Cart",
    "date_created": "2024-08-14T17:52:02.000",
    "date_modified": "2024-08-14T17:52:02.000",
    "request_status": "Pending",
    "responsible_agency": "Department of Sanitation",
    "final_address": "6 Annandale Ct ",
    "address_councildis": "C",
    "status": "Pending",
    "rowid": "1121899",
    "final_x": "3722964.72531",
    "final_y": "512266.600561",
    "longitude": "-89.93788182735705",
    "latitude": "29.901231763573694",
    "geocoded_column": {
      "latitude": "29.901231763573694",
      "longitude": "-89.93788182735705"
    }
  },
  {
    "service_request": "2024-1121898",
    "request_type": "Trash/Recycling",
    "request_reason": "Order Recycling Cart",
    "date_created": "2024-08-14T17:51:29.000",
    "date_modified": "2024-08-14T17:51:29.000",
    "request_status": "Pending",
    "responsible_agency": "Department of Sanitation",
    "final_address": "3012 Dumaine St",
    "address_councildis": "A",
    "status": "Pending",
    "rowid": "1121898",
    "final_x": "3675996.40635",
    "final_y": "538285.141449",
    "longitude": "-90.08521601860488",
    "latitude": "29.974263488659293",
    "geocoded_column": {
      "latitude": "29.974263488659293",
      "longitude": "-90.08521601860488"
    }
  },
  {
    "service_request": "2024-1121897",
    "request_type": "Trash/Recycling",
    "request_reason": "Request a Large Item Pick Up",
    "date_created": "2024-08-14T17:48:27.000",
    "date_modified": "2024-08-14T17:48:28.000",
    "request_status": "Pending",
    "responsible_agency": "Department of Sanitation",
    "final_address": "4722 Miles Dr",
    "address_councildis": "D",
    "status": "Assigned to Contractor",
    "contractor": "IV Waste",
    "rowid": "1121897",
    "final_x": "3679612.39323",
    "final_y": "549069.147987",
    "longitude": "-90.07342139805507",
    "latitude": "30.003806925708204",
    "geocoded_column": {
      "latitude": "30.003806925708204",
      "longitude": "-90.07342139805507"
    }
  },
  {
    "service_request": "2024-1121896",
    "request_type": "Roads/Drainage",
    "request_reason": "Street Subsidence (Sinking)",
    "date_created": "2024-08-14T17:41:50.000",
    "date_modified": "2024-08-14T17:41:50.000",
    "request_status": "Pending",
    "responsible_agency": "Department of Public Works",
    "final_address": "7218 Green St",
    "address_councildis": "A",
    "status": "Pending",
    "rowid": "1121896",
    "final_x": "3664958.06516",
    "final_y": "528056.004287",
    "longitude": "-90.12041980192036",
    "latitude": "29.946462702490653",
    "geocoded_column": {
      "latitude": "29.946462702490653",
      "longitude": "-90.12041980192036"
    }
  },
  {
    "service_request": "2024-1121895",
    "request_type": "Trash/Recycling",
    "request_reason": "Request a Large Item Pick Up",
    "date_created": "2024-08-14T17:41:44.000",
    "date_modified": "2024-08-14T17:41:45.000",
    "request_status": "Pending",
    "responsible_agency": "Department of Sanitation",
    "final_address": "2715 Magazine St",
    "address_councildis": "B",
    "status": "Assigned to Contractor",
    "contractor": "IV Waste",
    "rowid": "1121895",
    "final_x": "3677180.11419",
    "final_y": "520953.217913",
    "longitude": "-90.08207533206196",
    "latitude": "29.926570975086243",
    "geocoded_column": {
      "latitude": "29.926570975086243",
      "longitude": "-90.08207533206196"
    }
  },
  {
    "service_request": "2024-1121894",
    "request_type": "Property Maintenance",
    "request_reason": "Property Maintenance",
    "date_created": "2024-08-14T17:36:18.000",
    "date_modified": "2024-08-14T17:36:18.000",
    "request_status": "Pending",
    "responsible_agency": "Department of Code Enforcement",
    "final_address": "10921 Kinneil Rd",
    "address_councildis": "E",
    "status": "Pending",
    "rowid": "1121894",
    "final_x": "3711338.14629",
    "final_y": "564312.724769",
    "longitude": "-89.97262350840509",
    "latitude": "30.04472342843068",
    "geocoded_column": {
      "latitude": "30.04472342843068",
      "longitude": "-89.97262350840509"
    }
  },
  {
    "service_request": "2024-1121893",
    "request_type": "Abandoned Vehicles",
    "request_reason": "Vehicle Blocking Your Driveway",
    "date_created": "2024-08-14T17:34:11.000",
    "date_modified": "2024-08-14T17:34:11.000",
    "request_status": "Pending",
    "responsible_agency": "Department of Public Works",
    "final_address": "1411 St Roch Ave",
    "address_councildis": "C",
    "status": "Pending",
    "rowid": "1121893",
    "final_x": "3686471.64726",
    "final_y": "537631.51572",
    "longitude": "-90.05215591227086",
    "latitude": "29.972148346053917",
    "geocoded_column": {
      "latitude": "29.972148346053917",
      "longitude": "-90.05215591227086"
    }
  },
  {
    "service_request": "2024-1121892",
    "request_type": "Trash/Recycling",
    "request_reason": "Request a Large Item Pick Up",
    "date_created": "2024-08-14T17:05:34.000",
    "date_modified": "2024-08-14T17:05:34.000",
    "request_status": "Pending",
    "responsible_agency": "Department of Sanitation",
    "final_address": "2253 Urquhart St",
    "address_councildis": "C",
    "status": "Assigned to Contractor",
    "contractor": "IV Waste",
    "rowid": "1121892",
    "final_x": "3685515.33372",
    "final_y": "537117.531016",
    "longitude": "-90.05519421091519",
    "latitude": "29.970764433782037",
    "geocoded_column": {
      "latitude": "29.970764433782037",
      "longitude": "-90.05519421091519"
    }
  },
  {
    "service_request": "2024-1121891",
    "request_type": "Trash/Recycling",
    "request_reason": "Repair Trash Cart",
    "date_created": "2024-08-14T17:00:28.000",
    "date_modified": "2024-08-14T17:00:29.000",
    "request_status": "Pending",
    "responsible_agency": "Department of Sanitation",
    "final_address": "1745 Arabella St",
    "address_councildis": "A",
    "status": "Assigned to Contractor",
    "contractor": "IV Waste",
    "rowid": "1121891",
    "final_x": "3666889.76935",
    "final_y": "522884.683835",
    "longitude": "-90.11449438432834",
    "latitude": "29.932186865174955",
    "geocoded_column": {
      "latitude": "29.932186865174955",
      "longitude": "-90.11449438432834"
    }
  },
  {
    "service_request": "2024-1121890",
    "request_type": "Trash/Recycling",
    "request_reason": "Illegal Dumping",
    "date_created": "2024-08-14T16:58:48.000",
    "date_modified": "2024-08-14T16:58:48.000",
    "request_status": "Pending",
    "responsible_agency": "Department of Sanitation",
    "final_address": "N GALVEZ ST & DESIRE ST",
    "address_councildis": "D",
    "status": "Pending",
    "rowid": "1121890",
    "final_x": "3691110.6",
    "final_y": "539473.98",
    "longitude": "-90.03743957088977",
    "latitude": "29.977071033033496",
    "geocoded_column": {
      "latitude": "29.977071033033496",
      "longitude": "-90.03743957088977"
    }
  },
  {
    "service_request": "2024-1121889",
    "request_type": "Trash/Recycling",
    "request_reason": "Missed Trash Pick-Up",
    "date_created": "2024-08-14T16:50:30.000",
    "date_modified": "2024-08-14T16:50:31.000",
    "request_status": "Pending",
    "responsible_agency": "Department of Sanitation",
    "final_address": "6811 Norwood Ct",
    "address_councildis": "E",
    "status": "Assigned to Contractor",
    "contractor": "Waste Pro",
    "rowid": "1121889",
    "final_x": "3701256.5457",
    "final_y": "557009.765658",
    "longitude": "-90.00475346005435",
    "latitude": "30.02496846639835",
    "geocoded_column": {
      "latitude": "30.02496846639835",
      "longitude": "-90.00475346005435"
    }
  },
  {
    "service_request": "2024-1121888",
    "request_type": "Trash/Recycling",
    "request_reason": "Return Recycling Cart",
    "date_created": "2024-08-14T16:44:37.000",
    "date_modified": "2024-08-14T16:44:37.000",
    "request_status": "Pending",
    "responsible_agency": "Department of Sanitation",
    "final_address": "6018 Louis Xiv St",
    "address_councildis": "A",
    "status": "Pending",
    "rowid": "1121888",
    "final_x": "3667998.95719",
    "final_y": "547475.983889",
    "longitude": "-90.11016405932625",
    "latitude": "29.999772282663635",
    "geocoded_column": {
      "latitude": "29.999772282663635",
      "longitude": "-90.11016405932625"
    }
  },
  {
    "service_request": "2024-1121887",
    "request_type": "Abandoned Vehicles",
    "request_reason": "Abandoned/Junk Vehicles",
    "date_created": "2024-08-14T16:43:26.000",
    "date_modified": "2024-08-14T16:46:44.000",
    "request_status": "Pending",
    "responsible_agency": "Department of Public Works",
    "final_address": "BANKS ST & S BERNADOTTE ST",
    "address_councildis": "A",
    "status": "Pending",
    "rowid": "1121887",
    "final_x": "3668083.2",
    "final_y": "539091.18",
    "longitude": "-90.11018068361487",
    "latitude": "29.976714458673086",
    "geocoded_column": {
      "latitude": "29.976714458673086",
      "longitude": "-90.11018068361487"
    }
  },
  {
    "service_request": "2024-1121886",
    "request_type": "Trash/Recycling",
    "request_reason": "Missed Trash Pick-Up",
    "date_created": "2024-08-14T16:42:10.000",
    "date_modified": "2024-08-14T16:42:11.000",
    "request_status": "Pending",
    "responsible_agency": "Department of Sanitation",
    "final_address": "6018 Louis Xiv St",
    "address_councildis": "A",
    "status": "Assigned to Contractor",
    "contractor": "IV Waste",
    "rowid": "1121886",
    "final_x": "3667998.95719",
    "final_y": "547475.983889",
    "longitude": "-90.11016405932625",
    "latitude": "29.999772282663635",
    "geocoded_column": {
      "latitude": "29.999772282663635",
      "longitude": "-90.11016405932625"
    }
  },
  {
    "service_request": "2024-1121885",
    "request_type": "Property Maintenance",
    "request_reason": "Property Maintenance",
    "date_created": "2024-08-14T16:37:11.000",
    "date_modified": "2024-08-14T16:37:11.000",
    "request_status": "Pending",
    "responsible_agency": "Department of Code Enforcement",
    "final_address": "1327 St Bernard Ave",
    "address_councildis": "C",
    "status": "Pending",
    "rowid": "1121885",
    "final_x": "3682807.66191",
    "final_y": "536750.708168",
    "longitude": "-90.06375819814589",
    "latitude": "29.969838567877073",
    "geocoded_column": {
      "latitude": "29.969838567877073",
      "longitude": "-90.06375819814589"
    }
  },
  {
    "service_request": "2024-1121884",
    "request_type": "Trash/Recycling",
    "request_reason": "Request a Large Item Pick Up",
    "date_created": "2024-08-14T16:34:17.000",
    "date_modified": "2024-08-14T16:34:18.000",
    "request_status": "Pending",
    "responsible_agency": "Department of Sanitation",
    "final_address": "1943 Tennessee St",
    "address_councildis": "E",
    "status": "Assigned to Contractor",
    "contractor": "Waste Pro",
    "rowid": "1121884",
    "final_x": "3696659.64035",
    "final_y": "537641.650312",
    "longitude": "-90.01998033614576",
    "latitude": "29.97185905790134",
    "geocoded_column": {
      "latitude": "29.97185905790134",
      "longitude": "-90.01998033614576"
    }
  },
  {
    "service_request": "2024-1121883",
    "request_type": "Trash/Recycling",
    "request_reason": "Request a Large Item Pick Up",
    "date_created": "2024-08-14T16:32:35.000",
    "date_modified": "2024-08-14T16:32:36.000",
    "request_status": "Pending",
    "responsible_agency": "Department of Sanitation",
    "final_address": "6920 E Laverne St",
    "address_councildis": "D",
    "status": "Assigned to Contractor",
    "contractor": "Waste Pro",
    "rowid": "1121883",
    "final_x": "3697135.59018",
    "final_y": "556628.768666",
    "longitude": "-90.01778876825183",
    "latitude": "30.02405160784128",
    "geocoded_column": {
      "latitude": "30.02405160784128",
      "longitude": "-90.01778876825183"
    }
  },
  {
    "service_request": "2024-1121882",
    "request_type": "Trash/Recycling",
    "request_reason": "Request a Large Item Pick Up",
    "date_created": "2024-08-14T16:32:18.000",
    "date_modified": "2024-08-14T16:32:19.000",
    "request_status": "Pending",
    "responsible_agency": "Department of Sanitation",
    "final_address": "6552 Virgilian St",
    "address_councildis": "D",
    "status": "Assigned to Contractor",
    "contractor": "Waste Pro",
    "rowid": "1121882",
    "final_x": "3697192.93136",
    "final_y": "555436.854617",
    "longitude": "-90.01765082661952",
    "latitude": "30.020772486847964",
    "geocoded_column": {
      "latitude": "30.020772486847964",
      "longitude": "-90.01765082661952"
    }
  },
  {
    "service_request": "2024-1121881",
    "request_type": "Roads/Drainage",
    "request_reason": "Man hole cover issue",
    "date_created": "2024-08-14T16:28:47.000",
    "date_modified": "2024-08-14T16:28:48.000",
    "request_status": "Pending",
    "responsible_agency": "Department of Public Works",
    "final_address": "PALMETTO ST & S CARROLLTON AVE & WASHINGTON AVE",
    "address_councildis": "B",
    "status": "Pending",
    "rowid": "1121881",
    "final_x": "3668174.1",
    "final_y": "535021.78",
    "longitude": "-90.11003080524364",
    "latitude": "29.965522300298428",
    "geocoded_column": {
      "latitude": "29.965522300298428",
      "longitude": "-90.11003080524364"
    }
  },
  {
    "service_request": "2024-1121880",
    "request_type": "Trash/Recycling",
    "request_reason": "Illegal Dumping",
    "date_created": "2024-08-14T16:28:17.000",
    "date_modified": "2024-08-14T16:28:17.000",
    "request_status": "Pending",
    "responsible_agency": "Department of Sanitation",
    "final_address": "4731 Banks St",
    "address_councildis": "A",
    "status": "Pending",
    "rowid": "1121880",
    "final_x": "3668224.23809",
    "final_y": "539092.403658",
    "longitude": "-90.1097351986732",
    "latitude": "29.976713682841627",
    "geocoded_column": {
      "latitude": "29.976713682841627",
      "longitude": "-90.1097351986732"
    }
  },
  {
    "service_request": "2024-1121879",
    "request_type": "Trash/Recycling",
    "request_reason": "Missed Trash Pick-Up",
    "date_created": "2024-08-14T16:28:10.000",
    "date_modified": "2024-08-14T16:28:11.000",
    "request_status": "Pending",
    "responsible_agency": "Department of Sanitation",
    "final_address": "8800 BLK Apricot St",
    "address_councildis": "A",
    "status": "Assigned to Contractor",
    "contractor": "IV Waste",
    "rowid": "1121879",
    "final_x": "3663865.34907",
    "final_y": "534406.030713",
    "longitude": "-90.12365824663132",
    "latitude": "29.963954973854896",
    "geocoded_column": {
      "latitude": "29.963954973854896",
      "longitude": "-90.12365824663132"
    }
  },
  {
    "service_request": "2024-1121878",
    "request_type": "Trash/Recycling",
    "request_reason": "Replace Trash Cart",
    "date_created": "2024-08-14T16:27:28.000",
    "date_modified": "2024-08-14T16:27:29.000",
    "request_status": "Pending",
    "responsible_agency": "Department of Sanitation",
    "final_address": "3201 S Saratoga St",
    "address_councildis": "B",
    "status": "Assigned to Contractor",
    "contractor": "IV Waste",
    "rowid": "1121878",
    "final_x": "3673995.0827",
    "final_y": "523446.062267",
    "longitude": "-90.09204436878244",
    "latitude": "29.93352074182985",
    "geocoded_column": {
      "latitude": "29.93352074182985",
      "longitude": "-90.09204436878244"
    }
  },
  {
    "service_request": "2024-1121877",
    "request_type": "Trash/Recycling",
    "request_reason": "Replace Recycling Cart",
    "date_created": "2024-08-14T16:27:11.000",
    "date_modified": "2024-08-14T16:27:12.000",
    "request_status": "Pending",
    "responsible_agency": "Department of Sanitation",
    "final_address": "3201 S Saratoga St",
    "address_councildis": "B",
    "status": "Pending",
    "rowid": "1121877",
    "final_x": "3673995.0827",
    "final_y": "523446.062267",
    "longitude": "-90.09204436878244",
    "latitude": "29.93352074182985",
    "geocoded_column": {
      "latitude": "29.93352074182985",
      "longitude": "-90.09204436878244"
    }
  },
  {
    "service_request": "2024-1121876",
    "request_type": "Property Maintenance",
    "request_reason": "Property Maintenance",
    "date_created": "2024-08-14T16:26:25.000",
    "date_modified": "2024-08-14T16:26:25.000",
    "request_status": "Pending",
    "responsible_agency": "Department of Code Enforcement",
    "final_address": "1325 St Bernard Ave",
    "address_councildis": "C",
    "status": "Pending",
    "rowid": "1121876",
    "final_x": "3682826.55804",
    "final_y": "536716.491911",
    "longitude": "-90.06369971978457",
    "latitude": "29.969743909301506",
    "geocoded_column": {
      "latitude": "29.969743909301506",
      "longitude": "-90.06369971978457"
    }
  },
  {
    "service_request": "2024-1121875",
    "request_type": "Abandoned Vehicles",
    "request_reason": "Abandoned/Junk Vehicles",
    "date_created": "2024-08-14T16:23:47.000",
    "date_modified": "2024-08-14T16:23:48.000",
    "request_status": "Pending",
    "responsible_agency": "Department of Public Works",
    "final_address": "4433 DHemecourt St",
    "address_councildis": "A",
    "status": "Pending",
    "rowid": "1121875",
    "final_x": "3668597.32295",
    "final_y": "537790.686664",
    "longitude": "-90.1086008197032",
    "latitude": "29.97312343857222",
    "geocoded_column": {
      "latitude": "29.97312343857222",
      "longitude": "-90.1086008197032"
    }
  },
  {
    "service_request": "2024-1121874",
    "request_type": "Trash/Recycling",
    "request_reason": "Repair Recycling Cart",
    "date_created": "2024-08-14T16:21:33.000",
    "date_modified": "2024-08-14T16:21:35.000",
    "request_status": "Pending",
    "responsible_agency": "Department of Sanitation",
    "final_address": "79 Versailles Blvd",
    "address_councildis": "B",
    "status": "Pending",
    "rowid": "1121874",
    "final_x": "3667937.87425",
    "final_y": "530679.34509",
    "longitude": "-90.11092309470695",
    "latitude": "29.953588967502302",
    "geocoded_column": {
      "latitude": "29.953588967502302",
      "longitude": "-90.11092309470695"
    }
  },
  {
    "service_request": "2024-1121873",
    "request_type": "Trash/Recycling",
    "request_reason": "Replace Trash Cart",
    "date_created": "2024-08-14T16:19:58.000",
    "date_modified": "2024-08-14T16:19:59.000",
    "request_status": "Pending",
    "responsible_agency": "Department of Sanitation",
    "final_address": "Yellowstone Court & Yellowstone Drive",
    "address_councildis": "C",
    "status": "Assigned to Contractor",
    "contractor": "Richards Disposal",
    "rowid": "1121873",
    "final_x": "3699518.32861",
    "final_y": "518052.589238",
    "longitude": "-90.01166578714042",
    "latitude": "29.917905602199323",
    "geocoded_column": {
      "latitude": "29.917905602199323",
      "longitude": "-90.01166578714042"
    }
  },
  {
    "service_request": "2024-1121872",
    "request_type": "Roads/Drainage",
    "request_reason": "Man hole cover issue",
    "date_created": "2024-08-14T16:15:06.000",
    "date_modified": "2024-08-14T16:15:07.000",
    "request_status": "Pending",
    "responsible_agency": "Department of Public Works",
    "final_address": "1009 Jefferson Ave",
    "address_councildis": "B",
    "status": "Pending",
    "rowid": "1121872",
    "final_x": "3666926.44609",
    "final_y": "519235.137655",
    "longitude": "-90.11450115098555",
    "latitude": "29.922150695835786",
    "geocoded_column": {
      "latitude": "29.922150695835786",
      "longitude": "-90.11450115098555"
    }
  },
  {
    "service_request": "2024-1121871",
    "request_type": "Trash/Recycling",
    "request_reason": "Request a Large Item Pick Up",
    "date_created": "2024-08-14T16:14:30.000",
    "date_modified": "2024-08-14T16:14:31.000",
    "request_status": "Pending",
    "responsible_agency": "Department of Sanitation",
    "final_address": "603 Fats Domino Ave",
    "address_councildis": "E",
    "status": "Assigned to Contractor",
    "contractor": "Waste Pro",
    "rowid": "1121871",
    "final_x": "3697601.45994",
    "final_y": "531965.147139",
    "longitude": "-90.01721185211875",
    "latitude": "29.956220979519568",
    "geocoded_column": {
      "latitude": "29.956220979519568",
      "longitude": "-90.01721185211875"
    }
  },
  {
    "service_request": "2024-1121870",
    "request_type": "Trash/Recycling",
    "request_reason": "Request a Large Item Pick Up",
    "date_created": "2024-08-14T16:13:53.000",
    "date_modified": "2024-08-14T16:13:54.000",
    "request_status": "Pending",
    "responsible_agency": "Department of Sanitation",
    "final_address": "603 Fats Domino Ave",
    "address_councildis": "E",
    "status": "Assigned to Contractor",
    "contractor": "Waste Pro",
    "rowid": "1121870",
    "final_x": "3697601.45994",
    "final_y": "531965.147139",
    "longitude": "-90.01721185211875",
    "latitude": "29.956220979519568",
    "geocoded_column": {
      "latitude": "29.956220979519568",
      "longitude": "-90.01721185211875"
    }
  },
  {
    "service_request": "2024-1121869",
    "request_type": "Trash/Recycling",
    "request_reason": "Request a Large Item Pick Up",
    "date_created": "2024-08-14T16:09:31.000",
    "date_modified": "2024-08-14T16:09:32.000",
    "request_status": "Pending",
    "responsible_agency": "Department of Sanitation",
    "final_address": "503 Flood St",
    "address_councildis": "E",
    "status": "Assigned to Contractor",
    "contractor": "Waste Pro",
    "rowid": "1121869",
    "final_x": "3697175.14928",
    "final_y": "531722.985539",
    "longitude": "-90.01856676391063",
    "latitude": "29.955568577699985",
    "geocoded_column": {
      "latitude": "29.955568577699985",
      "longitude": "-90.01856676391063"
    }
  },
  {
    "service_request": "2024-1121868",
    "request_type": "Trash/Recycling",
    "request_reason": "Request a Large Item Pick Up",
    "date_created": "2024-08-14T16:04:16.000",
    "date_modified": "2024-08-14T16:04:17.000",
    "request_status": "Pending",
    "responsible_agency": "Department of Sanitation",
    "final_address": "2823 General Pershing St",
    "address_councildis": "B",
    "status": "Assigned to Contractor",
    "contractor": "IV Waste",
    "rowid": "1121868",
    "final_x": "3670861.99156",
    "final_y": "525318.063997",
    "longitude": "-90.10187187492342",
    "latitude": "29.938761096022596",
    "geocoded_column": {
      "latitude": "29.938761096022596",
      "longitude": "-90.10187187492342"
    }
  },
  {
    "service_request": "2024-1121867",
    "request_type": "Roads/Drainage",
    "request_reason": "Pothole",
    "date_created": "2024-08-14T16:02:57.000",
    "date_modified": "2024-08-14T16:02:57.000",
    "request_status": "Pending",
    "responsible_agency": "Department of Public Works",
    "final_address": "4500 Old Gentilly Rd",
    "address_councildis": "D",
    "status": "Pending",
    "rowid": "1121867",
    "final_x": "3691035.95836",
    "final_y": "548891.472787",
    "longitude": "-90.03733890136026",
    "latitude": "30.00296806019982",
    "geocoded_column": {
      "latitude": "30.00296806019982",
      "longitude": "-90.03733890136026"
    }
  },
  {
    "service_request": "2024-1121866",
    "request_type": "Property Maintenance",
    "request_reason": "Property Maintenance",
    "date_created": "2024-08-14T16:02:23.000",
    "date_modified": "2024-08-14T16:02:24.000",
    "request_status": "Pending",
    "responsible_agency": "Department of Code Enforcement",
    "final_address": "7000 Pinebrook Dr",
    "address_councildis": "E",
    "status": "Pending",
    "rowid": "1121866",
    "final_x": "3719671.18777",
    "final_y": "569500.592102",
    "longitude": "-89.94608905337027",
    "latitude": "30.058713193562415",
    "geocoded_column": {
      "latitude": "30.058713193562415",
      "longitude": "-89.94608905337027"
    }
  },
  {
    "service_request": "2024-1121865",
    "request_type": "Property Maintenance",
    "request_reason": "Property Maintenance",
    "date_created": "2024-08-14T16:01:32.000",
    "date_modified": "2024-08-14T16:01:33.000",
    "request_status": "Pending",
    "responsible_agency": "Department of Code Enforcement",
    "final_address": "4331 Dale St",
    "address_councildis": "E",
    "status": "Pending",
    "rowid": "1121865",
    "final_x": "3699703.86551",
    "final_y": "552810.64431",
    "longitude": "-90.00981290937253",
    "latitude": "30.013471892056863",
    "geocoded_column": {
      "latitude": "30.013471892056863",
      "longitude": "-90.00981290937253"
    }
  },
  {
    "service_request": "2024-1121864",
    "request_type": "Property Maintenance",
    "request_reason": "Property Maintenance",
    "date_created": "2024-08-14T15:58:43.000",
    "date_modified": "2024-08-14T15:58:44.000",
    "request_status": "Pending",
    "responsible_agency": "Department of Code Enforcement",
    "final_address": "2601 Louisa St",
    "address_councildis": "D",
    "status": "Pending",
    "rowid": "1121864",
    "final_x": "3691042.7608",
    "final_y": "541553.329676",
    "longitude": "-90.03757956359716",
    "latitude": "29.982790612208376",
    "geocoded_column": {
      "latitude": "29.982790612208376",
      "longitude": "-90.03757956359716"
    }
  },
  {
    "service_request": "2024-1121863",
    "request_type": "Abandoned Vehicles",
    "request_reason": "Abandoned/Junk Vehicles",
    "date_created": "2024-08-14T15:57:43.000",
    "date_modified": "2024-08-14T15:57:44.000",
    "request_status": "Pending",
    "responsible_agency": "Department of Public Works",
    "final_address": "8608 Marks St",
    "address_councildis": "A",
    "status": "Pending",
    "rowid": "1121863",
    "final_x": "3667466.20359",
    "final_y": "537236.656456",
    "longitude": "-90.11219177811225",
    "latitude": "29.97163323545828",
    "geocoded_column": {
      "latitude": "29.97163323545828",
      "longitude": "-90.11219177811225"
    }
  },
  {
    "service_request": "2024-1121862",
    "request_type": "Trash/Recycling",
    "request_reason": "Request a Large Item Pick Up",
    "date_created": "2024-08-14T15:57:31.000",
    "date_modified": "2024-08-14T15:57:31.000",
    "request_status": "Pending",
    "responsible_agency": "Department of Sanitation",
    "final_address": "4119 Laurel St",
    "address_councildis": "B",
    "status": "Assigned to Contractor",
    "contractor": "IV Waste",
    "rowid": "1121862",
    "final_x": "3672057.59521",
    "final_y": "518183.084342",
    "longitude": "-90.098339999725",
    "latitude": "29.91910680930641",
    "geocoded_column": {
      "latitude": "29.91910680930641",
      "longitude": "-90.098339999725"
    }
  },
  {
    "service_request": "2024-1121861",
    "request_type": "Trash/Recycling",
    "request_reason": "Missed Trash Pick-Up",
    "date_created": "2024-08-14T15:54:59.000",
    "date_modified": "2024-08-14T20:47:19.000",
    "case_close_date": "2024-08-14T15:47:19.000",
    "request_status": "Closed",
    "responsible_agency": "Department of Sanitation",
    "final_address": "4129 Piedmont Dr",
    "address_councildis": "D",
    "status": "Invalid Request",
    "contractor": "IV Waste",
    "contractor_action": "Invalid",
    "rowid": "1121861",
    "final_x": "3685052.06863",
    "final_y": "547905.210002",
    "longitude": "-90.05627755475281",
    "latitude": "30.00044093272901",
    "geocoded_column": {
      "latitude": "30.00044093272901",
      "longitude": "-90.05627755475281"
    }
  },
  {
    "service_request": "2024-1121860",
    "request_type": "Trash/Recycling",
    "request_reason": "Request a Large Item Pick Up",
    "date_created": "2024-08-14T15:54:21.000",
    "date_modified": "2024-08-14T15:54:21.000",
    "request_status": "Pending",
    "responsible_agency": "Department of Sanitation",
    "final_address": "422 State St",
    "address_councildis": "A",
    "status": "Assigned to Contractor",
    "contractor": "IV Waste",
    "rowid": "1121860",
    "final_x": "3664261.60199",
    "final_y": "518046.46175",
    "longitude": "-90.12295263077425",
    "latitude": "29.918959881492093",
    "geocoded_column": {
      "latitude": "29.918959881492093",
      "longitude": "-90.12295263077425"
    }
  },
  {
    "service_request": "2024-1121859",
    "request_type": "Trash/Recycling",
    "request_reason": "Request a Large Item Pick Up",
    "date_created": "2024-08-14T15:48:28.000",
    "date_modified": "2024-08-14T15:48:29.000",
    "request_status": "Pending",
    "responsible_agency": "Department of Sanitation",
    "final_address": "1546 Tropic Dr",
    "address_councildis": "C",
    "status": "Assigned to Contractor",
    "contractor": "Richards Disposal",
    "rowid": "1121859",
    "final_x": "3699559.94519",
    "final_y": "525175.344061",
    "longitude": "-90.01127502573107",
    "latitude": "29.937489406257747",
    "geocoded_column": {
      "latitude": "29.937489406257747",
      "longitude": "-90.01127502573107"
    }
  },
  {
    "service_request": "2024-1121858",
    "request_type": "Roads/Drainage",
    "request_reason": "Debris in Roadway",
    "date_created": "2024-08-14T15:47:08.000",
    "date_modified": "2024-08-14T15:48:42.000",
    "request_status": "Pending",
    "responsible_agency": "Department of Public Works",
    "final_address": "4001 France road Parkway",
    "address_councildis": "D",
    "rowid": "1121858",
    "final_x": "3693749.16073",
    "final_y": "543831.154894",
    "longitude": "-90.02894952785397",
    "latitude": "29.98896937793405",
    "geocoded_column": {
      "latitude": "29.98896937793405",
      "longitude": "-90.02894952785397"
    }
  },
  {
    "service_request": "2024-1121857",
    "request_type": "Roads/Drainage",
    "request_reason": "Catch Basin - Clogged",
    "date_created": "2024-08-14T15:44:28.000",
    "date_modified": "2024-08-14T15:44:29.000",
    "request_status": "Pending",
    "responsible_agency": "Department of Public Works",
    "final_address": "1020 St Andrew St",
    "address_councildis": "B",
    "status": "Pending",
    "rowid": "1121857",
    "final_x": "3679597.9309",
    "final_y": "522435.515642",
    "longitude": "-90.0743915399311",
    "latitude": "29.930573988584392",
    "geocoded_column": {
      "latitude": "29.930573988584392",
      "longitude": "-90.0743915399311"
    }
  },
  {
    "service_request": "2024-1121856",
    "request_type": "Abandoned Vehicles",
    "request_reason": "Abandoned/Junk Vehicles",
    "date_created": "2024-08-14T15:41:17.000",
    "date_modified": "2024-08-14T15:41:17.000",
    "request_status": "Pending",
    "responsible_agency": "Department of Public Works",
    "final_address": "924 Spain St",
    "address_councildis": "C",
    "status": "Pending",
    "rowid": "1121856",
    "final_x": "3686141.83145",
    "final_y": "535886.395207",
    "longitude": "-90.05325909373528",
    "latitude": "29.9673600086928",
    "geocoded_column": {
      "latitude": "29.9673600086928",
      "longitude": "-90.05325909373528"
    }
  },
  {
    "service_request": "2024-1121855",
    "request_type": "Trash/Recycling",
    "request_reason": "Request a Large Item Pick Up",
    "date_created": "2024-08-14T15:39:15.000",
    "date_modified": "2024-08-14T15:39:39.000",
    "request_status": "Pending",
    "responsible_agency": "Department of Sanitation",
    "final_address": "4734 Francisco Verrett Dr",
    "address_councildis": "E",
    "status": "Assigned to Contractor",
    "contractor": "Waste Pro",
    "rowid": "1121855",
    "final_x": "3704178.94071",
    "final_y": "555212.017881",
    "longitude": "-89.99558555218563",
    "latitude": "30.019931860375355",
    "geocoded_column": {
      "latitude": "30.019931860375355",
      "longitude": "-89.99558555218563"
    }
  },
  {
    "service_request": "2024-1121854",
    "request_type": "Trash/Recycling",
    "request_reason": "Return Trash Cart",
    "date_created": "2024-08-14T15:36:24.000",
    "date_modified": "2024-08-14T15:36:24.000",
    "request_status": "Pending",
    "responsible_agency": "Department of Sanitation",
    "final_address": "2523 Rousseau St",
    "address_councildis": "B",
    "status": "Assigned to Contractor",
    "contractor": "IV Waste",
    "rowid": "1121854",
    "final_x": "3678878.9773",
    "final_y": "519372.315959",
    "longitude": "-90.07676721507802",
    "latitude": "29.922172888955373",
    "geocoded_column": {
      "latitude": "29.922172888955373",
      "longitude": "-90.07676721507802"
    }
  },
  {
    "service_request": "2024-1121853",
    "request_type": "Abandoned Vehicles",
    "request_reason": "Abandoned/Junk Vehicles",
    "date_created": "2024-08-14T15:36:09.000",
    "date_modified": "2024-08-14T15:36:10.000",
    "request_status": "Pending",
    "responsible_agency": "Department of Public Works",
    "final_address": "1842 Annunciation St",
    "address_councildis": "B",
    "status": "Pending",
    "rowid": "1121853",
    "final_x": "3680633.40578",
    "final_y": "522069.477946",
    "longitude": "-90.07113542953681",
    "latitude": "29.92953618215425",
    "geocoded_column": {
      "latitude": "29.92953618215425",
      "longitude": "-90.07113542953681"
    }
  },
  {
    "service_request": "2024-1121852",
    "request_type": "Trash/Recycling",
    "request_reason": "Request a Large Item Pick Up",
    "date_created": "2024-08-14T15:33:52.000",
    "date_modified": "2024-08-14T15:33:53.000",
    "request_status": "Pending",
    "responsible_agency": "Department of Sanitation",
    "final_address": "7400 Fieldston Rd",
    "address_councildis": "E",
    "status": "Assigned to Contractor",
    "contractor": "Waste Pro",
    "rowid": "1121852",
    "final_x": "3700641.00356",
    "final_y": "559915.356189",
    "longitude": "-90.00659215483287",
    "latitude": "30.03297732895083",
    "geocoded_column": {
      "latitude": "30.03297732895083",
      "longitude": "-90.00659215483287"
    }
  },
  {
    "service_request": "2024-1121851",
    "request_type": "Trash/Recycling",
    "request_reason": "Request a Large Item Pick Up",
    "date_created": "2024-08-14T15:33:19.000",
    "date_modified": "2024-08-14T15:33:20.000",
    "request_status": "Pending",
    "responsible_agency": "Department of Sanitation",
    "final_address": "3507 Nashville Ave",
    "address_councildis": "A",
    "status": "Assigned to Contractor",
    "contractor": "IV Waste",
    "rowid": "1121851",
    "final_x": "3668279.3778",
    "final_y": "528505.468224",
    "longitude": "-90.10991805566245",
    "latitude": "29.94760149341001",
    "geocoded_column": {
      "latitude": "29.94760149341001",
      "longitude": "-90.10991805566245"
    }
  },
  {
    "service_request": "2024-1121850",
    "request_type": "Trash/Recycling",
    "request_reason": "Request a Large Item Pick Up",
    "date_created": "2024-08-14T15:33:02.000",
    "date_modified": "2024-08-14T15:33:03.000",
    "request_status": "Pending",
    "responsible_agency": "Department of Sanitation",
    "final_address": "2523 Rousseau St",
    "address_councildis": "B",
    "status": "Assigned to Contractor",
    "contractor": "IV Waste",
    "rowid": "1121850",
    "final_x": "3678878.9773",
    "final_y": "519372.315959",
    "longitude": "-90.07676721507802",
    "latitude": "29.922172888955373",
    "geocoded_column": {
      "latitude": "29.922172888955373",
      "longitude": "-90.07676721507802"
    }
  },
  {
    "service_request": "2024-1121849",
    "request_type": "Trash/Recycling",
    "request_reason": "Repair Trash Cart",
    "date_created": "2024-08-14T15:31:21.000",
    "date_modified": "2024-08-14T15:31:22.000",
    "request_status": "Pending",
    "responsible_agency": "Department of Sanitation",
    "final_address": "4852 Constance St",
    "address_councildis": "B",
    "status": "Assigned to Contractor",
    "contractor": "IV Waste",
    "rowid": "1121849",
    "final_x": "3669168.36673",
    "final_y": "518184.48383",
    "longitude": "-90.10745979754064",
    "latitude": "29.91919596702823",
    "geocoded_column": {
      "latitude": "29.91919596702823",
      "longitude": "-90.10745979754064"
    }
  },
  {
    "service_request": "2024-1121848",
    "request_type": "Trash/Recycling",
    "request_reason": "Request a Large Item Pick Up",
    "date_created": "2024-08-14T15:23:33.000",
    "date_modified": "2024-08-14T15:23:34.000",
    "request_status": "Pending",
    "responsible_agency": "Department of Sanitation",
    "final_address": "1129 Spain St",
    "address_councildis": "C",
    "status": "Assigned to Contractor",
    "contractor": "IV Waste",
    "rowid": "1121848",
    "final_x": "3686151.95324",
    "final_y": "536713.939335",
    "longitude": "-90.05319793212811",
    "latitude": "29.969635156094157",
    "geocoded_column": {
      "latitude": "29.969635156094157",
      "longitude": "-90.05319793212811"
    }
  },
  {
    "service_request": "2024-1121847",
    "request_type": "Property Maintenance",
    "request_reason": "Property Maintenance",
    "date_created": "2024-08-14T15:22:10.000",
    "date_modified": "2024-08-14T15:22:10.000",
    "request_status": "Pending",
    "responsible_agency": "Department of Code Enforcement",
    "final_address": "3419 Havana St",
    "address_councildis": "D",
    "status": "Pending",
    "rowid": "1121847",
    "final_x": "3680922.17403",
    "final_y": "545029.213455",
    "longitude": "-90.0694243602041",
    "latitude": "29.99265887827166",
    "geocoded_column": {
      "latitude": "29.99265887827166",
      "longitude": "-90.0694243602041"
    }
  },
  {
    "service_request": "2024-1121846",
    "request_type": "Traffic Signals/Signs/Striping/Streetlights",
    "request_reason": "Crosswalks and Signage",
    "date_created": "2024-08-14T15:20:41.000",
    "date_modified": "2024-08-14T15:20:41.000",
    "request_status": "Pending",
    "responsible_agency": "Department of Public Works",
    "final_address": "MAGAZINE ST & DUFOSSAT ST",
    "address_councildis": "B",
    "status": "Pending",
    "rowid": "1121846",
    "final_x": "3668047.7",
    "final_y": "518615.98",
    "longitude": "-90.11098265499702",
    "latitude": "29.92041536510144",
    "geocoded_column": {
      "latitude": "29.92041536510144",
      "longitude": "-90.11098265499702"
    }
  },
  {
    "service_request": "2024-1121845",
    "request_type": "Trash/Recycling",
    "request_reason": "Return Trash Cart",
    "date_created": "2024-08-14T15:19:16.000",
    "date_modified": "2024-08-14T15:19:17.000",
    "request_status": "Pending",
    "responsible_agency": "Department of Sanitation",
    "final_address": "2025 Dauphine St",
    "address_councildis": "C",
    "status": "Assigned to Contractor",
    "contractor": "IV Waste",
    "rowid": "1121845",
    "final_x": "3684541.14332",
    "final_y": "535209.332422",
    "longitude": "-90.05833787501722",
    "latitude": "29.96554739268573",
    "geocoded_column": {
      "latitude": "29.96554739268573",
      "longitude": "-90.05833787501722"
    }
  },
  {
    "service_request": "2024-1121844",
    "request_type": "Trash/Recycling",
    "request_reason": "Order Recycling Cart",
    "date_created": "2024-08-14T15:19:00.000",
    "date_modified": "2024-08-14T15:19:00.000",
    "request_status": "Pending",
    "responsible_agency": "Department of Sanitation",
    "final_address": "6307 Pauline Dr",
    "address_councildis": "D",
    "status": "Pending",
    "rowid": "1121844",
    "final_x": "3691384.09417",
    "final_y": "556760.695514",
    "longitude": "-90.035957618296",
    "latitude": "30.02459466980848",
    "geocoded_column": {
      "latitude": "30.02459466980848",
      "longitude": "-90.035957618296"
    }
  },
  {
    "service_request": "2024-1121843",
    "request_type": "Abandoned Vehicles",
    "request_reason": "Abandoned/Junk Vehicles",
    "date_created": "2024-08-14T15:18:00.000",
    "date_modified": "2024-08-14T15:18:00.000",
    "request_status": "Pending",
    "responsible_agency": "Department of Public Works",
    "final_address": "1505 Ursulines Ave",
    "address_councildis": "C",
    "status": "Pending",
    "rowid": "1121843",
    "final_x": "3681175.38536",
    "final_y": "535428.775558",
    "longitude": "-90.06895914408167",
    "latitude": "29.96625333520863",
    "geocoded_column": {
      "latitude": "29.96625333520863",
      "longitude": "-90.06895914408167"
    }
  },
  {
    "service_request": "2024-1121842",
    "request_type": "Trash/Recycling",
    "request_reason": "Return Recycling Cart",
    "date_created": "2024-08-14T15:17:02.000",
    "date_modified": "2024-08-14T15:17:02.000",
    "request_status": "Pending",
    "responsible_agency": "Department of Sanitation",
    "final_address": "5801 Sutton Pl",
    "address_councildis": "C",
    "status": "Pending",
    "rowid": "1121842",
    "final_x": "3705375.69182",
    "final_y": "518532.610871",
    "longitude": "-89.99315973716017",
    "latitude": "29.919038424024613",
    "geocoded_column": {
      "latitude": "29.919038424024613",
      "longitude": "-89.99315973716017"
    }
  },
  {
    "service_request": "2024-1121841",
    "request_type": "Trash/Recycling",
    "request_reason": "Order Recycling Cart",
    "date_created": "2024-08-14T15:16:39.000",
    "date_modified": "2024-08-14T15:16:39.000",
    "request_status": "Pending",
    "responsible_agency": "Department of Sanitation",
    "final_address": "6307 Pauline Dr",
    "address_councildis": "D",
    "status": "Pending",
    "rowid": "1121841",
    "final_x": "3691384.09417",
    "final_y": "556760.695514",
    "longitude": "-90.035957618296",
    "latitude": "30.02459466980848",
    "geocoded_column": {
      "latitude": "30.02459466980848",
      "longitude": "-90.035957618296"
    }
  },
  {
    "service_request": "2024-1121840",
    "request_type": "Healthy Homes",
    "request_reason": "Healthy Homes",
    "date_created": "2024-08-14T15:16:35.000",
    "date_modified": "2024-08-14T15:16:36.000",
    "request_status": "Pending",
    "responsible_agency": "Department of Code Enforcement",
    "final_address": "2640 Jasmine St",
    "address_councildis": "D",
    "status": "Pending",
    "rowid": "1121840",
    "final_x": "3687354.64342",
    "final_y": "548078.745938",
    "longitude": "-90.04899745012106",
    "latitude": "30.000847329954134",
    "geocoded_column": {
      "latitude": "30.000847329954134",
      "longitude": "-90.04899745012106"
    }
  },
  {
    "service_request": "2024-1121839",
    "request_type": "Trash/Recycling",
    "request_reason": "Repair Trash Cart",
    "date_created": "2024-08-14T15:14:44.000",
    "date_modified": "2024-08-14T15:14:45.000",
    "request_status": "Pending",
    "responsible_agency": "Department of Sanitation",
    "final_address": "1000 Josephine St",
    "address_councildis": "B",
    "status": "Assigned to Contractor",
    "contractor": "IV Waste",
    "rowid": "1121839",
    "final_x": "3679345.70043",
    "final_y": "522025.157178",
    "longitude": "-90.07520201797011",
    "latitude": "29.92945325499841",
    "geocoded_column": {
      "latitude": "29.92945325499841",
      "longitude": "-90.07520201797011"
    }
  },
  {
    "service_request": "2024-1121838",
    "request_type": "Trash/Recycling",
    "request_reason": "Repair Trash Cart",
    "date_created": "2024-08-14T15:13:16.000",
    "date_modified": "2024-08-14T15:13:17.000",
    "request_status": "Pending",
    "responsible_agency": "Department of Sanitation",
    "final_address": "5852 Tullis Dr",
    "address_councildis": "C",
    "status": "Assigned to Contractor",
    "contractor": "Richards Disposal",
    "rowid": "1121838",
    "final_x": "3705602.59019",
    "final_y": "513185.322482",
    "longitude": "-89.99264102963106",
    "latitude": "29.9043279206597",
    "geocoded_column": {
      "latitude": "29.9043279206597",
      "longitude": "-89.99264102963106"
    }
  },
  {
    "service_request": "2024-1121837",
    "request_type": "Traffic Signals/Signs/Striping/Streetlights",
    "request_reason": "Street Light Knocked Down/Leaning",
    "date_created": "2024-08-14T15:12:58.000",
    "date_modified": "2024-08-14T15:12:59.000",
    "request_status": "Pending",
    "responsible_agency": "Department of Public Works",
    "final_address": "1141 Royal St",
    "address_councildis": "C",
    "status": "Pending",
    "contractor": "Legacy Professional Services",
    "rowid": "1121837",
    "final_x": "3683610.023",
    "final_y": "533903.300677",
    "longitude": "-90.06132409522782",
    "latitude": "29.961984710340097",
    "geocoded_column": {
      "latitude": "29.961984710340097",
      "longitude": "-90.06132409522782"
    }
  },
  {
    "service_request": "2024-1121836",
    "request_type": "Trash/Recycling",
    "request_reason": "Request a Large Item Pick Up",
    "date_created": "2024-08-14T15:11:33.000",
    "date_modified": "2024-08-14T15:11:34.000",
    "request_status": "Pending",
    "responsible_agency": "Department of Sanitation",
    "final_address": "4710 Good Dr",
    "address_councildis": "E",
    "status": "Assigned to Contractor",
    "contractor": "Waste Pro",
    "rowid": "1121836",
    "final_x": "3714732.27295",
    "final_y": "556660.594394",
    "longitude": "-89.96218600333246",
    "latitude": "30.023571874288557",
    "geocoded_column": {
      "latitude": "30.023571874288557",
      "longitude": "-89.96218600333246"
    }
  },
  {
    "service_request": "2024-1121835",
    "request_type": "Roads/Drainage",
    "request_reason": "Street Subsidence (Sinking)",
    "date_created": "2024-08-14T15:11:08.000",
    "date_modified": "2024-08-14T15:11:08.000",
    "request_status": "Pending",
    "responsible_agency": "Department of Public Works",
    "final_address": "3800 BLK Annunciation St",
    "address_councildis": "B",
    "status": "Pending",
    "rowid": "1121835",
    "final_x": "3673494.85376",
    "final_y": "518003.863386",
    "longitude": "-90.09380942084269",
    "latitude": "29.918571335748457",
    "geocoded_column": {
      "latitude": "29.918571335748457",
      "longitude": "-90.09380942084269"
    }
  },
  {
    "service_request": "2024-1121834",
    "request_type": "Abandoned Vehicles",
    "request_reason": "Abandoned/Junk Vehicles",
    "date_created": "2024-08-14T15:10:26.000",
    "date_modified": "2024-08-14T15:12:56.000",
    "request_status": "Pending",
    "responsible_agency": "Department of Public Works",
    "final_address": "4230 DHemecourt St",
    "address_councildis": "A",
    "status": "Pending",
    "rowid": "1121834",
    "final_x": "3669156.35514",
    "final_y": "537280.072072",
    "longitude": "-90.10685254133043",
    "latitude": "29.971702978100975",
    "geocoded_column": {
      "latitude": "29.971702978100975",
      "longitude": "-90.10685254133043"
    }
  },
  {
    "service_request": "2024-1121833",
    "request_type": "Trash/Recycling",
    "request_reason": "Return Trash Cart",
    "date_created": "2024-08-14T15:07:59.000",
    "date_modified": "2024-08-14T15:08:00.000",
    "request_status": "Pending",
    "responsible_agency": "Department of Sanitation",
    "final_address": "1202 Octavia St",
    "address_councildis": "A",
    "status": "Assigned to Contractor",
    "contractor": "IV Waste",
    "rowid": "1121833",
    "final_x": "3666752.18029",
    "final_y": "520458.044408",
    "longitude": "-90.11501019386108",
    "latitude": "29.925518399707617",
    "geocoded_column": {
      "latitude": "29.925518399707617",
      "longitude": "-90.11501019386108"
    }
  },
  {
    "service_request": "2024-1121832",
    "request_type": "Parks & Parkways",
    "request_reason": "Request Tree Service (Right of Way/Public Property)",
    "date_created": "2024-08-14T15:06:57.000",
    "date_modified": "2024-08-14T15:06:57.000",
    "request_status": "Pending",
    "responsible_agency": "Department of Parks & Parkway",
    "final_address": "THALIA ST & ANNUNCIATION ST",
    "address_councildis": "B",
    "status": "Pending",
    "rowid": "1121832",
    "final_x": "3681325.5",
    "final_y": "525052.78",
    "longitude": "-90.06884668594112",
    "latitude": "29.937718295114642",
    "geocoded_column": {
      "latitude": "29.937718295114642",
      "longitude": "-90.06884668594112"
    }
  },
  {
    "service_request": "2024-1121831",
    "request_type": "Trash/Recycling",
    "request_reason": "Repair Trash Cart",
    "date_created": "2024-08-14T15:06:41.000",
    "date_modified": "2024-08-14T15:06:42.000",
    "request_status": "Pending",
    "responsible_agency": "Department of Sanitation",
    "final_address": "1602 N Dorgenois St",
    "address_councildis": "D",
    "status": "Assigned to Contractor",
    "contractor": "IV Waste",
    "rowid": "1121831",
    "final_x": "3679615.14031",
    "final_y": "539820.17377",
    "longitude": "-90.07373391899146",
    "latitude": "29.97837541645975",
    "geocoded_column": {
      "latitude": "29.97837541645975",
      "longitude": "-90.07373391899146"
    }
  },
  {
    "service_request": "2024-1121830",
    "request_type": "Trash/Recycling",
    "request_reason": "Repair Trash Cart",
    "date_created": "2024-08-14T15:06:04.000",
    "date_modified": "2024-08-14T15:06:05.000",
    "request_status": "Pending",
    "responsible_agency": "Department of Sanitation",
    "final_address": "1600 N Dorgenois St",
    "address_councildis": "D",
    "status": "Assigned to Contractor",
    "contractor": "IV Waste",
    "rowid": "1121830",
    "final_x": "3679604.38178",
    "final_y": "539806.853642",
    "longitude": "-90.07376836079365",
    "latitude": "29.97833911591005",
    "geocoded_column": {
      "latitude": "29.97833911591005",
      "longitude": "-90.07376836079365"
    }
  },
  {
    "service_request": "2024-1121829",
    "request_type": "Traffic Signals/Signs/Striping/Streetlights",
    "request_reason": "Street Name Sign Damaged or Missing",
    "date_created": "2024-08-14T15:05:36.000",
    "date_modified": "2024-08-14T15:05:36.000",
    "request_status": "Pending",
    "responsible_agency": "Department of Public Works",
    "final_address": "2401 Thalia St",
    "address_councildis": "B",
    "status": "Pending",
    "rowid": "1121829",
    "final_x": "3676793.29941",
    "final_y": "527473.221247",
    "longitude": "-90.08307182582057",
    "latitude": "29.944510456649656",
    "geocoded_column": {
      "latitude": "29.944510456649656",
      "longitude": "-90.08307182582057"
    }
  },
  {
    "service_request": "2024-1121828",
    "request_type": "Roads/Drainage",
    "request_reason": "Debris in Roadway",
    "date_created": "2024-08-14T15:04:22.000",
    "date_modified": "2024-08-14T15:04:23.000",
    "request_status": "Pending",
    "responsible_agency": "Department of Public Works",
    "final_address": "BENEFIT ST & ALVAR ST",
    "address_councildis": "D",
    "status": "Pending",
    "rowid": "1121828",
    "final_x": "3693499.7",
    "final_y": "543698.98",
    "longitude": "-90.02974224562607",
    "latitude": "29.988613750897144",
    "geocoded_column": {
      "latitude": "29.988613750897144",
      "longitude": "-90.02974224562607"
    }
  },
  {
    "service_request": "2024-1121827",
    "request_type": "Trash/Recycling",
    "request_reason": "Request a Large Item Pick Up",
    "date_created": "2024-08-14T15:02:42.000",
    "date_modified": "2024-08-14T15:02:43.000",
    "request_status": "Pending",
    "responsible_agency": "Department of Sanitation",
    "final_address": "2503 Pauger St",
    "address_councildis": "D",
    "status": "Assigned to Contractor",
    "contractor": "IV Waste",
    "rowid": "1121827",
    "final_x": "3683696.29871",
    "final_y": "538838.802697",
    "longitude": "-90.0608785729414",
    "latitude": "29.975552998976436",
    "geocoded_column": {
      "latitude": "29.975552998976436",
      "longitude": "-90.0608785729414"
    }
  },
  {
    "service_request": "2024-1121826",
    "request_type": "Traffic Signals/Signs/Striping/Streetlights",
    "request_reason": "Street Name Sign Damaged or Missing",
    "date_created": "2024-08-14T14:59:14.000",
    "date_modified": "2024-08-14T14:59:14.000",
    "request_status": "Pending",
    "responsible_agency": "Department of Public Works",
    "final_address": "1ST ST & LOYOLA AVE",
    "address_councildis": "B",
    "status": "Pending",
    "rowid": "1121826",
    "final_x": "3675772.7",
    "final_y": "524998.28",
    "longitude": "-90.08637919654684",
    "latitude": "29.93773576329232",
    "geocoded_column": {
      "latitude": "29.93773576329232",
      "longitude": "-90.08637919654684"
    }
  },
  {
    "service_request": "2024-1121825",
    "request_type": "Trash/Recycling",
    "request_reason": "Request a Large Item Pick Up",
    "date_created": "2024-08-14T14:59:04.000",
    "date_modified": "2024-08-14T14:59:06.000",
    "request_status": "Pending",
    "responsible_agency": "Department of Sanitation",
    "final_address": "1617 Duels St",
    "address_councildis": "D",
    "status": "Assigned to Contractor",
    "contractor": "IV Waste",
    "rowid": "1121825",
    "final_x": "3680129.60239",
    "final_y": "542253.405197",
    "longitude": "-90.07202446630043",
    "latitude": "29.985050395097968",
    "geocoded_column": {
      "latitude": "29.985050395097968",
      "longitude": "-90.07202446630043"
    }
  },
  {
    "service_request": "2024-1121824",
    "request_type": "Traffic Signals/Signs/Striping/Streetlights",
    "request_reason": "Traffic Sign Missing/Damaged",
    "date_created": "2024-08-14T14:58:16.000",
    "date_modified": "2024-08-14T14:58:16.000",
    "request_status": "Pending",
    "responsible_agency": "Department of Public Works",
    "final_address": "1ST ST & LOYOLA AVE",
    "address_councildis": "B",
    "status": "Pending",
    "rowid": "1121824",
    "final_x": "3675772.7",
    "final_y": "524998.28",
    "longitude": "-90.08637919654684",
    "latitude": "29.93773576329232",
    "geocoded_column": {
      "latitude": "29.93773576329232",
      "longitude": "-90.08637919654684"
    }
  },
  {
    "service_request": "2024-1121823",
    "request_type": "Roads/Drainage",
    "request_reason": "Street Subsidence (Sinking)",
    "date_created": "2024-08-14T14:57:54.000",
    "date_modified": "2024-08-14T14:59:26.000",
    "request_status": "Pending",
    "responsible_agency": "Department of Public Works",
    "final_address": "BIENVILLE ST & N HENNESSEY ST",
    "address_councildis": "A",
    "status": "Pending",
    "rowid": "1121823",
    "final_x": "3670754.16",
    "final_y": "539564.65",
    "longitude": "-90.1017288658447",
    "latitude": "29.977937672895912",
    "geocoded_column": {
      "latitude": "29.977937672895912",
      "longitude": "-90.1017288658447"
    }
  },
  {
    "service_request": "2024-1121822",
    "request_type": "Trash/Recycling",
    "request_reason": "Repair Trash Cart",
    "date_created": "2024-08-14T14:56:25.000",
    "date_modified": "2024-08-14T15:00:17.000",
    "request_status": "Pending",
    "responsible_agency": "Department of Sanitation",
    "final_address": "2672 Hyman Pl",
    "address_councildis": "C",
    "status": "Assigned to Contractor",
    "contractor": "Richards Disposal",
    "rowid": "1121822",
    "final_x": "3701095.78775",
    "final_y": "521066.846649",
    "longitude": "-90.00657648314889",
    "latitude": "29.926143649692413",
    "geocoded_column": {
      "latitude": "29.926143649692413",
      "longitude": "-90.00657648314889"
    }
  },
  {
    "service_request": "2024-1121821",
    "request_type": "Parks & Parkways",
    "request_reason": "Request Tree Service (Right of Way/Public Property)",
    "date_created": "2024-08-14T14:55:32.000",
    "date_modified": "2024-08-14T14:55:59.000",
    "request_status": "Pending",
    "responsible_agency": "Department of Parks & Parkway",
    "final_address": "1005 Milan St",
    "address_councildis": "B",
    "status": "Pending",
    "rowid": "1121821",
    "final_x": "3671795.57703",
    "final_y": "519302.344375",
    "longitude": "-90.0991290052051",
    "latitude": "29.922192180842483",
    "geocoded_column": {
      "latitude": "29.922192180842483",
      "longitude": "-90.0991290052051"
    }
  },
  {
    "service_request": "2024-1121820",
    "request_type": "Property Maintenance",
    "request_reason": "Property Maintenance",
    "date_created": "2024-08-14T14:55:06.000",
    "date_modified": "2024-08-14T14:55:06.000",
    "request_status": "Pending",
    "responsible_agency": "Department of Code Enforcement",
    "final_address": "5430 Urquhart St",
    "address_councildis": "E",
    "status": "Pending",
    "rowid": "1121820",
    "final_x": "3697658.47101",
    "final_y": "534594.934853",
    "longitude": "-90.01693643142406",
    "latitude": "29.963450162653462",
    "geocoded_column": {
      "latitude": "29.963450162653462",
      "longitude": "-90.01693643142406"
    }
  },
  {
    "service_request": "2024-1121819",
    "request_type": "Trash/Recycling",
    "request_reason": "Request a Large Item Pick Up",
    "date_created": "2024-08-14T14:53:08.000",
    "date_modified": "2024-08-14T14:53:10.000",
    "request_status": "Pending",
    "responsible_agency": "Department of Sanitation",
    "final_address": "5841 Durbridge Dr",
    "address_councildis": "C",
    "status": "Assigned to Contractor",
    "contractor": "Richards Disposal",
    "rowid": "1121819",
    "final_x": "3705204.99415",
    "final_y": "521342.383353",
    "longitude": "-89.99359483985303",
    "latitude": "29.926769810643027",
    "geocoded_column": {
      "latitude": "29.926769810643027",
      "longitude": "-89.99359483985303"
    }
  },
  {
    "service_request": "2024-1121818",
    "request_type": "Abandoned Vehicles",
    "request_reason": "Abandoned/Junk Vehicles",
    "date_created": "2024-08-14T14:52:34.000",
    "date_modified": "2024-08-14T14:52:34.000",
    "request_status": "Pending",
    "responsible_agency": "Department of Public Works",
    "final_address": "200 BLK Decatur St",
    "address_councildis": "C",
    "status": "Inspected",
    "rowid": "1121818",
    "final_x": "3682161.26851",
    "final_y": "530695.637215",
    "longitude": "-90.06601106571894",
    "latitude": "29.953208870498003",
    "geocoded_column": {
      "latitude": "29.953208870498003",
      "longitude": "-90.06601106571894"
    }
  },
  {
    "service_request": "2024-1121817",
    "request_type": "Roads/Drainage",
    "request_reason": "Pothole",
    "date_created": "2024-08-14T14:51:43.000",
    "date_modified": "2024-08-14T14:52:08.000",
    "case_close_date": "2024-08-14T09:52:08.000",
    "request_status": "Closed",
    "responsible_agency": "Department of Public Works",
    "final_address": "2300 BLK Carnot St",
    "address_councildis": "D",
    "status": "Resolved",
    "rowid": "1121817",
    "final_x": "3684869.81592",
    "final_y": "550139.56027",
    "longitude": "-90.05677466467608",
    "latitude": "30.006590172620275",
    "geocoded_column": {
      "latitude": "30.006590172620275",
      "longitude": "-90.05677466467608"
    }
  },
  {
    "service_request": "2024-1121816",
    "request_type": "Roads/Drainage",
    "request_reason": "Pothole",
    "date_created": "2024-08-14T14:49:26.000",
    "date_modified": "2024-08-14T14:49:26.000",
    "request_status": "Pending",
    "responsible_agency": "Department of Public Works",
    "final_address": "CHELSEA DR & PEMBROOK DR",
    "address_councildis": "C",
    "status": "Pending",
    "rowid": "1121816",
    "final_x": "3704218.4",
    "final_y": "520987.48",
    "longitude": "-89.99672229669218",
    "latitude": "29.925825631615403",
    "geocoded_column": {
      "latitude": "29.925825631615403",
      "longitude": "-89.99672229669218"
    }
  },
  {
    "service_request": "2024-1121815",
    "request_type": "Roads/Drainage",
    "request_reason": "Pothole",
    "date_created": "2024-08-14T14:48:20.000",
    "date_modified": "2024-08-14T14:48:56.000",
    "case_close_date": "2024-08-14T09:48:56.000",
    "request_status": "Closed",
    "responsible_agency": "Department of Public Works",
    "final_address": "4400 BLK Eastern St",
    "address_councildis": "D",
    "status": "Resolved",
    "rowid": "1121815",
    "final_x": "3688096.21596",
    "final_y": "549607.848078",
    "longitude": "-90.04660052776444",
    "latitude": "30.00502892858168",
    "geocoded_column": {
      "latitude": "30.00502892858168",
      "longitude": "-90.04660052776444"
    }
  },
  {
    "service_request": "2024-1121814",
    "request_type": "Trash/Recycling",
    "request_reason": "Order Recycling Cart",
    "date_created": "2024-08-14T14:42:05.000",
    "date_modified": "2024-08-14T14:42:05.000",
    "request_status": "Pending",
    "responsible_agency": "Department of Sanitation",
    "final_address": "642 Broadway St",
    "address_councildis": "A",
    "status": "Pending",
    "rowid": "1121814",
    "final_x": "3663103.59885",
    "final_y": "525025.763261",
    "longitude": "-90.12637581550798",
    "latitude": "29.938184352849518",
    "geocoded_column": {
      "latitude": "29.938184352849518",
      "longitude": "-90.12637581550798"
    }
  },
  {
    "service_request": "2024-1121813",
    "request_type": "Property Maintenance",
    "request_reason": "Property Maintenance",
    "date_created": "2024-08-14T14:40:45.000",
    "date_modified": "2024-08-14T14:40:45.000",
    "request_status": "Pending",
    "responsible_agency": "Department of Code Enforcement",
    "final_address": "314 Bellaire Dr",
    "address_councildis": "A",
    "status": "Pending",
    "rowid": "1121813",
    "final_x": "3663875.22599",
    "final_y": "541662.295372",
    "longitude": "-90.12338508926469",
    "latitude": "29.98390700678229",
    "geocoded_column": {
      "latitude": "29.98390700678229",
      "longitude": "-90.12338508926469"
    }
  },
  {
    "service_request": "2024-1121812",
    "request_type": "Trash/Recycling",
    "request_reason": "Illegal Dumping",
    "date_created": "2024-08-14T14:38:34.000",
    "date_modified": "2024-08-14T14:38:35.000",
    "request_status": "Pending",
    "responsible_agency": "Department of Sanitation",
    "final_address": "LAKE FOREST BLVD & HOLLEY LN",
    "address_councildis": "E",
    "status": "Pending",
    "rowid": "1121812",
    "final_x": "3703297.5",
    "final_y": "556764.48",
    "longitude": "-89.99831345049398",
    "latitude": "30.02422879918892",
    "geocoded_column": {
      "latitude": "30.02422879918892",
      "longitude": "-89.99831345049398"
    }
  },
  {
    "service_request": "2024-1121811",
    "request_type": "Trash/Recycling",
    "request_reason": "Return Trash Cart",
    "date_created": "2024-08-14T14:37:52.000",
    "date_modified": "2024-08-14T14:37:53.000",
    "request_status": "Pending",
    "responsible_agency": "Department of Sanitation",
    "final_address": "804 Webster St",
    "address_councildis": "A",
    "status": "Assigned to Contractor",
    "contractor": "IV Waste",
    "rowid": "1121811",
    "final_x": "3664124.39348",
    "final_y": "519522.014135",
    "longitude": "-90.1233365457699",
    "latitude": "29.923021174551675",
    "geocoded_column": {
      "latitude": "29.923021174551675",
      "longitude": "-90.1233365457699"
    }
  },
  {
    "service_request": "2024-1121810",
    "request_type": "Trash/Recycling",
    "request_reason": "Order Recycling Cart",
    "date_created": "2024-08-14T14:37:32.000",
    "date_modified": "2024-08-14T14:37:33.000",
    "request_status": "Pending",
    "responsible_agency": "Department of Sanitation",
    "final_address": "805 Wilson Dr",
    "address_councildis": "A",
    "status": "Pending",
    "rowid": "1121810",
    "final_x": "3673996.57083",
    "final_y": "539324.917322",
    "longitude": "-90.09149638698068",
    "latitude": "29.9771822632612",
    "geocoded_column": {
      "latitude": "29.9771822632612",
      "longitude": "-90.09149638698068"
    }
  },
  {
    "service_request": "2024-1121809",
    "request_type": "Roads/Drainage",
    "request_reason": "Alley Way",
    "date_created": "2024-08-14T14:36:09.000",
    "date_modified": "2024-08-14T14:36:09.000",
    "request_status": "Pending",
    "responsible_agency": "Department of Public Works",
    "final_address": "6462 General Diaz St",
    "address_councildis": "A",
    "status": "Pending",
    "rowid": "1121809",
    "final_x": "3669720.19143",
    "final_y": "550367.993364",
    "longitude": "-90.1046286267855",
    "latitude": "30.00767366577779",
    "geocoded_column": {
      "latitude": "30.00767366577779",
      "longitude": "-90.1046286267855"
    }
  },
  {
    "service_request": "2024-1121808",
    "request_type": "Roads/Drainage",
    "request_reason": "Man hole cover issue",
    "date_created": "2024-08-14T14:35:52.000",
    "date_modified": "2024-08-14T14:35:52.000",
    "request_status": "Pending",
    "responsible_agency": "Department of Public Works",
    "final_address": "RHODES AVE & CHELSEA DR",
    "address_councildis": "C",
    "status": "Pending",
    "rowid": "1121808",
    "final_x": "3704135.3",
    "final_y": "519893.88",
    "longitude": "-89.99702487650734",
    "latitude": "29.922821276239247",
    "geocoded_column": {
      "latitude": "29.922821276239247",
      "longitude": "-89.99702487650734"
    }
  },
  {
    "service_request": "2024-1121807",
    "request_type": "Trash/Recycling",
    "request_reason": "Request a Large Item Pick Up",
    "date_created": "2024-08-14T14:33:44.000",
    "date_modified": "2024-08-14T14:33:45.000",
    "request_status": "Pending",
    "responsible_agency": "Department of Sanitation",
    "final_address": "3111 Conti St",
    "address_councildis": "B",
    "status": "Assigned to Contractor",
    "contractor": "IV Waste",
    "rowid": "1121807",
    "final_x": "3674724.79924",
    "final_y": "537111.411848",
    "longitude": "-90.08927230333406",
    "latitude": "29.971074156014595",
    "geocoded_column": {
      "latitude": "29.971074156014595",
      "longitude": "-90.08927230333406"
    }
  },
  {
    "service_request": "2024-1121806",
    "request_type": "Abandoned Vehicles",
    "request_reason": "Abandoned/Junk Vehicles",
    "date_created": "2024-08-14T14:33:28.000",
    "date_modified": "2024-08-14T14:33:28.000",
    "request_status": "Pending",
    "responsible_agency": "Department of Public Works",
    "final_address": "1609 Bodenger Blvd",
    "address_councildis": "C",
    "status": "Pending",
    "rowid": "1121806",
    "final_x": "3688422.35753",
    "final_y": "525747.217917",
    "longitude": "-90.04641679656348",
    "latitude": "29.939410510657318",
    "geocoded_column": {
      "latitude": "29.939410510657318",
      "longitude": "-90.04641679656348"
    }
  },
  {
    "service_request": "2024-1121805",
    "request_type": "Roads/Drainage",
    "request_reason": "Catch Basin - Clogged",
    "date_created": "2024-08-14T14:32:54.000",
    "date_modified": "2024-08-14T14:32:54.000",
    "request_status": "Pending",
    "responsible_agency": "Department of Public Works",
    "final_address": "6462 General Diaz St",
    "address_councildis": "A",
    "status": "Pending",
    "rowid": "1121805",
    "final_x": "3669720.19143",
    "final_y": "550367.993364",
    "longitude": "-90.1046286267855",
    "latitude": "30.00767366577779",
    "geocoded_column": {
      "latitude": "30.00767366577779",
      "longitude": "-90.1046286267855"
    }
  },
  {
    "service_request": "2024-1121804",
    "request_type": "Trash/Recycling",
    "request_reason": "Request a Large Item Pick Up",
    "date_created": "2024-08-14T14:32:46.000",
    "date_modified": "2024-08-14T14:32:47.000",
    "request_status": "Pending",
    "responsible_agency": "Department of Sanitation",
    "final_address": "7512 Briarwood Dr",
    "address_councildis": "E",
    "status": "Assigned to Contractor",
    "contractor": "Waste Pro",
    "rowid": "1121804",
    "final_x": "3717890.23141",
    "final_y": "570348.894119",
    "longitude": "-89.9516860934125",
    "latitude": "30.061104837348843",
    "geocoded_column": {
      "latitude": "30.061104837348843",
      "longitude": "-89.9516860934125"
    }
  },
  {
    "service_request": "2024-1121803",
    "request_type": "Trash/Recycling",
    "request_reason": "Request a Large Item Pick Up",
    "date_created": "2024-08-14T14:32:45.000",
    "date_modified": "2024-08-14T14:32:46.000",
    "request_status": "Pending",
    "responsible_agency": "Department of Sanitation",
    "final_address": "4612 Virgilian St",
    "address_councildis": "D",
    "status": "Assigned to Contractor",
    "contractor": "Waste Pro",
    "rowid": "1121803",
    "final_x": "3697465.57475",
    "final_y": "553056.592407",
    "longitude": "-90.01687576624965",
    "latitude": "30.014219055052433",
    "geocoded_column": {
      "latitude": "30.014219055052433",
      "longitude": "-90.01687576624965"
    }
  },
  {
    "service_request": "2024-1121802",
    "request_type": "Trash/Recycling",
    "request_reason": "Order Recycling Cart",
    "date_created": "2024-08-14T14:32:04.000",
    "date_modified": "2024-08-14T14:32:05.000",
    "request_status": "Pending",
    "responsible_agency": "Department of Sanitation",
    "final_address": "2519 Frenchmen St",
    "address_councildis": "D",
    "status": "Pending",
    "rowid": "1121802",
    "final_x": "3684195.91119",
    "final_y": "541602.861196",
    "longitude": "-90.05920359160838",
    "latitude": "29.983137925360825",
    "geocoded_column": {
      "latitude": "29.983137925360825",
      "longitude": "-90.05920359160838"
    }
  },
  {
    "service_request": "2024-1121801",
    "request_type": "Trash/Recycling",
    "request_reason": "Request a Large Item Pick Up",
    "date_created": "2024-08-14T14:30:07.000",
    "date_modified": "2024-08-14T14:30:08.000",
    "request_status": "Pending",
    "responsible_agency": "Department of Sanitation",
    "final_address": "2517 Frenchmen St",
    "address_councildis": "D",
    "status": "Assigned to Contractor",
    "contractor": "IV Waste",
    "rowid": "1121801",
    "final_x": "3684197.16124",
    "final_y": "541592.444556",
    "longitude": "-90.05920000916132",
    "latitude": "29.98310924504975",
    "geocoded_column": {
      "latitude": "29.98310924504975",
      "longitude": "-90.05920000916132"
    }
  },
  {
    "service_request": "2024-1121800",
    "request_type": "Trash/Recycling",
    "request_reason": "Request a Large Item Pick Up",
    "date_created": "2024-08-14T14:29:34.000",
    "date_modified": "2024-08-14T14:29:35.000",
    "request_status": "Pending",
    "responsible_agency": "Department of Sanitation",
    "final_address": "1418 Casa Calvo St",
    "address_councildis": "C",
    "status": "Assigned to Contractor",
    "contractor": "Richards Disposal",
    "rowid": "1121800",
    "final_x": "3692099.69853",
    "final_y": "526060.793406",
    "longitude": "-90.03479577591952",
    "latitude": "29.940158659885338",
    "geocoded_column": {
      "latitude": "29.940158659885338",
      "longitude": "-90.03479577591952"
    }
  },
  {
    "service_request": "2024-1121799",
    "request_type": "Abandoned Vehicles",
    "request_reason": "Abandoned/Junk Vehicles",
    "date_created": "2024-08-14T14:26:56.000",
    "date_modified": "2024-08-14T14:26:56.000",
    "request_status": "Pending",
    "responsible_agency": "Department of Public Works",
    "final_address": "7734 Cohn St",
    "address_councildis": "A",
    "status": "Pending",
    "rowid": "1121799",
    "final_x": "3664461.03284",
    "final_y": "529365.685057",
    "longitude": "-90.12194539901492",
    "latitude": "29.950078359776125",
    "geocoded_column": {
      "latitude": "29.950078359776125",
      "longitude": "-90.12194539901492"
    }
  },
  {
    "service_request": "2024-1121798",
    "request_type": "Abandoned Vehicles",
    "request_reason": "Abandoned/Junk Vehicles",
    "date_created": "2024-08-14T14:25:27.000",
    "date_modified": "2024-08-14T14:25:27.000",
    "request_status": "Pending",
    "responsible_agency": "Department of Public Works",
    "final_address": "7734 Cohn St",
    "address_councildis": "A",
    "status": "Pending",
    "rowid": "1121798",
    "final_x": "3664461.03284",
    "final_y": "529365.685057",
    "longitude": "-90.12194539901492",
    "latitude": "29.950078359776125",
    "geocoded_column": {
      "latitude": "29.950078359776125",
      "longitude": "-90.12194539901492"
    }
  },
  {
    "service_request": "2024-1121797",
    "request_type": "Trash/Recycling",
    "request_reason": "Order Recycling Cart",
    "date_created": "2024-08-14T14:22:24.000",
    "date_modified": "2024-08-14T14:22:38.000",
    "request_status": "Pending",
    "responsible_agency": "Department of Sanitation",
    "final_address": "99 E Park Pl",
    "address_councildis": "A",
    "status": "Pending",
    "rowid": "1121797",
    "final_x": "3670358.16506",
    "final_y": "544564.596623",
    "longitude": "-90.10280997313566",
    "latitude": "29.991697516216362",
    "geocoded_column": {
      "latitude": "29.991697516216362",
      "longitude": "-90.10280997313566"
    }
  },
  {
    "service_request": "2024-1121796",
    "request_type": "Parks & Parkways",
    "request_reason": "Request Tree Service (Right of Way/Public Property)",
    "date_created": "2024-08-14T14:22:12.000",
    "date_modified": "2024-08-14T14:22:44.000",
    "request_status": "Pending",
    "responsible_agency": "Department of Parks & Parkway",
    "final_address": "491 Walnut St",
    "address_councildis": "A",
    "status": "Pending",
    "rowid": "1121796",
    "final_x": "3662849.25869",
    "final_y": "523387.086843",
    "longitude": "-90.12723325007613",
    "latitude": "29.933685875454493",
    "geocoded_column": {
      "latitude": "29.933685875454493",
      "longitude": "-90.12723325007613"
    }
  },