[
  {
    "service_request": "2026-1285073",
    "request_type": "Streetlights",
    "request_reason": "Streetlight Outage/Malfunction",
    "date_created": "2026-05-27T23:42:31.000",
    "date_modified": "2026-05-27T23:42:33.000",
    "request_status": "Pending",
    "responsible_agency": "Department of Public Works",
    "final_address": "5225 Timber Crest Dr",
    "address_councildis": "C",
    "status": "Pending",
    "rowid": "1285073",
    "final_x": "3703517.38314",
    "final_y": "511135.050992",
    "longitude": "-89.99929727306684",
    "latitude": "29.898757290065944",
    "geocoded_column": {
      "latitude": "29.898757290065944",
      "longitude": "-89.99929727306684"
    }
  },
  {
    "service_request": "2026-1285072",
    "request_type": "Parks & Grass Service",
    "request_reason": "Park Maintenance/Clean Up",
    "date_created": "2026-05-27T23:41:18.000",
    "date_modified": "2026-05-27T23:41:22.000",
    "request_status": "Pending",
    "responsible_agency": "Department of Parks & Parkways",
    "final_address": "6660 Fleur-De-Lis Dr",
    "address_councildis": "A",
    "status": "Pending",
    "rowid": "1285072",
    "final_x": "3665309.64128",
    "final_y": "552570.962262",
    "longitude": "-90.1184891094087",
    "latitude": "30.013860370310873",
    "geocoded_column": {
      "latitude": "30.013860370310873",
      "longitude": "-90.1184891094087"
    }
  },
  {
    "service_request": "2026-1285071",
    "request_type": "Parks & Grass Service",
    "request_reason": "Park Maintenance/Clean Up",
    "date_created": "2026-05-27T23:28:55.000",
    "date_modified": "2026-05-27T23:28:58.000",
    "request_status": "Pending",
    "responsible_agency": "Department of Parks & Parkways",
    "final_address": "WISNER BLVD & ZACHARY TAYLOR DR",
    "address_councildis": "A",
    "status": "Pending",
    "rowid": "1285071",
    "final_x": "3675433.32",
    "final_y": "545284.93",
    "longitude": "-90.08675387336122",
    "latitude": "29.99352734320705",
    "geocoded_column": {
      "latitude": "29.99352734320705",
      "longitude": "-90.08675387336122"
    }
  },
  {
    "service_request": "2026-1285070",
    "request_type": "Trash/Recycling",
    "request_reason": "Repair Trash Cart",
    "date_created": "2026-05-27T23:15:21.000",
    "date_modified": "2026-05-27T23:15:24.000",
    "request_status": "Pending",
    "responsible_agency": "Department of Sanitation",
    "final_address": "4600 Evangeline Dr, New Orleans, Louisiana, 70127",
    "address_councildis": "E",
    "status": "Assigned to Contractor",
    "contractor": "Waste Pro",
    "rowid": "1285070",
    "final_x": "3709133.50955",
    "final_y": "554816.149656",
    "longitude": "-89.9799456207582",
    "latitude": "30.018683397544194",
    "geocoded_column": {
      "latitude": "30.018683397544194",
      "longitude": "-89.9799456207582"
    }
  },
  {
    "service_request": "2026-1285069",
    "request_type": "Trash/Recycling",
    "request_reason": "Request a Large Item Pick Up",
    "date_created": "2026-05-27T22:56:37.000",
    "date_modified": "2026-05-27T22:56:40.000",
    "request_status": "Pending",
    "responsible_agency": "Department of Sanitation",
    "final_address": "2814 Chippewa St",
    "address_councildis": "B",
    "status": "Assigned to Contractor",
    "contractor": "IV Waste",
    "rowid": "1285069",
    "final_x": "3677779.1115",
    "final_y": "519462.973175",
    "longitude": "-90.08023590789016",
    "latitude": "29.9224552863089",
    "geocoded_column": {
      "latitude": "29.9224552863089",
      "longitude": "-90.08023590789016"
    }
  },
  {
    "service_request": "2026-1285068",
    "request_type": "Trash/Recycling",
    "request_reason": "Request a Large Item Pick Up",
    "date_created": "2026-05-27T22:45:00.000",
    "date_modified": "2026-05-27T22:45:02.000",
    "request_status": "Pending",
    "responsible_agency": "Department of Sanitation",
    "final_address": "13652 N Cavelier Dr",
    "address_councildis": "E",
    "status": "Assigned to Contractor",
    "contractor": "Waste Pro",
    "rowid": "1285068",
    "final_x": "3724065.73727",
    "final_y": "570056.767591",
    "longitude": "-89.93217698357395",
    "latitude": "30.060095419917687",
    "geocoded_column": {
      "latitude": "30.060095419917687",
      "longitude": "-89.93217698357395"
    }
  },
  {
    "service_request": "2026-1285067",
    "request_type": "Streetlights",
    "request_reason": "Streetlight Outage/Malfunction",
    "date_created": "2026-05-27T22:28:15.000",
    "date_modified": "2026-05-27T22:28:16.000",
    "request_status": "Pending",
    "responsible_agency": "Department of Public Works",
    "final_address": "1322 Dublin St",
    "address_councildis": "A",
    "status": "Pending",
    "rowid": "1285067",
    "final_x": "3662036.14842",
    "final_y": "529038.165248",
    "longitude": "-90.129612797842",
    "latitude": "29.949248053161902",
    "geocoded_column": {
      "latitude": "29.949248053161902",
      "longitude": "-90.129612797842"
    }
  },
  {
    "service_request": "2026-1285066",
    "request_type": "Drainage",
    "request_reason": "Catch Basin Not Draining",
    "date_created": "2026-05-27T22:25:19.000",
    "date_modified": "2026-05-27T22:25:46.000",
    "request_status": "Pending",
    "responsible_agency": "Sewerage & Water Board",
    "final_address": "4330 Perlita St",
    "address_councildis": "D",
    "status": "Pending",
    "rowid": "1285066",
    "final_x": "3678724.20066",
    "final_y": "548463.336338",
    "longitude": "-90.07624834584088",
    "latitude": "30.00216798280807",
    "geocoded_column": {
      "latitude": "30.00216798280807",
      "longitude": "-90.07624834584088"
    }
  },
  {
    "service_request": "2026-1285065",
    "request_type": "Drainage",
    "request_reason": "Catch Basin Not Draining",
    "date_created": "2026-05-27T22:22:14.000",
    "date_modified": "2026-05-27T22:22:16.000",
    "request_status": "Pending",
    "responsible_agency": "Sewerage & Water Board",
    "final_address": "4330 Perlita St",
    "address_councildis": "D",
    "status": "Pending",
    "rowid": "1285065",
    "final_x": "3678724.20066",
    "final_y": "548463.336338",
    "longitude": "-90.07624834584088",
    "latitude": "30.00216798280807",
    "geocoded_column": {
      "latitude": "30.00216798280807",
      "longitude": "-90.07624834584088"
    }
  },
  {
    "service_request": "2026-1285064",
    "request_type": "Health Related Request",
    "request_reason": "Noise Ordinance Complaint",
    "date_created": "2026-05-27T22:17:37.000",
    "date_modified": "2026-05-27T22:17:41.000",
    "request_status": "Pending",
    "responsible_agency": "Health Department",
    "final_address": "800 Bourbon St, New Orleans, Louisiana, 70116",
    "address_councildis": "C",
    "status": "Pending",
    "rowid": "1285064",
    "final_x": "3682553.51528",
    "final_y": "533013.631428",
    "longitude": "-90.06469148499534",
    "latitude": "29.95957063099051",
    "geocoded_column": {
      "latitude": "29.95957063099051",
      "longitude": "-90.06469148499534"
    }
  },
  {
    "service_request": "2026-1285063",
    "request_type": "Trash/Recycling",
    "request_reason": "Missed Trash Pick-Up",
    "date_created": "2026-05-27T21:58:39.000",
    "date_modified": "2026-05-27T21:58:41.000",
    "request_status": "Pending",
    "responsible_agency": "Department of Sanitation",
    "final_address": "2716 Lowerline St",
    "address_councildis": "A",
    "status": "Assigned to Contractor",
    "contractor": "IV Waste",
    "rowid": "1285063",
    "final_x": "3666764.17581",
    "final_y": "531504.699843",
    "longitude": "-90.11460143552313",
    "latitude": "29.955892800639603",
    "geocoded_column": {
      "latitude": "29.955892800639603",
      "longitude": "-90.11460143552313"
    }
  },
  {
    "service_request": "2026-1285062",
    "request_type": "Trash/Recycling",
    "request_reason": "Order Recycling Cart",
    "date_created": "2026-05-27T21:50:36.000",
    "date_modified": "2026-05-27T21:50:38.000",
    "request_status": "Pending",
    "responsible_agency": "Department of Sanitation",
    "final_address": "608 State St",
    "address_councildis": "A",
    "status": "Pending",
    "rowid": "1285062",
    "final_x": "3664467.86951",
    "final_y": "518674.628215",
    "longitude": "-90.12228059128194",
    "latitude": "29.920681150509413",
    "geocoded_column": {
      "latitude": "29.920681150509413",
      "longitude": "-90.12228059128194"
    }
  },
  {
    "service_request": "2026-1285061",
    "request_type": "Trash/Recycling",
    "request_reason": "Repair Recycling Cart",
    "date_created": "2026-05-27T21:36:58.000",
    "date_modified": "2026-05-27T21:37:00.000",
    "request_status": "Pending",
    "responsible_agency": "Department of Sanitation",
    "final_address": "7005 General Haig St",
    "address_councildis": "A",
    "status": "Pending",
    "rowid": "1285061",
    "final_x": "3671252.08635",
    "final_y": "553902.024215",
    "longitude": "-90.09966870432368",
    "latitude": "30.017345743469694",
    "geocoded_column": {
      "latitude": "30.017345743469694",
      "longitude": "-90.09966870432368"
    }
  },
  {
    "service_request": "2026-1285060",
    "request_type": "Trash/Recycling",
    "request_reason": "Order Trash Cart",
    "date_created": "2026-05-27T21:34:34.000",
    "date_modified": "2026-05-27T21:34:35.000",
    "request_status": "Pending",
    "responsible_agency": "Department of Sanitation",
    "final_address": "1625 Bordeaux St",
    "address_councildis": "B",
    "status": "Assigned to Contractor",
    "contractor": "IV Waste",
    "rowid": "1285060",
    "final_x": "3669398.33998",
    "final_y": "520940.763257",
    "longitude": "-90.10664074596716",
    "latitude": "29.926768094232536",
    "geocoded_column": {
      "latitude": "29.926768094232536",
      "longitude": "-90.10664074596716"
    }
  },
  {
    "service_request": "2026-1285059",
    "request_type": "Trash/Recycling",
    "request_reason": "Repair Recycling Cart",
    "date_created": "2026-05-27T21:34:19.000",
    "date_modified": "2026-05-27T21:34:20.000",
    "request_status": "Pending",
    "responsible_agency": "Department of Sanitation",
    "final_address": "981 Walker St",
    "address_councildis": "A",
    "status": "Pending",
    "rowid": "1285059",
    "final_x": "3671247.00679",
    "final_y": "553849.761751",
    "longitude": "-90.0996865315543",
    "latitude": "30.017202190666794",
    "geocoded_column": {
      "latitude": "30.017202190666794",
      "longitude": "-90.0996865315543"
    }
  },
  {
    "service_request": "2026-1285058",
    "request_type": "Trash/Recycling",
    "request_reason": "Order Trash Cart",
    "date_created": "2026-05-27T21:32:56.000",
    "date_modified": "2026-05-27T21:32:59.000",
    "request_status": "Pending",
    "responsible_agency": "Department of Sanitation",
    "final_address": "1623 Bordeaux St",
    "address_councildis": "B",
    "status": "Assigned to Contractor",
    "contractor": "IV Waste",
    "rowid": "1285058",
    "final_x": "3669401.46503",
    "final_y": "520925.832697",
    "longitude": "-90.10663138557427",
    "latitude": "29.92672694795473",
    "geocoded_column": {
      "latitude": "29.92672694795473",
      "longitude": "-90.10663138557427"
    }
  },
  {
    "service_request": "2026-1285057",
    "request_type": "Streetlights",
    "request_reason": "Streetlight Knocked Down/Leaning",
    "date_created": "2026-05-27T21:16:45.000",
    "date_modified": "2026-05-27T21:16:46.000",
    "request_status": "Pending",
    "responsible_agency": "Department of Public Works",
    "final_address": "975 S Norman C Francis Prkwy",
    "address_councildis": "B",
    "status": "Pending",
    "rowid": "1285057",
    "final_x": "3670704.6139",
    "final_y": "533378.1545",
    "longitude": "-90.10209530372798",
    "latitude": "29.96092835068708",
    "geocoded_column": {
      "latitude": "29.96092835068708",
      "longitude": "-90.10209530372798"
    }
  },
  {
    "service_request": "2026-1285056",
    "request_type": "Abandoned Vehicles",
    "request_reason": "Abandoned/Junk Vehicles",
    "date_created": "2026-05-27T21:13:56.000",
    "date_modified": "2026-05-27T21:13:58.000",
    "request_status": "Pending",
    "responsible_agency": "Department of Public Works",
    "final_address": "4600 Bundy Rd",
    "address_councildis": "E",
    "status": "Pending",
    "rowid": "1285056",
    "final_x": "3709360.60427",
    "final_y": "554839.11388",
    "longitude": "-89.97922723242004",
    "latitude": "30.01873916297847",
    "geocoded_column": {
      "latitude": "30.01873916297847",
      "longitude": "-89.97922723242004"
    }
  },
  {
    "service_request": "2026-1285055",
    "request_type": "Trash/Recycling",
    "request_reason": "Return Trash Cart",
    "date_created": "2026-05-27T20:54:52.000",
    "date_modified": "2026-05-27T20:54:54.000",
    "request_status": "Pending",
    "responsible_agency": "Department of Sanitation",
    "final_address": "754 Delachaise St",
    "address_councildis": "B",
    "status": "Assigned to Contractor",
    "contractor": "IV Waste",
    "rowid": "1285055",
    "final_x": "3675137.00693",
    "final_y": "518297.811894",
    "longitude": "-90.08861592492855",
    "latitude": "29.91933065216286",
    "geocoded_column": {
      "latitude": "29.91933065216286",
      "longitude": "-90.08861592492855"
    }
  },
  {
    "service_request": "2026-1285054",
    "request_type": "Trash/Recycling",
    "request_reason": "Order Recycling Cart",
    "date_created": "2026-05-27T20:46:04.000",
    "date_modified": "2026-05-27T20:46:05.000",
    "request_status": "Pending",
    "responsible_agency": "Department of Sanitation",
    "final_address": "325 Warrington Dr",
    "address_councildis": "D",
    "status": "Pending",
    "rowid": "1285054",
    "final_x": "3681876.02223",
    "final_y": "547991.027602",
    "longitude": "-90.06630787846987",
    "latitude": "30.000773848601984",
    "geocoded_column": {
      "latitude": "30.000773848601984",
      "longitude": "-90.06630787846987"
    }
  },
  {
    "service_request": "2026-1285053",
    "request_type": "Trash/Recycling",
    "request_reason": "Request a Large Item Pick Up",
    "date_created": "2026-05-27T20:44:59.000",
    "date_modified": "2026-05-27T20:45:00.000",
    "request_status": "Pending",
    "responsible_agency": "Department of Sanitation",
    "final_address": "2619 Annette St",
    "address_councildis": "D",
    "status": "Assigned to Contractor",
    "contractor": "IV Waste",
    "rowid": "1285053",
    "final_x": "3682716.34658",
    "final_y": "541879.357132",
    "longitude": "-90.06386713790891",
    "latitude": "29.983943346868838",
    "geocoded_column": {
      "latitude": "29.983943346868838",
      "longitude": "-90.06386713790891"
    }
  },
  {
    "service_request": "2026-1285052",
    "request_type": "Trash/Recycling",
    "request_reason": "Return Trash Cart",
    "date_created": "2026-05-27T20:43:40.000",
    "date_modified": "2026-05-27T20:43:44.000",
    "request_status": "Pending",
    "responsible_agency": "Department of Sanitation",
    "final_address": "1129 Delachaise St",
    "address_councildis": "B",
    "status": "Assigned to Contractor",
    "contractor": "IV Waste",
    "rowid": "1285052",
    "final_x": "3674602.01934",
    "final_y": "519717.50636",
    "longitude": "-90.09025599800403",
    "latitude": "29.923250325563764",
    "geocoded_column": {
      "latitude": "29.923250325563764",
      "longitude": "-90.09025599800403"
    }
  },
  {
    "service_request": "2026-1285051",
    "request_type": "Trash/Recycling",
    "request_reason": "Order Recycling Cart",
    "date_created": "2026-05-27T20:32:59.000",
    "date_modified": "2026-05-27T20:33:01.000",
    "request_status": "Pending",
    "responsible_agency": "Department of Sanitation",
    "final_address": "4019 Royal St",
    "address_councildis": "C",
    "status": "Pending",
    "rowid": "1285051",
    "final_x": "3691585.92553",
    "final_y": "533797.204229",
    "longitude": "-90.0361413179396",
    "latitude": "29.96144711359915",
    "geocoded_column": {
      "latitude": "29.96144711359915",
      "longitude": "-90.0361413179396"
    }
  },
  {
    "service_request": "2026-1285050",
    "request_type": "Property Maintenance",
    "request_reason": "Property Maintenance",
    "date_created": "2026-05-27T20:24:52.000",
    "date_modified": "2026-05-27T20:24:53.000",
    "request_status": "Pending",
    "responsible_agency": "Department of Code Enforcement",
    "final_address": "2100 St Andrew St Apt A",
    "address_councildis": "B",
    "status": "Pending",
    "rowid": "1285050",
    "final_x": "3676972.43733",
    "final_y": "525668.049853",
    "longitude": "-90.08256844818295",
    "latitude": "29.939541455642104",
    "geocoded_column": {
      "latitude": "29.939541455642104",
      "longitude": "-90.08256844818295"
    }
  },
  {
    "service_request": "2026-1285049",
    "request_type": "Health Related Request",
    "request_reason": "Smoke-Free Ordinance Complaint",
    "date_created": "2026-05-27T20:23:55.000",
    "date_modified": "2026-05-27T20:23:56.000",
    "request_status": "Pending",
    "responsible_agency": "Health Department",
    "final_address": "2352 Marais St",
    "address_councildis": "C",
    "status": "Pending",
    "rowid": "1285049",
    "final_x": "3686208.1494",
    "final_y": "536726.643911",
    "longitude": "-90.05302001181774",
    "latitude": "29.9696683628287",
    "geocoded_column": {
      "latitude": "29.9696683628287",
      "longitude": "-90.05302001181774"
    }
  },
  {
    "service_request": "2026-1285048",
    "request_type": "Property Maintenance",
    "request_reason": "Property Maintenance",
    "date_created": "2026-05-27T20:22:54.000",
    "date_modified": "2026-05-27T20:22:56.000",
    "request_status": "Pending",
    "responsible_agency": "Department of Code Enforcement",
    "final_address": "2021 S Saratoga St",
    "address_councildis": "B",
    "status": "Pending",
    "rowid": "1285048",
    "final_x": "3676873.79157",
    "final_y": "525561.198269",
    "longitude": "-90.08288356782877",
    "latitude": "29.939250609399448",
    "geocoded_column": {
      "latitude": "29.939250609399448",
      "longitude": "-90.08288356782877"
    }
  },
  {
    "service_request": "2026-1285047",
    "request_type": "Trash/Recycling",
    "request_reason": "Repair Trash Cart",
    "date_created": "2026-05-27T20:18:11.000",
    "date_modified": "2026-05-27T20:18:12.000",
    "request_status": "Pending",
    "responsible_agency": "Department of Sanitation",
    "final_address": "Camp St, New Orleans, Louisiana, 70115",
    "address_councildis": "B",
    "status": "Assigned to Contractor",
    "contractor": "IV Waste",
    "rowid": "1285047",
    "final_x": "3674272.04014",
    "final_y": "519669.597304",
    "longitude": "-90.0912992577416",
    "latitude": "29.92312843025251",
    "geocoded_column": {
      "latitude": "29.92312843025251",
      "longitude": "-90.0912992577416"
    }
  },
  {
    "service_request": "2026-1285046",
    "request_type": "Trash/Recycling",
    "request_reason": "Replace Trash Cart",
    "date_created": "2026-05-27T20:16:28.000",
    "date_modified": "2026-05-27T20:16:31.000",
    "request_status": "Pending",
    "responsible_agency": "Department of Sanitation",
    "final_address": "5116 Clara St",
    "address_councildis": "B",
    "status": "Assigned to Contractor",
    "contractor": "IV Waste",
    "rowid": "1285046",
    "final_x": "3668395.61044",
    "final_y": "524880.375676",
    "longitude": "-90.1096732945464",
    "latitude": "29.93763024848474",
    "geocoded_column": {
      "latitude": "29.93763024848474",
      "longitude": "-90.1096732945464"
    }
  },
  {
    "service_request": "2026-1285045",
    "request_type": "Drainage",
    "request_reason": "Drainage Manhole Cover Missing or Damaged",
    "date_created": "2026-05-27T20:09:17.000",
    "date_modified": "2026-05-27T20:09:19.000",
    "request_status": "Pending",
    "responsible_agency": "Sewerage & Water Board",
    "final_address": "3400 S Carrollton Ave",
    "address_councildis": "A",
    "status": "Pending",
    "rowid": "1285045",
    "final_x": "3667298.00058",
    "final_y": "534308.819461",
    "longitude": "-90.11282148178981",
    "latitude": "29.963587583974842",
    "geocoded_column": {
      "latitude": "29.963587583974842",
      "longitude": "-90.11282148178981"
    }
  },
  {
    "service_request": "2026-1285044",
    "request_type": "Trash/Recycling",
    "request_reason": "Request a Large Item Pick Up",
    "date_created": "2026-05-27T19:38:52.000",
    "date_modified": "2026-05-27T19:38:53.000",
    "request_status": "Pending",
    "responsible_agency": "Department of Sanitation",
    "final_address": "4755 Virgilian St",
    "address_councildis": "D",
    "status": "Assigned to Contractor",
    "contractor": "Waste Pro",
    "rowid": "1285044",
    "final_x": "3697546.1537",
    "final_y": "553915.734807",
    "longitude": "-90.01658998540613",
    "latitude": "30.01657882674997",
    "geocoded_column": {
      "latitude": "30.01657882674997",
      "longitude": "-90.01658998540613"
    }
  },
  {
    "service_request": "2026-1285043",
    "request_type": "Streetlights",
    "request_reason": "Streetlight Outage/Malfunction",
    "date_created": "2026-05-27T19:36:48.000",
    "date_modified": "2026-05-27T19:36:58.000",
    "request_status": "Pending",
    "responsible_agency": "Department of Public Works",
    "final_address": "20309 Old Spanish Trl",
    "address_councildis": "E",
    "status": "Pending",
    "rowid": "1285043",
    "final_x": "3760591.94377",
    "final_y": "572627.128617",
    "longitude": "-89.81661493681592",
    "latitude": "30.065884030593143",
    "geocoded_column": {
      "latitude": "30.065884030593143",
      "longitude": "-89.81661493681592"
    }
  },
  {
    "service_request": "2026-1285042",
    "request_type": "Abandoned Vehicles",
    "request_reason": "Abandoned/Junk Vehicles",
    "date_created": "2026-05-27T19:32:04.000",
    "date_modified": "2026-05-27T19:32:06.000",
    "request_status": "Pending",
    "responsible_agency": "Department of Public Works",
    "final_address": "3725 Dauphine St",
    "address_councildis": "C",
    "status": "Pending",
    "rowid": "1285042",
    "final_x": "3690821.66672",
    "final_y": "534379.511301",
    "longitude": "-90.03853392866618",
    "latitude": "29.963072022604003",
    "geocoded_column": {
      "latitude": "29.963072022604003",
      "longitude": "-90.03853392866618"
    }
  },
  {
    "service_request": "2026-1285041",
    "request_type": "Utility Poles",
    "request_reason": "Utility Pole Leaning",
    "date_created": "2026-05-27T19:10:42.000",
    "date_modified": "2026-05-27T19:10:45.000",
    "request_status": "Pending",
    "responsible_agency": "Utility Company Collective",
    "final_address": "3926 N Galvez St",
    "address_councildis": "D",
    "status": "Pending",
    "rowid": "1285041",
    "final_x": "3692610.07619",
    "final_y": "539058.167178",
    "longitude": "-90.03271866729432",
    "latitude": "29.97588098122842",
    "geocoded_column": {
      "latitude": "29.97588098122842",
      "longitude": "-90.03271866729432"
    }
  },
  {
    "service_request": "2026-1285040",
    "request_type": "Trash/Recycling",
    "request_reason": "Request a Large Item Pick Up",
    "date_created": "2026-05-27T19:03:54.000",
    "date_modified": "2026-05-27T19:03:56.000",
    "request_status": "Pending",
    "responsible_agency": "Department of Sanitation",
    "final_address": "3021 Burgundy St",
    "address_councildis": "C",
    "status": "Assigned to Contractor",
    "contractor": "IV Waste",
    "rowid": "1285040",
    "final_x": "3688411.62255",
    "final_y": "535340.11335",
    "longitude": "-90.04611045907863",
    "latitude": "29.96578800626453",
    "geocoded_column": {
      "latitude": "29.96578800626453",
      "longitude": "-90.04611045907863"
    }
  },
  {
    "service_request": "2026-1285039",
    "request_type": "Trash/Recycling",
    "request_reason": "Missed Trash Pick-Up",
    "date_created": "2026-05-27T19:00:37.000",
    "date_modified": "2026-05-27T19:00:39.000",
    "request_status": "Pending",
    "responsible_agency": "Department of Sanitation",
    "final_address": "11013 S Hardy St",
    "address_councildis": "E",
    "status": "Assigned to Contractor",
    "contractor": "Waste Pro",
    "rowid": "1285039",
    "final_x": "3713270.13842",
    "final_y": "561952.963231",
    "longitude": "-89.96660653520388",
    "latitude": "30.03817180925248",
    "geocoded_column": {
      "latitude": "30.03817180925248",
      "longitude": "-89.96660653520388"
    }
  },
  {
    "service_request": "2026-1285038",
    "request_type": "Trash/Recycling",
    "request_reason": "Request a Large Item Pick Up",
    "date_created": "2026-05-27T18:54:59.000",
    "date_modified": "2026-05-27T18:55:01.000",
    "request_status": "Pending",
    "responsible_agency": "Department of Sanitation",
    "final_address": "4232 S Prieur St",
    "address_councildis": "B",
    "status": "Assigned to Contractor",
    "contractor": "IV Waste",
    "rowid": "1285038",
    "final_x": "3670683.79271",
    "final_y": "526883.363902",
    "longitude": "-90.10238138080132",
    "latitude": "29.943070427388367",
    "geocoded_column": {
      "latitude": "29.943070427388367",
      "longitude": "-90.10238138080132"
    }
  },
  {
    "service_request": "2026-1285037",
    "request_type": "Trash/Recycling",
    "request_reason": "Replace Trash Cart",
    "date_created": "2026-05-27T18:51:23.000",
    "date_modified": "2026-05-27T18:51:26.000",
    "request_status": "Pending",
    "responsible_agency": "Department of Sanitation",
    "final_address": "6038 St Roch Ave",
    "address_councildis": "D",
    "status": "Assigned to Contractor",
    "contractor": "IV Waste",
    "rowid": "1285037",
    "final_x": "3684849.52105",
    "final_y": "555387.567513",
    "longitude": "-90.05665405152598",
    "latitude": "30.02102089510698",
    "geocoded_column": {
      "latitude": "30.02102089510698",
      "longitude": "-90.05665405152598"
    }
  },
  {
    "service_request": "2026-1285036",
    "request_type": "Trash/Recycling",
    "request_reason": "Replace Trash Cart",
    "date_created": "2026-05-27T18:44:15.000",
    "date_modified": "2026-05-27T18:44:16.000",
    "request_status": "Pending",
    "responsible_agency": "Department of Sanitation",
    "final_address": "3115 Constance St",
    "address_councildis": "B",
    "status": "Assigned to Contractor",
    "contractor": "IV Waste",
    "rowid": "1285036",
    "final_x": "3676180.29089",
    "final_y": "519855.825464",
    "longitude": "-90.08526923426591",
    "latitude": "29.923583484026533",
    "geocoded_column": {
      "latitude": "29.923583484026533",
      "longitude": "-90.08526923426591"
    }
  },
  {
    "service_request": "2026-1285035",
    "request_type": "Property Maintenance",
    "request_reason": "Property Maintenance",
    "date_created": "2026-05-27T18:44:00.000",
    "date_modified": "2026-05-27T18:44:01.000",
    "request_status": "Pending",
    "responsible_agency": "Department of Code Enforcement",
    "final_address": "968 Allen Toussaint Blvd",
    "address_councildis": "A",
    "status": "Pending",
    "rowid": "1285035",
    "final_x": "3671261.98215",
    "final_y": "554376.874392",
    "longitude": "-90.09962128355798",
    "latitude": "30.018651119351702",
    "geocoded_column": {
      "latitude": "30.018651119351702",
      "longitude": "-90.09962128355798"
    }
  },
  {
    "service_request": "2026-1285034",
    "request_type": "Tree Service",
    "request_reason": "Dead or Dying Tree",
    "date_created": "2026-05-27T18:43:49.000",
    "date_modified": "2026-05-27T18:43:50.000",
    "request_status": "Pending",
    "responsible_agency": "Department of Parks & Parkways",
    "final_address": "423 Gravier St",
    "address_councildis": "B",
    "status": "Pending",
    "rowid": "1285034",
    "final_x": "3681835.80962",
    "final_y": "529653.156481",
    "longitude": "-90.06707509964494",
    "latitude": "29.95035229456547",
    "geocoded_column": {
      "latitude": "29.95035229456547",
      "longitude": "-90.06707509964494"
    }
  },
  {
    "service_request": "2026-1285033",
    "request_type": "Trash/Recycling",
    "request_reason": "Missed Trash Pick-Up",
    "date_created": "2026-05-27T18:37:37.000",
    "date_modified": "2026-05-27T18:37:39.000",
    "request_status": "Pending",
    "responsible_agency": "Department of Sanitation",
    "final_address": "2227 Odin St, New Orleans, Louisiana, 70122",
    "address_councildis": "D",
    "status": "Assigned to Contractor",
    "contractor": "IV Waste",
    "rowid": "1285033",
    "final_x": "3683940.00124",
    "final_y": "553107.349527",
    "longitude": "-90.059607959909",
    "latitude": "30.014778964512548",
    "geocoded_column": {
      "latitude": "30.014778964512548",
      "longitude": "-90.059607959909"
    }
  },
  {
    "service_request": "2026-1285032",
    "request_type": "Property Maintenance",
    "request_reason": "Property Maintenance",
    "date_created": "2026-05-27T18:36:42.000",
    "date_modified": "2026-05-27T18:36:44.000",
    "request_status": "Pending",
    "responsible_agency": "Department of Code Enforcement",
    "final_address": "1940 Jackson Ave",
    "address_councildis": "B",
    "status": "Pending",
    "rowid": "1285032",
    "final_x": "3676578.59637",
    "final_y": "524977.412605",
    "longitude": "-90.08383563518248",
    "latitude": "29.937654245266927",
    "geocoded_column": {
      "latitude": "29.937654245266927",
      "longitude": "-90.08383563518248"
    }
  },
  {
    "service_request": "2026-1285031",
    "request_type": "Trash/Recycling",
    "request_reason": "Missed Trash Pick-Up",
    "date_created": "2026-05-27T18:35:26.000",
    "date_modified": "2026-05-27T18:35:29.000",
    "request_status": "Pending",
    "responsible_agency": "Department of Sanitation",
    "final_address": "2227 Odin St, New Orleans, Louisiana, 70122",
    "address_councildis": "D",
    "status": "Assigned to Contractor",
    "contractor": "IV Waste",
    "rowid": "1285031",
    "final_x": "3683940.00124",
    "final_y": "553107.349527",
    "longitude": "-90.059607959909",
    "latitude": "30.014778964512548",
    "geocoded_column": {
      "latitude": "30.014778964512548",
      "longitude": "-90.059607959909"
    }
  },
  {
    "service_request": "2026-1285030",
    "request_type": "Property Maintenance",
    "request_reason": "Property Maintenance",
    "date_created": "2026-05-27T18:20:05.000",
    "date_modified": "2026-05-27T18:20:07.000",
    "request_status": "Pending",
    "responsible_agency": "Department of Code Enforcement",
    "final_address": "2114 S Saratoga St",
    "address_councildis": "B",
    "status": "Pending",
    "rowid": "1285030",
    "final_x": "3676665.87477",
    "final_y": "525326.271805",
    "longitude": "-90.08354807761322",
    "latitude": "29.938610876196563",
    "geocoded_column": {
      "latitude": "29.938610876196563",
      "longitude": "-90.08354807761322"
    }
  },
  {
    "service_request": "2026-1285029",
    "request_type": "Trash/Recycling",
    "request_reason": "Repair Trash Cart",
    "date_created": "2026-05-27T18:14:52.000",
    "date_modified": "2026-05-27T18:14:55.000",
    "request_status": "Pending",
    "responsible_agency": "Department of Sanitation",
    "final_address": "2024 St Anthony St",
    "address_councildis": "D",
    "status": "Assigned to Contractor",
    "contractor": "IV Waste",
    "rowid": "1285029",
    "final_x": "3683185.77519",
    "final_y": "539713.013002",
    "longitude": "-90.06246032177165",
    "latitude": "29.977972351253907",
    "geocoded_column": {
      "latitude": "29.977972351253907",
      "longitude": "-90.06246032177165"
    }
  },
  {
    "service_request": "2026-1285028",
    "request_type": "Property Maintenance",
    "request_reason": "Property Maintenance",
    "date_created": "2026-05-27T18:09:17.000",
    "date_modified": "2026-05-27T18:09:18.000",
    "request_status": "Pending",
    "responsible_agency": "Department of Code Enforcement",
    "final_address": "2119 S Saratoga St",
    "address_councildis": "B",
    "status": "Pending",
    "rowid": "1285028",
    "final_x": "3676611.16769",
    "final_y": "525362.561917",
    "longitude": "-90.08371954430478",
    "latitude": "29.938712302686408",
    "geocoded_column": {
      "latitude": "29.938712302686408",
      "longitude": "-90.08371954430478"
    }
  },
  {
    "service_request": "2026-1285027",
    "request_type": "Healthy Homes",
    "request_reason": "Healthy Homes",
    "date_created": "2026-05-27T17:58:03.000",
    "date_modified": "2026-05-27T17:58:04.000",
    "request_status": "Pending",
    "responsible_agency": "Department of Code Enforcement",
    "final_address": "2822 OReilly St",
    "address_councildis": "D",
    "status": "Pending",
    "rowid": "1285027",
    "final_x": "3679231.16757",
    "final_y": "541869.448332",
    "longitude": "-90.07487555984271",
    "latitude": "29.984021810276637",
    "geocoded_column": {
      "latitude": "29.984021810276637",
      "longitude": "-90.07487555984271"
    }
  },
  {
    "service_request": "2026-1285026",
    "request_type": "Trash/Recycling",
    "request_reason": "Order Second Trash Cart",
    "date_created": "2026-05-27T17:57:43.000",
    "date_modified": "2026-05-27T17:57:45.000",
    "request_status": "Pending",
    "responsible_agency": "Department of Sanitation",
    "final_address": "7640 Crestmont Rd",
    "address_councildis": "E",
    "status": "Assigned to Contractor",
    "contractor": "Waste Pro",
    "rowid": "1285026",
    "final_x": "3699572.07229",
    "final_y": "560412.34851",
    "longitude": "-90.00995191728086",
    "latitude": "30.03437785394703",
    "geocoded_column": {
      "latitude": "30.03437785394703",
      "longitude": "-90.00995191728086"
    }
  },
  {
    "service_request": "2026-1285025",
    "request_type": "Trash/Recycling",
    "request_reason": "Request a Large Item Pick Up",
    "date_created": "2026-05-27T17:56:23.000",
    "date_modified": "2026-05-27T17:56:25.000",
    "request_status": "Pending",
    "responsible_agency": "Department of Sanitation",
    "final_address": "2540 Florida Ave",
    "address_councildis": "D",
    "status": "Assigned to Contractor",
    "contractor": "IV Waste",
    "rowid": "1285025",
    "final_x": "3686325.95753",
    "final_y": "542293.247885",
    "longitude": "-90.05245144755325",
    "latitude": "29.98497094588438",
    "geocoded_column": {
      "latitude": "29.98497094588438",
      "longitude": "-90.05245144755325"
    }
  },
  {
    "service_request": "2026-1285024",
    "request_type": "Trash/Recycling",
    "request_reason": "Replace Trash Cart",
    "date_created": "2026-05-27T17:55:19.000",
    "date_modified": "2026-05-27T17:55:21.000",
    "request_status": "Pending",
    "responsible_agency": "Department of Sanitation",
    "final_address": "3665 Piedmont Dr",
    "address_councildis": "D",
    "status": "Assigned to Contractor",
    "contractor": "IV Waste",
    "rowid": "1285024",
    "final_x": "3685997.02818",
    "final_y": "546268.439568",
    "longitude": "-90.05335013431551",
    "latitude": "29.99591141095926",
    "geocoded_column": {
      "latitude": "29.99591141095926",
      "longitude": "-90.05335013431551"
    }
  },
  {
    "service_request": "2026-1285023",
    "request_type": "General Services",
    "request_reason": "General Service Request",
    "date_created": "2026-05-27T17:51:37.000",
    "date_modified": "2026-05-27T17:51:39.000",
    "request_status": "Pending",
    "responsible_agency": "Orleans Parish Communication District",
    "final_address": "5320 Lacour Monique St",
    "address_councildis": "C",
    "status": "Pending",
    "rowid": "1285023",
    "final_x": "3703526.05188",
    "final_y": "517959.910198",
    "longitude": "-89.99901910754603",
    "latitude": "29.917523049400156",
    "geocoded_column": {
      "latitude": "29.917523049400156",
      "longitude": "-89.99901910754603"
    }
  },
  {
    "service_request": "2026-1285022",
    "request_type": "Trash/Recycling",
    "request_reason": "Replace Trash Cart",
    "date_created": "2026-05-27T17:46:49.000",
    "date_modified": "2026-05-27T17:46:51.000",
    "request_status": "Pending",
    "responsible_agency": "Department of Sanitation",
    "final_address": "6115 Canal Blvd",
    "address_councildis": "A",
    "status": "Assigned to Contractor",
    "contractor": "IV Waste",
    "rowid": "1285022",
    "final_x": "3668677.45447",
    "final_y": "548063.893074",
    "longitude": "-90.10800079076951",
    "latitude": "30.00136889634478",
    "geocoded_column": {
      "latitude": "30.00136889634478",
      "longitude": "-90.10800079076951"
    }
  },
  {
    "service_request": "2026-1285021",
    "request_type": "Trash/Recycling",
    "request_reason": "Repair Trash Cart",
    "date_created": "2026-05-27T17:43:26.000",
    "date_modified": "2026-05-27T17:43:27.000",
    "request_status": "Pending",
    "responsible_agency": "Department of Sanitation",
    "final_address": "1721 Nashville Ave",
    "address_councildis": "A",
    "status": "Assigned to Contractor",
    "contractor": "IV Waste",
    "rowid": "1285021",
    "final_x": "3666512.55802",
    "final_y": "522764.596346",
    "longitude": "-90.11568923685391",
    "latitude": "29.93186769024428",
    "geocoded_column": {
      "latitude": "29.93186769024428",
      "longitude": "-90.11568923685391"
    }
  },
  {
    "service_request": "2026-1285020",
    "request_type": "Trash/Recycling",
    "request_reason": "Request a Large Item Pick Up",
    "date_created": "2026-05-27T17:43:23.000",
    "date_modified": "2026-05-27T17:43:24.000",
    "request_status": "Pending",
    "responsible_agency": "Department of Sanitation",
    "final_address": "4525 Rosemont Pl",
    "address_councildis": "E",
    "status": "Assigned to Contractor",
    "contractor": "Waste Pro",
    "rowid": "1285020",
    "final_x": "3702891.81879",
    "final_y": "553734.671383",
    "longitude": "-89.99970674497318",
    "latitude": "30.015910979050393",
    "geocoded_column": {
      "latitude": "30.015910979050393",
      "longitude": "-89.99970674497318"
    }
  },
  {
    "service_request": "2026-1285019",
    "request_type": "Trash/Recycling",
    "request_reason": "Repair Recycling Cart",
    "date_created": "2026-05-27T17:42:05.000",
    "date_modified": "2026-05-27T17:42:06.000",
    "request_status": "Pending",
    "responsible_agency": "Department of Sanitation",
    "final_address": "823 N Dupre St",
    "address_councildis": "A",
    "status": "Pending",
    "rowid": "1285019",
    "final_x": "3676304.52744",
    "final_y": "537958.000137",
    "longitude": "-90.0842541620772",
    "latitude": "29.973354729809632",
    "geocoded_column": {
      "latitude": "29.973354729809632",
      "longitude": "-90.0842541620772"
    }
  },
  {
    "service_request": "2026-1285018",
    "request_type": "Abandoned Vehicles",
    "request_reason": "Abandoned/Junk Vehicles",
    "date_created": "2026-05-27T17:39:51.000",
    "date_modified": "2026-05-27T17:39:53.000",
    "request_status": "Pending",
    "responsible_agency": "Department of Public Works",
    "final_address": "3251 St Ferdinand St",
    "address_councildis": "D",
    "status": "Pending",
    "rowid": "1285018",
    "final_x": "3689913.11312",
    "final_y": "544797.423055",
    "longitude": "-90.04103198660441",
    "latitude": "29.991745781806454",
    "geocoded_column": {
      "latitude": "29.991745781806454",
      "longitude": "-90.04103198660441"
    }
  },
  {
    "service_request": "2026-1285017",
    "request_type": "Abandoned Vehicles",
    "request_reason": "Abandoned/Junk Vehicles",
    "date_created": "2026-05-27T17:34:58.000",
    "date_modified": "2026-05-27T17:35:00.000",
    "request_status": "Pending",
    "responsible_agency": "Department of Public Works",
    "final_address": "3251 St Ferdinand St",
    "address_councildis": "D",
    "status": "Pending",
    "rowid": "1285017",
    "final_x": "3689913.11312",
    "final_y": "544797.423055",
    "longitude": "-90.04103198660441",
    "latitude": "29.991745781806454",
    "geocoded_column": {
      "latitude": "29.991745781806454",
      "longitude": "-90.04103198660441"
    }
  },
  {
    "service_request": "2026-1285016",
    "request_type": "Roads and Streets",
    "request_reason": "Abandoned Service Cut",
    "date_created": "2026-05-27T17:33:45.000",
    "date_modified": "2026-05-27T17:33:46.000",
    "request_status": "Pending",
    "responsible_agency": "Department of Public Works",
    "final_address": "4710 N Villere St",
    "address_councildis": "E",
    "status": "Pending",
    "rowid": "1285016",
    "final_x": "3695076.44573",
    "final_y": "535638.84359",
    "longitude": "-90.02505250861707",
    "latitude": "29.96640185375193",
    "geocoded_column": {
      "latitude": "29.96640185375193",
      "longitude": "-90.02505250861707"
    }
  },
  {
    "service_request": "2026-1285015",
    "request_type": "Trash/Recycling",
    "request_reason": "Replace Trash Cart",
    "date_created": "2026-05-27T17:27:55.000",
    "date_modified": "2026-05-27T17:27:57.000",
    "request_status": "Pending",
    "responsible_agency": "Department of Sanitation",
    "final_address": "5441 Carlisle Ct",
    "address_councildis": "C",
    "status": "Assigned to Contractor",
    "contractor": "Richards Disposal",
    "rowid": "1285015",
    "final_x": "3704123.75742",
    "final_y": "516517.191669",
    "longitude": "-89.99718560286752",
    "latitude": "29.913536917813794",
    "geocoded_column": {
      "latitude": "29.913536917813794",
      "longitude": "-89.99718560286752"
    }
  },
  {
    "service_request": "2026-1285014",
    "request_type": "Trash/Recycling",
    "request_reason": "Request a Large Item Pick Up",
    "date_created": "2026-05-27T17:25:01.000",
    "date_modified": "2026-05-27T17:25:05.000",
    "request_status": "Pending",
    "responsible_agency": "Department of Sanitation",
    "final_address": "2609 General Pershing St",
    "address_councildis": "B",
    "status": "Assigned to Contractor",
    "contractor": "IV Waste",
    "rowid": "1285014",
    "final_x": "3670935.40718",
    "final_y": "524537.386428",
    "longitude": "-90.1016665861101",
    "latitude": "29.936612315653306",
    "geocoded_column": {
      "latitude": "29.936612315653306",
      "longitude": "-90.1016665861101"
    }
  },
  {
    "service_request": "2026-1285013",
    "request_type": "Trash/Recycling",
    "request_reason": "Replace Trash Cart",
    "date_created": "2026-05-27T17:18:49.000",
    "date_modified": "2026-05-27T17:18:57.000",
    "request_status": "Pending",
    "responsible_agency": "Department of Sanitation",
    "final_address": "8 Grand Cypress Ct",
    "address_councildis": "C",
    "status": "Assigned to Contractor",
    "contractor": "Richards Disposal",
    "rowid": "1285013",
    "final_x": "3721844.40441",
    "final_y": "513552.164338",
    "longitude": "-89.94136814093947",
    "latitude": "29.904804075085682",
    "geocoded_column": {
      "latitude": "29.904804075085682",
      "longitude": "-89.94136814093947"
    }
  },
  {
    "service_request": "2026-1285012",
    "request_type": "Trash/Recycling",
    "request_reason": "Repair Trash Cart",
    "date_created": "2026-05-27T17:15:07.000",
    "date_modified": "2026-05-27T17:15:08.000",
    "request_status": "Pending",
    "responsible_agency": "Department of Sanitation",
    "final_address": "7016 Orleans Ave",
    "address_councildis": "A",
    "status": "Assigned to Contractor",
    "contractor": "IV Waste",
    "rowid": "1285012",
    "final_x": "3671416.19156",
    "final_y": "553936.452056",
    "longitude": "-90.09914902494785",
    "latitude": "30.017435548600353",
    "geocoded_column": {
      "latitude": "30.017435548600353",
      "longitude": "-90.09914902494785"
    }
  },
  {
    "service_request": "2026-1285011",
    "request_type": "Trash/Recycling",
    "request_reason": "Missed Trash Pick-Up",
    "date_created": "2026-05-27T17:11:56.000",
    "date_modified": "2026-05-27T17:29:06.000",
    "case_close_date": "2026-05-27T12:29:05.000",
    "request_status": "Closed",
    "responsible_agency": "Department of Sanitation",
    "final_address": "66 Fontainebleau Dr",
    "address_councildis": "A",
    "status": "Invalid Request",
    "contractor": "IV Waste",
    "contractor_action": "Invalid Request",
    "rowid": "1285011",
    "final_x": "3666604.12442",
    "final_y": "530862.277762",
    "longitude": "-90.11512839067956",
    "latitude": "29.95413102963873",
    "geocoded_column": {
      "latitude": "29.95413102963873",
      "longitude": "-90.11512839067956"
    }
  },
  {
    "service_request": "2026-1285010",
    "request_type": "Trash/Recycling",
    "request_reason": "Order Trash Cart",
    "date_created": "2026-05-27T17:09:28.000",
    "date_modified": "2026-05-27T17:09:30.000",
    "request_status": "Pending",
    "responsible_agency": "Department of Sanitation",
    "final_address": "1639 Benton St",
    "address_councildis": "E",
    "status": "Assigned to Contractor",
    "contractor": "Waste Pro",
    "rowid": "1285010",
    "final_x": "3699682.78109",
    "final_y": "535598.245062",
    "longitude": "-90.01050734308934",
    "latitude": "29.966144804391018",
    "geocoded_column": {
      "latitude": "29.966144804391018",
      "longitude": "-90.01050734308934"
    }
  },
  {
    "service_request": "2026-1285009",
    "request_type": "Trash/Recycling",
    "request_reason": "Order Trash Cart",
    "date_created": "2026-05-27T17:06:17.000",
    "date_modified": "2026-05-27T17:06:19.000",
    "request_status": "Pending",
    "responsible_agency": "Department of Sanitation",
    "final_address": "1639 Benton St",
    "address_councildis": "E",
    "status": "Assigned to Contractor",
    "contractor": "Waste Pro",
    "rowid": "1285009",
    "final_x": "3699682.78109",
    "final_y": "535598.245062",
    "longitude": "-90.01050734308934",
    "latitude": "29.966144804391018",
    "geocoded_column": {
      "latitude": "29.966144804391018",
      "longitude": "-90.01050734308934"
    }
  },
  {
    "service_request": "2026-1285008",
    "request_type": "Utility Poles",
    "request_reason": "Wires Sagging/Hanging Low",
    "date_created": "2026-05-27T16:59:54.000",
    "date_modified": "2026-05-27T16:59:57.000",
    "request_status": "Pending",
    "responsible_agency": "Utility Company Collective",
    "final_address": "235 Lavergne St",
    "address_councildis": "C",
    "status": "Pending",
    "rowid": "1285008",
    "final_x": "3686719.62102",
    "final_y": "530753.391426",
    "longitude": "-90.05161575288928",
    "latitude": "29.95322825983026",
    "geocoded_column": {
      "latitude": "29.95322825983026",
      "longitude": "-90.05161575288928"
    }
  },
  {
    "service_request": "2026-1285007",
    "request_type": "Trash/Recycling",
    "request_reason": "Order Recycling Cart",
    "date_created": "2026-05-27T16:57:20.000",
    "date_modified": "2026-05-27T16:57:22.000",
    "request_status": "Pending",
    "responsible_agency": "Department of Sanitation",
    "final_address": "535 Madison St",
    "address_councildis": "C",
    "status": "Pending",
    "rowid": "1285007",
    "final_x": "3683291.09045",
    "final_y": "532639.222596",
    "longitude": "-90.06237550993669",
    "latitude": "29.958518659782698",
    "geocoded_column": {
      "latitude": "29.958518659782698",
      "longitude": "-90.06237550993669"
    }
  },
  {
    "service_request": "2026-1285006",
    "request_type": "Trash/Recycling",
    "request_reason": "Request a Large Item Pick Up",
    "date_created": "2026-05-27T16:56:47.000",
    "date_modified": "2026-05-27T16:56:49.000",
    "request_status": "Pending",
    "responsible_agency": "Department of Sanitation",
    "final_address": "7422 Alabama St",
    "address_councildis": "D",
    "status": "Assigned to Contractor",
    "contractor": "Waste Pro",
    "rowid": "1285006",
    "final_x": "3695033.67606",
    "final_y": "557977.640795",
    "longitude": "-90.02438169726076",
    "latitude": "30.027826681049838",
    "geocoded_column": {
      "latitude": "30.027826681049838",
      "longitude": "-90.02438169726076"
    }
  },
  {
    "service_request": "2026-1285005",
    "request_type": "Trash/Recycling",
    "request_reason": "Request a Large Item Pick Up",
    "date_created": "2026-05-27T16:55:22.000",
    "date_modified": "2026-05-27T16:55:25.000",
    "request_status": "Pending",
    "responsible_agency": "Department of Sanitation",
    "final_address": "7451 W Laverne St",
    "address_councildis": "E",
    "status": "Assigned to Contractor",
    "contractor": "Waste Pro",
    "rowid": "1285005",
    "final_x": "3695337.49181",
    "final_y": "558224.011804",
    "longitude": "-90.0234127655414",
    "latitude": "30.028494560996734",
    "geocoded_column": {
      "latitude": "30.028494560996734",
      "longitude": "-90.0234127655414"
    }
  },
  {
    "service_request": "2026-1285004",
    "request_type": "Trash/Recycling",
    "request_reason": "Missed Trash Pick-Up",
    "date_created": "2026-05-27T16:51:42.000",
    "date_modified": "2026-05-27T16:51:44.000",
    "request_status": "Pending",
    "responsible_agency": "Department of Sanitation",
    "final_address": "7034 Read Ln",
    "address_councildis": "E",
    "status": "Assigned to Contractor",
    "contractor": "Waste Pro",
    "rowid": "1285004",
    "final_x": "3710099.90769",
    "final_y": "562417.383647",
    "longitude": "-89.97660780691567",
    "latitude": "30.039552372190695",
    "geocoded_column": {
      "latitude": "30.039552372190695",
      "longitude": "-89.97660780691567"
    }
  },
  {
    "service_request": "2026-1285003",
    "request_type": "Trash/Recycling",
    "request_reason": "Return Trash Cart",
    "date_created": "2026-05-27T16:47:22.000",
    "date_modified": "2026-05-27T16:47:24.000",
    "request_status": "Pending",
    "responsible_agency": "Department of Sanitation",
    "final_address": "1801 Alvar St",
    "address_councildis": "D",
    "status": "Assigned to Contractor",
    "contractor": "IV Waste",
    "rowid": "1285003",
    "final_x": "3692197.34838",
    "final_y": "538033.700873",
    "longitude": "-90.0340588622567",
    "latitude": "29.973076938201437",
    "geocoded_column": {
      "latitude": "29.973076938201437",
      "longitude": "-90.0340588622567"
    }
  },
  {
    "service_request": "2026-1285002",
    "request_type": "Graffiti Removal",
    "request_reason": "Graffiti Removal",
    "date_created": "2026-05-27T16:41:56.000",
    "date_modified": "2026-05-27T16:41:58.000",
    "request_status": "Pending",
    "responsible_agency": "Department of Code Enforcement",
    "final_address": "1707 Pauger St",
    "address_councildis": "C",
    "status": "Pending",
    "rowid": "1285002",
    "final_x": "3683930.74658",
    "final_y": "535936.342855",
    "longitude": "-90.0602399711158",
    "latitude": "29.967565081769475",
    "geocoded_column": {
      "latitude": "29.967565081769475",
      "longitude": "-90.0602399711158"
    }
  },
  {
    "service_request": "2026-1285001",
    "request_type": "Property Maintenance",
    "request_reason": "Property Maintenance",
    "date_created": "2026-05-27T16:38:11.000",
    "date_modified": "2026-05-27T16:38:12.000",
    "request_status": "Pending",
    "responsible_agency": "Department of Code Enforcement",
    "final_address": "3921 Prytania St",
    "address_councildis": "B",
    "status": "Pending",
    "rowid": "1285001",
    "final_x": "3672567.72584",
    "final_y": "520536.72556",
    "longitude": "-90.09664959239527",
    "latitude": "29.925563442607892",
    "geocoded_column": {
      "latitude": "29.925563442607892",
      "longitude": "-90.09664959239527"
    }
  },
  {
    "service_request": "2026-1285000",
    "request_type": "Trash/Recycling",
    "request_reason": "Request a Large Item Pick Up",
    "date_created": "2026-05-27T16:36:29.000",
    "date_modified": "2026-05-27T16:36:31.000",
    "request_status": "Pending",
    "responsible_agency": "Department of Sanitation",
    "final_address": "2024 Bayou Rd",
    "address_councildis": "C",
    "status": "Assigned to Contractor",
    "contractor": "IV Waste",
    "rowid": "1285000",
    "final_x": "3680078.56725",
    "final_y": "537224.6002",
    "longitude": "-90.07236046305083",
    "latitude": "29.97122446991422",
    "geocoded_column": {
      "latitude": "29.97122446991422",
      "longitude": "-90.07236046305083"
    }
  },
  {
    "service_request": "2026-1284999",
    "request_type": "Drainage",
    "request_reason": "Catch Basin Not Draining",
    "date_created": "2026-05-27T16:35:43.000",
    "date_modified": "2026-05-27T16:35:49.000",
    "request_status": "Pending",
    "responsible_agency": "Sewerage & Water Board",
    "final_address": "5432 Camp St",
    "address_councildis": "A",
    "status": "Pending",
    "rowid": "1284999",
    "final_x": "3666576.90337",
    "final_y": "519128.876471",
    "longitude": "-90.11560808116107",
    "latitude": "29.921868729923563",
    "geocoded_column": {
      "latitude": "29.921868729923563",
      "longitude": "-90.11560808116107"
    }
  },
  {
    "service_request": "2026-1284998",
    "request_type": "Drainage",
    "request_reason": "Catch Basin Not Draining",
    "date_created": "2026-05-27T16:34:59.000",
    "date_modified": "2026-05-27T16:35:00.000",
    "request_status": "Pending",
    "responsible_agency": "Sewerage & Water Board",
    "final_address": "1600 BLK Music St",
    "address_councildis": "D",
    "status": "Pending",
    "rowid": "1284998",
    "final_x": "3686688.51569",
    "final_y": "538477.923488",
    "longitude": "-90.05144110228335",
    "latitude": "29.974469001595907",
    "geocoded_column": {
      "latitude": "29.974469001595907",
      "longitude": "-90.05144110228335"
    }
  },
  {
    "service_request": "2026-1284997",
    "request_type": "Trash/Recycling",
    "request_reason": "Request a Large Item Pick Up",
    "date_created": "2026-05-27T16:34:36.000",
    "date_modified": "2026-05-27T16:34:38.000",
    "request_status": "Pending",
    "responsible_agency": "Department of Sanitation",
    "final_address": "6222 Brighton Pl",
    "address_councildis": "C",
    "status": "Assigned to Contractor",
    "contractor": "Richards Disposal",
    "rowid": "1284997",
    "final_x": "3707176.6684",
    "final_y": "520116.877688",
    "longitude": "-89.98741628938558",
    "latitude": "29.923336563125723",
    "geocoded_column": {
      "latitude": "29.923336563125723",
      "longitude": "-89.98741628938558"
    }
  },
  {
    "service_request": "2026-1284996",
    "request_type": "Trash/Recycling",
    "request_reason": "Request a Large Item Pick Up",
    "date_created": "2026-05-27T16:34:01.000",
    "date_modified": "2026-05-27T16:34:03.000",
    "request_status": "Pending",
    "responsible_agency": "Department of Sanitation",
    "final_address": "3708 Preston Pl",
    "address_councildis": "C",
    "status": "Assigned to Contractor",
    "contractor": "Richards Disposal",
    "rowid": "1284996",
    "final_x": "3708492.66558",
    "final_y": "517395.232437",
    "longitude": "-89.98336343777682",
    "latitude": "29.915810419512944",
    "geocoded_column": {
      "latitude": "29.915810419512944",
      "longitude": "-89.98336343777682"
    }
  },
  {
    "service_request": "2026-1284995",
    "request_type": "Tree Service",
    "request_reason": "Tree Trim",
    "date_created": "2026-05-27T16:33:21.000",
    "date_modified": "2026-05-27T16:33:22.000",
    "request_status": "Pending",
    "responsible_agency": "Department of Parks & Parkways",
    "final_address": "3426 Piedmont Dr",
    "address_councildis": "D",
    "status": "Pending",
    "rowid": "1284995",
    "final_x": "3686296.05807",
    "final_y": "545423.661072",
    "longitude": "-90.05243535634186",
    "latitude": "29.993579384987463",
    "geocoded_column": {
      "latitude": "29.993579384987463",
      "longitude": "-90.05243535634186"
    }
  },
  {
    "service_request": "2026-1284994",
    "request_type": "Trash/Recycling",
    "request_reason": "Request a Large Item Pick Up",
    "date_created": "2026-05-27T16:33:03.000",
    "date_modified": "2026-05-27T16:33:06.000",
    "request_status": "Pending",
    "responsible_agency": "Department of Sanitation",
    "final_address": "4428 Fontainebleau Dr",
    "address_councildis": "B",
    "status": "Assigned to Contractor",
    "contractor": "IV Waste",
    "rowid": "1284994",
    "final_x": "3668957.60071",
    "final_y": "529580.817921",
    "longitude": "-90.1077403185767",
    "latitude": "29.95053842532531",
    "geocoded_column": {
      "latitude": "29.95053842532531",
      "longitude": "-90.1077403185767"
    }
  },
  {
    "service_request": "2026-1284993",
    "request_type": "Property Maintenance",
    "request_reason": "Property Maintenance",
    "date_created": "2026-05-27T16:32:23.000",
    "date_modified": "2026-05-27T16:32:25.000",
    "request_status": "Pending",
    "responsible_agency": "Department of Code Enforcement",
    "final_address": "2919 Grand-Route St John St",
    "address_councildis": "A",
    "status": "Pending",
    "rowid": "1284993",
    "final_x": "3677538.89832",
    "final_y": "540332.715979",
    "longitude": "-90.08027374756085",
    "latitude": "29.979847324618056",
    "geocoded_column": {
      "latitude": "29.979847324618056",
      "longitude": "-90.08027374756085"
    }
  },
  {
    "service_request": "2026-1284992",
    "request_type": "Roads and Streets",
    "request_reason": "Pothole",
    "date_created": "2026-05-27T16:30:43.000",
    "date_modified": "2026-05-27T16:30:44.000",
    "request_status": "Pending",
    "responsible_agency": "Department of Public Works",
    "final_address": "5432 Camp St",
    "address_councildis": "A",
    "status": "Pending",
    "rowid": "1284992",
    "final_x": "3666576.90337",
    "final_y": "519128.876471",
    "longitude": "-90.11560808116107",
    "latitude": "29.921868729923563",
    "geocoded_column": {
      "latitude": "29.921868729923563",
      "longitude": "-90.11560808116107"
    }
  },
  {
    "service_request": "2026-1284991",
    "request_type": "Trash/Recycling",
    "request_reason": "Replace Trash Cart",
    "date_created": "2026-05-27T16:30:09.000",
    "date_modified": "2026-05-27T16:30:11.000",
    "request_status": "Pending",
    "responsible_agency": "Department of Sanitation",
    "final_address": "3419 Short St",
    "address_councildis": "B",
    "status": "Assigned to Contractor",
    "contractor": "IV Waste",
    "rowid": "1284991",
    "final_x": "3667738.98522",
    "final_y": "533984.217925",
    "longitude": "-90.11143982436754",
    "latitude": "29.962682113948436",
    "geocoded_column": {
      "latitude": "29.962682113948436",
      "longitude": "-90.11143982436754"
    }
  },
  {
    "service_request": "2026-1284990",
    "request_type": "Roads and Streets",
    "request_reason": "Street Subsidence (Sinking)",
    "date_created": "2026-05-27T16:24:53.000",
    "date_modified": "2026-05-27T16:24:54.000",
    "request_status": "Pending",
    "responsible_agency": "Sewerage & Water Board",
    "final_address": "ALJA MEYERS PL & METROPOLITAN ST",
    "address_councildis": "D",
    "status": "Pending",
    "rowid": "1284990",
    "final_x": "3691651.0",
    "final_y": "545367.28",
    "longitude": "-90.03552200466517",
    "latitude": "29.993258673724075",
    "geocoded_column": {
      "latitude": "29.993258673724075",
      "longitude": "-90.03552200466517"
    }
  },
  {
    "service_request": "2026-1284989",
    "request_type": "Abandoned Vehicles",
    "request_reason": "Abandoned/Junk Vehicles",
    "date_created": "2026-05-27T16:24:29.000",
    "date_modified": "2026-05-27T16:24:31.000",
    "request_status": "Pending",
    "responsible_agency": "Department of Public Works",
    "final_address": "8000 BLK Willow St",
    "address_councildis": "A",
    "status": "Pending",
    "rowid": "1284989",
    "final_x": "3662645.29245",
    "final_y": "528698.553939",
    "longitude": "-90.12770073391604",
    "latitude": "29.948296621542088",
    "geocoded_column": {
      "latitude": "29.948296621542088",
      "longitude": "-90.12770073391604"
    }
  },
  {
    "service_request": "2026-1284988",
    "request_type": "Trash/Recycling",
    "request_reason": "Request a Large Item Pick Up",
    "date_created": "2026-05-27T16:23:14.000",
    "date_modified": "2026-05-27T16:23:16.000",
    "request_status": "Pending",
    "responsible_agency": "Department of Sanitation",
    "final_address": "7830 Swift St",
    "address_councildis": "E",
    "status": "Assigned to Contractor",
    "contractor": "Waste Pro",
    "rowid": "1284988",
    "final_x": "3695194.3183",
    "final_y": "559346.479389",
    "longitude": "-90.02382464892662",
    "latitude": "30.03158541814074",
    "geocoded_column": {
      "latitude": "30.03158541814074",
      "longitude": "-90.02382464892662"
    }
  },
  {
    "service_request": "2026-1284987",
    "request_type": "Alley Ways",
    "request_reason": "Alley Way Issues",
    "date_created": "2026-05-27T16:22:16.000",
    "date_modified": "2026-05-27T16:22:18.000",
    "request_status": "Pending",
    "responsible_agency": "Department of Public Works",
    "final_address": "617 Bienville St",
    "address_councildis": "C",
    "status": "Pending",
    "rowid": "1284987",
    "final_x": "3681840.67503",
    "final_y": "531200.801154",
    "longitude": "-90.06700573232304",
    "latitude": "29.95460764613661",
    "geocoded_column": {
      "latitude": "29.95460764613661",
      "longitude": "-90.06700573232304"
    }
  },
  {
    "service_request": "2026-1284986",
    "request_type": "Drainage",
    "request_reason": "Catch Basin Not Draining",
    "date_created": "2026-05-27T16:18:35.000",
    "date_modified": "2026-05-27T16:18:37.000",
    "request_status": "Pending",
    "responsible_agency": "Sewerage & Water Board",
    "final_address": "2929 Second St",
    "address_councildis": "B",
    "status": "Pending",
    "rowid": "1284986",
    "final_x": "3674079.30184",
    "final_y": "527073.927038",
    "longitude": "-90.09165438415637",
    "latitude": "29.94349367636712",
    "geocoded_column": {
      "latitude": "29.94349367636712",
      "longitude": "-90.09165438415637"
    }
  },
  {
    "service_request": "2026-1284985",
    "request_type": "Roads and Streets",
    "request_reason": "Pothole",
    "date_created": "2026-05-27T16:17:24.000",
    "date_modified": "2026-05-27T16:17:26.000",
    "request_status": "Pending",
    "responsible_agency": "Department of Public Works",
    "final_address": "4239 Reynes St",
    "address_councildis": "E",
    "status": "Pending",
    "rowid": "1284985",
    "final_x": "3699447.90103",
    "final_y": "552271.308118",
    "longitude": "-90.01064128794435",
    "latitude": "30.011997048237575",
    "geocoded_column": {
      "latitude": "30.011997048237575",
      "longitude": "-90.01064128794435"
    }
  },
  {
    "service_request": "2026-1284984",
    "request_type": "Trash/Recycling",
    "request_reason": "Request a Large Item Pick Up",
    "date_created": "2026-05-27T16:14:38.000",
    "date_modified": "2026-05-27T16:14:40.000",
    "request_status": "Pending",
    "responsible_agency": "Department of Sanitation",
    "final_address": "4428 Fontainebleau Dr",
    "address_councildis": "B",
    "status": "Assigned to Contractor",
    "contractor": "IV Waste",
    "rowid": "1284984",
    "final_x": "3668957.60071",
    "final_y": "529580.817921",
    "longitude": "-90.1077403185767",
    "latitude": "29.95053842532531",
    "geocoded_column": {
      "latitude": "29.95053842532531",
      "longitude": "-90.1077403185767"
    }
  },
  {
    "service_request": "2026-1284983",
    "request_type": "Trash/Recycling",
    "request_reason": "Repair Trash Cart",
    "date_created": "2026-05-27T16:12:20.000",
    "date_modified": "2026-05-27T16:12:21.000",
    "request_status": "Pending",
    "responsible_agency": "Department of Sanitation",
    "final_address": "4610 Gabriel Dr",
    "address_councildis": "E",
    "status": "Assigned to Contractor",
    "contractor": "Waste Pro",
    "rowid": "1284983",
    "final_x": "3708902.67256",
    "final_y": "554848.884184",
    "longitude": "-89.98067375488039",
    "latitude": "30.01878089957786",
    "geocoded_column": {
      "latitude": "30.01878089957786",
      "longitude": "-89.98067375488039"
    }
  },
  {
    "service_request": "2026-1284982",
    "request_type": "Traffic Signals",
    "request_reason": "Traffic Signal Malfunctioning or Damaged",
    "date_created": "2026-05-27T16:11:17.000",
    "date_modified": "2026-05-27T16:11:19.000",
    "request_status": "Pending",
    "responsible_agency": "Department of Public Works",
    "final_address": "3900 Downman Rd",
    "address_councildis": "D",
    "status": "Pending",
    "rowid": "1284982",
    "final_x": "3696170.28298",
    "final_y": "551538.395989",
    "longitude": "-90.0210231540397",
    "latitude": "30.01008543914053",
    "geocoded_column": {
      "latitude": "30.01008543914053",
      "longitude": "-90.0210231540397"
    }
  },
  {
    "service_request": "2026-1284981",
    "request_type": "Trash/Recycling",
    "request_reason": "Replace Trash Cart",
    "date_created": "2026-05-27T16:11:16.000",
    "date_modified": "2026-05-27T16:11:18.000",
    "request_status": "Pending",
    "responsible_agency": "Department of Sanitation",
    "final_address": "4912 Chrysler St",
    "address_councildis": "E",
    "status": "Assigned to Contractor",
    "contractor": "Waste Pro",
    "rowid": "1284981",
    "final_x": "3715160.81413",
    "final_y": "557504.293467",
    "longitude": "-89.96079998302066",
    "latitude": "30.02587760459259",
    "geocoded_column": {
      "latitude": "30.02587760459259",
      "longitude": "-89.96079998302066"
    }
  },
  {
    "service_request": "2026-1284980",
    "request_type": "Drainage",
    "request_reason": "Catch Basin Not Draining",
    "date_created": "2026-05-27T16:10:31.000",
    "date_modified": "2026-05-27T16:10:32.000",
    "request_status": "Pending",
    "responsible_agency": "Sewerage & Water Board",
    "final_address": "5135 Cannes St",
    "address_councildis": "E",
    "status": "Pending",
    "rowid": "1284980",
    "final_x": "3726782.54905",
    "final_y": "562911.592736",
    "longitude": "-89.92386721736275",
    "latitude": "30.04035755827545",
    "geocoded_column": {
      "latitude": "30.04035755827545",
      "longitude": "-89.92386721736275"
    }
  },
  {
    "service_request": "2026-1284979",
    "request_type": "Trash/Recycling",
    "request_reason": "Repair Trash Cart",
    "date_created": "2026-05-27T16:08:03.000",
    "date_modified": "2026-05-27T16:08:05.000",
    "request_status": "Pending",
    "responsible_agency": "Department of Sanitation",
    "final_address": "407 River Oaks Dr",
    "address_councildis": "C",
    "status": "Assigned to Contractor",
    "contractor": "Richards Disposal",
    "rowid": "1284979",
    "final_x": "3701508.52311",
    "final_y": "522198.021434",
    "longitude": "-90.00523221812173",
    "latitude": "29.929240841909635",
    "geocoded_column": {
      "latitude": "29.929240841909635",
      "longitude": "-90.00523221812173"
    }
  },
  {
    "service_request": "2026-1284978",
    "request_type": "Property Maintenance",
    "request_reason": "Property Maintenance",
    "date_created": "2026-05-27T16:06:44.000",
    "date_modified": "2026-05-27T16:06:46.000",
    "request_status": "Pending",
    "responsible_agency": "Department of Code Enforcement",
    "final_address": "3601 Alvar St",
    "address_councildis": "D",
    "status": "Pending",
    "rowid": "1284978",
    "final_x": "3693728.64867",
    "final_y": "545979.258512",
    "longitude": "-90.02893707792646",
    "latitude": "29.994876523010117",
    "geocoded_column": {
      "latitude": "29.994876523010117",
      "longitude": "-90.02893707792646"
    }
  },
  {
    "service_request": "2026-1284977",
    "request_type": "Trash/Recycling",
    "request_reason": "Request a Large Item Pick Up",
    "date_created": "2026-05-27T16:06:29.000",
    "date_modified": "2026-05-27T16:06:30.000",
    "request_status": "Pending",
    "responsible_agency": "Department of Sanitation",
    "final_address": "6022 Craigie Rd",
    "address_councildis": "E",
    "status": "Assigned to Contractor",
    "contractor": "Waste Pro",
    "rowid": "1284977",
    "final_x": "3695444.30998",
    "final_y": "558584.433628",
    "longitude": "-90.02306220351166",
    "latitude": "30.029482225427717",
    "geocoded_column": {
      "latitude": "30.029482225427717",
      "longitude": "-90.02306220351166"
    }
  },
  {
    "service_request": "2026-1284976",
    "request_type": "Trash/Recycling",
    "request_reason": "Repair Trash Cart",
    "date_created": "2026-05-27T16:05:11.000",
    "date_modified": "2026-05-27T16:05:13.000",
    "request_status": "Pending",
    "responsible_agency": "Department of Sanitation",
    "final_address": "3906 Kathleen St",
    "address_councildis": "C",
    "status": "Assigned to Contractor",
    "contractor": "Richards Disposal",
    "rowid": "1284976",
    "final_x": "3709897.80952",
    "final_y": "516439.117173",
    "longitude": "-89.9789639763511",
    "latitude": "29.913135841227174",
    "geocoded_column": {
      "latitude": "29.913135841227174",
      "longitude": "-89.9789639763511"
    }
  },
  {
    "service_request": "2026-1284975",
    "request_type": "Trash/Recycling",
    "request_reason": "Request a Large Item Pick Up",
    "date_created": "2026-05-27T16:02:06.000",
    "date_modified": "2026-05-27T16:02:07.000",
    "request_status": "Pending",
    "responsible_agency": "Department of Sanitation",
    "final_address": "653 Magellan St",
    "address_councildis": "C",
    "status": "Assigned to Contractor",
    "contractor": "Richards Disposal",
    "rowid": "1284975",
    "final_x": "3688114.11753",
    "final_y": "524909.495228",
    "longitude": "-90.04741962909455",
    "latitude": "29.937116572051732",
    "geocoded_column": {
      "latitude": "29.937116572051732",
      "longitude": "-90.04741962909455"
    }
  },
  {
    "service_request": "2026-1284974",
    "request_type": "Trash/Recycling",
    "request_reason": "Repair Trash Cart",
    "date_created": "2026-05-27T16:02:02.000",
    "date_modified": "2026-05-27T16:02:04.000",
    "request_status": "Pending",
    "responsible_agency": "Department of Sanitation",
    "final_address": "1519 Camp St",
    "address_councildis": "B",
    "status": "Assigned to Contractor",
    "contractor": "IV Waste",
    "rowid": "1284974",
    "final_x": "3679660.43202",
    "final_y": "523827.485051",
    "longitude": "-90.07414594399957",
    "latitude": "29.934399558211695",
    "geocoded_column": {
      "latitude": "29.934399558211695",
      "longitude": "-90.07414594399957"
    }
  },
  {
    "service_request": "2026-1284973",
    "request_type": "Trash/Recycling",
    "request_reason": "Request a Large Item Pick Up",
    "date_created": "2026-05-27T16:01:52.000",
    "date_modified": "2026-05-27T16:01:54.000",
    "request_status": "Pending",
    "responsible_agency": "Department of Sanitation",
    "final_address": "7130 Salem Dr",
    "address_councildis": "E",
    "status": "Assigned to Contractor",
    "contractor": "Waste Pro",
    "rowid": "1284973",
    "final_x": "3706401.24254",
    "final_y": "561236.681758",
    "longitude": "-89.98834040443197",
    "latitude": "30.036425806125873",
    "geocoded_column": {
      "latitude": "30.036425806125873",
      "longitude": "-89.98834040443197"
    }
  },
  {
    "service_request": "2026-1284972",
    "request_type": "Trash/Recycling",
    "request_reason": "Request a Large Item Pick Up",
    "date_created": "2026-05-27T16:01:10.000",
    "date_modified": "2026-05-27T16:01:12.000",
    "request_status": "Pending",
    "responsible_agency": "Department of Sanitation",
    "final_address": "7802 Lady Gray St",
    "address_councildis": "E",
    "status": "Assigned to Contractor",
    "contractor": "Waste Pro",
    "rowid": "1284972",
    "final_x": "3709535.1516",
    "final_y": "565919.424931",
    "longitude": "-89.97826170555098",
    "latitude": "30.04919995660608",
    "geocoded_column": {
      "latitude": "30.04919995660608",
      "longitude": "-89.97826170555098"
    }
  },
  {
    "service_request": "2026-1284971",
    "request_type": "Parks & Grass Service",
    "request_reason": "Request Grass Cutting Service (City Owned Property)",
    "date_created": "2026-05-27T16:00:52.000",
    "date_modified": "2026-05-27T16:00:54.000",
    "request_status": "Pending",
    "responsible_agency": "Department of Parks & Parkways",
    "final_address": "4900 BLK Desire Dr",
    "address_councildis": "D",
    "status": "Pending",
    "rowid": "1284971",
    "final_x": "3691504.63172",
    "final_y": "552523.642444",
    "longitude": "-90.03572835786812",
    "latitude": "30.012940603224155",
    "geocoded_column": {
      "latitude": "30.012940603224155",
      "longitude": "-90.03572835786812"
    }
  },
  {
    "service_request": "2026-1284970",
    "request_type": "Healthy Homes",
    "request_reason": "Healthy Homes",
    "date_created": "2026-05-27T15:55:53.000",
    "date_modified": "2026-05-27T15:58:42.000",
    "request_status": "Pending",
    "responsible_agency": "Department of Code Enforcement",
    "final_address": "2256 N Claiborne Ave",
    "address_councildis": "C",
    "status": "Pending",
    "rowid": "1284970",
    "final_x": "3685459.61372",
    "final_y": "538151.532553",
    "longitude": "-90.05533375980758",
    "latitude": "29.973609286105308",
    "geocoded_column": {
      "latitude": "29.973609286105308",
      "longitude": "-90.05533375980758"
    }
  },
  {
    "service_request": "2026-1284969",
    "request_type": "Tree Service",
    "request_reason": "Tree Trim",
    "date_created": "2026-05-27T15:55:16.000",
    "date_modified": "2026-05-27T15:55:18.000",
    "request_status": "Pending",
    "responsible_agency": "Department of Parks & Parkways",
    "final_address": "5519 Charlotte Dr",
    "address_councildis": "D",
    "status": "Pending",
    "rowid": "1284969",
    "final_x": "3680130.96949",
    "final_y": "552772.898774",
    "longitude": "-90.07165429172042",
    "latitude": "30.013975219792353",
    "geocoded_column": {
      "latitude": "30.013975219792353",
      "longitude": "-90.07165429172042"
    }
  },
  {
    "service_request": "2026-1284968",
    "request_type": "Abandoned Vehicles",
    "request_reason": "Abandoned/Junk Vehicles",
    "date_created": "2026-05-27T15:53:38.000",
    "date_modified": "2026-05-27T15:53:40.000",
    "request_status": "Pending",
    "responsible_agency": "Department of Public Works",
    "final_address": "5801 Vicksburg St",
    "address_councildis": "A",
    "status": "Pending",
    "rowid": "1284968",
    "final_x": "3668844.42753",
    "final_y": "545978.685392",
    "longitude": "-90.1075437757926",
    "latitude": "29.99563038577434",
    "geocoded_column": {
      "latitude": "29.99563038577434",
      "longitude": "-90.1075437757926"
    }
  },
  {
    "service_request": "2026-1284967",
    "request_type": "Abandoned Vehicles",
    "request_reason": "Abandoned/Junk Vehicles",
    "date_created": "2026-05-27T15:53:07.000",
    "date_modified": "2026-05-27T16:09:33.000",
    "request_status": "Pending",
    "responsible_agency": "Department of Public Works",
    "final_address": "LEEDS ST & DODT AVE",
    "address_councildis": "E",
    "status": "Inspected",
    "rowid": "1284967",
    "final_x": "3705464.1",
    "final_y": "555043.08",
    "longitude": "-89.99153114413586",
    "latitude": "30.019426028376945",
    "geocoded_column": {
      "latitude": "30.019426028376945",
      "longitude": "-89.99153114413586"
    }
  },
  {
    "service_request": "2026-1284966",
    "request_type": "Trash/Recycling",
    "request_reason": "Request a Large Item Pick Up",
    "date_created": "2026-05-27T15:52:04.000",
    "date_modified": "2026-05-27T15:52:06.000",
    "request_status": "Pending",
    "responsible_agency": "Department of Sanitation",
    "final_address": "25540 Chef Menteur Hwy",
    "address_councildis": "E",
    "status": "Assigned to Contractor",
    "contractor": "Waste Pro",
    "rowid": "1284966",
    "final_x": "3780649.67678",
    "final_y": "599880.56621",
    "longitude": "-89.75202298753322",
    "latitude": "30.140072133689987",
    "geocoded_column": {
      "latitude": "30.140072133689987",
      "longitude": "-89.75202298753322"
    }
  },
  {
    "service_request": "2026-1284965",
    "request_type": "Abandoned Vehicles",
    "request_reason": "Abandoned/Junk Vehicles",
    "date_created": "2026-05-27T15:51:19.000",
    "date_modified": "2026-05-27T15:51:20.000",
    "request_status": "Pending",
    "responsible_agency": "Department of Public Works",
    "final_address": "4764 Perelli Dr",
    "address_councildis": "E",
    "status": "Pending",
    "rowid": "1284965",
    "final_x": "3711609.73451",
    "final_y": "556222.159386",
    "longitude": "-89.97206894326324",
    "latitude": "30.02246872110414",
    "geocoded_column": {
      "latitude": "30.02246872110414",
      "longitude": "-89.97206894326324"
    }
  },
  {
    "service_request": "2026-1284964",
    "request_type": "Abandoned Vehicles",
    "request_reason": "Abandoned/Junk Vehicles",
    "date_created": "2026-05-27T15:46:18.000",
    "date_modified": "2026-05-27T15:46:19.000",
    "request_status": "Pending",
    "responsible_agency": "Department of Public Works",
    "final_address": "CHEF MENTEUR HWY & CORONADO DR",
    "address_councildis": "E",
    "status": "Pending",
    "rowid": "1284964",
    "final_x": "3714252.2",
    "final_y": "555223.68",
    "longitude": "-89.96375718762847",
    "latitude": "30.01963671405973",
    "geocoded_column": {
      "latitude": "30.01963671405973",
      "longitude": "-89.96375718762847"
    }
  },
  {
    "service_request": "2026-1284963",
    "request_type": "Trash/Recycling",
    "request_reason": "Request a Large Item Pick Up",
    "date_created": "2026-05-27T15:45:56.000",
    "date_modified": "2026-05-27T15:46:23.000",
    "request_status": "Pending",
    "responsible_agency": "Department of Sanitation",
    "final_address": "1300 Marigny St",
    "address_councildis": "C",
    "status": "Assigned to Contractor",
    "contractor": "IV Waste",
    "rowid": "1284963",
    "final_x": "3685329.38153",
    "final_y": "537101.508616",
    "longitude": "-90.05578203389504",
    "latitude": "29.970726079847203",
    "geocoded_column": {
      "latitude": "29.970726079847203",
      "longitude": "-90.05578203389504"
    }
  },
  {
    "service_request": "2026-1284962",
    "request_type": "Property Maintenance",
    "request_reason": "Property Maintenance",
    "date_created": "2026-05-27T15:43:13.000",
    "date_modified": "2026-05-27T15:43:15.000",
    "request_status": "Pending",
    "responsible_agency": "Department of Code Enforcement",
    "final_address": "3600 Alvar St",
    "address_councildis": "D",
    "status": "Pending",
    "rowid": "1284962",
    "final_x": "3693206.39734",
    "final_y": "546382.720848",
    "longitude": "-90.03057231316927",
    "latitude": "29.99600223394941",
    "geocoded_column": {
      "latitude": "29.99600223394941",
      "longitude": "-90.03057231316927"
    }
  },
  {
    "service_request": "2026-1284961",
    "request_type": "Trash/Recycling",
    "request_reason": "MIssed Recycling Pick-Up",
    "date_created": "2026-05-27T15:40:58.000",
    "date_modified": "2026-05-27T15:40:59.000",
    "request_status": "Pending",
    "responsible_agency": "Department of Sanitation",
    "final_address": "938 Jourdan Ave",
    "address_councildis": "E",
    "status": "Assigned to Contractor",
    "contractor": "Waste Pro",
    "rowid": "1284961",
    "final_x": "3694814.05283",
    "final_y": "534034.842821",
    "longitude": "-90.02593893329619",
    "latitude": "29.9619996542102",
    "geocoded_column": {
      "latitude": "29.9619996542102",
      "longitude": "-90.02593893329619"
    }
  },
  {
    "service_request": "2026-1284960",
    "request_type": "Streetlights",
    "request_reason": "Streetlight Outage/Malfunction",
    "date_created": "2026-05-27T15:40:29.000",
    "date_modified": "2026-05-27T15:40:30.000",
    "request_status": "Pending",
    "responsible_agency": "Department of Public Works",
    "final_address": "1725 Lakeshore Dr",
    "address_councildis": "D",
    "status": "Pending",
    "rowid": "1284960",
    "final_x": "3678326.44827",
    "final_y": "558520.208668",
    "longitude": "-90.07715659111909",
    "latitude": "30.029832741845322",
    "geocoded_column": {
      "latitude": "30.029832741845322",
      "longitude": "-90.07715659111909"
    }
  },
  {
    "service_request": "2026-1284959",
    "request_type": "Abandoned Vehicles",
    "request_reason": "Abandoned/Junk Vehicles",
    "date_created": "2026-05-27T15:38:41.000",
    "date_modified": "2026-05-27T15:38:45.000",
    "request_status": "Pending",
    "responsible_agency": "Department of Public Works",
    "final_address": "CHEF MENTEUR HWY & CORONADO DR",
    "address_councildis": "E",
    "status": "Pending",
    "rowid": "1284959",
    "final_x": "3714252.2",
    "final_y": "555223.68",
    "longitude": "-89.96375718762847",
    "latitude": "30.01963671405973",
    "geocoded_column": {
      "latitude": "30.01963671405973",
      "longitude": "-89.96375718762847"
    }
  },
  {
    "service_request": "2026-1284958",
    "request_type": "Roads and Streets",
    "request_reason": "Pothole",
    "date_created": "2026-05-27T15:32:46.000",
    "date_modified": "2026-05-27T15:32:47.000",
    "request_status": "Pending",
    "responsible_agency": "Department of Public Works",
    "final_address": "3600 Metropolitan St",
    "address_councildis": "D",
    "status": "Pending",
    "rowid": "1284958",
    "final_x": "3691645.61552",
    "final_y": "545628.616784",
    "longitude": "-90.03552966328077",
    "latitude": "29.993977422728317",
    "geocoded_column": {
      "latitude": "29.993977422728317",
      "longitude": "-90.03552966328077"
    }
  },
  {
    "service_request": "2026-1284957",
    "request_type": "Street and Traffic Signs",
    "request_reason": "Traffic or Parking Sign Damaged or Missing",
    "date_created": "2026-05-27T15:30:17.000",
    "date_modified": "2026-05-27T15:30:18.000",
    "request_status": "Pending",
    "responsible_agency": "Department of Public Works",
    "final_address": "TULANE AVE & S CARROLLTON AVE",
    "address_councildis": "A",
    "status": "Pending",
    "rowid": "1284957",
    "final_x": "3669243.6",
    "final_y": "536304.18",
    "longitude": "-90.1066100036471",
    "latitude": "29.96901703354732",
    "geocoded_column": {
      "latitude": "29.96901703354732",
      "longitude": "-90.1066100036471"
    }
  },
  {
    "service_request": "2026-1284956",
    "request_type": "Trash/Recycling",
    "request_reason": "Request a Large Item Pick Up",
    "date_created": "2026-05-27T15:28:42.000",
    "date_modified": "2026-05-27T15:28:43.000",
    "request_status": "Pending",
    "responsible_agency": "Department of Sanitation",
    "final_address": "1230 Louisiana Ave",
    "address_councildis": "B",
    "status": "Assigned to Contractor",
    "contractor": "IV Waste",
    "rowid": "1284956",
    "final_x": "3674706.27073",
    "final_y": "520179.470648",
    "longitude": "-90.08991109121042",
    "latitude": "29.924517468470533",
    "geocoded_column": {
      "latitude": "29.924517468470533",
      "longitude": "-90.08991109121042"
    }
  },
  {
    "service_request": "2026-1284955",
    "request_type": "Property Maintenance",
    "request_reason": "Property Maintenance",
    "date_created": "2026-05-27T15:28:05.000",
    "date_modified": "2026-05-27T15:28:06.000",
    "request_status": "Pending",
    "responsible_agency": "Department of Code Enforcement",
    "final_address": "200 BLK Chapelle St",
    "address_councildis": "A",
    "status": "Pending",
    "rowid": "1284955",
    "final_x": "3667439.16837",
    "final_y": "552679.410833",
    "longitude": "-90.11175721820604",
    "latitude": "30.014096313271548",
    "geocoded_column": {
      "latitude": "30.014096313271548",
      "longitude": "-90.11175721820604"
    }
  },
  {
    "service_request": "2026-1284954",
    "request_type": "Trash/Recycling",
    "request_reason": "Request a Large Item Pick Up",
    "date_created": "2026-05-27T15:27:21.000",
    "date_modified": "2026-05-27T15:27:23.000",
    "request_status": "Pending",
    "responsible_agency": "Department of Sanitation",
    "final_address": "1928 Joliet St",
    "address_councildis": "A",
    "status": "Assigned to Contractor",
    "contractor": "IV Waste",
    "rowid": "1284954",
    "final_x": "3662676.13568",
    "final_y": "531337.74029",
    "longitude": "-90.12751565674253",
    "latitude": "29.95555264091527",
    "geocoded_column": {
      "latitude": "29.95555264091527",
      "longitude": "-90.12751565674253"
    }
  },
  {
    "service_request": "2026-1284953",
    "request_type": "Trash/Recycling",
    "request_reason": "Request a Large Item Pick Up",
    "date_created": "2026-05-27T15:26:57.000",
    "date_modified": "2026-05-27T15:26:58.000",
    "request_status": "Pending",
    "responsible_agency": "Department of Sanitation",
    "final_address": "1238 Flood St",
    "address_councildis": "E",
    "status": "Assigned to Contractor",
    "contractor": "Waste Pro",
    "rowid": "1284953",
    "final_x": "3697850.14634",
    "final_y": "534505.183813",
    "longitude": "-90.01633440259799",
    "latitude": "29.963197322958028",
    "geocoded_column": {
      "latitude": "29.963197322958028",
      "longitude": "-90.01633440259799"
    }
  },
  {
    "service_request": "2026-1284952",
    "request_type": "Trash/Recycling",
    "request_reason": "Request a Large Item Pick Up",
    "date_created": "2026-05-27T15:25:03.000",
    "date_modified": "2026-05-27T15:25:05.000",
    "request_status": "Pending",
    "responsible_agency": "Department of Sanitation",
    "final_address": "24 Vivian Ct",
    "address_councildis": "C",
    "status": "Assigned to Contractor",
    "contractor": "Richards Disposal",
    "rowid": "1284952",
    "final_x": "3702373.33565",
    "final_y": "521264.333177",
    "longitude": "-90.00253642180954",
    "latitude": "29.926645932744744",
    "geocoded_column": {
      "latitude": "29.926645932744744",
      "longitude": "-90.00253642180954"
    }
  },
  {
    "service_request": "2026-1284951",
    "request_type": "Roads and Streets",
    "request_reason": "Pothole",
    "date_created": "2026-05-27T15:24:00.000",
    "date_modified": "2026-05-27T15:24:02.000",
    "request_status": "Pending",
    "responsible_agency": "Department of Public Works",
    "final_address": "3200 BLK Carver Rams Way",
    "address_councildis": "D",
    "status": "Pending",
    "rowid": "1284951",
    "final_x": "3691801.50678",
    "final_y": "545648.911114",
    "longitude": "-90.03503650047455",
    "latitude": "29.99402836891268",
    "geocoded_column": {
      "latitude": "29.99402836891268",
      "longitude": "-90.03503650047455"
    }
  },
  {
    "service_request": "2026-1284950",
    "request_type": "Trash/Recycling",
    "request_reason": "Request a Large Item Pick Up",
    "date_created": "2026-05-27T15:23:39.000",
    "date_modified": "2026-05-27T15:23:41.000",
    "request_status": "Pending",
    "responsible_agency": "Department of Sanitation",
    "final_address": "4546 Stemway Dr",
    "address_councildis": "D",
    "status": "Assigned to Contractor",
    "contractor": "Waste Pro",
    "rowid": "1284950",
    "final_x": "3696934.52061",
    "final_y": "553237.446295",
    "longitude": "-90.0185470655372",
    "latitude": "30.014733100799962",
    "geocoded_column": {
      "latitude": "30.014733100799962",
      "longitude": "-90.0185470655372"
    }
  },
  {
    "service_request": "2026-1284949",
    "request_type": "Trash/Recycling",
    "request_reason": "Illegal Dumping",
    "date_created": "2026-05-27T15:16:13.000",
    "date_modified": "2026-05-27T15:16:14.000",
    "request_status": "Pending",
    "responsible_agency": "Department of Sanitation",
    "final_address": "3833 Desire St",
    "address_councildis": "D",
    "status": "Pending",
    "rowid": "1284949",
    "final_x": "3692632.29283",
    "final_y": "546820.456529",
    "longitude": "-90.03237015739963",
    "latitude": "29.997223782463717",
    "geocoded_column": {
      "latitude": "29.997223782463717",
      "longitude": "-90.03237015739963"
    }
  },
  {
    "service_request": "2026-1284948",
    "request_type": "Trash/Recycling",
    "request_reason": "Order Recycling Cart",
    "date_created": "2026-05-27T15:15:32.000",
    "date_modified": "2026-05-27T15:15:33.000",
    "request_status": "Pending",
    "responsible_agency": "Department of Sanitation",
    "final_address": "7105 Dreux Ave",
    "address_councildis": "E",
    "status": "Pending",
    "rowid": "1284948",
    "final_x": "3701284.84125",
    "final_y": "554519.563544",
    "longitude": "-90.00475528629066",
    "latitude": "30.018120462742665",
    "geocoded_column": {
      "latitude": "30.018120462742665",
      "longitude": "-90.00475528629066"
    }
  },
  {
    "service_request": "2026-1284947",
    "request_type": "Trash/Recycling",
    "request_reason": "Missed Trash Pick-Up",
    "date_created": "2026-05-27T15:14:11.000",
    "date_modified": "2026-05-27T17:30:12.000",
    "case_close_date": "2026-05-27T12:30:11.000",
    "request_status": "Closed",
    "responsible_agency": "Department of Sanitation",
    "final_address": "818 S Carrollton Ave",
    "address_councildis": "A",
    "status": "Invalid Request",
    "contractor": "IV Waste",
    "contractor_action": "Invalid Request",
    "rowid": "1284947",
    "final_x": "3661108.21677",
    "final_y": "527470.631039",
    "longitude": "-90.13259456949578",
    "latitude": "29.944964605846028",
    "geocoded_column": {
      "latitude": "29.944964605846028",
      "longitude": "-90.13259456949578"
    }
  },
  {
    "service_request": "2026-1284946",
    "request_type": "Property Maintenance",
    "request_reason": "Property Maintenance",
    "date_created": "2026-05-27T15:12:28.000",
    "date_modified": "2026-05-27T15:12:29.000",
    "request_status": "Pending",
    "responsible_agency": "Department of Code Enforcement",
    "final_address": "1342 Forstall St",
    "address_councildis": "E",
    "status": "Pending",
    "rowid": "1284946",
    "final_x": "3696487.50461",
    "final_y": "535276.254342",
    "longitude": "-90.02060954778814",
    "latitude": "29.965360487294163",
    "geocoded_column": {
      "latitude": "29.965360487294163",
      "longitude": "-90.02060954778814"
    }
  },
  {
    "service_request": "2026-1284945",
    "request_type": "Trash/Recycling",
    "request_reason": "Damaged Caused By Contractor",
    "date_created": "2026-05-27T15:12:21.000",
    "date_modified": "2026-05-27T15:12:24.000",
    "request_status": "Pending",
    "responsible_agency": "Department of Sanitation",
    "final_address": "1224 Music St",
    "address_councildis": "C",
    "status": "Assigned to Contractor",
    "contractor": "IV Waste",
    "rowid": "1284945",
    "final_x": "3686756.9405",
    "final_y": "537027.370888",
    "longitude": "-90.05127625877053",
    "latitude": "29.970478384823924",
    "geocoded_column": {
      "latitude": "29.970478384823924",
      "longitude": "-90.05127625877053"
    }
  },
  {
    "service_request": "2026-1284944",
    "request_type": "Utility Poles",
    "request_reason": "Wires Sagging/Hanging Low",
    "date_created": "2026-05-27T15:09:02.000",
    "date_modified": "2026-05-27T15:09:04.000",
    "request_status": "Pending",
    "responsible_agency": "Utility Company Collective",
    "final_address": "PROVIDENCE PL & MEXICO ST",
    "address_councildis": "D",
    "status": "Pending",
    "rowid": "1284944",
    "final_x": "3688113.2",
    "final_y": "556521.48",
    "longitude": "-90.04630154261773",
    "latitude": "30.024038342376727",
    "geocoded_column": {
      "latitude": "30.024038342376727",
      "longitude": "-90.04630154261773"
    }
  },
  {
    "service_request": "2026-1284943",
    "request_type": "Trash/Recycling",
    "request_reason": "Repair Trash Cart",
    "date_created": "2026-05-27T15:07:42.000",
    "date_modified": "2026-05-27T16:02:20.000",
    "request_status": "Pending",
    "responsible_agency": "Department of Sanitation",
    "final_address": "2005 Bodenger Blvd",
    "address_councildis": "C",
    "status": "Assigned to Contractor",
    "contractor": "Richards Disposal",
    "rowid": "1284943",
    "final_x": "3688366.40419",
    "final_y": "524507.694076",
    "longitude": "-90.04663739202104",
    "latitude": "29.936003967125657",
    "geocoded_column": {
      "latitude": "29.936003967125657",
      "longitude": "-90.04663739202104"
    }
  },
  {
    "service_request": "2026-1284942",
    "request_type": "Roads and Streets",
    "request_reason": "Street Subsidence (Sinking)",
    "date_created": "2026-05-27T15:07:02.000",
    "date_modified": "2026-05-27T15:07:03.000",
    "request_status": "Pending",
    "responsible_agency": "Sewerage & Water Board",
    "final_address": "3601 Chickasaw St",
    "address_councildis": "D",
    "status": "Pending",
    "rowid": "1284942",
    "final_x": "3693039.70704",
    "final_y": "547452.965329",
    "longitude": "-90.03106044889806",
    "latitude": "29.998950224886578",
    "geocoded_column": {
      "latitude": "29.998950224886578",
      "longitude": "-90.03106044889806"
    }
  },
  {
    "service_request": "2026-1284941",
    "request_type": "Trash/Recycling",
    "request_reason": "Request a Large Item Pick Up",
    "date_created": "2026-05-27T15:05:54.000",
    "date_modified": "2026-05-27T15:05:56.000",
    "request_status": "Pending",
    "responsible_agency": "Department of Sanitation",
    "final_address": "1232 Merrill St",
    "address_councildis": "C",
    "status": "Assigned to Contractor",
    "contractor": "Richards Disposal",
    "rowid": "1284941",
    "final_x": "3694992.5585",
    "final_y": "527030.326782",
    "longitude": "-90.02562768034743",
    "latitude": "29.942734080799323",
    "geocoded_column": {
      "latitude": "29.942734080799323",
      "longitude": "-90.02562768034743"
    }
  },
  {
    "service_request": "2026-1284940",
    "request_type": "Trash/Recycling",
    "request_reason": "Illegal Dumping",
    "date_created": "2026-05-27T15:04:18.000",
    "date_modified": "2026-05-27T15:04:19.000",
    "request_status": "Pending",
    "responsible_agency": "Department of Sanitation",
    "final_address": "702 Huntlee Dr",
    "address_councildis": "C",
    "status": "Pending",
    "rowid": "1284940",
    "final_x": "3701831.87921",
    "final_y": "520095.01996",
    "longitude": "-90.00428845379439",
    "latitude": "29.92344800543075",
    "geocoded_column": {
      "latitude": "29.92344800543075",
      "longitude": "-90.00428845379439"
    }
  },
  {
    "service_request": "2026-1284939",
    "request_type": "Street and Traffic Signs",
    "request_reason": "Street Name Sign Damaged or Missing",
    "date_created": "2026-05-27T15:04:10.000",
    "date_modified": "2026-05-27T15:04:11.000",
    "request_status": "Pending",
    "responsible_agency": "Department of Public Works",
    "final_address": "PALM ST & GENERAL OGDEN ST",
    "address_councildis": "A",
    "status": "Pending",
    "rowid": "1284939",
    "final_x": "3665630.2",
    "final_y": "536599.08",
    "longitude": "-90.11801153400896",
    "latitude": "29.969933785663347",
    "geocoded_column": {
      "latitude": "29.969933785663347",
      "longitude": "-90.11801153400896"
    }
  },
  {
    "service_request": "2026-1284938",
    "request_type": "Street and Traffic Signs",
    "request_reason": "Additional Signage Request",
    "date_created": "2026-05-27T15:03:41.000",
    "date_modified": "2026-05-27T15:03:42.000",
    "request_status": "Pending",
    "responsible_agency": "Department of Public Works",
    "final_address": "8535 Green St",
    "address_councildis": "A",
    "status": "Pending",
    "rowid": "1284938",
    "final_x": "3661924.58285",
    "final_y": "530838.03533",
    "longitude": "-90.12990537537776",
    "latitude": "29.954200339104936",
    "geocoded_column": {
      "latitude": "29.954200339104936",
      "longitude": "-90.12990537537776"
    }
  },
  {
    "service_request": "2026-1284937",
    "request_type": "Safety & Permits",
    "request_reason": "Zoning Enforcement",
    "date_created": "2026-05-27T15:03:07.000",
    "date_modified": "2026-05-27T15:03:08.000",
    "request_status": "Pending",
    "responsible_agency": "Safety and Permits",
    "final_address": "702 Huntlee Dr",
    "address_councildis": "C",
    "status": "Pending",
    "rowid": "1284937",
    "final_x": "3701831.87921",
    "final_y": "520095.01996",
    "longitude": "-90.00428845379439",
    "latitude": "29.92344800543075",
    "geocoded_column": {
      "latitude": "29.92344800543075",
      "longitude": "-90.00428845379439"
    }
  },
  {
    "service_request": "2026-1284936",
    "request_type": "Roads and Streets",
    "request_reason": "Pothole",
    "date_created": "2026-05-27T15:02:46.000",
    "date_modified": "2026-05-27T15:02:48.000",
    "request_status": "Pending",
    "responsible_agency": "Department of Public Works",
    "final_address": "3800 Desire St",
    "address_councildis": "D",
    "status": "Pending",
    "rowid": "1284936",
    "final_x": "3692421.24963",
    "final_y": "547132.840721",
    "longitude": "-90.03302563351166",
    "latitude": "29.998089311730837",
    "geocoded_column": {
      "latitude": "29.998089311730837",
      "longitude": "-90.03302563351166"
    }
  },
  {
    "service_request": "2026-1284935",
    "request_type": "Trash/Recycling",
    "request_reason": "Repair Trash Cart",
    "date_created": "2026-05-27T15:02:23.000",
    "date_modified": "2026-05-27T15:02:24.000",
    "request_status": "Pending",
    "responsible_agency": "Department of Sanitation",
    "final_address": "2474 Hyman Pl",
    "address_councildis": "C",
    "status": "Assigned to Contractor",
    "contractor": "Richards Disposal",
    "rowid": "1284935",
    "final_x": "3701123.01495",
    "final_y": "521809.65689",
    "longitude": "-90.00646338243607",
    "latitude": "29.928185254416967",
    "geocoded_column": {
      "latitude": "29.928185254416967",
      "longitude": "-90.00646338243607"
    }
  },