[
  {
    "service_request": "2022-955426",
    "request_type": "Roads/Drainage",
    "request_reason": "Pothole",
    "date_created": "2022-12-22T00:17:08.000",
    "date_modified": "2022-12-22T00:17:08.000",
    "request_status": "Pending",
    "responsible_agency": "Department of Public Works",
    "final_address": "7012 Bundy Rd",
    "address_councildis": "E",
    "status": "Pending",
    "rowid": "955426",
    "final_x": "3706949.4979",
    "final_y": "560807.038366",
    "longitude": "-89.9866237791771",
    "latitude": "30.035226749889166",
    "geocoded_column": {
      "latitude": "30.035226749889166",
      "longitude": "-89.9866237791771"
    }
  },
  {
    "service_request": "2022-955425",
    "request_type": "Abandoned Vehicles",
    "request_reason": "Abandoned/Junk Vehicles",
    "date_created": "2022-12-21T23:28:24.000",
    "date_modified": "2022-12-21T23:28:24.000",
    "request_status": "Pending",
    "responsible_agency": "Department of Public Works",
    "final_address": "1516 Leboeuf St",
    "address_councildis": "C",
    "status": "Pending",
    "rowid": "955425",
    "final_x": "3689704.11555",
    "final_y": "525854.321533",
    "longitude": "-90.04236632189597",
    "latitude": "29.93966536363123",
    "geocoded_column": {
      "latitude": "29.93966536363123",
      "longitude": "-90.04236632189597"
    }
  },
  {
    "service_request": "2022-955424",
    "request_type": "Abandoned Vehicles",
    "request_reason": "Abandoned/Junk Vehicles",
    "date_created": "2022-12-21T23:18:09.000",
    "date_modified": "2022-12-21T23:18:09.000",
    "request_status": "Pending",
    "responsible_agency": "Department of Public Works",
    "final_address": "1418 Thayer St",
    "address_councildis": "C",
    "status": "Pending",
    "rowid": "955424",
    "final_x": "3689414.27324",
    "final_y": "526199.611198",
    "longitude": "-90.04326911814525",
    "latitude": "29.940623768731978",
    "geocoded_column": {
      "latitude": "29.940623768731978",
      "longitude": "-90.04326911814525"
    }
  },
  {
    "service_request": "2022-955423",
    "request_type": "Abandoned Vehicles",
    "request_reason": "Abandoned/Junk Vehicles",
    "date_created": "2022-12-21T23:03:47.000",
    "date_modified": "2022-12-21T23:03:47.000",
    "request_status": "Pending",
    "responsible_agency": "Department of Public Works",
    "final_address": "13337 Curran Rd",
    "address_councildis": "E",
    "status": "Pending",
    "rowid": "955423",
    "final_x": "3716442.678",
    "final_y": "570538.725287",
    "longitude": "-89.95625452257607",
    "latitude": "30.061674707850628",
    "geocoded_column": {
      "latitude": "30.061674707850628",
      "longitude": "-89.95625452257607"
    }
  },
  {
    "service_request": "2022-955422",
    "request_type": "Trash/Recycling",
    "request_reason": "Request a Large Item Pick Up",
    "date_created": "2022-12-21T23:03:40.000",
    "date_modified": "2022-12-21T23:03:41.000",
    "request_status": "Pending",
    "responsible_agency": "Department of Sanitation",
    "final_address": "621 N Murat St",
    "address_councildis": "A",
    "status": "Assigned to Contractor",
    "contractor": "Richards Disposal",
    "rowid": "955422",
    "final_x": "3670866.73236",
    "final_y": "540979.575883",
    "longitude": "-90.10132527309715",
    "latitude": "29.98182491063595",
    "geocoded_column": {
      "latitude": "29.98182491063595",
      "longitude": "-90.10132527309715"
    }
  },
  {
    "service_request": "2022-955421",
    "request_type": "Abandoned Vehicles",
    "request_reason": "Abandoned/Junk Vehicles",
    "date_created": "2022-12-21T23:01:44.000",
    "date_modified": "2022-12-21T23:01:44.000",
    "request_status": "Pending",
    "responsible_agency": "Department of Public Works",
    "final_address": "1518 Pace Blvd",
    "address_councildis": "C",
    "status": "Pending",
    "rowid": "955421",
    "final_x": "3694463.11402",
    "final_y": "525550.481469",
    "longitude": "-90.02735250568092",
    "latitude": "29.93868161986233",
    "geocoded_column": {
      "latitude": "29.93868161986233",
      "longitude": "-90.02735250568092"
    }
  },
  {
    "service_request": "2022-955420",
    "request_type": "Abandoned Vehicles",
    "request_reason": "Abandoned/Junk Vehicles",
    "date_created": "2022-12-21T22:55:41.000",
    "date_modified": "2022-12-21T22:55:41.000",
    "request_status": "Pending",
    "responsible_agency": "Department of Public Works",
    "final_address": "1531 Arts St",
    "address_councildis": "C",
    "status": "Pending",
    "rowid": "955420",
    "final_x": "3687196.03746",
    "final_y": "538232.112585",
    "longitude": "-90.04984692633462",
    "latitude": "29.97377748612092",
    "geocoded_column": {
      "latitude": "29.97377748612092",
      "longitude": "-90.04984692633462"
    }
  },
  {
    "service_request": "2022-955419",
    "request_type": "Trash/Recycling",
    "request_reason": "Missed Trash Pick-Up",
    "date_created": "2022-12-21T22:40:30.000",
    "date_modified": "2022-12-21T22:40:30.000",
    "request_status": "Pending",
    "responsible_agency": "Department of Sanitation",
    "final_address": "8011 Green St",
    "address_councildis": "A",
    "status": "Assigned to Contractor",
    "contractor": "Richards Disposal",
    "rowid": "955419",
    "final_x": "3663423.20602",
    "final_y": "529467.403585",
    "longitude": "-90.12521893355753",
    "latitude": "29.95038818138102",
    "geocoded_column": {
      "latitude": "29.95038818138102",
      "longitude": "-90.12521893355753"
    }
  },
  {
    "service_request": "2022-955418",
    "request_type": "Trash/Recycling",
    "request_reason": "Missed Trash Pick-Up",
    "date_created": "2022-12-21T22:35:58.000",
    "date_modified": "2022-12-21T22:35:59.000",
    "request_status": "Pending",
    "responsible_agency": "Department of Sanitation",
    "final_address": "208 Hillary St",
    "address_councildis": "A",
    "status": "Assigned to Contractor",
    "contractor": "Richards Disposal",
    "rowid": "955418",
    "final_x": "3660791.92806",
    "final_y": "524467.190908",
    "longitude": "-90.13369247583448",
    "latitude": "29.936715206414828",
    "geocoded_column": {
      "latitude": "29.936715206414828",
      "longitude": "-90.13369247583448"
    }
  },
  {
    "service_request": "2022-955417",
    "request_type": "Trash/Recycling",
    "request_reason": "MIssed Recycling Pick-Up",
    "date_created": "2022-12-21T22:34:47.000",
    "date_modified": "2022-12-21T22:34:48.000",
    "request_status": "Pending",
    "responsible_agency": "Department of Sanitation",
    "final_address": "1620 Fourth St",
    "address_councildis": "B",
    "status": "Assigned to Contractor",
    "contractor": "Richards Disposal",
    "rowid": "955417",
    "final_x": "3676043.77665",
    "final_y": "522866.967739",
    "longitude": "-90.08559665644712",
    "latitude": "29.931867236838222",
    "geocoded_column": {
      "latitude": "29.931867236838222",
      "longitude": "-90.08559665644712"
    }
  },
  {
    "service_request": "2022-955416",
    "request_type": "Trash/Recycling",
    "request_reason": "Missed Trash Pick-Up",
    "date_created": "2022-12-21T22:11:24.000",
    "date_modified": "2022-12-21T22:11:25.000",
    "request_status": "Pending",
    "responsible_agency": "Department of Sanitation",
    "final_address": "4750 Bundy Rd",
    "address_councildis": "E",
    "status": "Assigned to Contractor",
    "contractor": "Waste Pro",
    "rowid": "955416",
    "final_x": "3709257.48728",
    "final_y": "555871.300505",
    "longitude": "-89.97951450928622",
    "latitude": "30.021580624243487",
    "geocoded_column": {
      "latitude": "30.021580624243487",
      "longitude": "-89.97951450928622"
    }
  },
  {
    "service_request": "2022-955415",
    "request_type": "Roads/Drainage",
    "request_reason": "Pothole",
    "date_created": "2022-12-21T22:06:24.000",
    "date_modified": "2022-12-21T22:06:24.000",
    "request_status": "Pending",
    "responsible_agency": "Department of Public Works",
    "final_address": "1100 Broadway St",
    "address_councildis": "A",
    "status": "Pending",
    "rowid": "955415",
    "final_x": "3663972.47943",
    "final_y": "526289.583934",
    "longitude": "-90.12359054175064",
    "latitude": "29.941634262412165",
    "geocoded_column": {
      "latitude": "29.941634262412165",
      "longitude": "-90.12359054175064"
    }
  },
  {
    "service_request": "2022-955414",
    "request_type": "Roads/Drainage",
    "request_reason": "Street Flooding / Drainage",
    "date_created": "2022-12-21T21:57:16.000",
    "date_modified": "2022-12-21T21:57:16.000",
    "request_status": "Pending",
    "responsible_agency": "Department of Public Works",
    "final_address": "820 Polk St",
    "address_councildis": "A",
    "status": "Pending",
    "rowid": "955414",
    "final_x": "3669360.4985",
    "final_y": "547118.750353",
    "longitude": "-90.10587497017468",
    "latitude": "29.99874997987799",
    "geocoded_column": {
      "latitude": "29.99874997987799",
      "longitude": "-90.10587497017468"
    }
  },
  {
    "service_request": "2022-955413",
    "request_type": "Trash/Recycling",
    "request_reason": "Missed Trash Pick-Up",
    "date_created": "2022-12-21T21:49:50.000",
    "date_modified": "2022-12-21T21:49:50.000",
    "request_status": "Pending",
    "responsible_agency": "Department of Sanitation",
    "final_address": "7726 Jeannette St",
    "address_councildis": "A",
    "status": "Assigned to Contractor",
    "contractor": "Richards Disposal",
    "rowid": "955413",
    "final_x": "3663563.55635",
    "final_y": "528285.15776",
    "longitude": "-90.12481514950699",
    "latitude": "29.947133316212483",
    "geocoded_column": {
      "latitude": "29.947133316212483",
      "longitude": "-90.12481514950699"
    }
  },
  {
    "service_request": "2022-955412",
    "request_type": "Trash/Recycling",
    "request_reason": "Request a Large Item Pick Up",
    "date_created": "2022-12-21T21:32:57.000",
    "date_modified": "2022-12-21T21:32:58.000",
    "request_status": "Pending",
    "responsible_agency": "Department of Sanitation",
    "final_address": "4743 Charlmark Dr",
    "address_councildis": "E",
    "status": "Assigned to Contractor",
    "contractor": "Waste Pro",
    "rowid": "955412",
    "final_x": "3711512.81662",
    "final_y": "556041.107417",
    "longitude": "-89.97238197222306",
    "latitude": "30.021974064808084",
    "geocoded_column": {
      "latitude": "30.021974064808084",
      "longitude": "-89.97238197222306"
    }
  },
  {
    "service_request": "2022-955411",
    "request_type": "Trash/Recycling",
    "request_reason": "Missed Trash Pick-Up",
    "date_created": "2022-12-21T21:32:25.000",
    "date_modified": "2022-12-21T21:32:26.000",
    "request_status": "Pending",
    "responsible_agency": "Department of Sanitation",
    "final_address": "4114 Vincennes Pl",
    "address_councildis": "B",
    "status": "Assigned to Contractor",
    "contractor": "Richards Disposal",
    "rowid": "955411",
    "final_x": "3668494.16948",
    "final_y": "530619.72045",
    "longitude": "-90.10916855402616",
    "latitude": "29.953408689128235",
    "geocoded_column": {
      "latitude": "29.953408689128235",
      "longitude": "-90.10916855402616"
    }
  },
  {
    "service_request": "2022-955410",
    "request_type": "Trash/Recycling",
    "request_reason": "Repair Recycling Cart",
    "date_created": "2022-12-21T21:27:56.000",
    "date_modified": "2022-12-21T21:27:56.000",
    "request_status": "Pending",
    "responsible_agency": "Department of Sanitation",
    "final_address": "3519 Desaix Blvd",
    "address_councildis": "D",
    "status": "Pending",
    "rowid": "955410",
    "final_x": "3676132.84635",
    "final_y": "543776.756174",
    "longitude": "-90.08459609591227",
    "latitude": "29.98935944733161",
    "geocoded_column": {
      "latitude": "29.98935944733161",
      "longitude": "-90.08459609591227"
    }
  },
  {
    "service_request": "2022-955409",
    "request_type": "Trash/Recycling",
    "request_reason": "MIssed Recycling Pick-Up",
    "date_created": "2022-12-21T21:25:36.000",
    "date_modified": "2022-12-21T21:25:37.000",
    "request_status": "Pending",
    "responsible_agency": "Department of Sanitation",
    "final_address": "4743 Charlmark Dr",
    "address_councildis": "E",
    "status": "Assigned to Contractor",
    "contractor": "Waste Pro",
    "rowid": "955409",
    "final_x": "3711512.81662",
    "final_y": "556041.107417",
    "longitude": "-89.97238197222306",
    "latitude": "30.021974064808084",
    "geocoded_column": {
      "latitude": "30.021974064808084",
      "longitude": "-89.97238197222306"
    }
  },
  {
    "service_request": "2022-955408",
    "request_type": "Trash/Recycling",
    "request_reason": "Order Trash Cart",
    "date_created": "2022-12-21T21:15:08.000",
    "date_modified": "2022-12-21T21:15:08.000",
    "request_status": "Pending",
    "responsible_agency": "Department of Sanitation",
    "final_address": "2525 Mazant St",
    "address_councildis": "D",
    "status": "Assigned to Contractor",
    "contractor": "IV Waste",
    "rowid": "955408",
    "final_x": "3693522.99536",
    "final_y": "540747.333515",
    "longitude": "-90.0297747293382",
    "latitude": "29.98049705925213",
    "geocoded_column": {
      "latitude": "29.98049705925213",
      "longitude": "-90.0297747293382"
    }
  },
  {
    "service_request": "2022-955407",
    "request_type": "Trash/Recycling",
    "request_reason": "Missed Trash Pick-Up",
    "date_created": "2022-12-21T21:08:21.000",
    "date_modified": "2022-12-21T21:08:22.000",
    "request_status": "Pending",
    "responsible_agency": "Department of Sanitation",
    "final_address": "329 Lowerline St",
    "address_councildis": "A",
    "status": "Assigned to Contractor",
    "contractor": "Richards Disposal",
    "rowid": "955407",
    "final_x": "3661536.41658",
    "final_y": "523552.803195",
    "longitude": "-90.13137236076453",
    "latitude": "29.93417947531416",
    "geocoded_column": {
      "latitude": "29.93417947531416",
      "longitude": "-90.13137236076453"
    }
  },
  {
    "service_request": "2022-955406",
    "request_type": "Trash/Recycling",
    "request_reason": "Repair Trash Cart",
    "date_created": "2022-12-21T20:47:00.000",
    "date_modified": "2022-12-21T20:47:00.000",
    "request_status": "Pending",
    "responsible_agency": "Department of Sanitation",
    "final_address": "5641 Bentley Dr",
    "address_councildis": "E",
    "status": "Assigned to Contractor",
    "contractor": "Waste Pro",
    "rowid": "955406",
    "final_x": "3703884.21924",
    "final_y": "556877.195738",
    "longitude": "-89.99645538442498",
    "latitude": "30.024519914722408",
    "geocoded_column": {
      "latitude": "30.024519914722408",
      "longitude": "-89.99645538442498"
    }
  },
  {
    "service_request": "2022-955405",
    "request_type": "Trash/Recycling",
    "request_reason": "Missed Trash Pick-Up",
    "date_created": "2022-12-21T20:43:37.000",
    "date_modified": "2022-12-21T20:43:37.000",
    "request_status": "Pending",
    "responsible_agency": "Department of Sanitation",
    "final_address": "7911 Jeannette St",
    "address_councildis": "A",
    "status": "Assigned to Contractor",
    "contractor": "Richards Disposal",
    "rowid": "955405",
    "final_x": "3663202.66061",
    "final_y": "528727.407936",
    "longitude": "-90.12593992459634",
    "latitude": "29.9483598234777",
    "geocoded_column": {
      "latitude": "29.9483598234777",
      "longitude": "-90.12593992459634"
    }
  },
  {
    "service_request": "2022-955404",
    "request_type": "Trash/Recycling",
    "request_reason": "Missed Trash Pick-Up",
    "date_created": "2022-12-21T20:35:31.000",
    "date_modified": "2022-12-21T20:35:32.000",
    "request_status": "Pending",
    "responsible_agency": "Department of Sanitation",
    "final_address": "7903 Plum St",
    "address_councildis": "A",
    "status": "Assigned to Contractor",
    "contractor": "Richards Disposal",
    "rowid": "955404",
    "final_x": "3662757.28013",
    "final_y": "528177.268416",
    "longitude": "-90.1273644637923",
    "latitude": "29.946860013110612",
    "geocoded_column": {
      "latitude": "29.946860013110612",
      "longitude": "-90.1273644637923"
    }
  },
  {
    "service_request": "2022-955403",
    "request_type": "Trash/Recycling",
    "request_reason": "Order Recycling Cart",
    "date_created": "2022-12-21T20:34:32.000",
    "date_modified": "2022-12-21T20:34:32.000",
    "request_status": "Pending",
    "responsible_agency": "Department of Sanitation",
    "final_address": "18 Azalea Pl",
    "address_councildis": "C",
    "status": "Pending",
    "rowid": "955403",
    "final_x": "3716214.638",
    "final_y": "517227.286389",
    "longitude": "-89.95899656531813",
    "latitude": "29.915096214671863",
    "geocoded_column": {
      "latitude": "29.915096214671863",
      "longitude": "-89.95899656531813"
    }
  },
  {
    "service_request": "2022-955402",
    "request_type": "Property Maintenance",
    "request_reason": "Property Maintenance",
    "date_created": "2022-12-21T20:30:17.000",
    "date_modified": "2022-12-21T20:30:17.000",
    "request_status": "Pending",
    "responsible_agency": "Department of Code Enforcement",
    "final_address": "2023 Burgundy St",
    "address_councildis": "C",
    "status": "Pending",
    "rowid": "955402",
    "final_x": "3684487.05295",
    "final_y": "535569.294278",
    "longitude": "-90.05849604269231",
    "latitude": "29.966538818190216",
    "geocoded_column": {
      "latitude": "29.966538818190216",
      "longitude": "-90.05849604269231"
    }
  },
  {
    "service_request": "2022-955401",
    "request_type": "Trash/Recycling",
    "request_reason": "MIssed Recycling Pick-Up",
    "date_created": "2022-12-21T20:25:44.000",
    "date_modified": "2022-12-21T20:25:45.000",
    "request_status": "Pending",
    "responsible_agency": "Department of Sanitation",
    "final_address": "6909 Fleur-De-Lis Dr",
    "address_councildis": "A",
    "status": "Assigned to Contractor",
    "contractor": "IV Waste",
    "rowid": "955401",
    "final_x": "3665598.84186",
    "final_y": "553753.024727",
    "longitude": "-90.11753575269998",
    "latitude": "30.017102193715278",
    "geocoded_column": {
      "latitude": "30.017102193715278",
      "longitude": "-90.11753575269998"
    }
  },
  {
    "service_request": "2022-955400",
    "request_type": "Trash/Recycling",
    "request_reason": "Missed Trash Pick-Up",
    "date_created": "2022-12-21T19:55:47.000",
    "date_modified": "2022-12-21T19:55:48.000",
    "request_status": "Pending",
    "responsible_agency": "Department of Sanitation",
    "final_address": "2237 Audubon Street ",
    "address_councildis": "A",
    "status": "Assigned to Contractor",
    "contractor": "Richards Disposal",
    "rowid": "955400",
    "final_x": "3666600.19975",
    "final_y": "529519.826945",
    "longitude": "-90.11518584741388",
    "latitude": "29.950439841751784",
    "geocoded_column": {
      "latitude": "29.950439841751784",
      "longitude": "-90.11518584741388"
    }
  },
  {
    "service_request": "2022-955399",
    "request_type": "Parks & Parkways",
    "request_reason": "Request Tree Service (Right of Way/Public Property)",
    "date_created": "2022-12-21T19:53:21.000",
    "date_modified": "2022-12-21T19:53:21.000",
    "request_status": "Pending",
    "responsible_agency": "Department of Parks & Parkway",
    "final_address": "6009 Argonne Blvd",
    "address_councildis": "A",
    "status": "Pending",
    "rowid": "955399",
    "final_x": "3670229.16238",
    "final_y": "547299.583953",
    "longitude": "-90.10312471251717",
    "latitude": "29.999221594349454",
    "geocoded_column": {
      "latitude": "29.999221594349454",
      "longitude": "-90.10312471251717"
    }
  },
  {
    "service_request": "2022-955398",
    "request_type": "Roads/Drainage",
    "request_reason": "Pothole",
    "date_created": "2022-12-21T19:49:15.000",
    "date_modified": "2022-12-21T19:49:15.000",
    "request_status": "Pending",
    "responsible_agency": "Department of Public Works",
    "final_address": "5978 Argonne Blvd",
    "address_councildis": "A",
    "status": "Pending",
    "rowid": "955398",
    "final_x": "3670092.24564",
    "final_y": "547077.574993",
    "longitude": "-90.10356476399193",
    "latitude": "29.998615187982878",
    "geocoded_column": {
      "latitude": "29.998615187982878",
      "longitude": "-90.10356476399193"
    }
  },
  {
    "service_request": "2022-955397",
    "request_type": "Roads/Drainage",
    "request_reason": "Street Subsidence (Sinking)",
    "date_created": "2022-12-21T19:46:25.000",
    "date_modified": "2022-12-21T19:46:25.000",
    "request_status": "Pending",
    "responsible_agency": "Department of Public Works",
    "final_address": "6075 Argonne Blvd",
    "address_councildis": "A",
    "status": "Pending",
    "rowid": "955397",
    "final_x": "3670258.78286",
    "final_y": "547713.489426",
    "longitude": "-90.10301710110474",
    "latitude": "30.00035881606608",
    "geocoded_column": {
      "latitude": "30.00035881606608",
      "longitude": "-90.10301710110474"
    }
  },
  {
    "service_request": "2022-955396",
    "request_type": "Traffic Signals/Signs/Striping/Streetlights",
    "request_reason": "Street Light Outage/Malfunction",
    "date_created": "2022-12-21T19:42:02.000",
    "date_modified": "2022-12-21T19:42:02.000",
    "request_status": "Pending",
    "responsible_agency": "Department of Public Works",
    "final_address": "6075 Argonne Blvd",
    "address_councildis": "A",
    "status": "Pending",
    "contractor": "Legacy Professional Services",
    "rowid": "955396",
    "final_x": "3670258.78286",
    "final_y": "547713.489426",
    "longitude": "-90.10301710110474",
    "latitude": "30.00035881606608",
    "geocoded_column": {
      "latitude": "30.00035881606608",
      "longitude": "-90.10301710110474"
    }
  },
  {
    "service_request": "2022-955395",
    "request_type": "Traffic Signals/Signs/Striping/Streetlights",
    "request_reason": "Street Light Outage/Malfunction",
    "date_created": "2022-12-21T19:41:33.000",
    "date_modified": "2022-12-21T19:41:34.000",
    "request_status": "Pending",
    "responsible_agency": "Department of Public Works",
    "final_address": "I 610 E & FRANKLIN AVE",
    "address_councildis": "D",
    "status": "Pending",
    "contractor": "Legacy Professional Services",
    "rowid": "955395",
    "final_x": "3687228.08",
    "final_y": "544851.05",
    "longitude": "-90.04951151641174",
    "latitude": "29.99197622912803",
    "geocoded_column": {
      "latitude": "29.99197622912803",
      "longitude": "-90.04951151641174"
    }
  },
  {
    "service_request": "2022-955394",
    "request_type": "Roads/Drainage",
    "request_reason": "Pothole",
    "date_created": "2022-12-21T19:40:03.000",
    "date_modified": "2022-12-21T19:40:03.000",
    "request_status": "Pending",
    "responsible_agency": "Department of Public Works",
    "final_address": "5958 Argonne Blvd",
    "address_councildis": "A",
    "status": "Pending",
    "rowid": "955394",
    "final_x": "3670075.81108",
    "final_y": "546926.435729",
    "longitude": "-90.10362180496458",
    "latitude": "29.998200092414272",
    "geocoded_column": {
      "latitude": "29.998200092414272",
      "longitude": "-90.10362180496458"
    }
  },
  {
    "service_request": "2022-955393",
    "request_type": "Roads/Drainage",
    "request_reason": "Pothole",
    "date_created": "2022-12-21T19:38:43.000",
    "date_modified": "2022-12-21T19:38:43.000",
    "request_status": "Pending",
    "responsible_agency": "Department of Public Works",
    "final_address": "931 Polk St",
    "address_councildis": "A",
    "status": "Pending",
    "rowid": "955393",
    "final_x": "3670090.87847",
    "final_y": "547213.995025",
    "longitude": "-90.10356445772517",
    "latitude": "29.998990336072286",
    "geocoded_column": {
      "latitude": "29.998990336072286",
      "longitude": "-90.10356445772517"
    }
  },
  {
    "service_request": "2022-955392",
    "request_type": "Trash/Recycling",
    "request_reason": "MIssed Recycling Pick-Up",
    "date_created": "2022-12-21T19:34:54.000",
    "date_modified": "2022-12-21T19:34:54.000",
    "request_status": "Pending",
    "responsible_agency": "Department of Sanitation",
    "final_address": "5944 Argonne Blvd",
    "address_councildis": "A",
    "status": "Assigned to Contractor",
    "contractor": "IV Waste",
    "rowid": "955392",
    "final_x": "3670066.86791",
    "final_y": "546827.277457",
    "longitude": "-90.1036534180396",
    "latitude": "29.997927705448376",
    "geocoded_column": {
      "latitude": "29.997927705448376",
      "longitude": "-90.1036534180396"
    }
  },
  {
    "service_request": "2022-955391",
    "request_type": "Trash/Recycling",
    "request_reason": "Missed Trash Pick-Up",
    "date_created": "2022-12-21T19:33:44.000",
    "date_modified": "2022-12-21T19:33:44.000",
    "request_status": "Pending",
    "responsible_agency": "Department of Sanitation",
    "final_address": "4227 St Charles Ave",
    "address_councildis": "B",
    "status": "Assigned to Contractor",
    "contractor": "Richards Disposal",
    "rowid": "955391",
    "final_x": "3671358.86478",
    "final_y": "521031.645369",
    "longitude": "-90.10044879479399",
    "latitude": "29.926960133461964",
    "geocoded_column": {
      "latitude": "29.926960133461964",
      "longitude": "-90.10044879479399"
    }
  },
  {
    "service_request": "2022-955390",
    "request_type": "Trash/Recycling",
    "request_reason": "Illegal Dumping",
    "date_created": "2022-12-21T19:23:09.000",
    "date_modified": "2022-12-21T19:23:09.000",
    "request_status": "Pending",
    "responsible_agency": "Department of Sanitation",
    "final_address": "2801 Bruxelles St",
    "address_councildis": "D",
    "status": "Pending",
    "rowid": "955390",
    "final_x": "3680354.40072",
    "final_y": "542633.796493",
    "longitude": "-90.07130119079459",
    "latitude": "29.986089532042193",
    "geocoded_column": {
      "latitude": "29.986089532042193",
      "longitude": "-90.07130119079459"
    }
  },
  {
    "service_request": "2022-955389",
    "request_type": "Trash/Recycling",
    "request_reason": "Missed Trash Pick-Up",
    "date_created": "2022-12-21T19:17:04.000",
    "date_modified": "2022-12-21T19:17:05.000",
    "request_status": "Pending",
    "responsible_agency": "Department of Sanitation",
    "final_address": "6744 Cindy Pl",
    "address_councildis": "E",
    "status": "Assigned to Contractor",
    "contractor": "Waste Pro",
    "rowid": "955389",
    "final_x": "3707101.4602",
    "final_y": "558820.1119",
    "longitude": "-89.98621737697741",
    "latitude": "30.02975857167119",
    "geocoded_column": {
      "latitude": "30.02975857167119",
      "longitude": "-89.98621737697741"
    }
  },
  {
    "service_request": "2022-955388",
    "request_type": "Trash/Recycling",
    "request_reason": "Request a Large Item Pick Up",
    "date_created": "2022-12-21T19:14:49.000",
    "date_modified": "2022-12-21T19:14:50.000",
    "request_status": "Pending",
    "responsible_agency": "Department of Sanitation",
    "final_address": "5677 Marcia Ave",
    "address_councildis": "A",
    "status": "Assigned to Contractor",
    "contractor": "IV Waste",
    "rowid": "955388",
    "final_x": "3664973.49658",
    "final_y": "545465.426896",
    "longitude": "-90.11978892272198",
    "latitude": "29.99433239570484",
    "geocoded_column": {
      "latitude": "29.99433239570484",
      "longitude": "-90.11978892272198"
    }
  },
  {
    "service_request": "2022-955387",
    "request_type": "Trash/Recycling",
    "request_reason": "Replace Trash Cart",
    "date_created": "2022-12-21T19:05:50.000",
    "date_modified": "2022-12-21T19:05:51.000",
    "request_status": "Pending",
    "responsible_agency": "Department of Sanitation",
    "final_address": "4429 Longfellow Dr",
    "address_councildis": "E",
    "status": "Assigned to Contractor",
    "contractor": "Waste Pro",
    "rowid": "955387",
    "final_x": "3709846.57035",
    "final_y": "554267.45692",
    "longitude": "-89.97771313733317",
    "latitude": "30.017151528940285",
    "geocoded_column": {
      "latitude": "30.017151528940285",
      "longitude": "-89.97771313733317"
    }
  },
  {
    "service_request": "2022-955386",
    "request_type": "Trash/Recycling",
    "request_reason": "Request a Large Item Pick Up",
    "date_created": "2022-12-21T19:05:08.000",
    "date_modified": "2022-12-21T19:05:09.000",
    "request_status": "Pending",
    "responsible_agency": "Department of Sanitation",
    "final_address": "5415 Burgundy St",
    "address_councildis": "E",
    "status": "Assigned to Contractor",
    "contractor": "Waste Pro",
    "rowid": "955386",
    "final_x": "3697082.16797",
    "final_y": "533198.77082",
    "longitude": "-90.01880690380933",
    "latitude": "29.959629399258237",
    "geocoded_column": {
      "latitude": "29.959629399258237",
      "longitude": "-90.01880690380933"
    }
  },
  {
    "service_request": "2022-955385",
    "request_type": "Trash/Recycling",
    "request_reason": "MIssed Recycling Pick-Up",
    "date_created": "2022-12-21T19:01:21.000",
    "date_modified": "2022-12-21T19:01:22.000",
    "request_status": "Pending",
    "responsible_agency": "Department of Sanitation",
    "final_address": "4643 Charlmark Dr",
    "address_councildis": "E",
    "status": "Assigned to Contractor",
    "contractor": "Waste Pro",
    "rowid": "955385",
    "final_x": "3711568.63262",
    "final_y": "555484.973401",
    "longitude": "-89.97222648334288",
    "latitude": "30.020443091424053",
    "geocoded_column": {
      "latitude": "30.020443091424053",
      "longitude": "-89.97222648334288"
    }
  },
  {
    "service_request": "2022-955384",
    "request_type": "Trash/Recycling",
    "request_reason": "Missed Trash Pick-Up",
    "date_created": "2022-12-21T18:58:55.000",
    "date_modified": "2022-12-21T18:58:55.000",
    "request_status": "Pending",
    "responsible_agency": "Department of Sanitation",
    "final_address": "2930 Jefferson Ave",
    "address_councildis": "A",
    "status": "Assigned to Contractor",
    "contractor": "Richards Disposal",
    "rowid": "955384",
    "final_x": "3668258.87591",
    "final_y": "526017.743934",
    "longitude": "-90.11006664314577",
    "latitude": "29.940761659286444",
    "geocoded_column": {
      "latitude": "29.940761659286444",
      "longitude": "-90.11006664314577"
    }
  },
  {
    "service_request": "2022-955383",
    "request_type": "Trash/Recycling",
    "request_reason": "Request a Large Item Pick Up",
    "date_created": "2022-12-21T18:55:57.000",
    "date_modified": "2022-12-21T18:55:58.000",
    "request_status": "Pending",
    "responsible_agency": "Department of Sanitation",
    "final_address": "829 Port St B",
    "address_councildis": "C",
    "status": "Assigned to Contractor",
    "contractor": "IV Waste",
    "rowid": "955383",
    "final_x": "3687225.47126",
    "final_y": "535515.978502",
    "longitude": "-90.04985005396314",
    "latitude": "29.966308160299803",
    "geocoded_column": {
      "latitude": "29.966308160299803",
      "longitude": "-90.04985005396314"
    }
  },
  {
    "service_request": "2022-955382",
    "request_type": "Trash/Recycling",
    "request_reason": "Missed Trash Pick-Up",
    "date_created": "2022-12-21T18:55:09.000",
    "date_modified": "2022-12-21T18:55:10.000",
    "request_status": "Pending",
    "responsible_agency": "Department of Sanitation",
    "final_address": "7710 Panola St",
    "address_councildis": "A",
    "status": "Assigned to Contractor",
    "contractor": "Richards Disposal",
    "rowid": "955382",
    "final_x": "3665084.45536",
    "final_y": "529750.342657",
    "longitude": "-90.11996409254937",
    "latitude": "29.951117906255288",
    "geocoded_column": {
      "latitude": "29.951117906255288",
      "longitude": "-90.11996409254937"
    }
  },
  {
    "service_request": "2022-955381",
    "request_type": "Trash/Recycling",
    "request_reason": "Missed Trash Pick-Up",
    "date_created": "2022-12-21T18:52:26.000",
    "date_modified": "2022-12-21T18:52:27.000",
    "request_status": "Pending",
    "responsible_agency": "Department of Sanitation",
    "final_address": "4230 Vincennes Pl",
    "address_councildis": "B",
    "status": "Assigned to Contractor",
    "contractor": "Richards Disposal",
    "rowid": "955381",
    "final_x": "3668768.08385",
    "final_y": "531497.844291",
    "longitude": "-90.10827400207368",
    "latitude": "29.955815192032095",
    "geocoded_column": {
      "latitude": "29.955815192032095",
      "longitude": "-90.10827400207368"
    }
  },
  {
    "service_request": "2022-955380",
    "request_type": "Trash/Recycling",
    "request_reason": "Missed Trash Pick-Up",
    "date_created": "2022-12-21T18:52:23.000",
    "date_modified": "2022-12-21T18:52:23.000",
    "request_status": "Pending",
    "responsible_agency": "Department of Sanitation",
    "final_address": "4230 Vincennes Pl",
    "address_councildis": "B",
    "status": "Assigned to Contractor",
    "contractor": "Richards Disposal",
    "rowid": "955380",
    "final_x": "3668768.08385",
    "final_y": "531497.844291",
    "longitude": "-90.10827400207368",
    "latitude": "29.955815192032095",
    "geocoded_column": {
      "latitude": "29.955815192032095",
      "longitude": "-90.10827400207368"
    }
  },
  {
    "service_request": "2022-955379",
    "request_type": "Trash/Recycling",
    "request_reason": "Request a Large Item Pick Up",
    "date_created": "2022-12-21T18:52:19.000",
    "date_modified": "2022-12-21T18:52:20.000",
    "request_status": "Pending",
    "responsible_agency": "Department of Sanitation",
    "final_address": "925 Seventh St",
    "address_councildis": "B",
    "status": "Assigned to Contractor",
    "contractor": "Richards Disposal",
    "rowid": "955379",
    "final_x": "3676695.80661",
    "final_y": "519969.184824",
    "longitude": "-90.08363803773199",
    "latitude": "29.923879735947164",
    "geocoded_column": {
      "latitude": "29.923879735947164",
      "longitude": "-90.08363803773199"
    }
  },
  {
    "service_request": "2022-955378",
    "request_type": "Trash/Recycling",
    "request_reason": "MIssed Recycling Pick-Up",
    "date_created": "2022-12-21T18:47:16.000",
    "date_modified": "2022-12-21T18:47:17.000",
    "request_status": "Pending",
    "responsible_agency": "Department of Sanitation",
    "final_address": "939 Seventh St",
    "address_councildis": "B",
    "status": "Assigned to Contractor",
    "contractor": "Richards Disposal",
    "rowid": "955378",
    "final_x": "3676639.38568",
    "final_y": "520053.925048",
    "longitude": "-90.08381322144345",
    "latitude": "29.924114436043542",
    "geocoded_column": {
      "latitude": "29.924114436043542",
      "longitude": "-90.08381322144345"
    }
  },
  {
    "service_request": "2022-955377",
    "request_type": "Trash/Recycling",
    "request_reason": "Request a Large Item Pick Up",
    "date_created": "2022-12-21T18:43:39.000",
    "date_modified": "2022-12-21T18:43:39.000",
    "request_status": "Pending",
    "responsible_agency": "Department of Sanitation",
    "final_address": "5816 Macarthur Blvd",
    "address_councildis": "C",
    "status": "Assigned to Contractor",
    "contractor": "Richards Disposal",
    "rowid": "955377",
    "final_x": "3704761.17246",
    "final_y": "519389.893815",
    "longitude": "-89.99506783969632",
    "latitude": "29.921415404105673",
    "geocoded_column": {
      "latitude": "29.921415404105673",
      "longitude": "-89.99506783969632"
    }
  },
  {
    "service_request": "2022-955376",
    "request_type": "Trash/Recycling",
    "request_reason": "Order Trash Cart",
    "date_created": "2022-12-21T18:04:37.000",
    "date_modified": "2022-12-21T18:04:38.000",
    "request_status": "Pending",
    "responsible_agency": "Department of Sanitation",
    "final_address": "6365 General Diaz St",
    "address_councildis": "A",
    "status": "Assigned to Contractor",
    "contractor": "IV Waste",
    "rowid": "955376",
    "final_x": "3669829.38209",
    "final_y": "549781.679316",
    "longitude": "-90.10430352887518",
    "latitude": "30.00605828757007",
    "geocoded_column": {
      "latitude": "30.00605828757007",
      "longitude": "-90.10430352887518"
    }
  },
  {
    "service_request": "2022-955375",
    "request_type": "Trash/Recycling",
    "request_reason": "Repair Trash Cart",
    "date_created": "2022-12-21T17:57:06.000",
    "date_modified": "2022-12-21T17:57:07.000",
    "request_status": "Pending",
    "responsible_agency": "Department of Sanitation",
    "final_address": "2924 Cambronne St",
    "address_councildis": "A",
    "status": "Assigned to Contractor",
    "contractor": "Richards Disposal",
    "rowid": "955375",
    "final_x": "3665372.71162",
    "final_y": "533777.355205",
    "longitude": "-90.11891915654745",
    "latitude": "29.96218248038053",
    "geocoded_column": {
      "latitude": "29.96218248038053",
      "longitude": "-90.11891915654745"
    }
  },
  {
    "service_request": "2022-955374",
    "request_type": "Trash/Recycling",
    "request_reason": "Request a Large Item Pick Up",
    "date_created": "2022-12-21T17:45:48.000",
    "date_modified": "2022-12-21T17:45:48.000",
    "request_status": "Pending",
    "responsible_agency": "Department of Sanitation",
    "final_address": "1633 Tropic Dr",
    "address_councildis": "C",
    "status": "Assigned to Contractor",
    "contractor": "Richards Disposal",
    "rowid": "955374",
    "final_x": "3699441.24791",
    "final_y": "524688.232124",
    "longitude": "-90.01166749723583",
    "latitude": "29.93615378283697",
    "geocoded_column": {
      "latitude": "29.93615378283697",
      "longitude": "-90.01166749723583"
    }
  },
  {
    "service_request": "2022-955373",
    "request_type": "Trash/Recycling",
    "request_reason": "Replace Trash Cart",
    "date_created": "2022-12-21T17:42:11.000",
    "date_modified": "2022-12-21T17:42:12.000",
    "request_status": "Pending",
    "responsible_agency": "Department of Sanitation",
    "final_address": "43 Yellowstone Dr",
    "address_councildis": "C",
    "status": "Assigned to Contractor",
    "contractor": "Richards Disposal",
    "rowid": "955373",
    "final_x": "3700182.94794",
    "final_y": "517277.104821",
    "longitude": "-90.00959624047191",
    "latitude": "29.915752188582548",
    "geocoded_column": {
      "latitude": "29.915752188582548",
      "longitude": "-90.00959624047191"
    }
  },
  {
    "service_request": "2022-955371",
    "request_type": "Traffic Signals/Signs/Striping/Streetlights",
    "request_reason": "Street Light Outage/Malfunction",
    "date_created": "2022-12-21T17:29:55.000",
    "date_modified": "2022-12-21T17:29:56.000",
    "request_status": "Pending",
    "responsible_agency": "Department of Public Works",
    "final_address": "307 S Olympia St",
    "address_councildis": "A",
    "status": "Pending",
    "contractor": "Legacy Professional Services",
    "rowid": "955371",
    "final_x": "3668829.3099",
    "final_y": "538940.521994",
    "longitude": "-90.10782931795029",
    "latitude": "29.976278279126632",
    "geocoded_column": {
      "latitude": "29.976278279126632",
      "longitude": "-90.10782931795029"
    }
  },
  {
    "service_request": "2022-955370",
    "request_type": "Trash/Recycling",
    "request_reason": "Missed Trash Pick-Up",
    "date_created": "2022-12-21T17:29:05.000",
    "date_modified": "2022-12-21T17:29:06.000",
    "request_status": "Pending",
    "responsible_agency": "Department of Sanitation",
    "final_address": "1916 S Lopez St",
    "address_councildis": "B",
    "status": "Assigned to Contractor",
    "contractor": "Richards Disposal",
    "rowid": "955370",
    "final_x": "3669591.81038",
    "final_y": "529896.087553",
    "longitude": "-90.10572714159562",
    "latitude": "29.951386645895244",
    "geocoded_column": {
      "latitude": "29.951386645895244",
      "longitude": "-90.10572714159562"
    }
  },
  {
    "service_request": "2022-955369",
    "request_type": "Trash/Recycling",
    "request_reason": "Missed Trash Pick-Up",
    "date_created": "2022-12-21T17:15:36.000",
    "date_modified": "2022-12-21T17:15:36.000",
    "request_status": "Pending",
    "responsible_agency": "Department of Sanitation",
    "final_address": "4123 State Street Dr",
    "address_councildis": "B",
    "status": "Assigned to Contractor",
    "contractor": "Richards Disposal",
    "rowid": "955369",
    "final_x": "3668410.14689",
    "final_y": "530763.558722",
    "longitude": "-90.10942901118659",
    "latitude": "29.953806665254618",
    "geocoded_column": {
      "latitude": "29.953806665254618",
      "longitude": "-90.10942901118659"
    }
  },
  {
    "service_request": "2022-955368",
    "request_type": "Trash/Recycling",
    "request_reason": "Missed Trash Pick-Up",
    "date_created": "2022-12-21T17:15:11.000",
    "date_modified": "2022-12-21T17:15:11.000",
    "request_status": "Pending",
    "responsible_agency": "Department of Sanitation",
    "final_address": "225 Walnut St",
    "address_councildis": "A",
    "status": "Assigned to Contractor",
    "contractor": "Richards Disposal",
    "rowid": "955368",
    "final_x": "3661395.55418",
    "final_y": "521207.350969",
    "longitude": "-90.13189469890942",
    "latitude": "29.927734279295464",
    "geocoded_column": {
      "latitude": "29.927734279295464",
      "longitude": "-90.13189469890942"
    }
  },
  {
    "service_request": "2022-955367",
    "request_type": "Trash/Recycling",
    "request_reason": "Missed Trash Pick-Up",
    "date_created": "2022-12-21T17:13:32.000",
    "date_modified": "2022-12-21T17:13:33.000",
    "request_status": "Pending",
    "responsible_agency": "Department of Sanitation",
    "final_address": "5657 Hempstead Rd",
    "address_councildis": "E",
    "status": "Assigned to Contractor",
    "contractor": "Waste Pro",
    "rowid": "955367",
    "final_x": "3708038.02532",
    "final_y": "558025.373083",
    "longitude": "-89.98328745522707",
    "latitude": "30.02754304291878",
    "geocoded_column": {
      "latitude": "30.02754304291878",
      "longitude": "-89.98328745522707"
    }
  },
  {
    "service_request": "2022-955366",
    "request_type": "Property Maintenance",
    "request_reason": "Property Maintenance",
    "date_created": "2022-12-21T17:08:25.000",
    "date_modified": "2022-12-21T17:08:25.000",
    "request_status": "Pending",
    "responsible_agency": "Department of Code Enforcement",
    "final_address": "2105 Baronne St",
    "address_councildis": "B",
    "status": "Pending",
    "rowid": "955366",
    "final_x": "3677181.08776",
    "final_y": "524799.519868",
    "longitude": "-90.08193965679175",
    "latitude": "29.937147019762197",
    "geocoded_column": {
      "latitude": "29.937147019762197",
      "longitude": "-90.08193965679175"
    }
  },
  {
    "service_request": "2022-955365",
    "request_type": "Trash/Recycling",
    "request_reason": "MIssed Recycling Pick-Up",
    "date_created": "2022-12-21T17:04:37.000",
    "date_modified": "2022-12-21T17:04:38.000",
    "request_status": "Pending",
    "responsible_agency": "Department of Sanitation",
    "final_address": "917 Seventh St",
    "address_councildis": "B",
    "status": "Assigned to Contractor",
    "contractor": "Richards Disposal",
    "rowid": "955365",
    "final_x": "3676723.41729",
    "final_y": "519913.963512",
    "longitude": "-90.08355278195359",
    "latitude": "29.92372706715264",
    "geocoded_column": {
      "latitude": "29.92372706715264",
      "longitude": "-90.08355278195359"
    }
  },
  {
    "service_request": "2022-955364",
    "request_type": "Trash/Recycling",
    "request_reason": "MIssed Recycling Pick-Up",
    "date_created": "2022-12-21T17:03:31.000",
    "date_modified": "2022-12-21T17:03:32.000",
    "request_status": "Pending",
    "responsible_agency": "Department of Sanitation",
    "final_address": "702 Washington Ave",
    "address_councildis": "B",
    "status": "Assigned to Contractor",
    "contractor": "Richards Disposal",
    "rowid": "955364",
    "final_x": "3677804.5339",
    "final_y": "519561.826295",
    "longitude": "-90.08015224693371",
    "latitude": "29.92272633588398",
    "geocoded_column": {
      "latitude": "29.92272633588398",
      "longitude": "-90.08015224693371"
    }
  },
  {
    "service_request": "2022-955363",
    "request_type": "Trash/Recycling",
    "request_reason": "Missed Trash Pick-Up",
    "date_created": "2022-12-21T17:02:20.000",
    "date_modified": "2022-12-21T17:02:25.000",
    "request_status": "Pending",
    "responsible_agency": "Department of Sanitation",
    "final_address": "7522 Jeannette St",
    "address_councildis": "A",
    "status": "Assigned to Contractor",
    "contractor": "Richards Disposal",
    "rowid": "955363",
    "final_x": "3664069.328",
    "final_y": "527748.667711",
    "longitude": "-90.12323612034218",
    "latitude": "29.945643463521094",
    "geocoded_column": {
      "latitude": "29.945643463521094",
      "longitude": "-90.12323612034218"
    }
  },
  {
    "service_request": "2022-955362",
    "request_type": "Trash/Recycling",
    "request_reason": "Order Trash Cart",
    "date_created": "2022-12-21T17:01:44.000",
    "date_modified": "2022-12-21T17:01:45.000",
    "request_status": "Pending",
    "responsible_agency": "Department of Sanitation",
    "final_address": "2417 S Galvez St",
    "address_councildis": "B",
    "status": "Assigned to Contractor",
    "contractor": "Richards Disposal",
    "rowid": "955362",
    "final_x": "3673061.65192",
    "final_y": "528783.898624",
    "longitude": "-90.09480902039768",
    "latitude": "29.948225819786682",
    "geocoded_column": {
      "latitude": "29.948225819786682",
      "longitude": "-90.09480902039768"
    }
  },
  {
    "service_request": "2022-955361",
    "request_type": "Trash/Recycling",
    "request_reason": "Order Trash Cart",
    "date_created": "2022-12-21T16:59:14.000",
    "date_modified": "2022-12-21T16:59:18.000",
    "request_status": "Pending",
    "responsible_agency": "Department of Sanitation",
    "final_address": "4900 Hickerson Dr",
    "address_councildis": "E",
    "status": "Assigned to Contractor",
    "contractor": "Waste Pro",
    "rowid": "955361",
    "final_x": "3710133.2988",
    "final_y": "556702.845402",
    "longitude": "-89.97671609859478",
    "latitude": "30.0238385654841",
    "geocoded_column": {
      "latitude": "30.0238385654841",
      "longitude": "-89.97671609859478"
    }
  },
  {
    "service_request": "2022-955360",
    "request_type": "Trash/Recycling",
    "request_reason": "Replace Trash Cart",
    "date_created": "2022-12-21T16:58:35.000",
    "date_modified": "2022-12-21T16:58:36.000",
    "request_status": "Pending",
    "responsible_agency": "Department of Sanitation",
    "final_address": "5705 Magazine St",
    "address_councildis": "A",
    "status": "Assigned to Contractor",
    "contractor": "Richards Disposal",
    "rowid": "955360",
    "final_x": "3665805.02381",
    "final_y": "519017.468791",
    "longitude": "-90.1180483173726",
    "latitude": "29.921584926910462",
    "geocoded_column": {
      "latitude": "29.921584926910462",
      "longitude": "-90.1180483173726"
    }
  },
  {
    "service_request": "2022-955359",
    "request_type": "Trash/Recycling",
    "request_reason": "Missed Trash Pick-Up",
    "date_created": "2022-12-21T16:57:46.000",
    "date_modified": "2022-12-21T16:57:47.000",
    "request_status": "Pending",
    "responsible_agency": "Department of Sanitation",
    "final_address": "4900 Hickerson Dr",
    "address_councildis": "E",
    "status": "Assigned to Contractor",
    "contractor": "Waste Pro",
    "rowid": "955359",
    "final_x": "3710133.2988",
    "final_y": "556702.845402",
    "longitude": "-89.97671609859478",
    "latitude": "30.0238385654841",
    "geocoded_column": {
      "latitude": "30.0238385654841",
      "longitude": "-89.97671609859478"
    }
  },
  {
    "service_request": "2022-955358",
    "request_type": "Trash/Recycling",
    "request_reason": "Repair Recycling Cart",
    "date_created": "2022-12-21T16:57:40.000",
    "date_modified": "2022-12-21T16:57:40.000",
    "request_status": "Pending",
    "responsible_agency": "Department of Sanitation",
    "final_address": "7321 Agate St",
    "address_councildis": "D",
    "status": "Pending",
    "rowid": "955358",
    "final_x": "3670808.76167",
    "final_y": "555360.111449",
    "longitude": "-90.10101988919605",
    "latitude": "30.021368080330767",
    "geocoded_column": {
      "latitude": "30.021368080330767",
      "longitude": "-90.10101988919605"
    }
  },
  {
    "service_request": "2022-955357",
    "request_type": "Trash/Recycling",
    "request_reason": "Missed Trash Pick-Up",
    "date_created": "2022-12-21T16:52:05.000",
    "date_modified": "2022-12-21T16:52:05.000",
    "request_status": "Pending",
    "responsible_agency": "Department of Sanitation",
    "final_address": "908 Fern St",
    "address_councildis": "A",
    "status": "Assigned to Contractor",
    "contractor": "Richards Disposal",
    "rowid": "955357",
    "final_x": "3661854.66298",
    "final_y": "527171.849215",
    "longitude": "-90.13024770251916",
    "latitude": "29.944121521820318",
    "geocoded_column": {
      "latitude": "29.944121521820318",
      "longitude": "-90.13024770251916"
    }
  },
  {
    "service_request": "2022-955356",
    "request_type": "Roads/Drainage",
    "request_reason": "Damaged Sidewalk",
    "date_created": "2022-12-21T16:50:04.000",
    "date_modified": "2022-12-21T16:50:04.000",
    "request_status": "Pending",
    "responsible_agency": "Department of Public Works",
    "final_address": "3810 Burgundy St",
    "address_councildis": "C",
    "status": "Pending",
    "rowid": "955356",
    "final_x": "3691115.75606",
    "final_y": "534581.690885",
    "longitude": "-90.03759801353546",
    "latitude": "29.96361880468522",
    "geocoded_column": {
      "latitude": "29.96361880468522",
      "longitude": "-90.03759801353546"
    }
  },
  {
    "service_request": "2022-955355",
    "request_type": "Roads/Drainage",
    "request_reason": "Debris in Roadway",
    "date_created": "2022-12-21T16:47:25.000",
    "date_modified": "2022-12-21T16:47:26.000",
    "request_status": "Pending",
    "responsible_agency": "Department of Public Works",
    "final_address": "7200 Beauvoir Ct",
    "address_councildis": "E",
    "status": "Pending",
    "rowid": "955355",
    "final_x": "3716347.00255",
    "final_y": "567609.282916",
    "longitude": "-89.95666820257587",
    "latitude": "30.053623112771543",
    "geocoded_column": {
      "latitude": "30.053623112771543",
      "longitude": "-89.95666820257587"
    }
  },
  {
    "service_request": "2022-955354",
    "request_type": "Trash/Recycling",
    "request_reason": "Request a Large Item Pick Up",
    "date_created": "2022-12-21T16:47:20.000",
    "date_modified": "2022-12-21T16:47:20.000",
    "request_status": "Pending",
    "responsible_agency": "Department of Sanitation",
    "final_address": "4618 Annunciation St",
    "address_councildis": "B",
    "status": "Assigned to Contractor",
    "contractor": "Richards Disposal",
    "rowid": "955354",
    "final_x": "3670256.40359",
    "final_y": "517617.759862",
    "longitude": "-90.10404460035134",
    "latitude": "29.917605603306395",
    "geocoded_column": {
      "latitude": "29.917605603306395",
      "longitude": "-90.10404460035134"
    }
  },
  {
    "service_request": "2022-955353",
    "request_type": "Trash/Recycling",
    "request_reason": "Missed Trash Pick-Up",
    "date_created": "2022-12-21T16:44:14.000",
    "date_modified": "2022-12-21T16:44:15.000",
    "request_status": "Pending",
    "responsible_agency": "Department of Sanitation",
    "final_address": "4630 Arts St",
    "address_councildis": "D",
    "status": "Assigned to Contractor",
    "contractor": "IV Waste",
    "rowid": "955353",
    "final_x": "3685892.23298",
    "final_y": "549826.874452",
    "longitude": "-90.05355562583006",
    "latitude": "30.005699040664812",
    "geocoded_column": {
      "latitude": "30.005699040664812",
      "longitude": "-90.05355562583006"
    }
  },
  {
    "service_request": "2022-955352",
    "request_type": "Trash/Recycling",
    "request_reason": "Missed Trash Pick-Up",
    "date_created": "2022-12-21T16:39:34.000",
    "date_modified": "2022-12-21T16:40:45.000",
    "request_status": "Pending",
    "responsible_agency": "Department of Sanitation",
    "final_address": "11024 S Hardy St",
    "address_councildis": "E",
    "status": "Assigned to Contractor",
    "contractor": "Waste Pro",
    "rowid": "955352",
    "final_x": "3713467.22911",
    "final_y": "561892.303519",
    "longitude": "-89.96598597208859",
    "latitude": "30.037998554002233",
    "geocoded_column": {
      "latitude": "30.037998554002233",
      "longitude": "-89.96598597208859"
    }
  },
  {
    "service_request": "2022-955351",
    "request_type": "Trash/Recycling",
    "request_reason": "Missed Trash Pick-Up",
    "date_created": "2022-12-21T16:39:33.000",
    "date_modified": "2022-12-21T16:47:13.000",
    "case_close_date": "2022-12-21T10:47:13.000",
    "request_status": "Closed",
    "responsible_agency": "Department of Sanitation",
    "final_address": "11024 S Hardy St",
    "address_councildis": "E",
    "status": "Assigned to Contractor",
    "contractor": "Waste Pro",
    "contractor_action": "Completed",
    "rowid": "955351",
    "final_x": "3713467.22911",
    "final_y": "561892.303519",
    "longitude": "-89.96598597208859",
    "latitude": "30.037998554002233",
    "geocoded_column": {
      "latitude": "30.037998554002233",
      "longitude": "-89.96598597208859"
    }
  },
  {
    "service_request": "2022-955350",
    "request_type": "Trash/Recycling",
    "request_reason": "Illegal Dumping",
    "date_created": "2022-12-21T16:33:41.000",
    "date_modified": "2022-12-21T16:33:41.000",
    "request_status": "Pending",
    "responsible_agency": "Department of Sanitation",
    "final_address": "5323 Music St",
    "address_councildis": "D",
    "status": "Pending",
    "rowid": "955350",
    "final_x": "3685600.86588",
    "final_y": "552663.726166",
    "longitude": "-90.05437608507258",
    "latitude": "30.0135082936273",
    "geocoded_column": {
      "latitude": "30.0135082936273",
      "longitude": "-90.05437608507258"
    }
  },
  {
    "service_request": "2022-955349",
    "request_type": "Trash/Recycling",
    "request_reason": "Missed Trash Pick-Up",
    "date_created": "2022-12-21T16:26:26.000",
    "date_modified": "2022-12-21T16:26:26.000",
    "request_status": "Pending",
    "responsible_agency": "Department of Sanitation",
    "final_address": "4330 State Street Dr",
    "address_councildis": "B",
    "status": "Assigned to Contractor",
    "contractor": "Richards Disposal",
    "rowid": "955349",
    "final_x": "3668571.20244",
    "final_y": "531513.849091",
    "longitude": "-90.10889514659189",
    "latitude": "29.95586498635862",
    "geocoded_column": {
      "latitude": "29.95586498635862",
      "longitude": "-90.10889514659189"
    }
  },
  {
    "service_request": "2022-955348",
    "request_type": "Trash/Recycling",
    "request_reason": "Request a Large Item Pick Up",
    "date_created": "2022-12-21T16:25:18.000",
    "date_modified": "2022-12-21T16:25:19.000",
    "request_status": "Pending",
    "responsible_agency": "Department of Sanitation",
    "final_address": "529 Bouny St",
    "address_councildis": "C",
    "status": "Assigned to Contractor",
    "contractor": "Richards Disposal",
    "rowid": "955348",
    "final_x": "3686238.53807",
    "final_y": "529524.712385",
    "longitude": "-90.0531781458742",
    "latitude": "29.949864600160417",
    "geocoded_column": {
      "latitude": "29.949864600160417",
      "longitude": "-90.0531781458742"
    }
  },
  {
    "service_request": "2022-955347",
    "request_type": "Trash/Recycling",
    "request_reason": "Missed Trash Pick-Up",
    "date_created": "2022-12-21T16:17:36.000",
    "date_modified": "2022-12-21T16:17:36.000",
    "request_status": "Pending",
    "responsible_agency": "Department of Sanitation",
    "final_address": "410 Lowerline St",
    "address_councildis": "A",
    "status": "Assigned to Contractor",
    "contractor": "Richards Disposal",
    "rowid": "955347",
    "final_x": "3661666.96403",
    "final_y": "524041.37734",
    "longitude": "-90.13094403947427",
    "latitude": "29.93551913414109",
    "geocoded_column": {
      "latitude": "29.93551913414109",
      "longitude": "-90.13094403947427"
    }
  },
  {
    "service_request": "2022-955346",
    "request_type": "Trash/Recycling",
    "request_reason": "Replace Trash Cart",
    "date_created": "2022-12-21T16:16:15.000",
    "date_modified": "2022-12-21T16:16:16.000",
    "request_status": "Pending",
    "responsible_agency": "Department of Sanitation",
    "final_address": "5018 Cardenas Dr",
    "address_councildis": "E",
    "status": "Assigned to Contractor",
    "contractor": "Waste Pro",
    "rowid": "955346",
    "final_x": "3713474.66552",
    "final_y": "557759.250715",
    "longitude": "-89.9661183203552",
    "latitude": "30.026634063365453",
    "geocoded_column": {
      "latitude": "30.026634063365453",
      "longitude": "-89.9661183203552"
    }
  },
  {
    "service_request": "2022-955345",
    "request_type": "Roads/Drainage",
    "request_reason": "Catch Basin - Clogged",
    "date_created": "2022-12-21T16:14:27.000",
    "date_modified": "2022-12-21T16:14:28.000",
    "request_status": "Pending",
    "responsible_agency": "Department of Public Works",
    "final_address": "2316 Palmer Ave",
    "address_councildis": "A",
    "status": "Pending",
    "rowid": "955345",
    "final_x": "3666206.20647",
    "final_y": "525425.120701",
    "longitude": "-90.11656717063944",
    "latitude": "29.939192231356593",
    "geocoded_column": {
      "latitude": "29.939192231356593",
      "longitude": "-90.11656717063944"
    }
  },
  {
    "service_request": "2022-955344",
    "request_type": "Roads/Drainage",
    "request_reason": "Leaking Hydrant",
    "date_created": "2022-12-21T16:11:48.000",
    "date_modified": "2022-12-21T16:11:49.000",
    "request_status": "Pending",
    "responsible_agency": "Department of Public Works",
    "final_address": "PALMER AVE & MAGNOLIA ST",
    "address_councildis": "A",
    "status": "Pending",
    "rowid": "955344",
    "final_x": "3666200.4",
    "final_y": "525255.58",
    "longitude": "-90.11659118628037",
    "latitude": "29.938726218273892",
    "geocoded_column": {
      "latitude": "29.938726218273892",
      "longitude": "-90.11659118628037"
    }
  },
  {
    "service_request": "2022-955343",
    "request_type": "Trash/Recycling",
    "request_reason": "Order Recycling Cart",
    "date_created": "2022-12-21T16:11:23.000",
    "date_modified": "2022-12-21T16:11:23.000",
    "request_status": "Pending",
    "responsible_agency": "Department of Sanitation",
    "final_address": "822 Louisiana Ave",
    "address_councildis": "B",
    "status": "Pending",
    "rowid": "955343",
    "final_x": "3675313.98043",
    "final_y": "518775.435895",
    "longitude": "-90.08804092341875",
    "latitude": "29.920638677610395",
    "geocoded_column": {
      "latitude": "29.920638677610395",
      "longitude": "-90.08804092341875"
    }
  },
  {
    "service_request": "2022-955342",
    "request_type": "Trash/Recycling",
    "request_reason": "Missed Trash Pick-Up",
    "date_created": "2022-12-21T16:11:21.000",
    "date_modified": "2022-12-21T16:11:21.000",
    "request_status": "Pending",
    "responsible_agency": "Department of Sanitation",
    "final_address": "731 Fern St",
    "address_councildis": "A",
    "status": "Assigned to Contractor",
    "contractor": "Richards Disposal",
    "rowid": "955342",
    "final_x": "3661572.91936",
    "final_y": "526733.867006",
    "longitude": "-90.1311517589614",
    "latitude": "29.942925341207168",
    "geocoded_column": {
      "latitude": "29.942925341207168",
      "longitude": "-90.1311517589614"
    }
  },
  {
    "service_request": "2022-955341",
    "request_type": "Abandoned Vehicles",
    "request_reason": "Abandoned/Junk Vehicles",
    "date_created": "2022-12-21T16:07:27.000",
    "date_modified": "2022-12-21T16:10:51.000",
    "request_status": "Pending",
    "responsible_agency": "Department of Public Works",
    "final_address": "3100 BLK Erato St",
    "address_councildis": "B",
    "status": "Pending",
    "rowid": "955341",
    "final_x": "3674939.6327",
    "final_y": "528944.751609",
    "longitude": "-90.08887394178991",
    "latitude": "29.948612163563336",
    "geocoded_column": {
      "latitude": "29.948612163563336",
      "longitude": "-90.08887394178991"
    }
  },
  {
    "service_request": "2022-955340",
    "request_type": "Trash/Recycling",
    "request_reason": "Order Trash Cart",
    "date_created": "2022-12-21T16:03:49.000",
    "date_modified": "2022-12-21T16:03:49.000",
    "request_status": "Pending",
    "responsible_agency": "Department of Sanitation",
    "final_address": "7710 Mullet St",
    "address_councildis": "E",
    "status": "Assigned to Contractor",
    "contractor": "Waste Pro",
    "rowid": "955340",
    "final_x": "3698920.99223",
    "final_y": "560479.756318",
    "longitude": "-90.01200695098497",
    "latitude": "30.034583859367398",
    "geocoded_column": {
      "latitude": "30.034583859367398",
      "longitude": "-90.01200695098497"
    }
  },
  {
    "service_request": "2022-955339",
    "request_type": "Trash/Recycling",
    "request_reason": "Missed Trash Pick-Up",
    "date_created": "2022-12-21T15:59:47.000",
    "date_modified": "2022-12-21T15:59:48.000",
    "request_status": "Pending",
    "responsible_agency": "Department of Sanitation",
    "final_address": "4529 Dryades St",
    "address_councildis": "B",
    "status": "Assigned to Contractor",
    "contractor": "Richards Disposal",
    "rowid": "955339",
    "final_x": "3670063.16116",
    "final_y": "521968.816634",
    "longitude": "-90.10450727522434",
    "latitude": "29.929575325502107",
    "geocoded_column": {
      "latitude": "29.929575325502107",
      "longitude": "-90.10450727522434"
    }
  },
  {
    "service_request": "2022-955338",
    "request_type": "Trash/Recycling",
    "request_reason": "Replace Trash Cart",
    "date_created": "2022-12-21T15:59:31.000",
    "date_modified": "2022-12-21T15:59:32.000",
    "request_status": "Pending",
    "responsible_agency": "Department of Sanitation",
    "final_address": "4803 Carondelet St",
    "address_councildis": "B",
    "status": "Assigned to Contractor",
    "contractor": "Richards Disposal",
    "rowid": "955338",
    "final_x": "3669285.36782",
    "final_y": "521128.550777",
    "longitude": "-90.1069910253392",
    "latitude": "29.927287775185796",
    "geocoded_column": {
      "latitude": "29.927287775185796",
      "longitude": "-90.1069910253392"
    }
  },
  {
    "service_request": "2022-955337",
    "request_type": "Trash/Recycling",
    "request_reason": "Order Trash Cart",
    "date_created": "2022-12-21T15:59:11.000",
    "date_modified": "2022-12-21T16:00:26.000",
    "request_status": "Pending",
    "responsible_agency": "Department of Sanitation",
    "final_address": "5705 Magazine St",
    "address_councildis": "A",
    "status": "Assigned to Contractor",
    "contractor": "Richards Disposal",
    "rowid": "955337",
    "final_x": "3665805.02381",
    "final_y": "519017.468791",
    "longitude": "-90.1180483173726",
    "latitude": "29.921584926910462",
    "geocoded_column": {
      "latitude": "29.921584926910462",
      "longitude": "-90.1180483173726"
    }
  },
  {
    "service_request": "2022-955336",
    "request_type": "Trash/Recycling",
    "request_reason": "Order Recycling Cart",
    "date_created": "2022-12-21T15:58:28.000",
    "date_modified": "2022-12-21T15:58:29.000",
    "request_status": "Pending",
    "responsible_agency": "Department of Sanitation",
    "final_address": "5705 Magazine St",
    "address_councildis": "A",
    "status": "Pending",
    "rowid": "955336",
    "final_x": "3665805.02381",
    "final_y": "519017.468791",
    "longitude": "-90.1180483173726",
    "latitude": "29.921584926910462",
    "geocoded_column": {
      "latitude": "29.921584926910462",
      "longitude": "-90.1180483173726"
    }
  },
  {
    "service_request": "2022-955335",
    "request_type": "Trash/Recycling",
    "request_reason": "Missed Trash Pick-Up",
    "date_created": "2022-12-21T15:54:42.000",
    "date_modified": "2022-12-21T15:54:43.000",
    "request_status": "Pending",
    "responsible_agency": "Department of Sanitation",
    "final_address": "4009 Octavia St",
    "address_councildis": "B",
    "status": "Assigned to Contractor",
    "contractor": "Richards Disposal",
    "rowid": "955335",
    "final_x": "3668966.96218",
    "final_y": "530092.333889",
    "longitude": "-90.10769348395522",
    "latitude": "29.95194465157315",
    "geocoded_column": {
      "latitude": "29.95194465157315",
      "longitude": "-90.10769348395522"
    }
  },
  {
    "service_request": "2022-955334",
    "request_type": "Trash/Recycling",
    "request_reason": "Missed Trash Pick-Up",
    "date_created": "2022-12-21T15:53:53.000",
    "date_modified": "2022-12-21T15:53:53.000",
    "request_status": "Pending",
    "responsible_agency": "Department of Sanitation",
    "final_address": "4007 Octavia St",
    "address_councildis": "B",
    "status": "Assigned to Contractor",
    "contractor": "Richards Disposal",
    "rowid": "955334",
    "final_x": "3668965.11834",
    "final_y": "530071.426369",
    "longitude": "-90.10770001208161",
    "latitude": "29.951887216968267",
    "geocoded_column": {
      "latitude": "29.951887216968267",
      "longitude": "-90.10770001208161"
    }
  },
  {
    "service_request": "2022-955333",
    "request_type": "Trash/Recycling",
    "request_reason": "Missed Trash Pick-Up",
    "date_created": "2022-12-21T15:45:02.000",
    "date_modified": "2022-12-21T16:25:26.000",
    "request_status": "Pending",
    "responsible_agency": "Department of Sanitation",
    "final_address": "4311 Coliseum St, New Orleans, Louisiana, 70115",
    "address_councildis": "B",
    "status": "Assigned to Contractor",
    "contractor": "Richards Disposal",
    "rowid": "955333",
    "final_x": "3671218.2651",
    "final_y": "519918.850296",
    "longitude": "-90.10093041389597",
    "latitude": "29.923904461467647",
    "geocoded_column": {
      "latitude": "29.923904461467647",
      "longitude": "-90.10093041389597"
    }
  },
  {
    "service_request": "2022-955332",
    "request_type": "Traffic Signals/Signs/Striping/Streetlights",
    "request_reason": "Traffic Signal Malfunctioning/Damaged",
    "date_created": "2022-12-21T15:39:25.000",
    "date_modified": "2022-12-21T15:39:25.000",
    "request_status": "Pending",
    "responsible_agency": "Department of Public Works",
    "final_address": "739 Convention Center Blvd",
    "address_councildis": "B",
    "status": "Pending",
    "rowid": "955332",
    "final_x": "3682558.2621",
    "final_y": "527720.172479",
    "longitude": "-90.06486154024245",
    "latitude": "29.945015267541457",
    "geocoded_column": {
      "latitude": "29.945015267541457",
      "longitude": "-90.06486154024245"
    }
  },
  {
    "service_request": "2022-955330",
    "request_type": "Trash/Recycling",
    "request_reason": "Order Trash Cart",
    "date_created": "2022-12-21T15:36:59.000",
    "date_modified": "2022-12-21T15:37:00.000",
    "request_status": "Pending",
    "responsible_agency": "Department of Sanitation",
    "final_address": "1774 N Miro St",
    "address_councildis": "D",
    "status": "Assigned to Contractor",
    "contractor": "IV Waste",
    "rowid": "955330",
    "final_x": "3681592.33634",
    "final_y": "540069.961995",
    "longitude": "-90.0674805032237",
    "latitude": "29.979002335446463",
    "geocoded_column": {
      "latitude": "29.979002335446463",
      "longitude": "-90.0674805032237"
    }
  },
  {
    "service_request": "2022-955329",
    "request_type": "Parks & Parkways",
    "request_reason": "Request Tree Service (Right of Way/Public Property)",
    "date_created": "2022-12-21T15:36:36.000",
    "date_modified": "2022-12-21T15:36:36.000",
    "request_status": "Pending",
    "responsible_agency": "Department of Parks & Parkway",
    "final_address": "6414 Memphis St",
    "address_councildis": "A",
    "status": "Pending",
    "rowid": "955329",
    "final_x": "3669364.74804",
    "final_y": "550144.038356",
    "longitude": "-90.10575915955147",
    "latitude": "30.007068343338894",
    "geocoded_column": {
      "latitude": "30.007068343338894",
      "longitude": "-90.10575915955147"
    }
  },
  {
    "service_request": "2022-955328",
    "request_type": "Trash/Recycling",
    "request_reason": "Request a Large Item Pick Up",
    "date_created": "2022-12-21T15:33:24.000",
    "date_modified": "2022-12-21T15:33:25.000",
    "request_status": "Pending",
    "responsible_agency": "Department of Sanitation",
    "final_address": "2612 Bienville Ave",
    "address_councildis": "B",
    "status": "Assigned to Contractor",
    "contractor": "Richards Disposal",
    "rowid": "955328",
    "final_x": "3676121.1179",
    "final_y": "535417.87015",
    "longitude": "-90.08492081137346",
    "latitude": "29.96637573275046",
    "geocoded_column": {
      "latitude": "29.96637573275046",
      "longitude": "-90.08492081137346"
    }
  },
  {
    "service_request": "2022-955327",
    "request_type": "Trash/Recycling",
    "request_reason": "Request a Large Item Pick Up",
    "date_created": "2022-12-21T15:29:15.000",
    "date_modified": "2022-12-21T15:29:16.000",
    "request_status": "Pending",
    "responsible_agency": "Department of Sanitation",
    "final_address": "5527 General Diaz St",
    "address_councildis": "A",
    "status": "Assigned to Contractor",
    "contractor": "IV Waste",
    "rowid": "955327",
    "final_x": "3669151.2162",
    "final_y": "543987.397134",
    "longitude": "-90.1066419965131",
    "latitude": "29.990145999943394",
    "geocoded_column": {
      "latitude": "29.990145999943394",
      "longitude": "-90.1066419965131"
    }
  },
  {
    "service_request": "2022-955326",
    "request_type": "Trash/Recycling",
    "request_reason": "Order Recycling Cart",
    "date_created": "2022-12-21T15:27:19.000",
    "date_modified": "2022-12-21T15:27:19.000",
    "request_status": "Pending",
    "responsible_agency": "Department of Sanitation",
    "final_address": "4457 Lonely Oak Dr",
    "address_councildis": "E",
    "status": "Pending",
    "rowid": "955326",
    "final_x": "3702528.02244",
    "final_y": "552854.418839",
    "longitude": "-90.00088851160852",
    "latitude": "30.013502257615357",
    "geocoded_column": {
      "latitude": "30.013502257615357",
      "longitude": "-90.00088851160852"
    }
  },
  {
    "service_request": "2022-955325",
    "request_type": "Trash/Recycling",
    "request_reason": "MIssed Recycling Pick-Up",
    "date_created": "2022-12-21T15:27:03.000",
    "date_modified": "2022-12-21T15:27:07.000",
    "request_status": "Pending",
    "responsible_agency": "Department of Sanitation",
    "final_address": "310 N Bernadotte St",
    "address_councildis": "A",
    "status": "Assigned to Contractor",
    "contractor": "Richards Disposal",
    "rowid": "955325",
    "final_x": "3669397.2082",
    "final_y": "540770.983115",
    "longitude": "-90.10597379647386",
    "latitude": "29.981294714931792",
    "geocoded_column": {
      "latitude": "29.981294714931792",
      "longitude": "-90.10597379647386"
    }
  },
  {
    "service_request": "2022-955324",
    "request_type": "Traffic Signals/Signs/Striping/Streetlights",
    "request_reason": "Request for Traffic Calming due to Speeding",
    "date_created": "2022-12-21T15:23:32.000",
    "date_modified": "2022-12-21T15:23:32.000",
    "request_status": "Pending",
    "responsible_agency": "Department of Public Works",
    "final_address": "4500 BLK Marque Dr",
    "address_councildis": "E",
    "status": "Pending",
    "rowid": "955324",
    "final_x": "3710212.67928",
    "final_y": "554454.98635",
    "longitude": "-89.9765493778502",
    "latitude": "30.017655247149715",
    "geocoded_column": {
      "latitude": "30.017655247149715",
      "longitude": "-89.9765493778502"
    }
  },
  {
    "service_request": "2022-955323",
    "request_type": "Trash/Recycling",
    "request_reason": "Order Trash Cart",
    "date_created": "2022-12-21T15:23:20.000",
    "date_modified": "2022-12-21T15:23:20.000",
    "request_status": "Pending",
    "responsible_agency": "Department of Sanitation",
    "final_address": "4913 Papania Dr",
    "address_councildis": "E",
    "status": "Assigned to Contractor",
    "contractor": "Waste Pro",
    "rowid": "955323",
    "final_x": "3715597.16869",
    "final_y": "557548.909531",
    "longitude": "-89.95941948549634",
    "latitude": "30.025985901984296",
    "geocoded_column": {
      "latitude": "30.025985901984296",
      "longitude": "-89.95941948549634"
    }
  },
  {
    "service_request": "2022-955322",
    "request_type": "Trash/Recycling",
    "request_reason": "Illegal Dumping",
    "date_created": "2022-12-21T15:15:38.000",
    "date_modified": "2022-12-21T15:15:39.000",
    "request_status": "Pending",
    "responsible_agency": "Department of Sanitation",
    "final_address": "524 Austerlitz St",
    "address_councildis": "B",
    "status": "Pending",
    "rowid": "955322",
    "final_x": "3672938.30267",
    "final_y": "517874.402294",
    "longitude": "-90.09557057631058",
    "latitude": "29.918231901789447",
    "geocoded_column": {
      "latitude": "29.918231901789447",
      "longitude": "-90.09557057631058"
    }
  },
  {
    "service_request": "2022-955320",
    "request_type": "Trash/Recycling",
    "request_reason": "Request a Large Item Pick Up",
    "date_created": "2022-12-21T15:08:04.000",
    "date_modified": "2022-12-21T15:08:05.000",
    "request_status": "Pending",
    "responsible_agency": "Department of Sanitation",
    "final_address": "5232 Chestnut St",
    "address_councildis": "B",
    "status": "Assigned to Contractor",
    "contractor": "Richards Disposal",
    "rowid": "955320",
    "final_x": "3667770.6626",
    "final_y": "519322.936247",
    "longitude": "-90.11183334613955",
    "latitude": "29.92236739531293",
    "geocoded_column": {
      "latitude": "29.92236739531293",
      "longitude": "-90.11183334613955"
    }
  },
  {
    "service_request": "2022-955319",
    "request_type": "Trash/Recycling",
    "request_reason": "Order Trash Cart",
    "date_created": "2022-12-21T15:07:33.000",
    "date_modified": "2022-12-21T15:09:17.000",
    "request_status": "Pending",
    "responsible_agency": "Department of Sanitation",
    "final_address": "3934 Iroquois St",
    "address_councildis": "D",
    "contractor": "IV Waste",
    "rowid": "955319",
    "final_x": "3689099.78934",
    "final_y": "547759.514322",
    "longitude": "-90.04349577116055",
    "latitude": "29.999915658478404",
    "geocoded_column": {
      "latitude": "29.999915658478404",
      "longitude": "-90.04349577116055"
    }
  },
  {
    "service_request": "2022-955318",
    "request_type": "Trash/Recycling",
    "request_reason": "Repair Recycling Cart",
    "date_created": "2022-12-21T15:06:34.000",
    "date_modified": "2022-12-21T16:01:39.000",
    "request_status": "Pending",
    "responsible_agency": "Department of Sanitation",
    "final_address": "820 Spain St #7",
    "address_councildis": "C",
    "rowid": "955318",
    "final_x": "3686133.86959",
    "final_y": "535479.20487",
    "longitude": "-90.05329860246944",
    "latitude": "29.966240621279116",
    "geocoded_column": {
      "latitude": "29.966240621279116",
      "longitude": "-90.05329860246944"
    }
  },
  {
    "service_request": "2022-955317",
    "request_type": "Trash/Recycling",
    "request_reason": "Order Recycling Cart",
    "date_created": "2022-12-21T15:06:16.000",
    "date_modified": "2022-12-21T15:06:16.000",
    "request_status": "Pending",
    "responsible_agency": "Department of Sanitation",
    "final_address": "4538 S Liberty St",
    "address_councildis": "B",
    "status": "Pending",
    "rowid": "955317",
    "final_x": "3669895.91207",
    "final_y": "523244.388091",
    "longitude": "-90.1049920851556",
    "latitude": "29.93308766899235",
    "geocoded_column": {
      "latitude": "29.93308766899235",
      "longitude": "-90.1049920851556"
    }
  },
  {
    "service_request": "2022-955316",
    "request_type": "Trash/Recycling",
    "request_reason": "Order Trash Cart",
    "date_created": "2022-12-21T15:05:02.000",
    "date_modified": "2022-12-21T15:05:03.000",
    "request_status": "Pending",
    "responsible_agency": "Department of Sanitation",
    "final_address": "4538 S Liberty St",
    "address_councildis": "B",
    "status": "Assigned to Contractor",
    "contractor": "Richards Disposal",
    "rowid": "955316",
    "final_x": "3669895.91207",
    "final_y": "523244.388091",
    "longitude": "-90.1049920851556",
    "latitude": "29.93308766899235",
    "geocoded_column": {
      "latitude": "29.93308766899235",
      "longitude": "-90.1049920851556"
    }
  },
  {
    "service_request": "2022-955315",
    "request_type": "Trash/Recycling",
    "request_reason": "Missed Trash Pick-Up",
    "date_created": "2022-12-21T15:04:52.000",
    "date_modified": "2022-12-21T15:04:56.000",
    "request_status": "Pending",
    "responsible_agency": "Department of Sanitation",
    "final_address": "4845 Charlene Dr",
    "address_councildis": "E",
    "status": "Assigned to Contractor",
    "contractor": "Waste Pro",
    "rowid": "955315",
    "final_x": "3707889.69022",
    "final_y": "556354.937178",
    "longitude": "-89.98381834501588",
    "latitude": "30.022954801527543",
    "geocoded_column": {
      "latitude": "30.022954801527543",
      "longitude": "-89.98381834501588"
    }
  },
  {
    "service_request": "2022-955314",
    "request_type": "Trash/Recycling",
    "request_reason": "Missed Trash Pick-Up",
    "date_created": "2022-12-21T15:02:58.000",
    "date_modified": "2022-12-21T15:02:59.000",
    "request_status": "Pending",
    "responsible_agency": "Department of Sanitation",
    "final_address": "2400 BLK Pine St",
    "address_councildis": "A",
    "status": "Assigned to Contractor",
    "contractor": "Richards Disposal",
    "rowid": "955314",
    "final_x": "3666452.11883",
    "final_y": "530431.283741",
    "longitude": "-90.1156228275213",
    "latitude": "29.95295037930989",
    "geocoded_column": {
      "latitude": "29.95295037930989",
      "longitude": "-90.1156228275213"
    }
  },
  {
    "service_request": "2022-955313",
    "request_type": "Trash/Recycling",
    "request_reason": "MIssed Recycling Pick-Up",
    "date_created": "2022-12-21T15:00:02.000",
    "date_modified": "2022-12-21T15:00:03.000",
    "request_status": "Pending",
    "responsible_agency": "Department of Sanitation",
    "final_address": "231 Alix St",
    "address_councildis": "C",
    "status": "Assigned to Contractor",
    "contractor": "Richards Disposal",
    "rowid": "955313",
    "final_x": "3686378.27126",
    "final_y": "529878.700801",
    "longitude": "-90.05272445300798",
    "latitude": "29.950833654203578",
    "geocoded_column": {
      "latitude": "29.950833654203578",
      "longitude": "-90.05272445300798"
    }
  },
  {
    "service_request": "2022-955312",
    "request_type": "Trash/Recycling",
    "request_reason": "Repair Trash Cart",
    "date_created": "2022-12-21T14:57:16.000",
    "date_modified": "2022-12-21T14:58:18.000",
    "request_status": "Pending",
    "responsible_agency": "Department of Sanitation",
    "final_address": "4882 Annunciation St",
    "address_councildis": "B",
    "status": "Assigned to Contractor",
    "contractor": "Richards Disposal",
    "rowid": "955312",
    "final_x": "3668996.6955",
    "final_y": "517474.57535",
    "longitude": "-90.10802564031307",
    "latitude": "29.917248991389574",
    "geocoded_column": {
      "latitude": "29.917248991389574",
      "longitude": "-90.10802564031307"
    }
  },
  {
    "service_request": "2022-955311",
    "request_type": "Trash/Recycling",
    "request_reason": "Missed Trash Pick-Up",
    "date_created": "2022-12-21T14:54:58.000",
    "date_modified": "2022-12-21T14:54:59.000",
    "request_status": "Pending",
    "responsible_agency": "Department of Sanitation",
    "final_address": "ADAMS ST & SYCAMORE ST",
    "address_councildis": "A",
    "status": "Assigned to Contractor",
    "contractor": "Richards Disposal",
    "rowid": "955311",
    "final_x": "3665423.6",
    "final_y": "529978.18",
    "longitude": "-90.11888561377341",
    "latitude": "29.951734505761582",
    "geocoded_column": {
      "latitude": "29.951734505761582",
      "longitude": "-90.11888561377341"
    }
  },
  {
    "service_request": "2022-955308",
    "request_type": "Trash/Recycling",
    "request_reason": "Missed Trash Pick-Up",
    "date_created": "2022-12-21T14:52:35.000",
    "date_modified": "2022-12-21T14:52:35.000",
    "request_status": "Pending",
    "responsible_agency": "Department of Sanitation",
    "final_address": "7726 Sycamore St",
    "address_councildis": "A",
    "status": "Assigned to Contractor",
    "contractor": "Richards Disposal",
    "rowid": "955308",
    "final_x": "3665248.00762",
    "final_y": "530059.924929",
    "longitude": "-90.11943731826442",
    "latitude": "29.951964393929458",
    "geocoded_column": {
      "latitude": "29.951964393929458",
      "longitude": "-90.11943731826442"
    }
  },
  {
    "service_request": "2022-955307",
    "request_type": "Health Related Request",
    "request_reason": "Noise Ordinance Complaint",
    "date_created": "2022-12-21T14:52:07.000",
    "date_modified": "2022-12-21T14:52:08.000",
    "request_status": "Pending",
    "responsible_agency": "Health Department",
    "final_address": "2621 Dante St",
    "address_councildis": "A",
    "status": "Pending",
    "rowid": "955307",
    "final_x": "3664976.01626",
    "final_y": "532704.304964",
    "longitude": "-90.12020774205546",
    "latitude": "29.959243498309515",
    "geocoded_column": {
      "latitude": "29.959243498309515",
      "longitude": "-90.12020774205546"
    }
  },
  {
    "service_request": "2022-955306",
    "request_type": "Trash/Recycling",
    "request_reason": "Request a Large Item Pick Up",
    "date_created": "2022-12-21T14:51:33.000",
    "date_modified": "2022-12-21T14:51:33.000",
    "request_status": "Pending",
    "responsible_agency": "Department of Sanitation",
    "final_address": "4954 Warren Dr",
    "address_councildis": "E",
    "status": "Assigned to Contractor",
    "contractor": "Waste Pro",
    "rowid": "955306",
    "final_x": "3713273.37861",
    "final_y": "557391.219995",
    "longitude": "-89.96676822799627",
    "latitude": "30.025628726979832",
    "geocoded_column": {
      "latitude": "30.025628726979832",
      "longitude": "-89.96676822799627"
    }
  },
  {
    "service_request": "2022-955305",
    "request_type": "Trash/Recycling",
    "request_reason": "Missed Trash Pick-Up",
    "date_created": "2022-12-21T14:50:38.000",
    "date_modified": "2022-12-21T14:50:39.000",
    "request_status": "Pending",
    "responsible_agency": "Department of Sanitation",
    "final_address": "525 Delacroix Rd",
    "address_councildis": "C",
    "status": "Assigned to Contractor",
    "contractor": "Richards Disposal",
    "rowid": "955305",
    "final_x": "3724485.89062",
    "final_y": "514909.696947",
    "longitude": "-89.93297927341324",
    "latitude": "29.908448304543178",
    "geocoded_column": {
      "latitude": "29.908448304543178",
      "longitude": "-89.93297927341324"
    }
  },
  {
    "service_request": "2022-955303",
    "request_type": "Trash/Recycling",
    "request_reason": "Missed Trash Pick-Up",
    "date_created": "2022-12-21T14:48:16.000",
    "date_modified": "2022-12-21T14:48:18.000",
    "request_status": "Pending",
    "responsible_agency": "Department of Sanitation",
    "final_address": "7576 Pearl St",
    "address_councildis": "A",
    "status": "Assigned to Contractor",
    "contractor": "Richards Disposal",
    "rowid": "955303",
    "final_x": "3661683.31942",
    "final_y": "525254.220989",
    "longitude": "-90.13085222275969",
    "latitude": "29.938853598944643",
    "geocoded_column": {
      "latitude": "29.938853598944643",
      "longitude": "-90.13085222275969"
    }
  },
  {
    "service_request": "2022-955302",
    "request_type": "Trash/Recycling",
    "request_reason": "Request a Large Item Pick Up",
    "date_created": "2022-12-21T14:47:16.000",
    "date_modified": "2022-12-21T14:48:13.000",
    "request_status": "Pending",
    "responsible_agency": "Department of Sanitation",
    "final_address": "1036 Brooklyn Ave",
    "address_councildis": "C",
    "status": "Assigned to Contractor",
    "contractor": "Richards Disposal",
    "rowid": "955302",
    "final_x": "3686251.76354",
    "final_y": "527557.211007",
    "longitude": "-90.05320579063476",
    "latitude": "29.944454233865702",
    "geocoded_column": {
      "latitude": "29.944454233865702",
      "longitude": "-90.05320579063476"
    }
  },
  {
    "service_request": "2022-955301",
    "request_type": "Trash/Recycling",
    "request_reason": "Missed Trash Pick-Up",
    "date_created": "2022-12-21T14:45:43.000",
    "date_modified": "2022-12-21T14:45:44.000",
    "request_status": "Pending",
    "responsible_agency": "Department of Sanitation",
    "final_address": "721 7th street",
    "status": "Assigned to Contractor",
    "rowid": "955301",
    "longitude": "0.0",
    "latitude": "0.0",
    "geocoded_column": {
      "latitude": "0.0",
      "longitude": "0.0"
    }
  },
  {
    "service_request": "2022-955300",
    "request_type": "Trash/Recycling",
    "request_reason": "MIssed Recycling Pick-Up",
    "date_created": "2022-12-21T14:45:05.000",
    "date_modified": "2022-12-21T14:45:06.000",
    "request_status": "Pending",
    "responsible_agency": "Department of Sanitation",
    "final_address": "3611 Rue Nichole",
    "address_councildis": "C",
    "status": "Assigned to Contractor",
    "contractor": "Richards Disposal",
    "rowid": "955300",
    "final_x": "3703936.42058",
    "final_y": "517311.340725",
    "longitude": "-89.99774767545854",
    "latitude": "29.915726560347572",
    "geocoded_column": {
      "latitude": "29.915726560347572",
      "longitude": "-89.99774767545854"
    }
  },
  {
    "service_request": "2022-955299",
    "request_type": "Abandoned Vehicles",
    "request_reason": "Abandoned/Junk Vehicles",
    "date_created": "2022-12-21T14:44:16.000",
    "date_modified": "2022-12-21T14:44:17.000",
    "request_status": "Pending",
    "responsible_agency": "Department of Public Works",
    "final_address": "1804 OReilly St",
    "address_councildis": "D",
    "status": "Pending",
    "rowid": "955299",
    "final_x": "3682407.14197",
    "final_y": "539409.67009",
    "longitude": "-90.06493012199097",
    "latitude": "29.977161986899798",
    "geocoded_column": {
      "latitude": "29.977161986899798",
      "longitude": "-90.06493012199097"
    }
  },
  {
    "service_request": "2022-955298",
    "request_type": "Trash/Recycling",
    "request_reason": "Request a Large Item Pick Up",
    "date_created": "2022-12-21T14:42:11.000",
    "date_modified": "2022-12-21T14:42:12.000",
    "request_status": "Pending",
    "responsible_agency": "Department of Sanitation",
    "final_address": "7738 Sycamore St",
    "address_councildis": "A",
    "status": "Assigned to Contractor",
    "contractor": "Richards Disposal",
    "rowid": "955298",
    "final_x": "3665142.11047",
    "final_y": "530110.484673",
    "longitude": "-90.11977000210122",
    "latitude": "29.952106501164785",
    "geocoded_column": {
      "latitude": "29.952106501164785",
      "longitude": "-90.11977000210122"
    }
  },
  {
    "service_request": "2022-955297",
    "request_type": "Trash/Recycling",
    "request_reason": "MIssed Recycling Pick-Up",
    "date_created": "2022-12-21T14:41:45.000",
    "date_modified": "2022-12-21T14:41:46.000",
    "request_status": "Pending",
    "responsible_agency": "Department of Sanitation",
    "final_address": "2501 Prancer St",
    "address_councildis": "C",
    "status": "Assigned to Contractor",
    "contractor": "Richards Disposal",
    "rowid": "955297",
    "final_x": "3699635.09469",
    "final_y": "521947.842298",
    "longitude": "-90.0111553501398",
    "latitude": "29.928612509432043",
    "geocoded_column": {
      "latitude": "29.928612509432043",
      "longitude": "-90.0111553501398"
    }
  },
  {
    "service_request": "2022-955296",
    "request_type": "Trash/Recycling",
    "request_reason": "Return Recycling Cart",
    "date_created": "2022-12-21T14:37:33.000",
    "date_modified": "2022-12-21T14:37:34.000",
    "request_status": "Pending",
    "responsible_agency": "Department of Sanitation",
    "final_address": "4820 Major Dr",
    "address_councildis": "E",
    "status": "Pending",
    "rowid": "955296",
    "final_x": "3718110.12831",
    "final_y": "557400.715931",
    "longitude": "-89.95148460043231",
    "latitude": "30.025495339182406",
    "geocoded_column": {
      "latitude": "30.025495339182406",
      "longitude": "-89.95148460043231"
    }
  },
  {
    "service_request": "2022-955295",
    "request_type": "Trash/Recycling",
    "request_reason": "Repair Trash Cart",
    "date_created": "2022-12-21T14:37:33.000",
    "date_modified": "2022-12-21T14:37:34.000",
    "request_status": "Pending",
    "responsible_agency": "Department of Sanitation",
    "final_address": "7430 Malvern Dr",
    "address_councildis": "E",
    "status": "Assigned to Contractor",
    "contractor": "Waste Pro",
    "rowid": "955295",
    "final_x": "3702529.11818",
    "final_y": "561134.675038",
    "longitude": "-90.00058076279387",
    "latitude": "30.036269732582625",
    "geocoded_column": {
      "latitude": "30.036269732582625",
      "longitude": "-90.00058076279387"
    }
  },
  {
    "service_request": "2022-955294",
    "request_type": "Trash/Recycling",
    "request_reason": "Missed Trash Pick-Up",
    "date_created": "2022-12-21T14:35:53.000",
    "date_modified": "2022-12-21T14:35:53.000",
    "request_status": "Pending",
    "responsible_agency": "Department of Sanitation",
    "final_address": "7409 Spruce St",
    "address_councildis": "A",
    "status": "Assigned to Contractor",
    "contractor": "Richards Disposal",
    "rowid": "955294",
    "final_x": "3665199.88064",
    "final_y": "529277.096833",
    "longitude": "-90.1196154634946",
    "latitude": "29.94981327211562",
    "geocoded_column": {
      "latitude": "29.94981327211562",
      "longitude": "-90.1196154634946"
    }
  },
  {
    "service_request": "2022-955293",
    "request_type": "Trash/Recycling",
    "request_reason": "Request a Large Item Pick Up",
    "date_created": "2022-12-21T14:34:24.000",
    "date_modified": "2022-12-21T14:34:25.000",
    "request_status": "Pending",
    "responsible_agency": "Department of Sanitation",
    "final_address": "1036 Brooklyn Street, New Orleans, LA 70114",
    "status": "Assigned to Contractor",
    "rowid": "955293",
    "longitude": "0.0",
    "latitude": "0.0",
    "geocoded_column": {
      "latitude": "0.0",
      "longitude": "0.0"
    }
  },
  {
    "service_request": "2022-955292",
    "request_type": "Trash/Recycling",
    "request_reason": "Request a Large Item Pick Up",
    "date_created": "2022-12-21T14:33:56.000",
    "date_modified": "2022-12-21T14:33:57.000",
    "request_status": "Pending",
    "responsible_agency": "Department of Sanitation",
    "final_address": "601 Lyons St",
    "address_councildis": "B",
    "status": "Assigned to Contractor",
    "contractor": "Richards Disposal",
    "rowid": "955292",
    "final_x": "3669373.41882",
    "final_y": "517605.11679",
    "longitude": "-90.10683212544802",
    "latitude": "29.917596856751924",
    "geocoded_column": {
      "latitude": "29.917596856751924",
      "longitude": "-90.10683212544802"
    }
  },
  {
    "service_request": "2022-955291",
    "request_type": "Trash/Recycling",
    "request_reason": "Missed Trash Pick-Up",
    "date_created": "2022-12-21T14:32:44.000",
    "date_modified": "2022-12-21T14:32:45.000",
    "request_status": "Pending",
    "responsible_agency": "Department of Sanitation",
    "final_address": "1004 Elmira Ave",
    "address_councildis": "C",
    "status": "Assigned to Contractor",
    "contractor": "Richards Disposal",
    "rowid": "955291",
    "final_x": "3688162.83708",
    "final_y": "527871.771967",
    "longitude": "-90.0471608447686",
    "latitude": "29.945260324486554",
    "geocoded_column": {
      "latitude": "29.945260324486554",
      "longitude": "-90.0471608447686"
    }
  },
  {
    "service_request": "2022-955290",
    "request_type": "Trash/Recycling",
    "request_reason": "Order Trash Cart",
    "date_created": "2022-12-21T14:32:01.000",
    "date_modified": "2022-12-21T14:32:01.000",
    "request_status": "Pending",
    "responsible_agency": "Department of Sanitation",
    "final_address": "2616 Louisiana Ave",
    "address_councildis": "B",
    "status": "Assigned to Contractor",
    "contractor": "Richards Disposal",
    "rowid": "955290",
    "final_x": "3672627.67502",
    "final_y": "524869.437628",
    "longitude": "-90.09631269685059",
    "latitude": "29.93747522296112",
    "geocoded_column": {
      "latitude": "29.93747522296112",
      "longitude": "-90.09631269685059"
    }
  },
  {
    "service_request": "2022-955289",
    "request_type": "Property Maintenance",
    "request_reason": "Property Maintenance",
    "date_created": "2022-12-21T14:27:02.000",
    "date_modified": "2022-12-21T14:27:03.000",
    "request_status": "Pending",
    "responsible_agency": "Department of Code Enforcement",
    "final_address": "4508 Croyden Ave",
    "address_councildis": "C",
    "status": "Pending",
    "rowid": "955289",
    "final_x": "3702155.41732",
    "final_y": "524319.463228",
    "longitude": "-90.0031123650012",
    "latitude": "29.93505343580847",
    "geocoded_column": {
      "latitude": "29.93505343580847",
      "longitude": "-90.0031123650012"
    }
  },
  {
    "service_request": "2022-955288",
    "request_type": "Trash/Recycling",
    "request_reason": "Missed Trash Pick-Up",
    "date_created": "2022-12-21T14:21:25.000",
    "date_modified": "2022-12-21T14:21:26.000",
    "request_status": "Pending",
    "responsible_agency": "Department of Sanitation",
    "final_address": "4646 Wright Rd",
    "address_councildis": "E",
    "status": "Assigned to Contractor",
    "contractor": "Waste Pro",
    "rowid": "955288",
    "final_x": "3716626.99724",
    "final_y": "556433.51113",
    "longitude": "-89.95620775698325",
    "latitude": "30.02288500771418",
    "geocoded_column": {
      "latitude": "30.02288500771418",
      "longitude": "-89.95620775698325"
    }
  },
  {
    "service_request": "2022-955287",
    "request_type": "Roads/Drainage",
    "request_reason": "Pothole",
    "date_created": "2022-12-21T14:20:22.000",
    "date_modified": "2022-12-21T14:59:17.000",
    "case_close_date": "2022-12-21T08:59:17.000",
    "request_status": "Closed",
    "responsible_agency": "Department of Public Works",
    "final_address": "MORRISON RD & PARIS RD",
    "address_councildis": "E",
    "status": "Duplicate Request",
    "rowid": "955287",
    "final_x": "3721463.0",
    "final_y": "572973.78",
    "longitude": "-89.94029190571797",
    "latitude": "30.068203230469766",
    "geocoded_column": {
      "latitude": "30.068203230469766",
      "longitude": "-89.94029190571797"
    }
  },
  {
    "service_request": "2022-955286",
    "request_type": "Trash/Recycling",
    "request_reason": "Order Recycling Cart",
    "date_created": "2022-12-21T14:19:20.000",
    "date_modified": "2022-12-21T14:19:21.000",
    "request_status": "Pending",
    "responsible_agency": "Department of Sanitation",
    "final_address": "190 E Greenbrier Dr",
    "address_councildis": "E",
    "status": "Pending",
    "rowid": "955286",
    "final_x": "3717354.7644",
    "final_y": "565340.185378",
    "longitude": "-89.9535693219124",
    "latitude": "30.047350696414462",
    "geocoded_column": {
      "latitude": "30.047350696414462",
      "longitude": "-89.9535693219124"
    }
  },
  {
    "service_request": "2022-955284",
    "request_type": "Trash/Recycling",
    "request_reason": "Missed Trash Pick-Up",
    "date_created": "2022-12-21T14:17:15.000",
    "date_modified": "2022-12-21T14:17:16.000",
    "request_status": "Pending",
    "responsible_agency": "Department of Sanitation",
    "final_address": "1900 Broadway St",
    "address_councildis": "A",
    "status": "Assigned to Contractor",
    "contractor": "Richards Disposal",
    "rowid": "955284",
    "final_x": "3665521.8354",
    "final_y": "528604.637056",
    "longitude": "-90.1186214089245",
    "latitude": "29.94795484421152",
    "geocoded_column": {
      "latitude": "29.94795484421152",
      "longitude": "-90.1186214089245"
    }
  },
  {
    "service_request": "2022-955283",
    "request_type": "Trash/Recycling",
    "request_reason": "Order Recycling Cart",
    "date_created": "2022-12-21T14:13:35.000",
    "date_modified": "2022-12-21T14:13:35.000",
    "request_status": "Pending",
    "responsible_agency": "Department of Sanitation",
    "final_address": "7354 Beryl St",
    "address_councildis": "D",
    "status": "Pending",
    "rowid": "955283",
    "final_x": "3668596.5195",
    "final_y": "555849.498969",
    "longitude": "-90.1079934533174",
    "latitude": "30.022778955537817",
    "geocoded_column": {
      "latitude": "30.022778955537817",
      "longitude": "-90.1079934533174"
    }
  },
  {
    "service_request": "2022-955282",
    "request_type": "Trash/Recycling",
    "request_reason": "Request a Large Item Pick Up",
    "date_created": "2022-12-21T14:13:25.000",
    "date_modified": "2022-12-21T14:13:25.000",
    "request_status": "Pending",
    "responsible_agency": "Department of Sanitation",
    "final_address": "3333 Morrice Duncan Dr",
    "address_councildis": "D",
    "status": "Assigned to Contractor",
    "contractor": "IV Waste",
    "rowid": "955282",
    "final_x": "3692705.97392",
    "final_y": "544495.969359",
    "longitude": "-90.03222078261875",
    "latitude": "29.99082998838869",
    "geocoded_column": {
      "latitude": "29.99082998838869",
      "longitude": "-90.03222078261875"
    }
  },