[
  {
    "service_request": "2022-943812",
    "request_type": "Trash/Recycling",
    "request_reason": "Order Recycling Cart",
    "date_created": "2022-11-16T01:48:29.000",
    "date_modified": "2022-11-16T01:48:29.000",
    "request_status": "Pending",
    "responsible_agency": "Department of Sanitation",
    "final_address": "5244 Kim Dr",
    "address_councildis": "E",
    "status": "Pending",
    "rowid": "943812",
    "final_x": "3727602.64665",
    "final_y": "564292.477089",
    "longitude": "-89.92122169945857",
    "latitude": "30.044126652284433",
    "geocoded_column": {
      "latitude": "30.044126652284433",
      "longitude": "-89.92122169945857"
    }
  },
  {
    "service_request": "2022-943811",
    "request_type": "Traffic Signals/Signs/Striping/Streetlights",
    "request_reason": "Street Light Outage/Malfunction",
    "date_created": "2022-11-15T23:30:50.000",
    "date_modified": "2022-11-15T23:30:51.000",
    "request_status": "Pending",
    "responsible_agency": "Department of Public Works",
    "final_address": "279 Fairway Dr",
    "address_councildis": "A",
    "status": "Pending",
    "contractor": "Legacy Professional Services",
    "rowid": "943811",
    "final_x": "3664285.92205",
    "final_y": "541390.052428",
    "longitude": "-90.12209697361362",
    "latitude": "29.983146499244736",
    "geocoded_column": {
      "latitude": "29.983146499244736",
      "longitude": "-90.12209697361362"
    }
  },
  {
    "service_request": "2022-943810",
    "request_type": "Traffic Signals/Signs/Striping/Streetlights",
    "request_reason": "Street Light Outage/Malfunction",
    "date_created": "2022-11-15T22:55:13.000",
    "date_modified": "2022-11-15T22:55:13.000",
    "request_status": "Pending",
    "responsible_agency": "Department of Public Works",
    "final_address": "6958 Memphis St",
    "address_councildis": "A",
    "status": "Pending",
    "contractor": "Legacy Professional Services",
    "rowid": "943810",
    "final_x": "3669689.85441",
    "final_y": "553781.455191",
    "longitude": "-90.10460882855953",
    "latitude": "30.01706037702904",
    "geocoded_column": {
      "latitude": "30.01706037702904",
      "longitude": "-90.10460882855953"
    }
  },
  {
    "service_request": "2022-943809",
    "request_type": "Trash/Recycling",
    "request_reason": "MIssed Recycling Pick-Up",
    "date_created": "2022-11-15T22:48:30.000",
    "date_modified": "2022-11-15T22:48:31.000",
    "request_status": "Pending",
    "responsible_agency": "Department of Sanitation",
    "final_address": "4011 DHemecourt St",
    "address_councildis": "A",
    "status": "Assigned to Contractor",
    "contractor": "Richards Disposal",
    "rowid": "943809",
    "final_x": "3670180.48948",
    "final_y": "536661.804807",
    "longitude": "-90.1036391146166",
    "latitude": "29.969972768916328",
    "geocoded_column": {
      "latitude": "29.969972768916328",
      "longitude": "-90.1036391146166"
    }
  },
  {
    "service_request": "2022-943808",
    "request_type": "Traffic Signals/Signs/Striping/Streetlights",
    "request_reason": "Street Light Outage/Malfunction",
    "date_created": "2022-11-15T22:23:39.000",
    "date_modified": "2022-11-15T22:23:40.000",
    "request_status": "Pending",
    "responsible_agency": "Department of Public Works",
    "final_address": "6347 Milne Blvd",
    "address_councildis": "A",
    "status": "Pending",
    "contractor": "Legacy Professional Services",
    "rowid": "943808",
    "final_x": "3667388.85837",
    "final_y": "549906.24066",
    "longitude": "-90.1120095631919",
    "latitude": "30.006472539844054",
    "geocoded_column": {
      "latitude": "30.006472539844054",
      "longitude": "-90.1120095631919"
    }
  },
  {
    "service_request": "2022-943807",
    "request_type": "Health Related Questions",
    "request_reason": "Noise Ordinance Complaint",
    "date_created": "2022-11-15T22:18:06.000",
    "date_modified": "2022-11-15T22:18:06.000",
    "request_status": "Pending",
    "responsible_agency": "Health Department",
    "final_address": "1009 N Claiborne Ave, New Orleans, Louisiana, 70116",
    "address_councildis": "D",
    "status": "Pending",
    "rowid": "943807",
    "final_x": "3680417.66101",
    "final_y": "535635.218886",
    "longitude": "-90.07134484150656",
    "latitude": "29.966843952035386",
    "geocoded_column": {
      "latitude": "29.966843952035386",
      "longitude": "-90.07134484150656"
    }
  },
  {
    "service_request": "2022-943806",
    "request_type": "Health Related Questions",
    "request_reason": "Noise Ordinance Complaint",
    "date_created": "2022-11-15T22:13:23.000",
    "date_modified": "2022-11-15T22:13:23.000",
    "request_status": "Pending",
    "responsible_agency": "Health Department",
    "final_address": "1009 N Claiborne Ave, New Orleans, Louisiana, 70116",
    "address_councildis": "D",
    "status": "Pending",
    "rowid": "943806",
    "final_x": "3680417.66101",
    "final_y": "535635.218886",
    "longitude": "-90.07134484150656",
    "latitude": "29.966843952035386",
    "geocoded_column": {
      "latitude": "29.966843952035386",
      "longitude": "-90.07134484150656"
    }
  },
  {
    "service_request": "2022-943805",
    "request_type": "Health Related Questions",
    "request_reason": "Noise Ordinance Complaint",
    "date_created": "2022-11-15T21:55:50.000",
    "date_modified": "2022-11-15T21:55:50.000",
    "request_status": "Pending",
    "responsible_agency": "Health Department",
    "final_address": "1009 N Claiborne Ave, New Orleans, Louisiana, 70116",
    "address_councildis": "D",
    "status": "Pending",
    "rowid": "943805",
    "final_x": "3680417.66101",
    "final_y": "535635.218886",
    "longitude": "-90.07134484150656",
    "latitude": "29.966843952035386",
    "geocoded_column": {
      "latitude": "29.966843952035386",
      "longitude": "-90.07134484150656"
    }
  },
  {
    "service_request": "2022-943804",
    "request_type": "Health Related Questions",
    "request_reason": "Noise Ordinance Complaint",
    "date_created": "2022-11-15T21:51:13.000",
    "date_modified": "2022-11-15T21:51:13.000",
    "request_status": "Pending",
    "responsible_agency": "Health Department",
    "final_address": "1009 N Claiborne Ave, New Orleans, Louisiana, 70116",
    "address_councildis": "D",
    "status": "Pending",
    "rowid": "943804",
    "final_x": "3680417.66101",
    "final_y": "535635.218886",
    "longitude": "-90.07134484150656",
    "latitude": "29.966843952035386",
    "geocoded_column": {
      "latitude": "29.966843952035386",
      "longitude": "-90.07134484150656"
    }
  },
  {
    "service_request": "2022-943803",
    "request_type": "Trash/Recycling",
    "request_reason": "Missed Trash Pick-Up",
    "date_created": "2022-11-15T21:49:45.000",
    "date_modified": "2022-11-15T21:49:46.000",
    "request_status": "Pending",
    "responsible_agency": "Department of Sanitation",
    "final_address": "1821 Delachaise St",
    "address_councildis": "B",
    "status": "Assigned to Contractor",
    "contractor": "Richards Disposal",
    "rowid": "943803",
    "final_x": "3673543.1595",
    "final_y": "522281.719546",
    "longitude": "-90.09351084033159",
    "latitude": "29.930332630031966",
    "geocoded_column": {
      "latitude": "29.930332630031966",
      "longitude": "-90.09351084033159"
    }
  },
  {
    "service_request": "2022-943802",
    "request_type": "Trash/Recycling",
    "request_reason": "Missed Trash Pick-Up",
    "date_created": "2022-11-15T21:37:15.000",
    "date_modified": "2022-11-15T21:37:16.000",
    "request_status": "Pending",
    "responsible_agency": "Department of Sanitation",
    "final_address": "1830 General Taylor St",
    "address_councildis": "B",
    "status": "Assigned to Contractor",
    "contractor": "Richards Disposal",
    "rowid": "943802",
    "final_x": "3672367.75022",
    "final_y": "522013.03417",
    "longitude": "-90.0972305817191",
    "latitude": "29.92962875024938",
    "geocoded_column": {
      "latitude": "29.92962875024938",
      "longitude": "-90.0972305817191"
    }
  },
  {
    "service_request": "2022-943801",
    "request_type": "Health Related Questions",
    "request_reason": "Noise Ordinance Complaint",
    "date_created": "2022-11-15T21:22:03.000",
    "date_modified": "2022-11-15T21:22:03.000",
    "request_status": "Pending",
    "responsible_agency": "Health Department",
    "final_address": "1009 N Claiborne Ave, New Orleans, Louisiana, 70116",
    "address_councildis": "D",
    "status": "Pending",
    "rowid": "943801",
    "final_x": "3680417.66101",
    "final_y": "535635.218886",
    "longitude": "-90.07134484150656",
    "latitude": "29.966843952035386",
    "geocoded_column": {
      "latitude": "29.966843952035386",
      "longitude": "-90.07134484150656"
    }
  },
  {
    "service_request": "2022-943800",
    "request_type": "Trash/Recycling",
    "request_reason": "Repair Recycling Cart",
    "date_created": "2022-11-15T21:13:16.000",
    "date_modified": "2022-11-15T21:13:16.000",
    "request_status": "Pending",
    "responsible_agency": "Department of Sanitation",
    "final_address": "3816 Baudin St",
    "address_councildis": "B",
    "status": "Pending",
    "rowid": "943800",
    "final_x": "3670994.39207",
    "final_y": "536351.771399",
    "longitude": "-90.10107925368656",
    "latitude": "29.969096238762873",
    "geocoded_column": {
      "latitude": "29.969096238762873",
      "longitude": "-90.10107925368656"
    }
  },
  {
    "service_request": "2022-943799",
    "request_type": "Trash/Recycling",
    "request_reason": "MIssed Recycling Pick-Up",
    "date_created": "2022-11-15T21:12:23.000",
    "date_modified": "2022-11-15T21:12:24.000",
    "request_status": "Pending",
    "responsible_agency": "Department of Sanitation",
    "final_address": "3816 Baudin St",
    "address_councildis": "B",
    "status": "Assigned to Contractor",
    "contractor": "Richards Disposal",
    "rowid": "943799",
    "final_x": "3670994.39207",
    "final_y": "536351.771399",
    "longitude": "-90.10107925368656",
    "latitude": "29.969096238762873",
    "geocoded_column": {
      "latitude": "29.969096238762873",
      "longitude": "-90.10107925368656"
    }
  },
  {
    "service_request": "2022-943798",
    "request_type": "Trash/Recycling",
    "request_reason": "Missed Trash Pick-Up",
    "date_created": "2022-11-15T21:08:53.000",
    "date_modified": "2022-11-15T21:08:53.000",
    "request_status": "Pending",
    "responsible_agency": "Department of Sanitation",
    "final_address": "1721 Robert St",
    "address_councildis": "B",
    "status": "Assigned to Contractor",
    "contractor": "Richards Disposal",
    "rowid": "943798",
    "final_x": "3668804.12609",
    "final_y": "521971.424698",
    "longitude": "-90.10848174660215",
    "latitude": "29.929619563428524",
    "geocoded_column": {
      "latitude": "29.929619563428524",
      "longitude": "-90.10848174660215"
    }
  },
  {
    "service_request": "2022-943797",
    "request_type": "Trash/Recycling",
    "request_reason": "Missed Trash Pick-Up",
    "date_created": "2022-11-15T20:47:00.000",
    "date_modified": "2022-11-15T20:47:01.000",
    "request_status": "Pending",
    "responsible_agency": "Department of Sanitation",
    "final_address": "9 Blanc Pl",
    "address_councildis": "B",
    "status": "Assigned to Contractor",
    "contractor": "Richards Disposal",
    "rowid": "943797",
    "final_x": "3667874.285",
    "final_y": "520921.573625",
    "longitude": "-90.111452440078",
    "latitude": "29.92676010442122",
    "geocoded_column": {
      "latitude": "29.92676010442122",
      "longitude": "-90.111452440078"
    }
  },
  {
    "service_request": "2022-943796",
    "request_type": "Trash/Recycling",
    "request_reason": "Order Recycling Cart",
    "date_created": "2022-11-15T20:38:04.000",
    "date_modified": "2022-11-15T20:38:05.000",
    "request_status": "Pending",
    "responsible_agency": "Department of Sanitation",
    "final_address": "2311 Killdeer St",
    "address_councildis": "D",
    "status": "Pending",
    "rowid": "943796",
    "final_x": "3684197.21506",
    "final_y": "557633.748187",
    "longitude": "-90.05863619491832",
    "latitude": "30.02721702963286",
    "geocoded_column": {
      "latitude": "30.02721702963286",
      "longitude": "-90.05863619491832"
    }
  },
  {
    "service_request": "2022-943795",
    "request_type": "Traffic Signals/Signs/Striping/Streetlights",
    "request_reason": "Street Light Outage/Malfunction",
    "date_created": "2022-11-15T20:34:35.000",
    "date_modified": "2022-11-15T20:34:35.000",
    "request_status": "Pending",
    "responsible_agency": "Department of Public Works",
    "final_address": "214 West Robert E Lee Blvd",
    "address_councildis": "A",
    "status": "Pending",
    "contractor": "Legacy Professional Services",
    "rowid": "943795",
    "final_x": "3665970.68",
    "final_y": "554822.753176",
    "longitude": "-90.11632499351305",
    "latitude": "30.020032716550485",
    "geocoded_column": {
      "latitude": "30.020032716550485",
      "longitude": "-90.11632499351305"
    }
  },
  {
    "service_request": "2022-943794",
    "request_type": "Trash/Recycling",
    "request_reason": "Replace Trash Cart",
    "date_created": "2022-11-15T20:33:29.000",
    "date_modified": "2022-11-15T20:33:30.000",
    "request_status": "Pending",
    "responsible_agency": "Department of Sanitation",
    "final_address": "12110 Morrison Rd",
    "address_councildis": "E",
    "status": "Assigned to Contractor",
    "contractor": "Waste Pro",
    "rowid": "943794",
    "final_x": "3714237.30616",
    "final_y": "567049.374884",
    "longitude": "-89.963357505899",
    "latitude": "30.052153119882526",
    "geocoded_column": {
      "latitude": "30.052153119882526",
      "longitude": "-89.963357505899"
    }
  },
  {
    "service_request": "2022-943793",
    "request_type": "Trash/Recycling",
    "request_reason": "MIssed Recycling Pick-Up",
    "date_created": "2022-11-15T20:30:56.000",
    "date_modified": "2022-11-15T20:30:56.000",
    "request_status": "Pending",
    "responsible_agency": "Department of Sanitation",
    "final_address": "3140 Mansfield Ave",
    "address_councildis": "C",
    "status": "Assigned to Contractor",
    "contractor": "Richards Disposal",
    "rowid": "943793",
    "final_x": "3709169.72581",
    "final_y": "518624.667319",
    "longitude": "-89.9811806026726",
    "latitude": "29.919168985453855",
    "geocoded_column": {
      "latitude": "29.919168985453855",
      "longitude": "-89.9811806026726"
    }
  },
  {
    "service_request": "2022-943792",
    "request_type": "Trash/Recycling",
    "request_reason": "MIssed Recycling Pick-Up",
    "date_created": "2022-11-15T20:27:53.000",
    "date_modified": "2022-11-15T20:27:53.000",
    "request_status": "Pending",
    "responsible_agency": "Department of Sanitation",
    "final_address": "3141 Mansfield Ave",
    "address_councildis": "C",
    "status": "Assigned to Contractor",
    "contractor": "Richards Disposal",
    "rowid": "943792",
    "final_x": "3709056.63672",
    "final_y": "518654.244471",
    "longitude": "-89.98153646260958",
    "latitude": "29.919253981261125",
    "geocoded_column": {
      "latitude": "29.919253981261125",
      "longitude": "-89.98153646260958"
    }
  },
  {
    "service_request": "2022-943791",
    "request_type": "Trash/Recycling",
    "request_reason": "Replace Trash Cart",
    "date_created": "2022-11-15T20:20:30.000",
    "date_modified": "2022-11-15T20:20:31.000",
    "request_status": "Pending",
    "responsible_agency": "Department of Sanitation",
    "final_address": "5333 Constance St",
    "address_councildis": "B",
    "status": "Assigned to Contractor",
    "contractor": "Richards Disposal",
    "rowid": "943791",
    "final_x": "3667248.80122",
    "final_y": "518333.035382",
    "longitude": "-90.11351392006682",
    "latitude": "29.91966076610882",
    "geocoded_column": {
      "latitude": "29.91966076610882",
      "longitude": "-90.11351392006682"
    }
  },
  {
    "service_request": "2022-943790",
    "request_type": "Trash/Recycling",
    "request_reason": "Missed Trash Pick-Up",
    "date_created": "2022-11-15T20:19:39.000",
    "date_modified": "2022-11-15T20:19:40.000",
    "request_status": "Pending",
    "responsible_agency": "Department of Sanitation",
    "final_address": "4819 Carondelet St",
    "address_councildis": "B",
    "status": "Assigned to Contractor",
    "contractor": "Richards Disposal",
    "rowid": "943790",
    "final_x": "3669166.86868",
    "final_y": "521163.278585",
    "longitude": "-90.10736392540642",
    "latitude": "29.927386752325763",
    "geocoded_column": {
      "latitude": "29.927386752325763",
      "longitude": "-90.10736392540642"
    }
  },
  {
    "service_request": "2022-943789",
    "request_type": "Trash/Recycling",
    "request_reason": "Missed Trash Pick-Up",
    "date_created": "2022-11-15T20:18:24.000",
    "date_modified": "2022-11-15T20:18:25.000",
    "request_status": "Pending",
    "responsible_agency": "Department of Sanitation",
    "final_address": "1934 Foucher St",
    "address_councildis": "B",
    "status": "Assigned to Contractor",
    "contractor": "Richards Disposal",
    "rowid": "943789",
    "final_x": "3672965.40232",
    "final_y": "522567.842298",
    "longitude": "-90.09532497398654",
    "latitude": "29.931136552044457",
    "geocoded_column": {
      "latitude": "29.931136552044457",
      "longitude": "-90.09532497398654"
    }
  },
  {
    "service_request": "2022-943788",
    "request_type": "Trash/Recycling",
    "request_reason": "Illegal Dumping",
    "date_created": "2022-11-15T19:52:25.000",
    "date_modified": "2022-11-15T19:52:25.000",
    "request_status": "Pending",
    "responsible_agency": "Department of Sanitation",
    "final_address": "12550 Old Gentilly Rd",
    "address_councildis": "E",
    "status": "Pending",
    "rowid": "943788",
    "final_x": "3722969.17113",
    "final_y": "552510.379798",
    "longitude": "-89.93631933752076",
    "latitude": "30.011886859196725",
    "geocoded_column": {
      "latitude": "30.011886859196725",
      "longitude": "-89.93631933752076"
    }
  },
  {
    "service_request": "2022-943787",
    "request_type": "Trash/Recycling",
    "request_reason": "Order Trash Cart",
    "date_created": "2022-11-15T19:51:24.000",
    "date_modified": "2022-11-15T19:51:25.000",
    "request_status": "Pending",
    "responsible_agency": "Department of Sanitation",
    "final_address": "5251 Michoud Blvd",
    "address_councildis": "E",
    "status": "Assigned to Contractor",
    "contractor": "Waste Pro",
    "rowid": "943787",
    "final_x": "3724873.17337",
    "final_y": "562779.96944",
    "longitude": "-89.9299064760112",
    "latitude": "30.04006008965546",
    "geocoded_column": {
      "latitude": "30.04006008965546",
      "longitude": "-89.9299064760112"
    }
  },
  {
    "service_request": "2022-943786",
    "request_type": "Trash/Recycling",
    "request_reason": "Order Recycling Cart",
    "date_created": "2022-11-15T19:44:04.000",
    "date_modified": "2022-11-15T19:44:04.000",
    "request_status": "Pending",
    "responsible_agency": "Department of Sanitation",
    "final_address": "6720 Foch Rd",
    "address_councildis": "D",
    "status": "Pending",
    "rowid": "943786",
    "final_x": "3696669.15248",
    "final_y": "556011.267033",
    "longitude": "-90.01928499123049",
    "latitude": "30.022368429496332",
    "geocoded_column": {
      "latitude": "30.022368429496332",
      "longitude": "-90.01928499123049"
    }
  },
  {
    "service_request": "2022-943785",
    "request_type": "Traffic Signals/Signs/Striping/Streetlights",
    "request_reason": "Street Light Outage/Malfunction",
    "date_created": "2022-11-15T19:36:51.000",
    "date_modified": "2022-11-15T19:36:52.000",
    "request_status": "Pending",
    "responsible_agency": "Department of Public Works",
    "final_address": "923 N Tonti St",
    "address_councildis": "D",
    "status": "Pending",
    "contractor": "Legacy Professional Services",
    "rowid": "943785",
    "final_x": "3678317.16942",
    "final_y": "536882.432648",
    "longitude": "-90.07793504070254",
    "latitude": "29.97033680755068",
    "geocoded_column": {
      "latitude": "29.97033680755068",
      "longitude": "-90.07793504070254"
    }
  },
  {
    "service_request": "2022-943784",
    "request_type": "Traffic Signals/Signs/Striping/Streetlights",
    "request_reason": "Street Light Outage/Malfunction",
    "date_created": "2022-11-15T19:35:51.000",
    "date_modified": "2022-11-15T19:35:52.000",
    "request_status": "Pending",
    "responsible_agency": "Department of Public Works",
    "final_address": "EARHART BLVD & S CLAIBORNE AVE",
    "address_councildis": "B",
    "status": "Pending",
    "contractor": "Legacy Professional Services",
    "rowid": "943784",
    "final_x": "3675857.3",
    "final_y": "529234.48",
    "longitude": "-90.0859665173446",
    "latitude": "29.94938138407249",
    "geocoded_column": {
      "latitude": "29.94938138407249",
      "longitude": "-90.0859665173446"
    }
  },
  {
    "service_request": "2022-943783",
    "request_type": "Trash/Recycling",
    "request_reason": "Order Trash Cart",
    "date_created": "2022-11-15T19:18:35.000",
    "date_modified": "2022-11-15T19:18:36.000",
    "request_status": "Pending",
    "responsible_agency": "Department of Sanitation",
    "final_address": "447 Fairway Dr",
    "address_councildis": "A",
    "status": "Assigned to Contractor",
    "contractor": "IV Waste",
    "rowid": "943783",
    "final_x": "3664365.92269",
    "final_y": "542770.714445",
    "longitude": "-90.12179818057967",
    "latitude": "29.986940529346576",
    "geocoded_column": {
      "latitude": "29.986940529346576",
      "longitude": "-90.12179818057967"
    }
  },
  {
    "service_request": "2022-943782",
    "request_type": "Trash/Recycling",
    "request_reason": "Order Trash Cart",
    "date_created": "2022-11-15T19:17:40.000",
    "date_modified": "2022-11-15T19:17:41.000",
    "request_status": "Pending",
    "responsible_agency": "Department of Sanitation",
    "final_address": "811 Allen Toussaint blvd, 70124",
    "status": "Assigned to Contractor",
    "rowid": "943782",
    "longitude": "0.0",
    "latitude": "0.0",
    "geocoded_column": {
      "latitude": "0.0",
      "longitude": "0.0"
    }
  },
  {
    "service_request": "2022-943781",
    "request_type": "Trash/Recycling",
    "request_reason": "Order Recycling Cart",
    "date_created": "2022-11-15T19:16:50.000",
    "date_modified": "2022-11-15T19:16:50.000",
    "request_status": "Pending",
    "responsible_agency": "Department of Sanitation",
    "final_address": "447 Fairway Dr",
    "address_councildis": "A",
    "status": "Pending",
    "rowid": "943781",
    "final_x": "3664365.92269",
    "final_y": "542770.714445",
    "longitude": "-90.12179818057967",
    "latitude": "29.986940529346576",
    "geocoded_column": {
      "latitude": "29.986940529346576",
      "longitude": "-90.12179818057967"
    }
  },
  {
    "service_request": "2022-943780",
    "request_type": "Traffic Signals/Signs/Striping/Streetlights",
    "request_reason": "Traffic Signal Malfunctioning/Damaged",
    "date_created": "2022-11-15T19:14:13.000",
    "date_modified": "2022-11-15T19:14:14.000",
    "request_status": "Pending",
    "responsible_agency": "Department of Public Works",
    "final_address": "EARHART BLVD & S CLAIBORNE AVE",
    "address_councildis": "B",
    "status": "Pending",
    "rowid": "943780",
    "final_x": "3675857.3",
    "final_y": "529234.48",
    "longitude": "-90.0859665173446",
    "latitude": "29.94938138407249",
    "geocoded_column": {
      "latitude": "29.94938138407249",
      "longitude": "-90.0859665173446"
    }
  },
  {
    "service_request": "2022-943779",
    "request_type": "Trash/Recycling",
    "request_reason": "Replace Trash Cart",
    "date_created": "2022-11-15T19:08:53.000",
    "date_modified": "2022-11-15T19:08:54.000",
    "request_status": "Pending",
    "responsible_agency": "Department of Sanitation",
    "final_address": "3040 Royal St",
    "address_councildis": "C",
    "status": "Assigned to Contractor",
    "contractor": "IV Waste",
    "rowid": "943779",
    "final_x": "3688375.08924",
    "final_y": "534526.128261",
    "longitude": "-90.04625470351908",
    "latitude": "29.963550959329307",
    "geocoded_column": {
      "latitude": "29.963550959329307",
      "longitude": "-90.04625470351908"
    }
  },
  {
    "service_request": "2022-943778",
    "request_type": "Traffic Signals/Signs/Striping/Streetlights",
    "request_reason": "Street Light Outage/Malfunction",
    "date_created": "2022-11-15T19:05:56.000",
    "date_modified": "2022-11-15T19:05:57.000",
    "request_status": "Pending",
    "responsible_agency": "Department of Public Works",
    "final_address": "917 N Tonti St",
    "address_councildis": "D",
    "status": "Pending",
    "contractor": "Legacy Professional Services",
    "rowid": "943778",
    "final_x": "3678297.5837",
    "final_y": "536851.094984",
    "longitude": "-90.07799797881918",
    "latitude": "29.970251229715007",
    "geocoded_column": {
      "latitude": "29.970251229715007",
      "longitude": "-90.07799797881918"
    }
  },
  {
    "service_request": "2022-943777",
    "request_type": "Trash/Recycling",
    "request_reason": "Replace Trash Cart",
    "date_created": "2022-11-15T19:05:44.000",
    "date_modified": "2022-11-15T19:05:44.000",
    "request_status": "Pending",
    "responsible_agency": "Department of Sanitation",
    "final_address": "3030 Royal St",
    "address_councildis": "C",
    "status": "Assigned to Contractor",
    "contractor": "IV Waste",
    "rowid": "943777",
    "final_x": "3688302.01097",
    "final_y": "534554.231877",
    "longitude": "-90.04648447966903",
    "latitude": "29.963630491376254",
    "geocoded_column": {
      "latitude": "29.963630491376254",
      "longitude": "-90.04648447966903"
    }
  },
  {
    "service_request": "2022-943776",
    "request_type": "Trash/Recycling",
    "request_reason": "Order Recycling Cart",
    "date_created": "2022-11-15T19:00:37.000",
    "date_modified": "2022-11-15T19:00:37.000",
    "request_status": "Pending",
    "responsible_agency": "Department of Sanitation",
    "final_address": "2028 Royal St",
    "address_councildis": "C",
    "status": "Pending",
    "rowid": "943776",
    "final_x": "3684458.93417",
    "final_y": "534789.492358",
    "longitude": "-90.05861223726966",
    "latitude": "29.964395492459893",
    "geocoded_column": {
      "latitude": "29.964395492459893",
      "longitude": "-90.05861223726966"
    }
  },
  {
    "service_request": "2022-943775",
    "request_type": "Roads/Drainage",
    "request_reason": "Catch Basin - Clogged",
    "date_created": "2022-11-15T18:50:25.000",
    "date_modified": "2022-11-15T18:50:25.000",
    "request_status": "Pending",
    "responsible_agency": "Department of Public Works",
    "final_address": "3811 Carondelet St",
    "address_councildis": "B",
    "status": "Pending",
    "rowid": "943775",
    "final_x": "3672669.66024",
    "final_y": "521484.956921",
    "longitude": "-90.09629550102866",
    "latitude": "29.92816774885329",
    "geocoded_column": {
      "latitude": "29.92816774885329",
      "longitude": "-90.09629550102866"
    }
  },
  {
    "service_request": "2022-943774",
    "request_type": "Traffic Signals/Signs/Striping/Streetlights",
    "request_reason": "Street Light Outage/Malfunction",
    "date_created": "2022-11-15T18:47:42.000",
    "date_modified": "2022-11-15T18:47:43.000",
    "request_status": "Pending",
    "responsible_agency": "Department of Public Works",
    "final_address": "3811 Carondelet St",
    "address_councildis": "B",
    "status": "Pending",
    "contractor": "Legacy Professional Services",
    "rowid": "943774",
    "final_x": "3672669.66024",
    "final_y": "521484.956921",
    "longitude": "-90.09629550102866",
    "latitude": "29.92816774885329",
    "geocoded_column": {
      "latitude": "29.92816774885329",
      "longitude": "-90.09629550102866"
    }
  },
  {
    "service_request": "2022-943773",
    "request_type": "Trash/Recycling",
    "request_reason": "Missed Trash Pick-Up",
    "date_created": "2022-11-15T18:46:05.000",
    "date_modified": "2022-11-15T18:46:06.000",
    "request_status": "Pending",
    "responsible_agency": "Department of Sanitation",
    "final_address": "2234 Upperline St",
    "address_councildis": "B",
    "status": "Assigned to Contractor",
    "contractor": "Richards Disposal",
    "rowid": "943773",
    "final_x": "3669058.16033",
    "final_y": "523103.464955",
    "longitude": "-90.10764157652953",
    "latitude": "29.93272484293292",
    "geocoded_column": {
      "latitude": "29.93272484293292",
      "longitude": "-90.10764157652953"
    }
  },
  {
    "service_request": "2022-943772",
    "request_type": "Traffic Signals/Signs/Striping/Streetlights",
    "request_reason": "Traffic Signal Malfunctioning/Damaged",
    "date_created": "2022-11-15T18:43:08.000",
    "date_modified": "2022-11-15T18:43:09.000",
    "request_status": "Pending",
    "responsible_agency": "Department of Public Works",
    "final_address": "EARHART BLVD & MAGNOLIA ST",
    "address_councildis": "B",
    "status": "Pending",
    "rowid": "943772",
    "final_x": "3676590.5",
    "final_y": "528721.38",
    "longitude": "-90.08366914458753",
    "latitude": "29.947948562397546",
    "geocoded_column": {
      "latitude": "29.947948562397546",
      "longitude": "-90.08366914458753"
    }
  },
  {
    "service_request": "2022-943771",
    "request_type": "Roads/Drainage",
    "request_reason": "Catch Basin - Broken/Damage",
    "date_created": "2022-11-15T18:43:07.000",
    "date_modified": "2022-11-15T18:43:07.000",
    "request_status": "Pending",
    "responsible_agency": "Department of Public Works",
    "final_address": "7311 Voyageur Dr",
    "address_councildis": "E",
    "status": "Pending",
    "rowid": "943771",
    "final_x": "3726367.72947",
    "final_y": "569284.367142",
    "longitude": "-89.9249306141525",
    "latitude": "30.05789404519078",
    "geocoded_column": {
      "latitude": "30.05789404519078",
      "longitude": "-89.9249306141525"
    }
  },
  {
    "service_request": "2022-943770",
    "request_type": "Trash/Recycling",
    "request_reason": "Replace Trash Cart",
    "date_created": "2022-11-15T18:40:52.000",
    "date_modified": "2022-11-15T18:40:53.000",
    "request_status": "Pending",
    "responsible_agency": "Department of Sanitation",
    "final_address": "7621 Crestmont Rd",
    "address_councildis": "E",
    "status": "Assigned to Contractor",
    "contractor": "Waste Pro",
    "rowid": "943770",
    "final_x": "3699734.49328",
    "final_y": "560349.988637",
    "longitude": "-90.00944092471812",
    "latitude": "30.03420122952049",
    "geocoded_column": {
      "latitude": "30.03420122952049",
      "longitude": "-90.00944092471812"
    }
  },
  {
    "service_request": "2022-943769",
    "request_type": "Trash/Recycling",
    "request_reason": "Order Recycling Cart",
    "date_created": "2022-11-15T18:39:25.000",
    "date_modified": "2022-11-15T18:39:25.000",
    "request_status": "Pending",
    "responsible_agency": "Department of Sanitation",
    "final_address": "7621 Crestmont Rd",
    "address_councildis": "E",
    "status": "Pending",
    "rowid": "943769",
    "final_x": "3699734.49328",
    "final_y": "560349.988637",
    "longitude": "-90.00944092471812",
    "latitude": "30.03420122952049",
    "geocoded_column": {
      "latitude": "30.03420122952049",
      "longitude": "-90.00944092471812"
    }
  },
  {
    "service_request": "2022-943768",
    "request_type": "Traffic Signals/Signs/Striping/Streetlights",
    "request_reason": "Street Light Outage/Malfunction",
    "date_created": "2022-11-15T18:37:47.000",
    "date_modified": "2022-11-15T18:37:47.000",
    "request_status": "Pending",
    "responsible_agency": "Department of Public Works",
    "final_address": "44 Versailles Blvd",
    "address_councildis": "A",
    "status": "Pending",
    "contractor": "Legacy Professional Services",
    "rowid": "943768",
    "final_x": "3667480.79796",
    "final_y": "530019.237761",
    "longitude": "-90.11238856413544",
    "latitude": "29.951787287873287",
    "geocoded_column": {
      "latitude": "29.951787287873287",
      "longitude": "-90.11238856413544"
    }
  },
  {
    "service_request": "2022-943767",
    "request_type": "Traffic Signals/Signs/Striping/Streetlights",
    "request_reason": "Street Light Outage/Malfunction",
    "date_created": "2022-11-15T18:35:45.000",
    "date_modified": "2022-11-15T18:35:46.000",
    "request_status": "Pending",
    "responsible_agency": "Department of Public Works",
    "final_address": "46 Versailles Blvd",
    "address_councildis": "A",
    "status": "Pending",
    "contractor": "Legacy Professional Services",
    "rowid": "943767",
    "final_x": "3667505.03514",
    "final_y": "530062.325313",
    "longitude": "-90.11231058465812",
    "latitude": "29.951905054440722",
    "geocoded_column": {
      "latitude": "29.951905054440722",
      "longitude": "-90.11231058465812"
    }
  },
  {
    "service_request": "2022-943766",
    "request_type": "Traffic Signals/Signs/Striping/Streetlights",
    "request_reason": "Street Light Outage/Malfunction",
    "date_created": "2022-11-15T18:32:11.000",
    "date_modified": "2022-11-15T18:32:12.000",
    "request_status": "Pending",
    "responsible_agency": "Department of Public Works",
    "final_address": "17 Versailles Blvd",
    "address_councildis": "A",
    "status": "Pending",
    "contractor": "Legacy Professional Services",
    "rowid": "943766",
    "final_x": "3667178.86778",
    "final_y": "528969.64992",
    "longitude": "-90.11337720356356",
    "latitude": "29.948910105580993",
    "geocoded_column": {
      "latitude": "29.948910105580993",
      "longitude": "-90.11337720356356"
    }
  },
  {
    "service_request": "2022-943765",
    "request_type": "Trash/Recycling",
    "request_reason": "Order Recycling Cart",
    "date_created": "2022-11-15T18:32:09.000",
    "date_modified": "2022-11-15T18:32:09.000",
    "request_status": "Pending",
    "responsible_agency": "Department of Sanitation",
    "final_address": "7413 Canal Blvd",
    "address_councildis": "D",
    "status": "Pending",
    "rowid": "943765",
    "final_x": "3669442.90734",
    "final_y": "556139.877338",
    "longitude": "-90.10530922099296",
    "latitude": "30.023552477956382",
    "geocoded_column": {
      "latitude": "30.023552477956382",
      "longitude": "-90.10530922099296"
    }
  },
  {
    "service_request": "2022-943764",
    "request_type": "Trash/Recycling",
    "request_reason": "Missed Trash Pick-Up",
    "date_created": "2022-11-15T18:31:05.000",
    "date_modified": "2022-11-15T18:31:05.000",
    "request_status": "Pending",
    "responsible_agency": "Department of Sanitation",
    "final_address": "2634 Upperline St",
    "address_councildis": "B",
    "status": "Assigned to Contractor",
    "contractor": "Richards Disposal",
    "rowid": "943764",
    "final_x": "3669146.60993",
    "final_y": "524540.253052",
    "longitude": "-90.10731381522838",
    "latitude": "29.93667294696024",
    "geocoded_column": {
      "latitude": "29.93667294696024",
      "longitude": "-90.10731381522838"
    }
  },
  {
    "service_request": "2022-943763",
    "request_type": "Traffic Signals/Signs/Striping/Streetlights",
    "request_reason": "Street Light Outage/Malfunction",
    "date_created": "2022-11-15T18:30:42.000",
    "date_modified": "2022-11-15T18:30:43.000",
    "request_status": "Pending",
    "responsible_agency": "Department of Public Works",
    "final_address": "20 Versailles Blvd",
    "address_councildis": "A",
    "status": "Pending",
    "contractor": "Legacy Professional Services",
    "rowid": "943763",
    "final_x": "3667080.14996",
    "final_y": "529317.181249",
    "longitude": "-90.11367721947934",
    "latitude": "29.949868593437735",
    "geocoded_column": {
      "latitude": "29.949868593437735",
      "longitude": "-90.11367721947934"
    }
  },
  {
    "service_request": "2022-943762",
    "request_type": "Traffic Signals/Signs/Striping/Streetlights",
    "request_reason": "Street Light Outage/Malfunction",
    "date_created": "2022-11-15T18:29:06.000",
    "date_modified": "2022-11-15T18:29:06.000",
    "request_status": "Pending",
    "responsible_agency": "Department of Public Works",
    "final_address": "2 Versailles Blvd",
    "address_councildis": "A",
    "status": "Pending",
    "contractor": "Legacy Professional Services",
    "rowid": "943762",
    "final_x": "3666839.58125",
    "final_y": "528811.059392",
    "longitude": "-90.11445380807919",
    "latitude": "29.948483961417054",
    "geocoded_column": {
      "latitude": "29.948483961417054",
      "longitude": "-90.11445380807919"
    }
  },
  {
    "service_request": "2022-943761",
    "request_type": "Trash/Recycling",
    "request_reason": "Repair Trash Cart",
    "date_created": "2022-11-15T18:28:54.000",
    "date_modified": "2022-11-15T18:28:54.000",
    "request_status": "Pending",
    "responsible_agency": "Department of Sanitation",
    "final_address": "448 Abalon Ct",
    "address_councildis": "C",
    "status": "Assigned to Contractor",
    "contractor": "Richards Disposal",
    "rowid": "943761",
    "final_x": "3689184.30115",
    "final_y": "529975.958657",
    "longitude": "-90.04386100619777",
    "latitude": "29.951014550458062",
    "geocoded_column": {
      "latitude": "29.951014550458062",
      "longitude": "-90.04386100619777"
    }
  },
  {
    "service_request": "2022-943760",
    "request_type": "Trash/Recycling",
    "request_reason": "Request a Large Item Pick Up",
    "date_created": "2022-11-15T18:25:40.000",
    "date_modified": "2022-11-15T18:25:41.000",
    "request_status": "Pending",
    "responsible_agency": "Department of Sanitation",
    "final_address": "6220 N Robertson St",
    "address_councildis": "E",
    "status": "Assigned to Contractor",
    "contractor": "Waste Pro",
    "rowid": "943760",
    "final_x": "3700552.23466",
    "final_y": "534472.739397",
    "longitude": "-90.0078027639982",
    "latitude": "29.963022439532107",
    "geocoded_column": {
      "latitude": "29.963022439532107",
      "longitude": "-90.0078027639982"
    }
  },
  {
    "service_request": "2022-943759",
    "request_type": "Trash/Recycling",
    "request_reason": "MIssed Recycling Pick-Up",
    "date_created": "2022-11-15T18:21:06.000",
    "date_modified": "2022-11-15T18:21:07.000",
    "request_status": "Pending",
    "responsible_agency": "Department of Sanitation",
    "final_address": "221 S Solomon St",
    "address_councildis": "A",
    "status": "Assigned to Contractor",
    "contractor": "Richards Disposal",
    "rowid": "943759",
    "final_x": "3670188.28474",
    "final_y": "538266.980041",
    "longitude": "-90.10356009003696",
    "latitude": "29.97438623102531",
    "geocoded_column": {
      "latitude": "29.97438623102531",
      "longitude": "-90.10356009003696"
    }
  },
  {
    "service_request": "2022-943758",
    "request_type": "Trash/Recycling",
    "request_reason": "MIssed Recycling Pick-Up",
    "date_created": "2022-11-15T18:13:10.000",
    "date_modified": "2022-11-15T18:13:11.000",
    "request_status": "Pending",
    "responsible_agency": "Department of Sanitation",
    "final_address": "5944 Argonne Blvd",
    "address_councildis": "A",
    "status": "Assigned to Contractor",
    "contractor": "IV Waste",
    "rowid": "943758",
    "final_x": "3670066.86791",
    "final_y": "546827.277457",
    "longitude": "-90.1036534180396",
    "latitude": "29.997927705448376",
    "geocoded_column": {
      "latitude": "29.997927705448376",
      "longitude": "-90.1036534180396"
    }
  },
  {
    "service_request": "2022-943757",
    "request_type": "Trash/Recycling",
    "request_reason": "Order Recycling Cart",
    "date_created": "2022-11-15T18:10:46.000",
    "date_modified": "2022-11-15T18:10:46.000",
    "request_status": "Pending",
    "responsible_agency": "Department of Sanitation",
    "final_address": "6125 West End Blvd",
    "address_councildis": "A",
    "status": "Pending",
    "rowid": "943757",
    "final_x": "3666604.1474",
    "final_y": "548408.212178",
    "longitude": "-90.1145390133383",
    "latitude": "30.002376455556174",
    "geocoded_column": {
      "latitude": "30.002376455556174",
      "longitude": "-90.1145390133383"
    }
  },
  {
    "service_request": "2022-943756",
    "request_type": "Trash/Recycling",
    "request_reason": "Missed Trash Pick-Up",
    "date_created": "2022-11-15T18:04:43.000",
    "date_modified": "2022-11-15T18:04:44.000",
    "request_status": "Pending",
    "responsible_agency": "Department of Sanitation",
    "final_address": "4900 Carondelet St",
    "address_councildis": "B",
    "status": "Assigned to Contractor",
    "contractor": "Richards Disposal",
    "rowid": "943756",
    "final_x": "3669013.15508",
    "final_y": "521008.061497",
    "longitude": "-90.10785440277594",
    "latitude": "29.9269644760373",
    "geocoded_column": {
      "latitude": "29.9269644760373",
      "longitude": "-90.10785440277594"
    }
  },
  {
    "service_request": "2022-943755",
    "request_type": "Trash/Recycling",
    "request_reason": "Order Trash Cart",
    "date_created": "2022-11-15T18:02:57.000",
    "date_modified": "2022-11-15T18:02:58.000",
    "request_status": "Pending",
    "responsible_agency": "Department of Sanitation",
    "final_address": "8931 Dwyer Rd",
    "address_councildis": "E",
    "status": "Assigned to Contractor",
    "contractor": "Waste Pro",
    "rowid": "943755",
    "final_x": "3708037.12024",
    "final_y": "557096.71433",
    "longitude": "-89.98332488869127",
    "latitude": "30.024989624039723",
    "geocoded_column": {
      "latitude": "30.024989624039723",
      "longitude": "-89.98332488869127"
    }
  },
  {
    "service_request": "2022-943754",
    "request_type": "Trash/Recycling",
    "request_reason": "MIssed Recycling Pick-Up",
    "date_created": "2022-11-15T17:50:27.000",
    "date_modified": "2022-11-15T17:50:28.000",
    "request_status": "Pending",
    "responsible_agency": "Department of Sanitation",
    "final_address": "3729 Baudin St",
    "address_councildis": "B",
    "status": "Assigned to Contractor",
    "contractor": "Richards Disposal",
    "rowid": "943754",
    "final_x": "3671180.62183",
    "final_y": "536310.323783",
    "longitude": "-90.10049253392934",
    "latitude": "29.96897676356218",
    "geocoded_column": {
      "latitude": "29.96897676356218",
      "longitude": "-90.10049253392934"
    }
  },
  {
    "service_request": "2022-943753",
    "request_type": "Property Maintenance",
    "request_reason": "Property Maintenance",
    "date_created": "2022-11-15T17:41:45.000",
    "date_modified": "2022-11-15T17:41:45.000",
    "request_status": "Pending",
    "responsible_agency": "Department of Code Enforcement",
    "final_address": "1403 Arts St",
    "address_councildis": "C",
    "status": "Pending",
    "rowid": "943753",
    "final_x": "3687148.61865",
    "final_y": "537627.49108",
    "longitude": "-90.0500180711814",
    "latitude": "29.97211644939365",
    "geocoded_column": {
      "latitude": "29.97211644939365",
      "longitude": "-90.0500180711814"
    }
  },
  {
    "service_request": "2022-943752",
    "request_type": "Trash/Recycling",
    "request_reason": "Illegal Dumping",
    "date_created": "2022-11-15T17:40:43.000",
    "date_modified": "2022-11-15T17:40:43.000",
    "request_status": "Pending",
    "responsible_agency": "Department of Sanitation",
    "final_address": "1338 Music St",
    "address_councildis": "C",
    "status": "Pending",
    "rowid": "943752",
    "final_x": "3686730.15465",
    "final_y": "537505.152456",
    "longitude": "-90.05134396960766",
    "latitude": "29.971792941158743",
    "geocoded_column": {
      "latitude": "29.971792941158743",
      "longitude": "-90.05134396960766"
    }
  },
  {
    "service_request": "2022-943751",
    "request_type": "Trash/Recycling",
    "request_reason": "MIssed Recycling Pick-Up",
    "date_created": "2022-11-15T17:40:13.000",
    "date_modified": "2022-11-15T17:40:14.000",
    "request_status": "Pending",
    "responsible_agency": "Department of Sanitation",
    "final_address": "10900 Zenith St",
    "address_councildis": "E",
    "status": "Assigned to Contractor",
    "contractor": "Waste Pro",
    "rowid": "943751",
    "final_x": "3710443.81246",
    "final_y": "565244.754978",
    "longitude": "-89.97541508365005",
    "latitude": "30.04731530819096",
    "geocoded_column": {
      "latitude": "30.04731530819096",
      "longitude": "-89.97541508365005"
    }
  },
  {
    "service_request": "2022-943750",
    "request_type": "Trash/Recycling",
    "request_reason": "Order Recycling Cart",
    "date_created": "2022-11-15T17:35:50.000",
    "date_modified": "2022-11-15T17:35:50.000",
    "request_status": "Pending",
    "responsible_agency": "Department of Sanitation",
    "final_address": "2130 Congress St",
    "address_councildis": "D",
    "status": "Pending",
    "rowid": "943750",
    "final_x": "3691677.25756",
    "final_y": "539604.701386",
    "longitude": "-90.03564521458492",
    "latitude": "29.977412836583486",
    "geocoded_column": {
      "latitude": "29.977412836583486",
      "longitude": "-90.03564521458492"
    }
  },
  {
    "service_request": "2022-943749",
    "request_type": "Traffic Signals/Signs/Striping/Streetlights",
    "request_reason": "Street Light Outage/Malfunction",
    "date_created": "2022-11-15T17:35:08.000",
    "date_modified": "2022-11-15T17:35:09.000",
    "request_status": "Pending",
    "responsible_agency": "Department of Public Works",
    "final_address": "1816 Bartholomew St",
    "address_councildis": "D",
    "status": "Pending",
    "contractor": "Legacy Professional Services",
    "rowid": "943749",
    "final_x": "3692447.57097",
    "final_y": "538099.083337",
    "longitude": "-90.03326627058803",
    "latitude": "29.97324891282376",
    "geocoded_column": {
      "latitude": "29.97324891282376",
      "longitude": "-90.03326627058803"
    }
  },
  {
    "service_request": "2022-943748",
    "request_type": "Trash/Recycling",
    "request_reason": "Missed Trash Pick-Up",
    "date_created": "2022-11-15T17:31:38.000",
    "date_modified": "2022-11-15T17:31:39.000",
    "request_status": "Pending",
    "responsible_agency": "Department of Sanitation",
    "final_address": "804 Valence St",
    "address_councildis": "B",
    "status": "Assigned to Contractor",
    "contractor": "Richards Disposal",
    "rowid": "943748",
    "final_x": "3669922.6187",
    "final_y": "518367.50047",
    "longitude": "-90.10507280836849",
    "latitude": "29.919676995270354",
    "geocoded_column": {
      "latitude": "29.919676995270354",
      "longitude": "-90.10507280836849"
    }
  },
  {
    "service_request": "2022-943747",
    "request_type": "Trash/Recycling",
    "request_reason": "Order Recycling Cart",
    "date_created": "2022-11-15T17:31:27.000",
    "date_modified": "2022-11-15T17:31:27.000",
    "request_status": "Pending",
    "responsible_agency": "Department of Sanitation",
    "final_address": "1494 Granada Dr",
    "address_councildis": "D",
    "status": "Pending",
    "rowid": "943747",
    "final_x": "3678585.76469",
    "final_y": "550542.075604",
    "longitude": "-90.0766136569246",
    "latitude": "30.007887949698866",
    "geocoded_column": {
      "latitude": "30.007887949698866",
      "longitude": "-90.0766136569246"
    }
  },
  {
    "service_request": "2022-943746",
    "request_type": "Trash/Recycling",
    "request_reason": "Missed Trash Pick-Up",
    "date_created": "2022-11-15T17:28:11.000",
    "date_modified": "2022-11-15T17:28:12.000",
    "request_status": "Pending",
    "responsible_agency": "Department of Sanitation",
    "final_address": "1525 Dufossat St",
    "address_councildis": "B",
    "status": "Assigned to Contractor",
    "contractor": "Richards Disposal",
    "rowid": "943746",
    "final_x": "3668161.69364",
    "final_y": "520678.110521",
    "longitude": "-90.11055336688219",
    "latitude": "29.926082227758133",
    "geocoded_column": {
      "latitude": "29.926082227758133",
      "longitude": "-90.11055336688219"
    }
  },
  {
    "service_request": "2022-943745",
    "request_type": "Trash/Recycling",
    "request_reason": "Missed Trash Pick-Up",
    "date_created": "2022-11-15T17:20:41.000",
    "date_modified": "2022-11-15T17:20:42.000",
    "request_status": "Pending",
    "responsible_agency": "Department of Sanitation",
    "final_address": "7220 Read Blvd",
    "address_councildis": "E",
    "status": "Assigned to Contractor",
    "contractor": "Waste Pro",
    "rowid": "943745",
    "final_x": "3709346.00293",
    "final_y": "562710.061856",
    "longitude": "-89.97897941824533",
    "latitude": "30.04038164369864",
    "geocoded_column": {
      "latitude": "30.04038164369864",
      "longitude": "-89.97897941824533"
    }
  },
  {
    "service_request": "2022-943744",
    "request_type": "Trash/Recycling",
    "request_reason": "Replace Trash Cart",
    "date_created": "2022-11-15T17:03:43.000",
    "date_modified": "2022-11-15T17:03:43.000",
    "request_status": "Pending",
    "responsible_agency": "Department of Sanitation",
    "final_address": "7848 Read Blvd",
    "address_councildis": "E",
    "status": "Assigned to Contractor",
    "contractor": "Waste Pro",
    "rowid": "943744",
    "final_x": "3708038.08484",
    "final_y": "565220.675362",
    "longitude": "-89.98301932895733",
    "latitude": "30.047327270739377",
    "geocoded_column": {
      "latitude": "30.047327270739377",
      "longitude": "-89.98301932895733"
    }
  },
  {
    "service_request": "2022-943743",
    "request_type": "Trash/Recycling",
    "request_reason": "Missed Trash Pick-Up",
    "date_created": "2022-11-15T17:02:40.000",
    "date_modified": "2022-11-15T17:02:41.000",
    "request_status": "Pending",
    "responsible_agency": "Department of Sanitation",
    "final_address": "4834 St Charles Ave",
    "address_councildis": "B",
    "status": "Assigned to Contractor",
    "contractor": "Richards Disposal",
    "rowid": "943743",
    "final_x": "3669105.06145",
    "final_y": "520638.678904",
    "longitude": "-90.10757675132766",
    "latitude": "29.925946088319",
    "geocoded_column": {
      "latitude": "29.925946088319",
      "longitude": "-90.10757675132766"
    }
  },
  {
    "service_request": "2022-943742",
    "request_type": "Trash/Recycling",
    "request_reason": "Order Recycling Cart",
    "date_created": "2022-11-15T17:02:19.000",
    "date_modified": "2022-11-15T17:02:19.000",
    "request_status": "Pending",
    "responsible_agency": "Department of Sanitation",
    "final_address": "2927 College Ct",
    "address_councildis": "B",
    "status": "Pending",
    "rowid": "943742",
    "final_x": "3668221.61786",
    "final_y": "531254.758274",
    "longitude": "-90.11000775094517",
    "latitude": "29.95516283876584",
    "geocoded_column": {
      "latitude": "29.95516283876584",
      "longitude": "-90.11000775094517"
    }
  },
  {
    "service_request": "2022-943741",
    "request_type": "Trash/Recycling",
    "request_reason": "Missed Trash Pick-Up",
    "date_created": "2022-11-15T17:00:03.000",
    "date_modified": "2022-11-15T17:00:04.000",
    "request_status": "Pending",
    "responsible_agency": "Department of Sanitation",
    "final_address": "2908 Belmont St",
    "address_councildis": "B",
    "status": "Assigned to Contractor",
    "contractor": "Richards Disposal",
    "rowid": "943741",
    "final_x": "3672558.37268",
    "final_y": "525957.092797",
    "longitude": "-90.09649442455445",
    "latitude": "29.940467977720544",
    "geocoded_column": {
      "latitude": "29.940467977720544",
      "longitude": "-90.09649442455445"
    }
  },
  {
    "service_request": "2022-943740",
    "request_type": "Roads/Drainage",
    "request_reason": "Catch Basin - Clogged",
    "date_created": "2022-11-15T16:53:31.000",
    "date_modified": "2022-11-15T16:53:32.000",
    "request_status": "Pending",
    "responsible_agency": "Department of Public Works",
    "final_address": "18 Fairway Oaks Dr",
    "address_councildis": "C",
    "status": "Pending",
    "rowid": "943740",
    "final_x": "3716147.82373",
    "final_y": "515636.828404",
    "longitude": "-89.9592676520781",
    "latitude": "29.910725221188216",
    "geocoded_column": {
      "latitude": "29.910725221188216",
      "longitude": "-89.9592676520781"
    }
  },
  {
    "service_request": "2022-943739",
    "request_type": "Trash/Recycling",
    "request_reason": "Request a Large Item Pick Up",
    "date_created": "2022-11-15T16:52:44.000",
    "date_modified": "2022-11-15T16:54:30.000",
    "case_close_date": "2022-11-15T10:54:30.000",
    "request_status": "Closed",
    "responsible_agency": "Department of Sanitation",
    "final_address": "2100 Napoleon Ave",
    "address_councildis": "B",
    "status": "Invalid Request",
    "contractor": "Richards Disposal",
    "rowid": "943739",
    "final_x": "3670394.96826",
    "final_y": "522656.31161",
    "longitude": "-90.10343652210679",
    "latitude": "29.931455927719163",
    "geocoded_column": {
      "latitude": "29.931455927719163",
      "longitude": "-90.10343652210679"
    }
  },
  {
    "service_request": "2022-943738",
    "request_type": "Abandoned Vehicles",
    "request_reason": "Abandoned/Junk Vehicles",
    "date_created": "2022-11-15T16:49:47.000",
    "date_modified": "2022-11-15T16:49:48.000",
    "request_status": "Pending",
    "responsible_agency": "Department of Public Works",
    "final_address": "N ALEXANDER ST & ST LOUIS ST",
    "address_councildis": "A",
    "status": "Pending",
    "rowid": "943738",
    "final_x": "3670905.7",
    "final_y": "540372.18",
    "longitude": "-90.10122282338908",
    "latitude": "29.98015362659015",
    "geocoded_column": {
      "latitude": "29.98015362659015",
      "longitude": "-90.10122282338908"
    }
  },
  {
    "service_request": "2022-943737",
    "request_type": "Trash/Recycling",
    "request_reason": "Illegal Dumping",
    "date_created": "2022-11-15T16:44:18.000",
    "date_modified": "2022-11-15T16:44:18.000",
    "request_status": "Pending",
    "responsible_agency": "Department of Sanitation",
    "final_address": "6831 General Diaz St",
    "address_councildis": "A",
    "status": "Pending",
    "rowid": "943737",
    "final_x": "3670110.88948",
    "final_y": "552856.262679",
    "longitude": "-90.1033099070773",
    "latitude": "30.014504004337223",
    "geocoded_column": {
      "latitude": "30.014504004337223",
      "longitude": "-90.1033099070773"
    }
  },
  {
    "service_request": "2022-943736",
    "request_type": "Trash/Recycling",
    "request_reason": "MIssed Recycling Pick-Up",
    "date_created": "2022-11-15T16:42:44.000",
    "date_modified": "2022-11-15T16:42:45.000",
    "request_status": "Pending",
    "responsible_agency": "Department of Sanitation",
    "final_address": "4101 St Charles Ave",
    "address_councildis": "B",
    "status": "Assigned to Contractor",
    "contractor": "Richards Disposal",
    "rowid": "943736",
    "final_x": "3671883.30555",
    "final_y": "521031.656057",
    "longitude": "-90.09879326907681",
    "latitude": "29.926944636563185",
    "geocoded_column": {
      "latitude": "29.926944636563185",
      "longitude": "-90.09879326907681"
    }
  },
  {
    "service_request": "2022-943735",
    "request_type": "Trash/Recycling",
    "request_reason": "Missed Trash Pick-Up",
    "date_created": "2022-11-15T16:42:08.000",
    "date_modified": "2022-11-15T16:42:09.000",
    "request_status": "Pending",
    "responsible_agency": "Department of Sanitation",
    "final_address": "1621 General Pershing St",
    "address_councildis": "B",
    "status": "Assigned to Contractor",
    "contractor": "Richards Disposal",
    "rowid": "943735",
    "final_x": "3671317.43195",
    "final_y": "521137.934137",
    "longitude": "-90.10057597789081",
    "latitude": "29.92725361929557",
    "geocoded_column": {
      "latitude": "29.92725361929557",
      "longitude": "-90.10057597789081"
    }
  },
  {
    "service_request": "2022-943734",
    "request_type": "Trash/Recycling",
    "request_reason": "Missed Trash Pick-Up",
    "date_created": "2022-11-15T16:42:03.000",
    "date_modified": "2022-11-15T16:42:04.000",
    "request_status": "Pending",
    "responsible_agency": "Department of Sanitation",
    "final_address": "4101 St Charles Ave",
    "address_councildis": "B",
    "status": "Assigned to Contractor",
    "contractor": "Richards Disposal",
    "rowid": "943734",
    "final_x": "3671883.30555",
    "final_y": "521031.656057",
    "longitude": "-90.09879326907681",
    "latitude": "29.926944636563185",
    "geocoded_column": {
      "latitude": "29.926944636563185",
      "longitude": "-90.09879326907681"
    }
  },
  {
    "service_request": "2022-943733",
    "request_type": "Trash/Recycling",
    "request_reason": "Missed Trash Pick-Up",
    "date_created": "2022-11-15T16:41:29.000",
    "date_modified": "2022-11-15T16:41:30.000",
    "request_status": "Pending",
    "responsible_agency": "Department of Sanitation",
    "final_address": "8040 Wave Dr",
    "address_councildis": "E",
    "status": "Assigned to Contractor",
    "contractor": "Waste Pro",
    "rowid": "943733",
    "final_x": "3713946.35749",
    "final_y": "570028.193127",
    "longitude": "-89.96416459599898",
    "latitude": "30.060353209505664",
    "geocoded_column": {
      "latitude": "30.060353209505664",
      "longitude": "-89.96416459599898"
    }
  },
  {
    "service_request": "2022-943731",
    "request_type": "Trash/Recycling",
    "request_reason": "Missed Trash Pick-Up",
    "date_created": "2022-11-15T16:35:03.000",
    "date_modified": "2022-11-15T16:35:04.000",
    "request_status": "Pending",
    "responsible_agency": "Department of Sanitation",
    "final_address": "1319 Jefferson Ave",
    "address_councildis": "B",
    "status": "Assigned to Contractor",
    "contractor": "Richards Disposal",
    "rowid": "943731",
    "final_x": "3667172.79169",
    "final_y": "520198.914104",
    "longitude": "-90.11369115540957",
    "latitude": "29.924793569520368",
    "geocoded_column": {
      "latitude": "29.924793569520368",
      "longitude": "-90.11369115540957"
    }
  },
  {
    "service_request": "2022-943730",
    "request_type": "Abandoned Vehicles",
    "request_reason": "Abandoned/Junk Vehicles",
    "date_created": "2022-11-15T16:32:07.000",
    "date_modified": "2022-11-15T16:32:08.000",
    "request_status": "Pending",
    "responsible_agency": "Department of Public Works",
    "final_address": "8629 Willow St",
    "address_councildis": "A",
    "status": "Pending",
    "rowid": "943730",
    "final_x": "3660982.05523",
    "final_y": "530274.354945",
    "longitude": "-90.13290016241618",
    "latitude": "29.952677584536342",
    "geocoded_column": {
      "latitude": "29.952677584536342",
      "longitude": "-90.13290016241618"
    }
  },
  {
    "service_request": "2022-943729",
    "request_type": "Trash/Recycling",
    "request_reason": "Order Recycling Cart",
    "date_created": "2022-11-15T16:29:25.000",
    "date_modified": "2022-11-15T16:29:26.000",
    "request_status": "Pending",
    "responsible_agency": "Department of Sanitation",
    "final_address": "4767 W Adams Ct",
    "address_councildis": "E",
    "status": "Pending",
    "rowid": "943729",
    "final_x": "3718579.10828",
    "final_y": "557300.443419",
    "longitude": "-89.95000653480278",
    "latitude": "30.02520407039175",
    "geocoded_column": {
      "latitude": "30.02520407039175",
      "longitude": "-89.95000653480278"
    }
  },
  {
    "service_request": "2022-943728",
    "request_type": "Trash/Recycling",
    "request_reason": "Request a Large Item Pick Up",
    "date_created": "2022-11-15T16:28:59.000",
    "date_modified": "2022-11-15T16:29:00.000",
    "request_status": "Pending",
    "responsible_agency": "Department of Sanitation",
    "final_address": "817 Decatur St",
    "address_councildis": "C",
    "status": "Assigned to Contractor",
    "contractor": "Empire Services",
    "rowid": "943728",
    "final_x": "3683433.63394",
    "final_y": "532450.816259",
    "longitude": "-90.06193199717067",
    "latitude": "29.957996258538152",
    "geocoded_column": {
      "latitude": "29.957996258538152",
      "longitude": "-90.06193199717067"
    }
  },
  {
    "service_request": "2022-943726",
    "request_type": "Trash/Recycling",
    "request_reason": "Request a Large Item Pick Up",
    "date_created": "2022-11-15T16:26:06.000",
    "date_modified": "2022-11-15T16:27:48.000",
    "request_status": "Pending",
    "responsible_agency": "Department of Sanitation",
    "final_address": "1620 Charlton Dr",
    "address_councildis": "D",
    "contractor": "IV Waste",
    "rowid": "943726",
    "final_x": "3680027.43707",
    "final_y": "550675.290196",
    "longitude": "-90.07205435198303",
    "latitude": "30.008210686461382",
    "geocoded_column": {
      "latitude": "30.008210686461382",
      "longitude": "-90.07205435198303"
    }
  },
  {
    "service_request": "2022-943725",
    "request_type": "Trash/Recycling",
    "request_reason": "Missed Trash Pick-Up",
    "date_created": "2022-11-15T16:25:40.000",
    "date_modified": "2022-11-15T16:38:29.000",
    "request_status": "Pending",
    "responsible_agency": "Department of Sanitation",
    "final_address": "New Orleans,LA",
    "address_councildis": "A",
    "status": "Assigned to Contractor",
    "contractor": "IV Waste",
    "rowid": "943725",
    "final_x": "3670223.56282",
    "final_y": "547237.529873",
    "longitude": "-90.10314450631783",
    "latitude": "29.999051132484293",
    "geocoded_column": {
      "latitude": "29.999051132484293",
      "longitude": "-90.10314450631783"
    }
  },
  {
    "service_request": "2022-943724",
    "request_type": "Trash/Recycling",
    "request_reason": "Order Trash Cart",
    "date_created": "2022-11-15T16:25:14.000",
    "date_modified": "2022-11-15T16:25:14.000",
    "request_status": "Pending",
    "responsible_agency": "Department of Sanitation",
    "final_address": "231 Opal St",
    "address_councildis": "D",
    "status": "Assigned to Contractor",
    "contractor": "IV Waste",
    "rowid": "943724",
    "final_x": "3667317.59585",
    "final_y": "555576.680857",
    "longitude": "-90.11204376063915",
    "latitude": "30.022066346163435",
    "geocoded_column": {
      "latitude": "30.022066346163435",
      "longitude": "-90.11204376063915"
    }
  },
  {
    "service_request": "2022-943722",
    "request_type": "Trash/Recycling",
    "request_reason": "Missed Trash Pick-Up",
    "date_created": "2022-11-15T16:23:21.000",
    "date_modified": "2022-11-15T18:20:12.000",
    "case_close_date": "2022-11-15T12:20:12.000",
    "request_status": "Closed",
    "responsible_agency": "Department of Sanitation",
    "final_address": "7501 Hickman St",
    "address_councildis": "E",
    "status": "Assigned to Contractor",
    "contractor": "Waste Pro",
    "contractor_action": "Completed",
    "rowid": "943722",
    "final_x": "3706420.44407",
    "final_y": "562972.875488",
    "longitude": "-89.9882153149863",
    "latitude": "30.041199032522098",
    "geocoded_column": {
      "latitude": "30.041199032522098",
      "longitude": "-89.9882153149863"
    }
  },
  {
    "service_request": "2022-943721",
    "request_type": "Trash/Recycling",
    "request_reason": "Request a Large Item Pick Up",
    "date_created": "2022-11-15T16:12:18.000",
    "date_modified": "2022-11-15T16:12:18.000",
    "request_status": "Pending",
    "responsible_agency": "Department of Sanitation",
    "final_address": "213 Chartres St",
    "address_councildis": "C",
    "status": "Assigned to Contractor",
    "contractor": "Empire Services",
    "rowid": "943721",
    "final_x": "3681773.10735",
    "final_y": "530896.572162",
    "longitude": "-90.06722969927763",
    "latitude": "29.953773172554495",
    "geocoded_column": {
      "latitude": "29.953773172554495",
      "longitude": "-90.06722969927763"
    }
  },
  {
    "service_request": "2022-943720",
    "request_type": "Trash/Recycling",
    "request_reason": "Missed Trash Pick-Up",
    "date_created": "2022-11-15T16:09:37.000",
    "date_modified": "2022-11-15T16:09:38.000",
    "request_status": "Pending",
    "responsible_agency": "Department of Sanitation",
    "final_address": "1137 Leonidas St",
    "address_councildis": "A",
    "status": "Assigned to Contractor",
    "contractor": "Richards Disposal",
    "rowid": "943720",
    "final_x": "3660638.63686",
    "final_y": "529502.611905",
    "longitude": "-90.13401003491985",
    "latitude": "29.950565426898798",
    "geocoded_column": {
      "latitude": "29.950565426898798",
      "longitude": "-90.13401003491985"
    }
  },
  {
    "service_request": "2022-943719",
    "request_type": "Trash/Recycling",
    "request_reason": "Missed Trash Pick-Up",
    "date_created": "2022-11-15T16:08:36.000",
    "date_modified": "2022-11-15T16:08:36.000",
    "request_status": "Pending",
    "responsible_agency": "Department of Sanitation",
    "final_address": "4114 Willow St",
    "address_councildis": "B",
    "status": "Assigned to Contractor",
    "contractor": "Richards Disposal",
    "rowid": "943719",
    "final_x": "3671445.98523",
    "final_y": "525499.442557",
    "longitude": "-90.1000219746371",
    "latitude": "29.93924255746779",
    "geocoded_column": {
      "latitude": "29.93924255746779",
      "longitude": "-90.1000219746371"
    }
  },
  {
    "service_request": "2022-943718",
    "request_type": "Trash/Recycling",
    "request_reason": "Replace Trash Cart",
    "date_created": "2022-11-15T16:06:01.000",
    "date_modified": "2022-11-15T16:06:42.000",
    "request_status": "Pending",
    "responsible_agency": "Department of Sanitation",
    "final_address": "4623 Laine Ave",
    "address_councildis": "E",
    "status": "Assigned to Contractor",
    "contractor": "Waste Pro",
    "rowid": "943718",
    "final_x": "3705928.19153",
    "final_y": "554651.552728",
    "longitude": "-89.99007928534928",
    "latitude": "30.01833452825426",
    "geocoded_column": {
      "latitude": "30.01833452825426",
      "longitude": "-89.99007928534928"
    }
  },
  {
    "service_request": "2022-943717",
    "request_type": "Trash/Recycling",
    "request_reason": "Request a Large Item Pick Up",
    "date_created": "2022-11-15T16:04:57.000",
    "date_modified": "2022-11-15T16:04:58.000",
    "request_status": "Pending",
    "responsible_agency": "Department of Sanitation",
    "final_address": "11283 Winrock Dr",
    "address_councildis": "E",
    "status": "Assigned to Contractor",
    "contractor": "Waste Pro",
    "rowid": "943717",
    "final_x": "3716681.44594",
    "final_y": "561706.381535",
    "longitude": "-89.95583541936485",
    "latitude": "30.037381488445696",
    "geocoded_column": {
      "latitude": "30.037381488445696",
      "longitude": "-89.95583541936485"
    }
  },
  {
    "service_request": "2022-943716",
    "request_type": "Trash/Recycling",
    "request_reason": "MIssed Recycling Pick-Up",
    "date_created": "2022-11-15T16:04:27.000",
    "date_modified": "2022-11-15T16:04:27.000",
    "request_status": "Pending",
    "responsible_agency": "Department of Sanitation",
    "final_address": "10100 Chevy Chase Dr",
    "address_councildis": "E",
    "status": "Assigned to Contractor",
    "contractor": "Waste Pro",
    "rowid": "943716",
    "final_x": "3709774.92267",
    "final_y": "562949.806304",
    "longitude": "-89.97761493971325",
    "latitude": "30.04102689841945",
    "geocoded_column": {
      "latitude": "30.04102689841945",
      "longitude": "-89.97761493971325"
    }
  },
  {
    "service_request": "2022-943714",
    "request_type": "Trash/Recycling",
    "request_reason": "Order Recycling Cart",
    "date_created": "2022-11-15T16:02:51.000",
    "date_modified": "2022-11-15T16:02:51.000",
    "request_status": "Pending",
    "responsible_agency": "Department of Sanitation",
    "final_address": "833 Congress St",
    "address_councildis": "C",
    "status": "Pending",
    "rowid": "943714",
    "final_x": "3690537.6792",
    "final_y": "534680.267078",
    "longitude": "-90.03941999913263",
    "latitude": "29.96390781653207",
    "geocoded_column": {
      "latitude": "29.96390781653207",
      "longitude": "-90.03941999913263"
    }
  },
  {
    "service_request": "2022-943713",
    "request_type": "Trash/Recycling",
    "request_reason": "Replace Trash Cart",
    "date_created": "2022-11-15T15:58:51.000",
    "date_modified": "2022-11-15T15:58:52.000",
    "request_status": "Pending",
    "responsible_agency": "Department of Sanitation",
    "final_address": "11283 Winrock Dr",
    "address_councildis": "E",
    "status": "Assigned to Contractor",
    "contractor": "Waste Pro",
    "rowid": "943713",
    "final_x": "3716681.44594",
    "final_y": "561706.381535",
    "longitude": "-89.95583541936485",
    "latitude": "30.037381488445696",
    "geocoded_column": {
      "latitude": "30.037381488445696",
      "longitude": "-89.95583541936485"
    }
  },
  {
    "service_request": "2022-943712",
    "request_type": "Traffic Signals/Signs/Striping/Streetlights",
    "request_reason": "Traffic Signal Malfunctioning/Damaged",
    "date_created": "2022-11-15T15:57:15.000",
    "date_modified": "2022-11-15T15:57:15.000",
    "request_status": "Pending",
    "responsible_agency": "Department of Public Works",
    "final_address": "Broadway St & S Claiborne Ave, New Orleans, Louisiana, 70125",
    "address_councildis": "A",
    "status": "Pending",
    "rowid": "943712",
    "final_x": "3666389.3",
    "final_y": "529836.88",
    "longitude": "-90.11584112478184",
    "latitude": "29.951317797937595",
    "geocoded_column": {
      "latitude": "29.951317797937595",
      "longitude": "-90.11584112478184"
    }
  },
  {
    "service_request": "2022-943711",
    "request_type": "Trash/Recycling",
    "request_reason": "Order Trash Cart",
    "date_created": "2022-11-15T15:57:10.000",
    "date_modified": "2022-11-15T15:57:11.000",
    "request_status": "Pending",
    "responsible_agency": "Department of Sanitation",
    "final_address": "4427 Iberville St",
    "address_councildis": "A",
    "status": "Assigned to Contractor",
    "contractor": "Richards Disposal",
    "rowid": "943711",
    "final_x": "3670104.8761",
    "final_y": "539697.965514",
    "longitude": "-90.10377501912335",
    "latitude": "29.97832341879295",
    "geocoded_column": {
      "latitude": "29.97832341879295",
      "longitude": "-90.10377501912335"
    }
  },
  {
    "service_request": "2022-943710",
    "request_type": "Trash/Recycling",
    "request_reason": "Order Recycling Cart",
    "date_created": "2022-11-15T15:56:33.000",
    "date_modified": "2022-11-15T15:56:34.000",
    "request_status": "Pending",
    "responsible_agency": "Department of Sanitation",
    "final_address": "3030 Nashville Ave",
    "address_councildis": "A",
    "status": "Pending",
    "rowid": "943710",
    "final_x": "3667692.41069",
    "final_y": "527132.246783",
    "longitude": "-90.11181756771943",
    "latitude": "29.943842798682173",
    "geocoded_column": {
      "latitude": "29.943842798682173",
      "longitude": "-90.11181756771943"
    }
  },
  {
    "service_request": "2022-943709",
    "request_type": "Trash/Recycling",
    "request_reason": "Order Recycling Cart",
    "date_created": "2022-11-15T15:51:57.000",
    "date_modified": "2022-11-15T15:51:58.000",
    "request_status": "Pending",
    "responsible_agency": "Department of Sanitation",
    "final_address": "4538 Ray Ave",
    "address_councildis": "E",
    "status": "Pending",
    "rowid": "943709",
    "final_x": "3698776.93124",
    "final_y": "553323.103511",
    "longitude": "-90.01272285707658",
    "latitude": "30.01491036816071",
    "geocoded_column": {
      "latitude": "30.01491036816071",
      "longitude": "-90.01272285707658"
    }
  },
  {
    "service_request": "2022-943708",
    "request_type": "Trash/Recycling",
    "request_reason": "Order Recycling Cart",
    "date_created": "2022-11-15T15:50:15.000",
    "date_modified": "2022-11-15T15:50:16.000",
    "request_status": "Pending",
    "responsible_agency": "Department of Sanitation",
    "final_address": "11652 Hayne Blvd",
    "address_councildis": "E",
    "status": "Pending",
    "rowid": "943708",
    "final_x": "3711512.30117",
    "final_y": "568295.269797",
    "longitude": "-89.9719235574136",
    "latitude": "30.055668125607646",
    "geocoded_column": {
      "latitude": "30.055668125607646",
      "longitude": "-89.9719235574136"
    }
  },
  {
    "service_request": "2022-943707",
    "request_type": "Trash/Recycling",
    "request_reason": "Missed Trash Pick-Up",
    "date_created": "2022-11-15T15:49:57.000",
    "date_modified": "2022-11-15T16:59:23.000",
    "case_close_date": "2022-11-15T10:59:23.000",
    "request_status": "Closed",
    "responsible_agency": "Department of Sanitation",
    "final_address": "7828 Mercier St",
    "address_councildis": "E",
    "status": "Assigned to Contractor",
    "contractor": "Waste Pro",
    "contractor_action": "Completed",
    "rowid": "943707",
    "final_x": "3710972.83921",
    "final_y": "567137.170212",
    "longitude": "-89.97367211454346",
    "latitude": "30.052501435261128",
    "geocoded_column": {
      "latitude": "30.052501435261128",
      "longitude": "-89.97367211454346"
    }
  },
  {
    "service_request": "2022-943706",
    "request_type": "Trash/Recycling",
    "request_reason": "Order Trash Cart",
    "date_created": "2022-11-15T15:49:24.000",
    "date_modified": "2022-11-15T15:49:25.000",
    "request_status": "Pending",
    "responsible_agency": "Department of Sanitation",
    "final_address": "11652 Hayne Blvd",
    "address_councildis": "E",
    "status": "Assigned to Contractor",
    "contractor": "Waste Pro",
    "rowid": "943706",
    "final_x": "3711512.30117",
    "final_y": "568295.269797",
    "longitude": "-89.9719235574136",
    "latitude": "30.055668125607646",
    "geocoded_column": {
      "latitude": "30.055668125607646",
      "longitude": "-89.9719235574136"
    }
  },
  {
    "service_request": "2022-943705",
    "request_type": "Trash/Recycling",
    "request_reason": "Order Trash Cart",
    "date_created": "2022-11-15T15:47:57.000",
    "date_modified": "2022-11-15T15:47:58.000",
    "request_status": "Pending",
    "responsible_agency": "Department of Sanitation",
    "final_address": "7931 Bullard Ave",
    "address_councildis": "E",
    "status": "Assigned to Contractor",
    "contractor": "Waste Pro",
    "rowid": "943705",
    "final_x": "3712464.36562",
    "final_y": "568423.252453",
    "longitude": "-89.9689094746775",
    "latitude": "30.055988888224462",
    "geocoded_column": {
      "latitude": "30.055988888224462",
      "longitude": "-89.9689094746775"
    }
  },
  {
    "service_request": "2022-943704",
    "request_type": "Traffic Signals/Signs/Striping/Streetlights",
    "request_reason": "Traffic Signal Malfunctioning/Damaged",
    "date_created": "2022-11-15T15:46:52.000",
    "date_modified": "2022-11-15T15:46:52.000",
    "request_status": "Pending",
    "responsible_agency": "Department of Public Works",
    "final_address": "NAPOLEON AVE & MAGNOLIA ST",
    "address_councildis": "B",
    "status": "Pending",
    "rowid": "943704",
    "final_x": "3670505.2",
    "final_y": "524746.48",
    "longitude": "-90.10301768416616",
    "latitude": "29.937199963751222",
    "geocoded_column": {
      "latitude": "29.937199963751222",
      "longitude": "-90.10301768416616"
    }
  },
  {
    "service_request": "2022-943703",
    "request_type": "Traffic Signals/Signs/Striping/Streetlights",
    "request_reason": "Request for Stop Sign",
    "date_created": "2022-11-15T15:40:36.000",
    "date_modified": "2022-11-15T15:40:37.000",
    "request_status": "Pending",
    "responsible_agency": "Department of Public Works",
    "final_address": "2ND ST & S ROCHEBLAVE ST",
    "address_councildis": "B",
    "status": "Pending",
    "rowid": "943703",
    "final_x": "3672462.9",
    "final_y": "529459.28",
    "longitude": "-90.096676514749",
    "latitude": "29.950100678041913",
    "geocoded_column": {
      "latitude": "29.950100678041913",
      "longitude": "-90.096676514749"
    }
  },
  {
    "service_request": "2022-943702",
    "request_type": "Trash/Recycling",
    "request_reason": "Order Recycling Cart",
    "date_created": "2022-11-15T15:40:30.000",
    "date_modified": "2022-11-15T15:40:32.000",
    "request_status": "Pending",
    "responsible_agency": "Department of Sanitation",
    "final_address": "7339 Martin Dr",
    "address_councildis": "E",
    "status": "Pending",
    "rowid": "943702",
    "final_x": "3698692.33616",
    "final_y": "559199.267164",
    "longitude": "-90.01277616812853",
    "latitude": "30.031070256489595",
    "geocoded_column": {
      "latitude": "30.031070256489595",
      "longitude": "-90.01277616812853"
    }
  },
  {
    "service_request": "2022-943701",
    "request_type": "Trash/Recycling",
    "request_reason": "Order Recycling Cart",
    "date_created": "2022-11-15T15:39:49.000",
    "date_modified": "2022-11-15T15:39:49.000",
    "request_status": "Pending",
    "responsible_agency": "Department of Sanitation",
    "final_address": "2360 Odin St",
    "address_councildis": "D",
    "status": "Pending",
    "rowid": "943701",
    "final_x": "3684975.91023",
    "final_y": "553105.598039",
    "longitude": "-90.05633505547321",
    "latitude": "30.014742445129798",
    "geocoded_column": {
      "latitude": "30.014742445129798",
      "longitude": "-90.05633505547321"
    }
  },
  {
    "service_request": "2022-943700",
    "request_type": "Roads/Drainage",
    "request_reason": "Pothole",
    "date_created": "2022-11-15T15:38:34.000",
    "date_modified": "2022-11-15T15:38:34.000",
    "request_status": "Pending",
    "responsible_agency": "Department of Public Works",
    "final_address": "1019 Terpsichore St",
    "address_councildis": "B",
    "status": "Pending",
    "rowid": "943700",
    "final_x": "3680584.20789",
    "final_y": "524514.167484",
    "longitude": "-90.07120573174042",
    "latitude": "29.936259762008472",
    "geocoded_column": {
      "latitude": "29.936259762008472",
      "longitude": "-90.07120573174042"
    }
  },
  {
    "service_request": "2022-943699",
    "request_type": "Trash/Recycling",
    "request_reason": "Missed Trash Pick-Up",
    "date_created": "2022-11-15T15:37:27.000",
    "date_modified": "2022-11-15T15:37:28.000",
    "request_status": "Pending",
    "responsible_agency": "Department of Sanitation",
    "final_address": "726 Valence St",
    "address_councildis": "B",
    "status": "Assigned to Contractor",
    "contractor": "Richards Disposal",
    "rowid": "943699",
    "final_x": "3669891.52602",
    "final_y": "518132.654326",
    "longitude": "-90.10517889836925",
    "latitude": "29.91903215904445",
    "geocoded_column": {
      "latitude": "29.91903215904445",
      "longitude": "-90.10517889836925"
    }
  },
  {
    "service_request": "2022-943698",
    "request_type": "Trash/Recycling",
    "request_reason": "Missed Trash Pick-Up",
    "date_created": "2022-11-15T15:34:33.000",
    "date_modified": "2022-11-15T16:54:44.000",
    "case_close_date": "2022-11-15T10:54:44.000",
    "request_status": "Closed",
    "responsible_agency": "Department of Sanitation",
    "final_address": "7600 BLK Mercier St",
    "address_councildis": "E",
    "status": "Assigned to Contractor",
    "contractor": "Waste Pro",
    "contractor_action": "Completed",
    "rowid": "943698",
    "final_x": "3711508.04151",
    "final_y": "566400.925057",
    "longitude": "-89.97200815801952",
    "latitude": "30.050459586937738",
    "geocoded_column": {
      "latitude": "30.050459586937738",
      "longitude": "-89.97200815801952"
    }
  },
  {
    "service_request": "2022-943697",
    "request_type": "Trash/Recycling",
    "request_reason": "Request a Large Item Pick Up",
    "date_created": "2022-11-15T15:33:45.000",
    "date_modified": "2022-11-15T15:33:46.000",
    "request_status": "Pending",
    "responsible_agency": "Department of Sanitation",
    "final_address": "708 Sumner St",
    "address_councildis": "C",
    "status": "Assigned to Contractor",
    "contractor": "Richards Disposal",
    "rowid": "943697",
    "final_x": "3691225.50441",
    "final_y": "528761.689792",
    "longitude": "-90.03745929518097",
    "latitude": "29.947612410463563",
    "geocoded_column": {
      "latitude": "29.947612410463563",
      "longitude": "-90.03745929518097"
    }
  },
  {
    "service_request": "2022-943696",
    "request_type": "Traffic Signals/Signs/Striping/Streetlights",
    "request_reason": "Street Light Outage/Malfunction",
    "date_created": "2022-11-15T15:33:16.000",
    "date_modified": "2022-11-15T15:33:16.000",
    "request_status": "Pending",
    "responsible_agency": "Department of Public Works",
    "final_address": "1818 St Roch Ave",
    "address_councildis": "D",
    "status": "Pending",
    "contractor": "Legacy Professional Services",
    "rowid": "943696",
    "final_x": "3686056.82377",
    "final_y": "539149.246282",
    "longitude": "-90.0534124500985",
    "latitude": "29.976334320407084",
    "geocoded_column": {
      "latitude": "29.976334320407084",
      "longitude": "-90.0534124500985"
    }
  },
  {
    "service_request": "2022-943695",
    "request_type": "Traffic Signals/Signs/Striping/Streetlights",
    "request_reason": "Traffic Signal Malfunctioning/Damaged",
    "date_created": "2022-11-15T15:31:41.000",
    "date_modified": "2022-11-15T15:31:41.000",
    "request_status": "Pending",
    "responsible_agency": "Department of Public Works",
    "final_address": "2224 Broadway St",
    "address_councildis": "A",
    "status": "Pending",
    "rowid": "943695",
    "final_x": "3666138.39124",
    "final_y": "529686.495489",
    "longitude": "-90.1166384162404",
    "latitude": "29.950911617569062",
    "geocoded_column": {
      "latitude": "29.950911617569062",
      "longitude": "-90.1166384162404"
    }
  },
  {
    "service_request": "2022-943694",
    "request_type": "Trash/Recycling",
    "request_reason": "Order Recycling Cart",
    "date_created": "2022-11-15T15:29:40.000",
    "date_modified": "2022-11-15T15:29:40.000",
    "request_status": "Pending",
    "responsible_agency": "Department of Sanitation",
    "final_address": "1911 Port St",
    "address_councildis": "D",
    "status": "Pending",
    "rowid": "943694",
    "final_x": "3688253.43145",
    "final_y": "539537.812746",
    "longitude": "-90.04646114206058",
    "latitude": "29.977335091451025",
    "geocoded_column": {
      "latitude": "29.977335091451025",
      "longitude": "-90.04646114206058"
    }
  },
  {
    "service_request": "2022-943693",
    "request_type": "Trash/Recycling",
    "request_reason": "MIssed Recycling Pick-Up",
    "date_created": "2022-11-15T15:26:07.000",
    "date_modified": "2022-11-15T15:26:08.000",
    "request_status": "Pending",
    "responsible_agency": "Department of Sanitation",
    "final_address": "2309 Iberville St, New Orleans, Louisiana, 70119",
    "address_councildis": "B",
    "status": "Assigned to Contractor",
    "contractor": "Richards Disposal",
    "rowid": "943693",
    "final_x": "3676907.40226",
    "final_y": "534519.047429",
    "longitude": "-90.08246872239917",
    "latitude": "29.963880696021",
    "geocoded_column": {
      "latitude": "29.963880696021",
      "longitude": "-90.08246872239917"
    }
  },
  {
    "service_request": "2022-943692",
    "request_type": "Trash/Recycling",
    "request_reason": "Missed Trash Pick-Up",
    "date_created": "2022-11-15T15:25:59.000",
    "date_modified": "2022-11-15T15:25:59.000",
    "request_status": "Pending",
    "responsible_agency": "Department of Sanitation",
    "final_address": "8621 Morrison Rd",
    "address_councildis": "E",
    "status": "Assigned to Contractor",
    "contractor": "Waste Pro",
    "rowid": "943692",
    "final_x": "3704717.32657",
    "final_y": "561505.388255",
    "longitude": "-89.99365194961052",
    "latitude": "30.03721888456231",
    "geocoded_column": {
      "latitude": "30.03721888456231",
      "longitude": "-89.99365194961052"
    }
  },
  {
    "service_request": "2022-943691",
    "request_type": "Trash/Recycling",
    "request_reason": "Missed Trash Pick-Up",
    "date_created": "2022-11-15T15:24:36.000",
    "date_modified": "2022-11-15T15:24:37.000",
    "request_status": "Pending",
    "responsible_agency": "Department of Sanitation",
    "final_address": "2713 Peniston St",
    "address_councildis": "B",
    "status": "Assigned to Contractor",
    "contractor": "Richards Disposal",
    "rowid": "943691",
    "final_x": "3671972.58299",
    "final_y": "525039.100413",
    "longitude": "-90.0983750996398",
    "latitude": "29.937961170555067",
    "geocoded_column": {
      "latitude": "29.937961170555067",
      "longitude": "-90.0983750996398"
    }
  },
  {
    "service_request": "2022-943690",
    "request_type": "Traffic Signals/Signs/Striping/Streetlights",
    "request_reason": "Traffic Signal Malfunctioning/Damaged",
    "date_created": "2022-11-15T15:24:10.000",
    "date_modified": "2022-11-15T15:25:03.000",
    "request_status": "Pending",
    "responsible_agency": "Department of Public Works",
    "final_address": "BROADWAY ST & S CLAIBORNE AVE",
    "address_councildis": "A",
    "status": "Pending",
    "rowid": "943690",
    "final_x": "3666401.6",
    "final_y": "529792.58",
    "longitude": "-90.11580377358062",
    "latitude": "29.951195627974403",
    "geocoded_column": {
      "latitude": "29.951195627974403",
      "longitude": "-90.11580377358062"
    }
  },
  {
    "service_request": "2022-943689",
    "request_type": "Trash/Recycling",
    "request_reason": "Missed Trash Pick-Up",
    "date_created": "2022-11-15T15:23:36.000",
    "date_modified": "2022-11-15T15:23:37.000",
    "request_status": "Pending",
    "responsible_agency": "Department of Sanitation",
    "final_address": "526 Cadiz St",
    "address_councildis": "B",
    "status": "Assigned to Contractor",
    "contractor": "Richards Disposal",
    "rowid": "943689",
    "final_x": "3670380.7403",
    "final_y": "517592.155958",
    "longitude": "-90.10365300507353",
    "latitude": "29.91753153222899",
    "geocoded_column": {
      "latitude": "29.91753153222899",
      "longitude": "-90.10365300507353"
    }
  },
  {
    "service_request": "2022-943688",
    "request_type": "Trash/Recycling",
    "request_reason": "Order Recycling Cart",
    "date_created": "2022-11-15T15:23:13.000",
    "date_modified": "2022-11-15T15:23:14.000",
    "request_status": "Pending",
    "responsible_agency": "Department of Sanitation",
    "final_address": "5712 Wilton Dr",
    "address_councildis": "D",
    "status": "Pending",
    "rowid": "943688",
    "final_x": "3681734.71797",
    "final_y": "553888.398103",
    "longitude": "-90.06654830203374",
    "latitude": "30.016993784361116",
    "geocoded_column": {
      "latitude": "30.016993784361116",
      "longitude": "-90.06654830203374"
    }
  },
  {
    "service_request": "2022-943687",
    "request_type": "Trash/Recycling",
    "request_reason": "Order Recycling Cart",
    "date_created": "2022-11-15T15:21:15.000",
    "date_modified": "2022-11-15T15:21:16.000",
    "request_status": "Pending",
    "responsible_agency": "Department of Sanitation",
    "final_address": "526 Cadiz St",
    "address_councildis": "B",
    "status": "Pending",
    "rowid": "943687",
    "final_x": "3670380.7403",
    "final_y": "517592.155958",
    "longitude": "-90.10365300507353",
    "latitude": "29.91753153222899",
    "geocoded_column": {
      "latitude": "29.91753153222899",
      "longitude": "-90.10365300507353"
    }
  },
  {
    "service_request": "2022-943686",
    "request_type": "Trash/Recycling",
    "request_reason": "Repair Recycling Cart",
    "date_created": "2022-11-15T15:12:47.000",
    "date_modified": "2022-11-15T15:12:48.000",
    "request_status": "Pending",
    "responsible_agency": "Department of Sanitation",
    "final_address": "7321 Agate St",
    "address_councildis": "D",
    "status": "Pending",
    "rowid": "943686",
    "final_x": "3670808.76167",
    "final_y": "555360.111449",
    "longitude": "-90.10101988919605",
    "latitude": "30.021368080330767",
    "geocoded_column": {
      "latitude": "30.021368080330767",
      "longitude": "-90.10101988919605"
    }
  },
  {
    "service_request": "2022-943685",
    "request_type": "Trash/Recycling",
    "request_reason": "Missed Trash Pick-Up",
    "date_created": "2022-11-15T15:10:52.000",
    "date_modified": "2022-11-15T18:08:04.000",
    "case_close_date": "2022-11-15T12:08:04.000",
    "request_status": "Closed",
    "responsible_agency": "Department of Sanitation",
    "final_address": "7823 Means Ave",
    "address_councildis": "E",
    "status": "Assigned to Contractor",
    "contractor": "Waste Pro",
    "contractor_action": "Completed",
    "rowid": "943685",
    "final_x": "3707768.98654",
    "final_y": "565367.631778",
    "longitude": "-89.98386434947577",
    "latitude": "30.047740058798034",
    "geocoded_column": {
      "latitude": "30.047740058798034",
      "longitude": "-89.98386434947577"
    }
  },
  {
    "service_request": "2022-943684",
    "request_type": "Trash/Recycling",
    "request_reason": "MIssed Recycling Pick-Up",
    "date_created": "2022-11-15T15:08:46.000",
    "date_modified": "2022-11-15T15:08:47.000",
    "request_status": "Pending",
    "responsible_agency": "Department of Sanitation",
    "final_address": "1509 Steeple Chase Ln",
    "address_councildis": "C",
    "status": "Assigned to Contractor",
    "contractor": "Richards Disposal",
    "rowid": "943684",
    "final_x": "3699947.3866",
    "final_y": "525623.028541",
    "longitude": "-90.01003553127241",
    "latitude": "29.93870808524828",
    "geocoded_column": {
      "latitude": "29.93870808524828",
      "longitude": "-90.01003553127241"
    }
  },
  {
    "service_request": "2022-943683",
    "request_type": "Trash/Recycling",
    "request_reason": "Missed Trash Pick-Up",
    "date_created": "2022-11-15T15:08:39.000",
    "date_modified": "2022-11-15T18:04:36.000",
    "case_close_date": "2022-11-15T12:04:36.000",
    "request_status": "Closed",
    "responsible_agency": "Department of Sanitation",
    "final_address": "7200 Bunker Hill Rd",
    "address_councildis": "E",
    "status": "Assigned to Contractor",
    "contractor": "Waste Pro",
    "contractor_action": "Completed",
    "rowid": "943683",
    "final_x": "3705585.51684",
    "final_y": "560995.804446",
    "longitude": "-89.99092715975384",
    "latitude": "30.035789790774764",
    "geocoded_column": {
      "latitude": "30.035789790774764",
      "longitude": "-89.99092715975384"
    }
  },
  {
    "service_request": "2022-943682",
    "request_type": "Trash/Recycling",
    "request_reason": "MIssed Recycling Pick-Up",
    "date_created": "2022-11-15T15:08:39.000",
    "date_modified": "2022-11-15T15:08:39.000",
    "request_status": "Pending",
    "responsible_agency": "Department of Sanitation",
    "final_address": "3723 DHemecourt St",
    "address_councildis": "B",
    "status": "Assigned to Contractor",
    "contractor": "Richards Disposal",
    "rowid": "943682",
    "final_x": "3671012.44155",
    "final_y": "535999.306951",
    "longitude": "-90.10103422299287",
    "latitude": "29.96812654604858",
    "geocoded_column": {
      "latitude": "29.96812654604858",
      "longitude": "-90.10103422299287"
    }
  },
  {
    "service_request": "2022-943681",
    "request_type": "Abandoned Vehicles",
    "request_reason": "Abandoned/Junk Vehicles",
    "date_created": "2022-11-15T15:03:42.000",
    "date_modified": "2022-11-15T15:03:42.000",
    "request_status": "Pending",
    "responsible_agency": "Department of Public Works",
    "final_address": "3812 N Johnson St",
    "address_councildis": "D",
    "status": "Pending",
    "rowid": "943681",
    "final_x": "3692158.80227",
    "final_y": "538750.781961",
    "longitude": "-90.03415492052876",
    "latitude": "29.975049858106217",
    "geocoded_column": {
      "latitude": "29.975049858106217",
      "longitude": "-90.03415492052876"
    }
  },
  {
    "service_request": "2022-943680",
    "request_type": "Trash/Recycling",
    "request_reason": "Request a Large Item Pick Up",
    "date_created": "2022-11-15T15:03:11.000",
    "date_modified": "2022-11-15T15:04:10.000",
    "request_status": "Pending",
    "responsible_agency": "Department of Sanitation",
    "final_address": "6401 West End Blvd",
    "address_councildis": "A",
    "status": "Assigned to Contractor",
    "contractor": "IV Waste",
    "rowid": "943680",
    "final_x": "3666665.84077",
    "final_y": "550433.762324",
    "longitude": "-90.11427603707513",
    "latitude": "30.00794421117755",
    "geocoded_column": {
      "latitude": "30.00794421117755",
      "longitude": "-90.11427603707513"
    }
  },
  {
    "service_request": "2022-943679",
    "request_type": "Trash/Recycling",
    "request_reason": "MIssed Recycling Pick-Up",
    "date_created": "2022-11-15T15:02:20.000",
    "date_modified": "2022-11-15T15:02:21.000",
    "request_status": "Pending",
    "responsible_agency": "Department of Sanitation",
    "final_address": "4403 America St",
    "address_councildis": "E",
    "status": "Assigned to Contractor",
    "contractor": "Waste Pro",
    "rowid": "943679",
    "final_x": "3699941.78205",
    "final_y": "553176.345175",
    "longitude": "-90.0090478691875",
    "latitude": "30.01446987254325",
    "geocoded_column": {
      "latitude": "30.01446987254325",
      "longitude": "-90.0090478691875"
    }
  },
  {
    "service_request": "2022-943678",
    "request_type": "Trash/Recycling",
    "request_reason": "Missed Trash Pick-Up",
    "date_created": "2022-11-15T14:59:46.000",
    "date_modified": "2022-11-15T14:59:47.000",
    "request_status": "Pending",
    "responsible_agency": "Department of Sanitation",
    "final_address": "7831 Mackenzie St",
    "address_councildis": "E",
    "status": "Assigned to Contractor",
    "contractor": "Waste Pro",
    "rowid": "943678",
    "final_x": "3710545.61054",
    "final_y": "566860.460516",
    "longitude": "-89.97503281574762",
    "latitude": "30.051754528041265",
    "geocoded_column": {
      "latitude": "30.051754528041265",
      "longitude": "-89.97503281574762"
    }
  },
  {
    "service_request": "2022-943677",
    "request_type": "Traffic Signals/Signs/Striping/Streetlights",
    "request_reason": "Street Name Sign Damaged or Missing",
    "date_created": "2022-11-15T14:58:05.000",
    "date_modified": "2022-11-15T14:58:06.000",
    "request_status": "Pending",
    "responsible_agency": "Department of Public Works",
    "final_address": "4319 N Derbigny St",
    "address_councildis": "D",
    "status": "Pending",
    "rowid": "943677",
    "final_x": "3693380.20457",
    "final_y": "537334.6114",
    "longitude": "-90.03034829304885",
    "latitude": "29.971117758138192",
    "geocoded_column": {
      "latitude": "29.971117758138192",
      "longitude": "-90.03034829304885"
    }
  },
  {
    "service_request": "2022-943676",
    "request_type": "Trash/Recycling",
    "request_reason": "Order Recycling Cart",
    "date_created": "2022-11-15T14:53:12.000",
    "date_modified": "2022-11-15T14:57:01.000",
    "request_status": "Pending",
    "responsible_agency": "Department of Sanitation",
    "final_address": "New Orleans,LA",
    "address_councildis": "C",
    "rowid": "943676",
    "final_x": "3684509.03599",
    "final_y": "535153.02791",
    "longitude": "-90.05844124678174",
    "latitude": "29.96539355704271",
    "geocoded_column": {
      "latitude": "29.96539355704271",
      "longitude": "-90.05844124678174"
    }
  },
  {
    "service_request": "2022-943672",
    "request_type": "Traffic Signals/Signs/Striping/Streetlights",
    "request_reason": "Street Light Outage/Malfunction",
    "date_created": "2022-11-15T14:51:35.000",
    "date_modified": "2022-11-15T14:51:36.000",
    "request_status": "Pending",
    "responsible_agency": "Department of Public Works",
    "final_address": "2810 Soniat St",
    "address_councildis": "B",
    "status": "Pending",
    "contractor": "Legacy Professional Services",
    "rowid": "943672",
    "final_x": "3668526.37166",
    "final_y": "525698.490493",
    "longitude": "-90.10923287769926",
    "latitude": "29.939875960371054",
    "geocoded_column": {
      "latitude": "29.939875960371054",
      "longitude": "-90.10923287769926"
    }
  },
  {
    "service_request": "2022-943671",
    "request_type": "Roads/Drainage",
    "request_reason": "Catch Basin - Clogged",
    "date_created": "2022-11-15T14:50:13.000",
    "date_modified": "2022-11-15T14:50:13.000",
    "request_status": "Pending",
    "responsible_agency": "Department of Public Works",
    "final_address": "2810 Soniat St",
    "address_councildis": "B",
    "status": "Pending",
    "rowid": "943671",
    "final_x": "3668526.37166",
    "final_y": "525698.490493",
    "longitude": "-90.10923287769926",
    "latitude": "29.939875960371054",
    "geocoded_column": {
      "latitude": "29.939875960371054",
      "longitude": "-90.10923287769926"
    }
  },
  {
    "service_request": "2022-943669",
    "request_type": "Trash/Recycling",
    "request_reason": "Missed Trash Pick-Up",
    "date_created": "2022-11-15T14:49:05.000",
    "date_modified": "2022-11-15T14:49:06.000",
    "request_status": "Pending",
    "responsible_agency": "Department of Sanitation",
    "final_address": "7311 Hansbrough Ave",
    "address_councildis": "E",
    "status": "Assigned to Contractor",
    "contractor": "Waste Pro",
    "rowid": "943669",
    "final_x": "3708224.80107",
    "final_y": "563497.949088",
    "longitude": "-89.9824933971682",
    "latitude": "30.04258441092365",
    "geocoded_column": {
      "latitude": "30.04258441092365",
      "longitude": "-89.9824933971682"
    }
  },
  {
    "service_request": "2022-943668",
    "request_type": "Trash/Recycling",
    "request_reason": "Request a Large Item Pick Up",
    "date_created": "2022-11-15T14:48:55.000",
    "date_modified": "2022-11-15T14:48:56.000",
    "request_status": "Pending",
    "responsible_agency": "Department of Sanitation",
    "final_address": "4811 Bienville Ave",
    "address_councildis": "A",
    "status": "Assigned to Contractor",
    "contractor": "Richards Disposal",
    "rowid": "943668",
    "final_x": "3669255.91847",
    "final_y": "540804.561867",
    "longitude": "-90.10641891964447",
    "latitude": "29.981391205725984",
    "geocoded_column": {
      "latitude": "29.981391205725984",
      "longitude": "-90.10641891964447"
    }
  },