[
  {
    "service_request": "2023-958137",
    "request_type": "Trash/Recycling",
    "request_reason": "Missed Trash Pick-Up",
    "date_created": "2023-01-01T00:52:37.000",
    "date_modified": "2023-01-01T00:52:38.000",
    "request_status": "Pending",
    "responsible_agency": "Department of Sanitation",
    "final_address": "4137 General Ogden St, New Orleans, Louisiana, 70118",
    "address_councildis": "A",
    "status": "Assigned to Contractor",
    "contractor": "Richards Disposal",
    "rowid": "958137",
    "final_x": "3667022.69581",
    "final_y": "538069.887625",
    "longitude": "-90.11356443502756",
    "latitude": "29.973937331843185",
    "geocoded_column": {
      "latitude": "29.973937331843185",
      "longitude": "-90.11356443502756"
    }
  },
  {
    "service_request": "2022-958136",
    "request_type": "Trash/Recycling",
    "request_reason": "Missed Trash Pick-Up",
    "date_created": "2022-12-31T23:49:17.000",
    "date_modified": "2022-12-31T23:49:18.000",
    "request_status": "Pending",
    "responsible_agency": "Department of Sanitation",
    "final_address": "6328 Annunciation St",
    "address_councildis": "A",
    "status": "Assigned to Contractor",
    "contractor": "Richards Disposal",
    "rowid": "958136",
    "final_x": "3662699.03539",
    "final_y": "518456.263478",
    "longitude": "-90.12787126339161",
    "latitude": "29.920132002180992",
    "geocoded_column": {
      "latitude": "29.920132002180992",
      "longitude": "-90.12787126339161"
    }
  },
  {
    "service_request": "2022-958135",
    "request_type": "Abandoned Vehicles",
    "request_reason": "Abandoned/Junk Vehicles",
    "date_created": "2022-12-31T23:44:19.000",
    "date_modified": "2022-12-31T23:44:19.000",
    "request_status": "Pending",
    "responsible_agency": "Department of Public Works",
    "final_address": "2300 Terpsichore St",
    "address_councildis": "B",
    "status": "Pending",
    "rowid": "958135",
    "final_x": "3676419.36661",
    "final_y": "526882.543166",
    "longitude": "-90.08427277141074",
    "latitude": "29.942897500694787",
    "geocoded_column": {
      "latitude": "29.942897500694787",
      "longitude": "-90.08427277141074"
    }
  },
  {
    "service_request": "2022-958134",
    "request_type": "Trash/Recycling",
    "request_reason": "MIssed Recycling Pick-Up",
    "date_created": "2022-12-31T21:57:52.000",
    "date_modified": "2022-12-31T21:57:53.000",
    "request_status": "Pending",
    "responsible_agency": "Department of Sanitation",
    "final_address": "3311 Octavia St",
    "address_councildis": "A",
    "status": "Assigned to Contractor",
    "contractor": "Richards Disposal",
    "rowid": "958134",
    "final_x": "3668470.02906",
    "final_y": "527769.967295",
    "longitude": "-90.10934089988201",
    "latitude": "29.945573506311465",
    "geocoded_column": {
      "latitude": "29.945573506311465",
      "longitude": "-90.10934089988201"
    }
  },
  {
    "service_request": "2022-958133",
    "request_type": "Trash/Recycling",
    "request_reason": "Missed Trash Pick-Up",
    "date_created": "2022-12-31T21:47:23.000",
    "date_modified": "2022-12-31T21:47:23.000",
    "request_status": "Pending",
    "responsible_agency": "Department of Sanitation",
    "final_address": "3311 Octavia St",
    "address_councildis": "A",
    "status": "Assigned to Contractor",
    "contractor": "Richards Disposal",
    "rowid": "958133",
    "final_x": "3668470.02906",
    "final_y": "527769.967295",
    "longitude": "-90.10934089988201",
    "latitude": "29.945573506311465",
    "geocoded_column": {
      "latitude": "29.945573506311465",
      "longitude": "-90.10934089988201"
    }
  },
  {
    "service_request": "2022-958132",
    "request_type": "Trash/Recycling",
    "request_reason": "Missed Trash Pick-Up",
    "date_created": "2022-12-31T21:45:21.000",
    "date_modified": "2022-12-31T21:45:22.000",
    "request_status": "Pending",
    "responsible_agency": "Department of Sanitation",
    "final_address": "3315 Octavia St",
    "address_councildis": "A",
    "status": "Assigned to Contractor",
    "contractor": "Richards Disposal",
    "rowid": "958132",
    "final_x": "3668477.9195",
    "final_y": "527821.463679",
    "longitude": "-90.10931425026767",
    "latitude": "29.945714872889027",
    "geocoded_column": {
      "latitude": "29.945714872889027",
      "longitude": "-90.10931425026767"
    }
  },
  {
    "service_request": "2022-958131",
    "request_type": "Trash/Recycling",
    "request_reason": "Replace Trash Cart",
    "date_created": "2022-12-31T20:59:58.000",
    "date_modified": "2022-12-31T20:59:59.000",
    "request_status": "Pending",
    "responsible_agency": "Department of Sanitation",
    "final_address": "2139 Third St",
    "address_councildis": "B",
    "status": "Assigned to Contractor",
    "contractor": "Richards Disposal",
    "rowid": "958131",
    "final_x": "3675306.39381",
    "final_y": "524648.421308",
    "longitude": "-90.08786336901053",
    "latitude": "29.936787711428913",
    "geocoded_column": {
      "latitude": "29.936787711428913",
      "longitude": "-90.08786336901053"
    }
  },
  {
    "service_request": "2022-958130",
    "request_type": "Trash/Recycling",
    "request_reason": "Request a Large Item Pick Up",
    "date_created": "2022-12-31T20:28:07.000",
    "date_modified": "2022-12-31T20:28:08.000",
    "request_status": "Pending",
    "responsible_agency": "Department of Sanitation",
    "final_address": "12931 Chanelle Ct",
    "address_councildis": "E",
    "status": "Assigned to Contractor",
    "contractor": "Waste Pro",
    "rowid": "958130",
    "final_x": "3717055.63692",
    "final_y": "567483.821156",
    "longitude": "-89.95443318702804",
    "latitude": "30.0532547157596",
    "geocoded_column": {
      "latitude": "30.0532547157596",
      "longitude": "-89.95443318702804"
    }
  },
  {
    "service_request": "2022-958129",
    "request_type": "Trash/Recycling",
    "request_reason": "Missed Trash Pick-Up",
    "date_created": "2022-12-31T20:11:31.000",
    "date_modified": "2022-12-31T20:11:32.000",
    "request_status": "Pending",
    "responsible_agency": "Department of Sanitation",
    "final_address": "3802 State Street Dr",
    "address_councildis": "A",
    "status": "Assigned to Contractor",
    "contractor": "Richards Disposal",
    "rowid": "958129",
    "final_x": "3667983.10484",
    "final_y": "529462.759873",
    "longitude": "-90.11082126017182",
    "latitude": "29.950242428610746",
    "geocoded_column": {
      "latitude": "29.950242428610746",
      "longitude": "-90.11082126017182"
    }
  },
  {
    "service_request": "2022-958128",
    "request_type": "Health Related Request",
    "request_reason": "Noise Ordinance Complaint",
    "date_created": "2022-12-31T19:43:25.000",
    "date_modified": "2022-12-31T19:43:25.000",
    "request_status": "Pending",
    "responsible_agency": "Health Department",
    "final_address": "4229 Coliseum St, New Orleans, Louisiana, 70115",
    "address_councildis": "B",
    "status": "Pending",
    "rowid": "958128",
    "final_x": "3671423.56404",
    "final_y": "519923.865464",
    "longitude": "-90.10028218704886",
    "latitude": "29.92391217847065",
    "geocoded_column": {
      "latitude": "29.92391217847065",
      "longitude": "-90.10028218704886"
    }
  },
  {
    "service_request": "2022-958127",
    "request_type": "Trash/Recycling",
    "request_reason": "Missed Trash Pick-Up",
    "date_created": "2022-12-31T19:38:23.000",
    "date_modified": "2022-12-31T19:38:24.000",
    "request_status": "Pending",
    "responsible_agency": "Department of Sanitation",
    "final_address": "5015 St Claude Ave",
    "address_councildis": "E",
    "status": "Assigned to Contractor",
    "contractor": "Waste Pro",
    "rowid": "958127",
    "final_x": "3696113.05085",
    "final_y": "534351.361221",
    "longitude": "-90.02182547915295",
    "latitude": "29.962829149857008",
    "geocoded_column": {
      "latitude": "29.962829149857008",
      "longitude": "-90.02182547915295"
    }
  },
  {
    "service_request": "2022-958126",
    "request_type": "Trash/Recycling",
    "request_reason": "MIssed Recycling Pick-Up",
    "date_created": "2022-12-31T19:29:14.000",
    "date_modified": "2022-12-31T19:29:15.000",
    "request_status": "Pending",
    "responsible_agency": "Department of Sanitation",
    "final_address": "4839 Constance St",
    "address_councildis": "B",
    "status": "Assigned to Contractor",
    "contractor": "Richards Disposal",
    "rowid": "958126",
    "final_x": "3669330.31207",
    "final_y": "518318.385782",
    "longitude": "-90.10694409317796",
    "latitude": "29.919559390119236",
    "geocoded_column": {
      "latitude": "29.919559390119236",
      "longitude": "-90.10694409317796"
    }
  },
  {
    "service_request": "2022-958125",
    "request_type": "Trash/Recycling",
    "request_reason": "Missed Trash Pick-Up",
    "date_created": "2022-12-31T19:24:43.000",
    "date_modified": "2022-12-31T19:24:44.000",
    "request_status": "Pending",
    "responsible_agency": "Department of Sanitation",
    "final_address": "8213 Sycamore St",
    "address_councildis": "A",
    "status": "Assigned to Contractor",
    "contractor": "Richards Disposal",
    "rowid": "958125",
    "final_x": "3663981.72359",
    "final_y": "531335.187778",
    "longitude": "-90.12339314439048",
    "latitude": "29.95550777934063",
    "geocoded_column": {
      "latitude": "29.95550777934063",
      "longitude": "-90.12339314439048"
    }
  },
  {
    "service_request": "2022-958124",
    "request_type": "Trash/Recycling",
    "request_reason": "Replace Trash Cart",
    "date_created": "2022-12-31T19:16:16.000",
    "date_modified": "2022-12-31T19:16:17.000",
    "request_status": "Pending",
    "responsible_agency": "Department of Sanitation",
    "final_address": "13906 Intrepid St",
    "address_councildis": "E",
    "status": "Assigned to Contractor",
    "contractor": "Waste Pro",
    "rowid": "958124",
    "final_x": "3726095.6176",
    "final_y": "570279.323303",
    "longitude": "-89.92575208195213",
    "latitude": "30.060638947555663",
    "geocoded_column": {
      "latitude": "30.060638947555663",
      "longitude": "-89.92575208195213"
    }
  },
  {
    "service_request": "2022-958123",
    "request_type": "Trash/Recycling",
    "request_reason": "Missed Trash Pick-Up",
    "date_created": "2022-12-31T18:55:28.000",
    "date_modified": "2022-12-31T18:55:29.000",
    "request_status": "Pending",
    "responsible_agency": "Department of Sanitation",
    "final_address": "206 Alonzo St",
    "address_councildis": "A",
    "status": "Assigned to Contractor",
    "contractor": "Richards Disposal",
    "rowid": "958123",
    "final_x": "3664465.55668",
    "final_y": "517139.068661",
    "longitude": "-90.12233911854405",
    "latitude": "29.916458907374718",
    "geocoded_column": {
      "latitude": "29.916458907374718",
      "longitude": "-90.12233911854405"
    }
  },
  {
    "service_request": "2022-958122",
    "request_type": "Trash/Recycling",
    "request_reason": "MIssed Recycling Pick-Up",
    "date_created": "2022-12-31T18:40:21.000",
    "date_modified": "2022-12-31T18:40:22.000",
    "request_status": "Pending",
    "responsible_agency": "Department of Sanitation",
    "final_address": "2219 S Salcedo St",
    "address_councildis": "A",
    "status": "Assigned to Contractor",
    "contractor": "Richards Disposal",
    "rowid": "958122",
    "final_x": "3669136.94913",
    "final_y": "528943.801472",
    "longitude": "-90.10719555049423",
    "latitude": "29.948781562243237",
    "geocoded_column": {
      "latitude": "29.948781562243237",
      "longitude": "-90.10719555049423"
    }
  },
  {
    "service_request": "2022-958121",
    "request_type": "Traffic Signals/Signs/Striping/Streetlights",
    "request_reason": "Street Light Outage/Malfunction",
    "date_created": "2022-12-31T18:21:41.000",
    "date_modified": "2022-12-31T18:21:42.000",
    "request_status": "Pending",
    "responsible_agency": "Department of Public Works",
    "final_address": "1233 Esplanade Ave",
    "address_councildis": "C",
    "status": "Assigned to Contractor",
    "contractor": "Legacy Professional Services",
    "rowid": "958121",
    "final_x": "3682417.56232",
    "final_y": "535789.505799",
    "longitude": "-90.06502376816086",
    "latitude": "29.96720747182911",
    "geocoded_column": {
      "latitude": "29.96720747182911",
      "longitude": "-90.06502376816086"
    }
  },
  {
    "service_request": "2022-958120",
    "request_type": "Traffic Signals/Signs/Striping/Streetlights",
    "request_reason": "Street Light Outage/Malfunction",
    "date_created": "2022-12-31T18:19:03.000",
    "date_modified": "2022-12-31T18:19:04.000",
    "request_status": "Pending",
    "responsible_agency": "Department of Public Works",
    "final_address": "1233 Esplanade Ave",
    "address_councildis": "C",
    "status": "Assigned to Contractor",
    "contractor": "Legacy Professional Services",
    "rowid": "958120",
    "final_x": "3682417.56232",
    "final_y": "535789.505799",
    "longitude": "-90.06502376816086",
    "latitude": "29.96720747182911",
    "geocoded_column": {
      "latitude": "29.96720747182911",
      "longitude": "-90.06502376816086"
    }
  },
  {
    "service_request": "2022-958119",
    "request_type": "Traffic Signals/Signs/Striping/Streetlights",
    "request_reason": "Street Light Outage/Malfunction",
    "date_created": "2022-12-31T18:13:43.000",
    "date_modified": "2022-12-31T18:13:43.000",
    "request_status": "Pending",
    "responsible_agency": "Department of Public Works",
    "final_address": "128 Central Park Pl",
    "address_councildis": "A",
    "status": "Assigned to Contractor",
    "contractor": "Legacy Professional Services",
    "rowid": "958119",
    "final_x": "3670278.94529",
    "final_y": "544041.28603",
    "longitude": "-90.10307796016163",
    "latitude": "29.990260931089384",
    "geocoded_column": {
      "latitude": "29.990260931089384",
      "longitude": "-90.10307796016163"
    }
  },
  {
    "service_request": "2022-958118",
    "request_type": "Trash/Recycling",
    "request_reason": "Request a Large Item Pick Up",
    "date_created": "2022-12-31T18:13:08.000",
    "date_modified": "2022-12-31T18:13:08.000",
    "request_status": "Pending",
    "responsible_agency": "Department of Sanitation",
    "final_address": "1567 Webster St",
    "address_councildis": "A",
    "status": "Assigned to Contractor",
    "contractor": "Richards Disposal",
    "rowid": "958118",
    "final_x": "3665339.81588",
    "final_y": "522538.505914",
    "longitude": "-90.11939903453282",
    "latitude": "29.931280228433447",
    "geocoded_column": {
      "latitude": "29.931280228433447",
      "longitude": "-90.11939903453282"
    }
  },
  {
    "service_request": "2022-958117",
    "request_type": "Trash/Recycling",
    "request_reason": "Missed Trash Pick-Up",
    "date_created": "2022-12-31T18:12:29.000",
    "date_modified": "2022-12-31T18:12:29.000",
    "request_status": "Pending",
    "responsible_agency": "Department of Sanitation",
    "final_address": "728 S Hennessey St",
    "address_councildis": "A",
    "status": "Assigned to Contractor",
    "contractor": "Richards Disposal",
    "rowid": "958117",
    "final_x": "3668745.21543",
    "final_y": "536854.329864",
    "longitude": "-90.10816536387033",
    "latitude": "29.970544423651113",
    "geocoded_column": {
      "latitude": "29.970544423651113",
      "longitude": "-90.10816536387033"
    }
  },
  {
    "service_request": "2022-958116",
    "request_type": "Trash/Recycling",
    "request_reason": "Missed Trash Pick-Up",
    "date_created": "2022-12-31T18:05:13.000",
    "date_modified": "2022-12-31T18:05:13.000",
    "request_status": "Pending",
    "responsible_agency": "Department of Sanitation",
    "final_address": "1015 Pleasant St",
    "address_councildis": "B",
    "status": "Assigned to Contractor",
    "contractor": "Richards Disposal",
    "rowid": "958116",
    "final_x": "3675694.05787",
    "final_y": "519672.081976",
    "longitude": "-90.08681040361196",
    "latitude": "29.923092802304254",
    "geocoded_column": {
      "latitude": "29.923092802304254",
      "longitude": "-90.08681040361196"
    }
  },
  {
    "service_request": "2022-958115",
    "request_type": "Trash/Recycling",
    "request_reason": "MIssed Recycling Pick-Up",
    "date_created": "2022-12-31T17:55:37.000",
    "date_modified": "2022-12-31T17:55:38.000",
    "request_status": "Pending",
    "responsible_agency": "Department of Sanitation",
    "final_address": "4821 Perrier St",
    "address_councildis": "B",
    "status": "Assigned to Contractor",
    "contractor": "Richards Disposal",
    "rowid": "958115",
    "final_x": "3669290.90919",
    "final_y": "519968.116088",
    "longitude": "-90.10701273752578",
    "latitude": "29.924096785708983",
    "geocoded_column": {
      "latitude": "29.924096785708983",
      "longitude": "-90.10701273752578"
    }
  },
  {
    "service_request": "2022-958114",
    "request_type": "Trash/Recycling",
    "request_reason": "Order Recycling Cart",
    "date_created": "2022-12-31T17:49:14.000",
    "date_modified": "2022-12-31T17:49:14.000",
    "request_status": "Pending",
    "responsible_agency": "Department of Sanitation",
    "final_address": "1926 Joliet St",
    "address_councildis": "A",
    "status": "Pending",
    "rowid": "958114",
    "final_x": "3662662.77203",
    "final_y": "531323.684738",
    "longitude": "-90.1275583216074",
    "latitude": "29.95551437938018",
    "geocoded_column": {
      "latitude": "29.95551437938018",
      "longitude": "-90.1275583216074"
    }
  },
  {
    "service_request": "2022-958113",
    "request_type": "Property Maintenance",
    "request_reason": "Property Maintenance",
    "date_created": "2022-12-31T17:47:12.000",
    "date_modified": "2022-12-31T17:47:12.000",
    "request_status": "Pending",
    "responsible_agency": "Department of Code Enforcement",
    "final_address": "136 S Scott St",
    "address_councildis": "A",
    "status": "Pending",
    "rowid": "958113",
    "final_x": "3671582.19681",
    "final_y": "537494.501576",
    "longitude": "-90.09918405122492",
    "latitude": "29.972220967264597",
    "geocoded_column": {
      "latitude": "29.972220967264597",
      "longitude": "-90.09918405122492"
    }
  },
  {
    "service_request": "2022-958112",
    "request_type": "Trash/Recycling",
    "request_reason": "Missed Trash Pick-Up",
    "date_created": "2022-12-31T17:18:14.000",
    "date_modified": "2022-12-31T17:18:15.000",
    "request_status": "Pending",
    "responsible_agency": "Department of Sanitation",
    "final_address": "721 Pleasant St",
    "address_councildis": "B",
    "status": "Assigned to Contractor",
    "contractor": "Richards Disposal",
    "rowid": "958112",
    "final_x": "3676194.37717",
    "final_y": "518692.356663",
    "longitude": "-90.0852647720752",
    "latitude": "29.92038389792501",
    "geocoded_column": {
      "latitude": "29.92038389792501",
      "longitude": "-90.0852647720752"
    }
  },
  {
    "service_request": "2022-958111",
    "request_type": "Trash/Recycling",
    "request_reason": "Missed Trash Pick-Up",
    "date_created": "2022-12-31T17:15:52.000",
    "date_modified": "2022-12-31T17:15:52.000",
    "request_status": "Pending",
    "responsible_agency": "Department of Sanitation",
    "final_address": "2916 Calhoun St",
    "address_councildis": "A",
    "status": "Assigned to Contractor",
    "contractor": "Richards Disposal",
    "rowid": "958111",
    "final_x": "3666754.23725",
    "final_y": "527406.081535",
    "longitude": "-90.11477045228509",
    "latitude": "29.944623222917247",
    "geocoded_column": {
      "latitude": "29.944623222917247",
      "longitude": "-90.11477045228509"
    }
  },
  {
    "service_request": "2022-958110",
    "request_type": "Trash/Recycling",
    "request_reason": "Missed Trash Pick-Up",
    "date_created": "2022-12-31T17:15:37.000",
    "date_modified": "2022-12-31T17:15:38.000",
    "request_status": "Pending",
    "responsible_agency": "Department of Sanitation",
    "final_address": "3519 Octavia St",
    "address_councildis": "A",
    "status": "Assigned to Contractor",
    "contractor": "Richards Disposal",
    "rowid": "958110",
    "final_x": "3668621.03009",
    "final_y": "528481.366784",
    "longitude": "-90.10884013589454",
    "latitude": "29.947525187559744",
    "geocoded_column": {
      "latitude": "29.947525187559744",
      "longitude": "-90.10884013589454"
    }
  },
  {
    "service_request": "2022-958109",
    "request_type": "Trash/Recycling",
    "request_reason": "Request a Large Item Pick Up",
    "date_created": "2022-12-31T17:05:08.000",
    "date_modified": "2022-12-31T17:05:09.000",
    "request_status": "Pending",
    "responsible_agency": "Department of Sanitation",
    "final_address": "508 Henry Clay Ave Apt A",
    "address_councildis": "A",
    "status": "Assigned to Contractor",
    "contractor": "Richards Disposal",
    "rowid": "958109",
    "final_x": "3663364.77927",
    "final_y": "518693.168439",
    "longitude": "-90.12576193792006",
    "latitude": "29.92076414194321",
    "geocoded_column": {
      "latitude": "29.92076414194321",
      "longitude": "-90.12576193792006"
    }
  },
  {
    "service_request": "2022-958108",
    "request_type": "Trash/Recycling",
    "request_reason": "Missed Trash Pick-Up",
    "date_created": "2022-12-31T17:02:58.000",
    "date_modified": "2022-12-31T17:02:59.000",
    "request_status": "Pending",
    "responsible_agency": "Department of Sanitation",
    "final_address": "2243 State St",
    "address_councildis": "A",
    "status": "Assigned to Contractor",
    "contractor": "Richards Disposal",
    "rowid": "958108",
    "final_x": "3666662.12135",
    "final_y": "525000.517885",
    "longitude": "-90.11514203708604",
    "latitude": "29.938011389707736",
    "geocoded_column": {
      "latitude": "29.938011389707736",
      "longitude": "-90.11514203708604"
    }
  },
  {
    "service_request": "2022-958107",
    "request_type": "Trash/Recycling",
    "request_reason": "Missed Trash Pick-Up",
    "date_created": "2022-12-31T17:00:32.000",
    "date_modified": "2022-12-31T17:00:33.000",
    "request_status": "Pending",
    "responsible_agency": "Department of Sanitation",
    "final_address": "1456 Calhoun St",
    "address_councildis": "A",
    "status": "Assigned to Contractor",
    "contractor": "Richards Disposal",
    "rowid": "958107",
    "final_x": "3664348.37767",
    "final_y": "522066.612154",
    "longitude": "-90.12254463523809",
    "latitude": "29.930011513772605",
    "geocoded_column": {
      "latitude": "29.930011513772605",
      "longitude": "-90.12254463523809"
    }
  },
  {
    "service_request": "2022-958106",
    "request_type": "Trash/Recycling",
    "request_reason": "Missed Trash Pick-Up",
    "date_created": "2022-12-31T16:49:33.000",
    "date_modified": "2022-12-31T16:49:34.000",
    "request_status": "Pending",
    "responsible_agency": "Department of Sanitation",
    "final_address": "8506 Apricot St",
    "address_councildis": "A",
    "status": "Assigned to Contractor",
    "contractor": "Richards Disposal",
    "rowid": "958106",
    "final_x": "3664686.92685",
    "final_y": "533611.932741",
    "longitude": "-90.12109029887758",
    "latitude": "29.961747590287853",
    "geocoded_column": {
      "latitude": "29.961747590287853",
      "longitude": "-90.12109029887758"
    }
  },
  {
    "service_request": "2022-958105",
    "request_type": "Trash/Recycling",
    "request_reason": "Missed Trash Pick-Up",
    "date_created": "2022-12-31T16:45:27.000",
    "date_modified": "2022-12-31T16:45:28.000",
    "request_status": "Pending",
    "responsible_agency": "Department of Sanitation",
    "final_address": "6554 Oakland Dr",
    "address_councildis": "A",
    "status": "Assigned to Contractor",
    "contractor": "Richards Disposal",
    "rowid": "958105",
    "final_x": "3666570.83668",
    "final_y": "540400.276683",
    "longitude": "-90.11491325164026",
    "latitude": "29.98035833880614",
    "geocoded_column": {
      "latitude": "29.98035833880614",
      "longitude": "-90.11491325164026"
    }
  },
  {
    "service_request": "2022-958104",
    "request_type": "Trash/Recycling",
    "request_reason": "Illegal Dumping",
    "date_created": "2022-12-31T16:44:25.000",
    "date_modified": "2022-12-31T16:44:25.000",
    "request_status": "Pending",
    "responsible_agency": "Department of Sanitation",
    "final_address": "CLEVELAND AVE & S LOPEZ ST",
    "address_councildis": "B",
    "status": "Pending",
    "rowid": "958104",
    "final_x": "3673613.9",
    "final_y": "535897.38",
    "longitude": "-90.09282218520094",
    "latitude": "29.967769096282414",
    "geocoded_column": {
      "latitude": "29.967769096282414",
      "longitude": "-90.09282218520094"
    }
  },
  {
    "service_request": "2022-958103",
    "request_type": "Trash/Recycling",
    "request_reason": "MIssed Recycling Pick-Up",
    "date_created": "2022-12-31T16:34:40.000",
    "date_modified": "2022-12-31T16:34:41.000",
    "request_status": "Pending",
    "responsible_agency": "Department of Sanitation",
    "final_address": "7833 Fig St",
    "address_councildis": "B",
    "status": "Assigned to Contractor",
    "contractor": "Richards Disposal",
    "rowid": "958103",
    "final_x": "3666985.07553",
    "final_y": "532637.136452",
    "longitude": "-90.11386585229266",
    "latitude": "29.959000167739728",
    "geocoded_column": {
      "latitude": "29.959000167739728",
      "longitude": "-90.11386585229266"
    }
  },
  {
    "service_request": "2022-958102",
    "request_type": "Trash/Recycling",
    "request_reason": "MIssed Recycling Pick-Up",
    "date_created": "2022-12-31T16:33:29.000",
    "date_modified": "2022-12-31T16:33:30.000",
    "request_status": "Pending",
    "responsible_agency": "Department of Sanitation",
    "final_address": "1728 S Rendon St",
    "address_councildis": "B",
    "status": "Assigned to Contractor",
    "contractor": "Richards Disposal",
    "rowid": "958102",
    "final_x": "3669580.17735",
    "final_y": "530560.783554",
    "longitude": "-90.10574138784025",
    "latitude": "29.953214684543667",
    "geocoded_column": {
      "latitude": "29.953214684543667",
      "longitude": "-90.10574138784025"
    }
  },
  {
    "service_request": "2022-958101",
    "request_type": "Trash/Recycling",
    "request_reason": "Request a Large Item Pick Up",
    "date_created": "2022-12-31T16:18:39.000",
    "date_modified": "2022-12-31T16:18:40.000",
    "request_status": "Pending",
    "responsible_agency": "Department of Sanitation",
    "final_address": "25 Oriole St",
    "address_councildis": "D",
    "status": "Assigned to Contractor",
    "contractor": "IV Waste",
    "rowid": "958101",
    "final_x": "3675835.16443",
    "final_y": "556640.863898",
    "longitude": "-90.08509373500003",
    "latitude": "30.02474008994908",
    "geocoded_column": {
      "latitude": "30.02474008994908",
      "longitude": "-90.08509373500003"
    }
  },
  {
    "service_request": "2022-958100",
    "request_type": "Traffic Signals/Signs/Striping/Streetlights",
    "request_reason": "Traffic Signal Malfunctioning/Damaged",
    "date_created": "2022-12-31T16:17:23.000",
    "date_modified": "2022-12-31T16:17:24.000",
    "request_status": "Pending",
    "responsible_agency": "Department of Public Works",
    "final_address": "CHEF MENTEUR HWY & I 510 N",
    "address_councildis": "E",
    "status": "Pending",
    "rowid": "958100",
    "final_x": "3721964.4",
    "final_y": "557972.78",
    "longitude": "-89.93928382991413",
    "latitude": "30.026939914988635",
    "geocoded_column": {
      "latitude": "30.026939914988635",
      "longitude": "-89.93928382991413"
    }
  },
  {
    "service_request": "2022-958099",
    "request_type": "Trash/Recycling",
    "request_reason": "MIssed Recycling Pick-Up",
    "date_created": "2022-12-31T16:15:44.000",
    "date_modified": "2022-12-31T16:15:44.000",
    "request_status": "Pending",
    "responsible_agency": "Department of Sanitation",
    "final_address": "8237 Apricot St",
    "address_councildis": "A",
    "status": "Assigned to Contractor",
    "contractor": "Richards Disposal",
    "rowid": "958099",
    "final_x": "3665372.41389",
    "final_y": "533087.166724",
    "longitude": "-90.11894319578644",
    "latitude": "29.960284697163896",
    "geocoded_column": {
      "latitude": "29.960284697163896",
      "longitude": "-90.11894319578644"
    }
  },
  {
    "service_request": "2022-958098",
    "request_type": "Roads/Drainage",
    "request_reason": "Catch Basin - Clogged",
    "date_created": "2022-12-31T16:13:01.000",
    "date_modified": "2022-12-31T16:13:01.000",
    "request_status": "Pending",
    "responsible_agency": "Department of Public Works",
    "final_address": "4700 Magazine St",
    "address_councildis": "B",
    "status": "Pending",
    "rowid": "958098",
    "final_x": "3669867.16007",
    "final_y": "518630.644215",
    "longitude": "-90.10523896199497",
    "latitude": "29.92040219180659",
    "geocoded_column": {
      "latitude": "29.92040219180659",
      "longitude": "-90.10523896199497"
    }
  },
  {
    "service_request": "2022-958097",
    "request_type": "Trash/Recycling",
    "request_reason": "Request a Large Item Pick Up",
    "date_created": "2022-12-31T16:02:51.000",
    "date_modified": "2022-12-31T16:09:51.000",
    "request_status": "Pending",
    "responsible_agency": "Department of Sanitation",
    "final_address": "617 S Scott St",
    "address_councildis": "B",
    "status": "Assigned to Contractor",
    "contractor": "Richards Disposal",
    "rowid": "958097",
    "final_x": "3670435.98977",
    "final_y": "536126.360135",
    "longitude": "-90.10285037653694",
    "latitude": "29.968492933611227",
    "geocoded_column": {
      "latitude": "29.968492933611227",
      "longitude": "-90.10285037653694"
    }
  },
  {
    "service_request": "2022-958096",
    "request_type": "Trash/Recycling",
    "request_reason": "Missed Trash Pick-Up",
    "date_created": "2022-12-31T15:50:06.000",
    "date_modified": "2022-12-31T15:50:07.000",
    "request_status": "Pending",
    "responsible_agency": "Department of Sanitation",
    "final_address": "1 Melodia Ct",
    "address_councildis": "A",
    "status": "Assigned to Contractor",
    "contractor": "Richards Disposal",
    "rowid": "958096",
    "final_x": "3667561.92762",
    "final_y": "527062.50355",
    "longitude": "-90.11223188620897",
    "latitude": "29.94365485149482",
    "geocoded_column": {
      "latitude": "29.94365485149482",
      "longitude": "-90.11223188620897"
    }
  },
  {
    "service_request": "2022-958095",
    "request_type": "Traffic Signals/Signs/Striping/Streetlights",
    "request_reason": "Traffic Signal Malfunctioning/Damaged",
    "date_created": "2022-12-31T15:42:44.000",
    "date_modified": "2022-12-31T15:42:45.000",
    "request_status": "Pending",
    "responsible_agency": "Department of Public Works",
    "final_address": "CONVENTION CENTER BLVD & POYDRAS ST",
    "address_councildis": "B",
    "status": "Pending",
    "rowid": "958095",
    "final_x": "3682750.2",
    "final_y": "528853.18",
    "longitude": "-90.06421591259999",
    "latitude": "29.94812481281751",
    "geocoded_column": {
      "latitude": "29.94812481281751",
      "longitude": "-90.06421591259999"
    }
  },
  {
    "service_request": "2022-958094",
    "request_type": "Trash/Recycling",
    "request_reason": "Request a Large Item Pick Up",
    "date_created": "2022-12-31T15:41:52.000",
    "date_modified": "2022-12-31T15:41:53.000",
    "request_status": "Pending",
    "responsible_agency": "Department of Sanitation",
    "final_address": "3016 Wall Blvd",
    "address_councildis": "C",
    "status": "Assigned to Contractor",
    "contractor": "Richards Disposal",
    "rowid": "958094",
    "final_x": "3695242.47472",
    "final_y": "523963.241404",
    "longitude": "-90.02494921124725",
    "latitude": "29.934292807316627",
    "geocoded_column": {
      "latitude": "29.934292807316627",
      "longitude": "-90.02494921124725"
    }
  },
  {
    "service_request": "2022-958093",
    "request_type": "Property Maintenance",
    "request_reason": "Property Maintenance",
    "date_created": "2022-12-31T15:41:11.000",
    "date_modified": "2022-12-31T15:41:11.000",
    "request_status": "Pending",
    "responsible_agency": "Department of Code Enforcement",
    "final_address": "2100 St Andrew St Apt A",
    "address_councildis": "B",
    "status": "Pending",
    "rowid": "958093",
    "final_x": "3676972.43733",
    "final_y": "525668.049853",
    "longitude": "-90.08256844818295",
    "latitude": "29.939541455642104",
    "geocoded_column": {
      "latitude": "29.939541455642104",
      "longitude": "-90.08256844818295"
    }
  },
  {
    "service_request": "2022-958092",
    "request_type": "Trash/Recycling",
    "request_reason": "Missed Trash Pick-Up",
    "date_created": "2022-12-31T15:36:10.000",
    "date_modified": "2022-12-31T15:36:10.000",
    "request_status": "Pending",
    "responsible_agency": "Department of Sanitation",
    "final_address": "1443 Calhoun St",
    "address_councildis": "A",
    "status": "Assigned to Contractor",
    "contractor": "Richards Disposal",
    "rowid": "958092",
    "final_x": "3664448.56986",
    "final_y": "521930.606842",
    "longitude": "-90.12223288176175",
    "latitude": "29.9296346305856",
    "geocoded_column": {
      "latitude": "29.9296346305856",
      "longitude": "-90.12223288176175"
    }
  },
  {
    "service_request": "2022-958091",
    "request_type": "Trash/Recycling",
    "request_reason": "Missed Trash Pick-Up",
    "date_created": "2022-12-31T15:36:01.000",
    "date_modified": "2022-12-31T15:36:02.000",
    "request_status": "Pending",
    "responsible_agency": "Department of Sanitation",
    "final_address": "3636 Octavia St",
    "address_councildis": "A",
    "status": "Assigned to Contractor",
    "contractor": "Richards Disposal",
    "rowid": "958091",
    "final_x": "3668617.65089",
    "final_y": "528984.686848",
    "longitude": "-90.10883382265975",
    "latitude": "29.94890925309402",
    "geocoded_column": {
      "latitude": "29.94890925309402",
      "longitude": "-90.10883382265975"
    }
  },
  {
    "service_request": "2022-958090",
    "request_type": "Trash/Recycling",
    "request_reason": "Missed Trash Pick-Up",
    "date_created": "2022-12-31T15:35:19.000",
    "date_modified": "2022-12-31T15:35:20.000",
    "request_status": "Pending",
    "responsible_agency": "Department of Sanitation",
    "final_address": "5900 Prytania St",
    "address_councildis": "A",
    "status": "Assigned to Contractor",
    "contractor": "Richards Disposal",
    "rowid": "958090",
    "final_x": "3665543.34912",
    "final_y": "520685.251193",
    "longitude": "-90.11881851455738",
    "latitude": "29.92617843300706",
    "geocoded_column": {
      "latitude": "29.92617843300706",
      "longitude": "-90.11881851455738"
    }
  },
  {
    "service_request": "2022-958089",
    "request_type": "Trash/Recycling",
    "request_reason": "Missed Trash Pick-Up",
    "date_created": "2022-12-31T15:34:38.000",
    "date_modified": "2022-12-31T15:34:39.000",
    "request_status": "Pending",
    "responsible_agency": "Department of Sanitation",
    "final_address": "8803 Olive St",
    "address_councildis": "A",
    "status": "Assigned to Contractor",
    "contractor": "Richards Disposal",
    "rowid": "958089",
    "final_x": "3665401.99636",
    "final_y": "535901.590663",
    "longitude": "-90.11875557496711",
    "latitude": "29.9680225742866",
    "geocoded_column": {
      "latitude": "29.9680225742866",
      "longitude": "-90.11875557496711"
    }
  },
  {
    "service_request": "2022-958088",
    "request_type": "Trash/Recycling",
    "request_reason": "Missed Trash Pick-Up",
    "date_created": "2022-12-31T15:34:32.000",
    "date_modified": "2022-12-31T15:34:32.000",
    "request_status": "Pending",
    "responsible_agency": "Department of Sanitation",
    "final_address": "8803 Olive St",
    "address_councildis": "A",
    "status": "Assigned to Contractor",
    "contractor": "Richards Disposal",
    "rowid": "958088",
    "final_x": "3665401.99636",
    "final_y": "535901.590663",
    "longitude": "-90.11875557496711",
    "latitude": "29.9680225742866",
    "geocoded_column": {
      "latitude": "29.9680225742866",
      "longitude": "-90.11875557496711"
    }
  },
  {
    "service_request": "2022-958087",
    "request_type": "Trash/Recycling",
    "request_reason": "Missed Trash Pick-Up",
    "date_created": "2022-12-31T15:25:48.000",
    "date_modified": "2022-12-31T15:25:49.000",
    "request_status": "Pending",
    "responsible_agency": "Department of Sanitation",
    "final_address": "414 State St",
    "address_councildis": "A",
    "status": "Assigned to Contractor",
    "contractor": "Richards Disposal",
    "rowid": "958087",
    "final_x": "3664242.21108",
    "final_y": "517999.390262",
    "longitude": "-90.12301540756273",
    "latitude": "29.918831012768763",
    "geocoded_column": {
      "latitude": "29.918831012768763",
      "longitude": "-90.12301540756273"
    }
  },
  {
    "service_request": "2022-958085",
    "request_type": "Abandoned Vehicles",
    "request_reason": "Abandoned/Junk Vehicles",
    "date_created": "2022-12-31T15:16:05.000",
    "date_modified": "2022-12-31T15:16:05.000",
    "request_status": "Pending",
    "responsible_agency": "Department of Public Works",
    "final_address": "4700 St Ferdinand Dr",
    "address_councildis": "D",
    "status": "Pending",
    "rowid": "958085",
    "final_x": "3689298.97449",
    "final_y": "550522.989396",
    "longitude": "-90.04276821240462",
    "latitude": "30.00750803923242",
    "geocoded_column": {
      "latitude": "30.00750803923242",
      "longitude": "-90.04276821240462"
    }
  },
  {
    "service_request": "2022-958083",
    "request_type": "Trash/Recycling",
    "request_reason": "Request a Large Item Pick Up",
    "date_created": "2022-12-31T15:10:31.000",
    "date_modified": "2022-12-31T15:10:31.000",
    "request_status": "Pending",
    "responsible_agency": "Department of Sanitation",
    "final_address": "4674 Lancelot Dr",
    "address_councildis": "E",
    "status": "Assigned to Contractor",
    "contractor": "Waste Pro",
    "rowid": "958083",
    "final_x": "3707426.94552",
    "final_y": "555000.001433",
    "longitude": "-89.98533086792268",
    "latitude": "30.01924423187132",
    "geocoded_column": {
      "latitude": "30.01924423187132",
      "longitude": "-89.98533086792268"
    }
  },
  {
    "service_request": "2022-958082",
    "request_type": "Abandoned Vehicles",
    "request_reason": "Abandoned/Junk Vehicles",
    "date_created": "2022-12-31T15:03:32.000",
    "date_modified": "2022-12-31T15:03:32.000",
    "request_status": "Pending",
    "responsible_agency": "Department of Public Works",
    "final_address": "4814 St Claude Ave",
    "address_councildis": "E",
    "status": "Pending",
    "rowid": "958082",
    "final_x": "3695187.9887",
    "final_y": "534409.771909",
    "longitude": "-90.0247445860445",
    "latitude": "29.963018839771234",
    "geocoded_column": {
      "latitude": "29.963018839771234",
      "longitude": "-90.0247445860445"
    }
  },
  {
    "service_request": "2022-958081",
    "request_type": "Trash/Recycling",
    "request_reason": "Missed Trash Pick-Up",
    "date_created": "2022-12-31T15:03:19.000",
    "date_modified": "2022-12-31T15:03:19.000",
    "request_status": "Pending",
    "responsible_agency": "Department of Sanitation",
    "final_address": "745 Toledano St",
    "address_councildis": "B",
    "status": "Assigned to Contractor",
    "contractor": "Richards Disposal",
    "rowid": "958081",
    "final_x": "3675908.99841",
    "final_y": "518700.795383",
    "longitude": "-90.08616528946597",
    "latitude": "29.920415645682976",
    "geocoded_column": {
      "latitude": "29.920415645682976",
      "longitude": "-90.08616528946597"
    }
  },
  {
    "service_request": "2022-958080",
    "request_type": "Trash/Recycling",
    "request_reason": "Request a Large Item Pick Up",
    "date_created": "2022-12-31T14:59:41.000",
    "date_modified": "2022-12-31T14:59:42.000",
    "request_status": "Pending",
    "responsible_agency": "Department of Sanitation",
    "final_address": "6820 General Diaz St",
    "address_councildis": "A",
    "status": "Assigned to Contractor",
    "contractor": "IV Waste",
    "rowid": "958080",
    "final_x": "3669925.36903",
    "final_y": "552810.974038",
    "longitude": "-90.10389759736258",
    "latitude": "30.014384951202597",
    "geocoded_column": {
      "latitude": "30.014384951202597",
      "longitude": "-90.10389759736258"
    }
  },
  {
    "service_request": "2022-958079",
    "request_type": "Trash/Recycling",
    "request_reason": "Missed Trash Pick-Up",
    "date_created": "2022-12-31T14:56:39.000",
    "date_modified": "2022-12-31T14:56:39.000",
    "request_status": "Pending",
    "responsible_agency": "Department of Sanitation",
    "final_address": "726 Jefferson Ave",
    "address_councildis": "A",
    "status": "Assigned to Contractor",
    "contractor": "Richards Disposal",
    "rowid": "958079",
    "final_x": "3666509.28212",
    "final_y": "518128.005366",
    "longitude": "-90.11585510210767",
    "latitude": "29.919118624382826",
    "geocoded_column": {
      "latitude": "29.919118624382826",
      "longitude": "-90.11585510210767"
    }
  },
  {
    "service_request": "2022-958078",
    "request_type": "Trash/Recycling",
    "request_reason": "Missed Trash Pick-Up",
    "date_created": "2022-12-31T14:55:27.000",
    "date_modified": "2022-12-31T14:55:28.000",
    "request_status": "Pending",
    "responsible_agency": "Department of Sanitation",
    "final_address": "410 Henry Clay Ave",
    "address_councildis": "A",
    "status": "Assigned to Contractor",
    "contractor": "Richards Disposal",
    "rowid": "958078",
    "final_x": "3663230.28243",
    "final_y": "518379.403574",
    "longitude": "-90.12619691871355",
    "latitude": "29.91990528299333",
    "geocoded_column": {
      "latitude": "29.91990528299333",
      "longitude": "-90.12619691871355"
    }
  },
  {
    "service_request": "2022-958076",
    "request_type": "Trash/Recycling",
    "request_reason": "Missed Trash Pick-Up",
    "date_created": "2022-12-31T14:53:08.000",
    "date_modified": "2022-12-31T14:53:09.000",
    "request_status": "Pending",
    "responsible_agency": "Department of Sanitation",
    "final_address": "520 Webster St",
    "address_councildis": "A",
    "status": "Assigned to Contractor",
    "contractor": "Richards Disposal",
    "rowid": "958076",
    "final_x": "3663793.80755",
    "final_y": "518631.199863",
    "longitude": "-90.12440974998471",
    "latitude": "29.92058130825803",
    "geocoded_column": {
      "latitude": "29.92058130825803",
      "longitude": "-90.12440974998471"
    }
  },
  {
    "service_request": "2022-958075",
    "request_type": "Trash/Recycling",
    "request_reason": "Missed Trash Pick-Up",
    "date_created": "2022-12-31T14:52:53.000",
    "date_modified": "2022-12-31T14:52:53.000",
    "request_status": "Pending",
    "responsible_agency": "Department of Sanitation",
    "final_address": "636 State St, New Orleans, Louisiana, 70118",
    "address_councildis": "A",
    "status": "Assigned to Contractor",
    "contractor": "Richards Disposal",
    "rowid": "958075",
    "final_x": "3664529.68775",
    "final_y": "518875.585079",
    "longitude": "-90.1220787533461",
    "latitude": "29.92123192240745",
    "geocoded_column": {
      "latitude": "29.92123192240745",
      "longitude": "-90.1220787533461"
    }
  },
  {
    "service_request": "2022-958074",
    "request_type": "Trash/Recycling",
    "request_reason": "MIssed Recycling Pick-Up",
    "date_created": "2022-12-31T14:51:28.000",
    "date_modified": "2022-12-31T14:51:29.000",
    "request_status": "Pending",
    "responsible_agency": "Department of Sanitation",
    "final_address": "4529 S Derbigny St",
    "address_councildis": "B",
    "status": "Assigned to Contractor",
    "contractor": "Richards Disposal",
    "rowid": "958074",
    "final_x": "3669650.90228",
    "final_y": "526219.516798",
    "longitude": "-90.10566493620607",
    "latitude": "29.941275533387948",
    "geocoded_column": {
      "latitude": "29.941275533387948",
      "longitude": "-90.10566493620607"
    }
  },
  {
    "service_request": "2022-958073",
    "request_type": "Trash/Recycling",
    "request_reason": "Missed Trash Pick-Up",
    "date_created": "2022-12-31T14:42:18.000",
    "date_modified": "2022-12-31T14:42:18.000",
    "request_status": "Pending",
    "responsible_agency": "Department of Sanitation",
    "final_address": "1662 State St",
    "address_councildis": "A",
    "status": "Assigned to Contractor",
    "contractor": "Richards Disposal",
    "rowid": "958073",
    "final_x": "3665910.96052",
    "final_y": "523230.624891",
    "longitude": "-90.1175728131946",
    "latitude": "29.933166685542844",
    "geocoded_column": {
      "latitude": "29.933166685542844",
      "longitude": "-90.1175728131946"
    }
  },
  {
    "service_request": "2022-958072",
    "request_type": "Trash/Recycling",
    "request_reason": "Missed Trash Pick-Up",
    "date_created": "2022-12-31T14:41:51.000",
    "date_modified": "2022-12-31T14:41:52.000",
    "request_status": "Pending",
    "responsible_agency": "Department of Sanitation",
    "final_address": "4722 N Claiborne Ave",
    "address_councildis": "E",
    "status": "Assigned to Contractor",
    "contractor": "Waste Pro",
    "rowid": "958072",
    "final_x": "3695273.02301",
    "final_y": "536217.595591",
    "longitude": "-90.02441084546047",
    "latitude": "29.967987043168637",
    "geocoded_column": {
      "latitude": "29.967987043168637",
      "longitude": "-90.02441084546047"
    }
  },
  {
    "service_request": "2022-958071",
    "request_type": "Trash/Recycling",
    "request_reason": "MIssed Recycling Pick-Up",
    "date_created": "2022-12-31T14:37:46.000",
    "date_modified": "2022-12-31T14:37:47.000",
    "request_status": "Pending",
    "responsible_agency": "Department of Sanitation",
    "final_address": "441 Audubon St, New Orleans, Louisiana, 70118",
    "address_councildis": "A",
    "status": "Assigned to Contractor",
    "contractor": "Richards Disposal",
    "rowid": "958071",
    "final_x": "3662365.72871",
    "final_y": "523172.159099",
    "longitude": "-90.1287668705638",
    "latitude": "29.93310887776141",
    "geocoded_column": {
      "latitude": "29.93310887776141",
      "longitude": "-90.1287668705638"
    }
  },
  {
    "service_request": "2022-958070",
    "request_type": "Trash/Recycling",
    "request_reason": "Missed Trash Pick-Up",
    "date_created": "2022-12-31T14:37:45.000",
    "date_modified": "2022-12-31T14:37:46.000",
    "request_status": "Pending",
    "responsible_agency": "Department of Sanitation",
    "final_address": "1505 Shirley Dr",
    "address_councildis": "C",
    "status": "Assigned to Contractor",
    "contractor": "Richards Disposal",
    "rowid": "958070",
    "final_x": "3692976.42326",
    "final_y": "525337.103485",
    "longitude": "-90.03205377946526",
    "latitude": "29.938141411927322",
    "geocoded_column": {
      "latitude": "29.938141411927322",
      "longitude": "-90.03205377946526"
    }
  },
  {
    "service_request": "2022-958069",
    "request_type": "Trash/Recycling",
    "request_reason": "Missed Trash Pick-Up",
    "date_created": "2022-12-31T14:36:43.000",
    "date_modified": "2022-12-31T14:36:44.000",
    "request_status": "Pending",
    "responsible_agency": "Department of Sanitation",
    "final_address": "3425 Vincennes Pl",
    "address_councildis": "A",
    "status": "Assigned to Contractor",
    "contractor": "Richards Disposal",
    "rowid": "958069",
    "final_x": "3668074.73505",
    "final_y": "528736.23872",
    "longitude": "-90.11055641924116",
    "latitude": "29.94824204360276",
    "geocoded_column": {
      "latitude": "29.94824204360276",
      "longitude": "-90.11055641924116"
    }
  },
  {
    "service_request": "2022-958068",
    "request_type": "Trash/Recycling",
    "request_reason": "Missed Trash Pick-Up",
    "date_created": "2022-12-31T14:35:40.000",
    "date_modified": "2022-12-31T14:35:41.000",
    "request_status": "Pending",
    "responsible_agency": "Department of Sanitation",
    "final_address": "3425 Vincennes place ",
    "status": "Assigned to Contractor",
    "rowid": "958068",
    "longitude": "0.0",
    "latitude": "0.0",
    "geocoded_column": {
      "latitude": "0.0",
      "longitude": "0.0"
    }
  },
  {
    "service_request": "2022-958067",
    "request_type": "Trash/Recycling",
    "request_reason": "Request a Large Item Pick Up",
    "date_created": "2022-12-31T14:30:06.000",
    "date_modified": "2022-12-31T14:30:06.000",
    "request_status": "Pending",
    "responsible_agency": "Department of Sanitation",
    "final_address": "5132 Touro St",
    "address_councildis": "D",
    "status": "Assigned to Contractor",
    "contractor": "IV Waste",
    "rowid": "958067",
    "final_x": "3682920.0461",
    "final_y": "551705.322581",
    "longitude": "-90.06287963640375",
    "latitude": "30.0109550359472",
    "geocoded_column": {
      "latitude": "30.0109550359472",
      "longitude": "-90.06287963640375"
    }
  },
  {
    "service_request": "2022-958066",
    "request_type": "Trash/Recycling",
    "request_reason": "Request a Large Item Pick Up",
    "date_created": "2022-12-31T14:26:16.000",
    "date_modified": "2022-12-31T14:26:17.000",
    "request_status": "Pending",
    "responsible_agency": "Department of Sanitation",
    "final_address": "4912 Constance St",
    "address_councildis": "B",
    "status": "Assigned to Contractor",
    "contractor": "Richards Disposal",
    "rowid": "958066",
    "final_x": "3668852.29934",
    "final_y": "518168.139382",
    "longitude": "-90.10845801623154",
    "latitude": "29.919160319030162",
    "geocoded_column": {
      "latitude": "29.919160319030162",
      "longitude": "-90.10845801623154"
    }
  },
  {
    "service_request": "2022-958065",
    "request_type": "Trash/Recycling",
    "request_reason": "Missed Trash Pick-Up",
    "date_created": "2022-12-31T14:25:52.000",
    "date_modified": "2022-12-31T14:25:53.000",
    "request_status": "Pending",
    "responsible_agency": "Department of Sanitation",
    "final_address": "6100 Block of Patton St, New Orleans, Louisiana, 70118",
    "status": "Assigned to Contractor",
    "rowid": "958065",
    "longitude": "0.0",
    "latitude": "0.0",
    "geocoded_column": {
      "latitude": "0.0",
      "longitude": "0.0"
    }
  },
  {
    "service_request": "2022-958064",
    "request_type": "Trash/Recycling",
    "request_reason": "MIssed Recycling Pick-Up",
    "date_created": "2022-12-31T14:16:49.000",
    "date_modified": "2022-12-31T14:16:50.000",
    "request_status": "Pending",
    "responsible_agency": "Department of Sanitation",
    "final_address": "1107 Crete St",
    "address_councildis": "A",
    "status": "Assigned to Contractor",
    "contractor": "Richards Disposal",
    "rowid": "958064",
    "final_x": "3677602.26299",
    "final_y": "538789.560649",
    "longitude": "-90.0801269218992",
    "latitude": "29.97560227367913",
    "geocoded_column": {
      "latitude": "29.97560227367913",
      "longitude": "-90.0801269218992"
    }
  },
  {
    "service_request": "2022-958063",
    "request_type": "Trash/Recycling",
    "request_reason": "Missed Trash Pick-Up",
    "date_created": "2022-12-31T14:08:33.000",
    "date_modified": "2022-12-31T14:08:34.000",
    "request_status": "Pending",
    "responsible_agency": "Department of Sanitation",
    "final_address": "8922 Birch St",
    "address_councildis": "A",
    "status": "Assigned to Contractor",
    "contractor": "Richards Disposal",
    "rowid": "958063",
    "final_x": "3660629.22458",
    "final_y": "531437.950723",
    "longitude": "-90.13397579199582",
    "latitude": "29.955887257888474",
    "geocoded_column": {
      "latitude": "29.955887257888474",
      "longitude": "-90.13397579199582"
    }
  },
  {
    "service_request": "2022-958062",
    "request_type": "Abandoned Vehicles",
    "request_reason": "Abandoned/Junk Vehicles",
    "date_created": "2022-12-31T14:06:53.000",
    "date_modified": "2022-12-31T14:06:53.000",
    "request_status": "Pending",
    "responsible_agency": "Department of Public Works",
    "final_address": "5518 St Anthony Ave",
    "address_councildis": "D",
    "status": "Pending",
    "rowid": "958062",
    "final_x": "3682023.95663",
    "final_y": "553391.380951",
    "longitude": "-90.06565180162265",
    "latitude": "30.01561837266314",
    "geocoded_column": {
      "latitude": "30.01561837266314",
      "longitude": "-90.06565180162265"
    }
  },
  {
    "service_request": "2022-958061",
    "request_type": "Trash/Recycling",
    "request_reason": "Missed Trash Pick-Up",
    "date_created": "2022-12-31T14:05:49.000",
    "date_modified": "2022-12-31T14:05:49.000",
    "request_status": "Pending",
    "responsible_agency": "Department of Sanitation",
    "final_address": "3319 S Liberty St Apt A",
    "address_councildis": "B",
    "status": "Assigned to Contractor",
    "contractor": "Richards Disposal",
    "rowid": "958061",
    "final_x": "3673412.35502",
    "final_y": "523956.569276",
    "longitude": "-90.09386657776328",
    "latitude": "29.934941815445868",
    "geocoded_column": {
      "latitude": "29.934941815445868",
      "longitude": "-90.09386657776328"
    }
  },
  {
    "service_request": "2022-958060",
    "request_type": "Trash/Recycling",
    "request_reason": "Dead Animal Pick Up",
    "date_created": "2022-12-31T14:02:42.000",
    "date_modified": "2022-12-31T14:02:43.000",
    "request_status": "Pending",
    "responsible_agency": "Department of Sanitation",
    "final_address": "1026 N Robertson St",
    "address_councildis": "C",
    "status": "Assigned to Contractor",
    "contractor": "Richards Disposal",
    "rowid": "958060",
    "final_x": "3680917.8941",
    "final_y": "535419.30471",
    "longitude": "-90.06977262580641",
    "latitude": "29.96623510365806",
    "geocoded_column": {
      "latitude": "29.96623510365806",
      "longitude": "-90.06977262580641"
    }
  },
  {
    "service_request": "2022-958059",
    "request_type": "Trash/Recycling",
    "request_reason": "Request a Large Item Pick Up",
    "date_created": "2022-12-31T14:02:24.000",
    "date_modified": "2022-12-31T14:02:25.000",
    "request_status": "Pending",
    "responsible_agency": "Department of Sanitation",
    "final_address": "2011 Lauradale Dr",
    "address_councildis": "C",
    "status": "Assigned to Contractor",
    "contractor": "Richards Disposal",
    "rowid": "958059",
    "final_x": "3692662.45609",
    "final_y": "523854.193851",
    "longitude": "-90.0330981232581",
    "latitude": "29.934073716948518",
    "geocoded_column": {
      "latitude": "29.934073716948518",
      "longitude": "-90.0330981232581"
    }
  },
  {
    "service_request": "2022-958058",
    "request_type": "Trash/Recycling",
    "request_reason": "Missed Trash Pick-Up",
    "date_created": "2022-12-31T14:00:38.000",
    "date_modified": "2022-12-31T14:00:39.000",
    "request_status": "Pending",
    "responsible_agency": "Department of Sanitation",
    "final_address": "2223 First St",
    "address_councildis": "B",
    "status": "Assigned to Contractor",
    "contractor": "Richards Disposal",
    "rowid": "958058",
    "final_x": "3675684.1284",
    "final_y": "525176.102717",
    "longitude": "-90.08665271623158",
    "latitude": "29.938227367539067",
    "geocoded_column": {
      "latitude": "29.938227367539067",
      "longitude": "-90.08665271623158"
    }
  },
  {
    "service_request": "2022-958056",
    "request_type": "Trash/Recycling",
    "request_reason": "Missed Trash Pick-Up",
    "date_created": "2022-12-31T13:54:32.000",
    "date_modified": "2022-12-31T13:54:33.000",
    "request_status": "Pending",
    "responsible_agency": "Department of Sanitation",
    "final_address": "3320 Octavia St",
    "address_councildis": "A",
    "status": "Assigned to Contractor",
    "contractor": "Richards Disposal",
    "rowid": "958056",
    "final_x": "3668382.31681",
    "final_y": "527890.027455",
    "longitude": "-90.1096137886064",
    "latitude": "29.945906208783327",
    "geocoded_column": {
      "latitude": "29.945906208783327",
      "longitude": "-90.1096137886064"
    }
  },
  {
    "service_request": "2022-958055",
    "request_type": "Trash/Recycling",
    "request_reason": "Missed Trash Pick-Up",
    "date_created": "2022-12-31T13:53:43.000",
    "date_modified": "2022-12-31T13:53:43.000",
    "request_status": "Pending",
    "responsible_agency": "Department of Sanitation",
    "final_address": "5620 Hurst St",
    "address_councildis": "A",
    "status": "Assigned to Contractor",
    "contractor": "Richards Disposal",
    "rowid": "958055",
    "final_x": "3666489.06477",
    "final_y": "521550.081721",
    "longitude": "-90.11580414254337",
    "latitude": "29.92852884688342",
    "geocoded_column": {
      "latitude": "29.92852884688342",
      "longitude": "-90.11580414254337"
    }
  },
  {
    "service_request": "2022-958054",
    "request_type": "Trash/Recycling",
    "request_reason": "Missed Trash Pick-Up",
    "date_created": "2022-12-31T13:52:23.000",
    "date_modified": "2022-12-31T13:52:24.000",
    "request_status": "Pending",
    "responsible_agency": "Department of Sanitation",
    "final_address": "1025 State St",
    "address_councildis": "A",
    "status": "Assigned to Contractor",
    "contractor": "Richards Disposal",
    "rowid": "958054",
    "final_x": "3665018.82509",
    "final_y": "520001.34988",
    "longitude": "-90.12049714422076",
    "latitude": "29.924313196102787",
    "geocoded_column": {
      "latitude": "29.924313196102787",
      "longitude": "-90.12049714422076"
    }
  },
  {
    "service_request": "2022-958053",
    "request_type": "Trash/Recycling",
    "request_reason": "Missed Trash Pick-Up",
    "date_created": "2022-12-31T13:47:12.000",
    "date_modified": "2022-12-31T13:47:13.000",
    "request_status": "Pending",
    "responsible_agency": "Department of Sanitation",
    "final_address": "2836 Octavia St, New Orleans, Louisiana, 70115",
    "address_councildis": "A",
    "status": "Assigned to Contractor",
    "contractor": "Richards Disposal",
    "rowid": "958053",
    "final_x": "3667970.57748",
    "final_y": "525998.136701",
    "longitude": "-90.1109775148086",
    "latitude": "29.940716205485018",
    "geocoded_column": {
      "latitude": "29.940716205485018",
      "longitude": "-90.1109775148086"
    }
  },
  {
    "service_request": "2022-958052",
    "request_type": "Traffic Signals/Signs/Striping/Streetlights",
    "request_reason": "Traffic Sign Missing/Damaged",
    "date_created": "2022-12-31T13:43:02.000",
    "date_modified": "2022-12-31T13:43:03.000",
    "request_status": "Pending",
    "responsible_agency": "Department of Public Works",
    "final_address": "1750 Robert C. Blakes, Sr. Dr",
    "address_councildis": "B",
    "status": "Pending",
    "rowid": "958052",
    "final_x": "3678302.5851",
    "final_y": "524895.734332",
    "longitude": "-90.07839569530879",
    "latitude": "29.937377852003916",
    "geocoded_column": {
      "latitude": "29.937377852003916",
      "longitude": "-90.07839569530879"
    }
  },
  {
    "service_request": "2022-958051",
    "request_type": "Trash/Recycling",
    "request_reason": "MIssed Recycling Pick-Up",
    "date_created": "2022-12-31T13:40:14.000",
    "date_modified": "2022-12-31T13:40:15.000",
    "request_status": "Pending",
    "responsible_agency": "Department of Sanitation",
    "final_address": "1439 Lauradale Dr",
    "address_councildis": "C",
    "status": "Assigned to Contractor",
    "contractor": "Richards Disposal",
    "rowid": "958051",
    "final_x": "3692740.88809",
    "final_y": "525857.318589",
    "longitude": "-90.03277874110708",
    "latitude": "29.93957917825145",
    "geocoded_column": {
      "latitude": "29.93957917825145",
      "longitude": "-90.03277874110708"
    }
  },
  {
    "service_request": "2022-958050",
    "request_type": "Trash/Recycling",
    "request_reason": "Order Recycling Cart",
    "date_created": "2022-12-31T13:40:07.000",
    "date_modified": "2022-12-31T13:40:07.000",
    "request_status": "Pending",
    "responsible_agency": "Department of Sanitation",
    "final_address": "13669 N Lemans St",
    "address_councildis": "E",
    "status": "Pending",
    "rowid": "958050",
    "final_x": "3726239.95417",
    "final_y": "563482.614432",
    "longitude": "-89.92555979759683",
    "latitude": "30.041945971797663",
    "geocoded_column": {
      "latitude": "30.041945971797663",
      "longitude": "-89.92555979759683"
    }
  },
  {
    "service_request": "2022-958049",
    "request_type": "Roads/Drainage",
    "request_reason": "Street Flooding / Drainage",
    "date_created": "2022-12-31T13:39:22.000",
    "date_modified": "2022-12-31T13:39:22.000",
    "request_status": "Pending",
    "responsible_agency": "Department of Public Works",
    "final_address": "3560 Rue Colette",
    "address_councildis": "C",
    "status": "Pending",
    "rowid": "958049",
    "final_x": "3704587.35927",
    "final_y": "517324.702325",
    "longitude": "-89.9956925881836",
    "latitude": "29.915742421506817",
    "geocoded_column": {
      "latitude": "29.915742421506817",
      "longitude": "-89.9956925881836"
    }
  },
  {
    "service_request": "2022-958048",
    "request_type": "Trash/Recycling",
    "request_reason": "Missed Trash Pick-Up",
    "date_created": "2022-12-31T13:37:30.000",
    "date_modified": "2022-12-31T13:37:31.000",
    "request_status": "Pending",
    "responsible_agency": "Department of Sanitation",
    "final_address": "1439 Lauradale Dr",
    "address_councildis": "C",
    "status": "Assigned to Contractor",
    "contractor": "Richards Disposal",
    "rowid": "958048",
    "final_x": "3692740.88809",
    "final_y": "525857.318589",
    "longitude": "-90.03277874110708",
    "latitude": "29.93957917825145",
    "geocoded_column": {
      "latitude": "29.93957917825145",
      "longitude": "-90.03277874110708"
    }
  },
  {
    "service_request": "2022-958047",
    "request_type": "Trash/Recycling",
    "request_reason": "Missed Trash Pick-Up",
    "date_created": "2022-12-31T13:35:14.000",
    "date_modified": "2022-12-31T13:35:15.000",
    "request_status": "Pending",
    "responsible_agency": "Department of Sanitation",
    "final_address": "802 Henry Clay Ave",
    "address_councildis": "A",
    "status": "Assigned to Contractor",
    "contractor": "Richards Disposal",
    "rowid": "958047",
    "final_x": "3663755.33261",
    "final_y": "519649.212088",
    "longitude": "-90.12449729744243",
    "latitude": "29.923381640178146",
    "geocoded_column": {
      "latitude": "29.923381640178146",
      "longitude": "-90.12449729744243"
    }
  },
  {
    "service_request": "2022-958046",
    "request_type": "Trash/Recycling",
    "request_reason": "MIssed Recycling Pick-Up",
    "date_created": "2022-12-31T13:33:42.000",
    "date_modified": "2022-12-31T13:33:43.000",
    "request_status": "Pending",
    "responsible_agency": "Department of Sanitation",
    "final_address": "7509 Saint Charles Ave",
    "status": "Assigned to Contractor",
    "rowid": "958046",
    "longitude": "0.0",
    "latitude": "0.0",
    "geocoded_column": {
      "latitude": "0.0",
      "longitude": "0.0"
    }
  },
  {
    "service_request": "2022-958045",
    "request_type": "Trash/Recycling",
    "request_reason": "Missed Trash Pick-Up",
    "date_created": "2022-12-31T13:31:34.000",
    "date_modified": "2022-12-31T13:31:35.000",
    "request_status": "Pending",
    "responsible_agency": "Department of Sanitation",
    "final_address": "2824 Calhoun St",
    "address_councildis": "A",
    "status": "Assigned to Contractor",
    "contractor": "Richards Disposal",
    "rowid": "958045",
    "final_x": "3666618.59533",
    "final_y": "527138.943231",
    "longitude": "-90.11520768200867",
    "latitude": "29.943892644482503",
    "geocoded_column": {
      "latitude": "29.943892644482503",
      "longitude": "-90.11520768200867"
    }
  },
  {
    "service_request": "2022-958044",
    "request_type": "Trash/Recycling",
    "request_reason": "Missed Trash Pick-Up",
    "date_created": "2022-12-31T13:29:06.000",
    "date_modified": "2022-12-31T13:29:06.000",
    "request_status": "Pending",
    "responsible_agency": "Department of Sanitation",
    "final_address": "2437 Second St",
    "address_councildis": "B",
    "status": "Assigned to Contractor",
    "contractor": "Richards Disposal",
    "rowid": "958044",
    "final_x": "3674970.83669",
    "final_y": "525723.641405",
    "longitude": "-90.08888587387925",
    "latitude": "29.93975423959803",
    "geocoded_column": {
      "latitude": "29.93975423959803",
      "longitude": "-90.08888587387925"
    }
  },
  {
    "service_request": "2022-958043",
    "request_type": "Roads/Drainage",
    "request_reason": "Street Subsidence (Sinking)",
    "date_created": "2022-12-31T13:27:54.000",
    "date_modified": "2022-12-31T13:29:39.000",
    "request_status": "Pending",
    "responsible_agency": "Department of Public Works",
    "final_address": "900 Ursulines ",
    "address_councildis": "C",
    "rowid": "958043",
    "final_x": "3682726.65846",
    "final_y": "534179.605313",
    "longitude": "-90.06410395589953",
    "latitude": "29.962771387852243",
    "geocoded_column": {
      "latitude": "29.962771387852243",
      "longitude": "-90.06410395589953"
    }
  },
  {
    "service_request": "2022-958042",
    "request_type": "Property Maintenance",
    "request_reason": "Property Maintenance",
    "date_created": "2022-12-31T13:21:40.000",
    "date_modified": "2022-12-31T13:21:40.000",
    "request_status": "Pending",
    "responsible_agency": "Department of Code Enforcement",
    "final_address": "3216 N Claiborne Ave",
    "address_councildis": "D",
    "status": "Pending",
    "rowid": "958042",
    "final_x": "3690182.50384",
    "final_y": "537652.184968",
    "longitude": "-90.04043571076336",
    "latitude": "29.972090570087378",
    "geocoded_column": {
      "latitude": "29.972090570087378",
      "longitude": "-90.04043571076336"
    }
  },
  {
    "service_request": "2022-958041",
    "request_type": "Property Maintenance",
    "request_reason": "Property Maintenance",
    "date_created": "2022-12-31T13:20:55.000",
    "date_modified": "2022-12-31T13:20:55.000",
    "request_status": "Pending",
    "responsible_agency": "Department of Code Enforcement",
    "final_address": "3229 N Claiborne Ave",
    "address_councildis": "D",
    "status": "Pending",
    "rowid": "958041",
    "final_x": "3690229.63696",
    "final_y": "537714.372744",
    "longitude": "-90.04028464078587",
    "latitude": "29.97226010211065",
    "geocoded_column": {
      "latitude": "29.97226010211065",
      "longitude": "-90.04028464078587"
    }
  },
  {
    "service_request": "2022-958040",
    "request_type": "Trash/Recycling",
    "request_reason": "MIssed Recycling Pick-Up",
    "date_created": "2022-12-31T13:12:59.000",
    "date_modified": "2022-12-31T13:12:59.000",
    "request_status": "Pending",
    "responsible_agency": "Department of Sanitation",
    "final_address": "908 Fern St",
    "address_councildis": "A",
    "status": "Assigned to Contractor",
    "contractor": "Richards Disposal",
    "rowid": "958040",
    "final_x": "3661854.66298",
    "final_y": "527171.849215",
    "longitude": "-90.13024770251916",
    "latitude": "29.944121521820318",
    "geocoded_column": {
      "latitude": "29.944121521820318",
      "longitude": "-90.13024770251916"
    }
  },
  {
    "service_request": "2022-958039",
    "request_type": "Abandoned Vehicles",
    "request_reason": "Abandoned/Junk Vehicles",
    "date_created": "2022-12-31T13:11:38.000",
    "date_modified": "2022-12-31T13:11:39.000",
    "request_status": "Pending",
    "responsible_agency": "Department of Public Works",
    "final_address": "2108 Annette St",
    "address_councildis": "D",
    "status": "Pending",
    "rowid": "958039",
    "final_x": "3682819.46325",
    "final_y": "539907.538954",
    "longitude": "-90.06361045422472",
    "latitude": "29.978518396006407",
    "geocoded_column": {
      "latitude": "29.978518396006407",
      "longitude": "-90.06361045422472"
    }
  },
  {
    "service_request": "2022-958037",
    "request_type": "Trash/Recycling",
    "request_reason": "Request a Large Item Pick Up",
    "date_created": "2022-12-31T13:07:56.000",
    "date_modified": "2022-12-31T13:07:57.000",
    "request_status": "Pending",
    "responsible_agency": "Department of Sanitation",
    "final_address": "6000 BLK Charlotte Dr",
    "address_councildis": "D",
    "status": "Assigned to Contractor",
    "contractor": "IV Waste",
    "rowid": "958037",
    "final_x": "3679865.54837",
    "final_y": "554928.173068",
    "longitude": "-90.07241795283468",
    "latitude": "30.019909475301823",
    "geocoded_column": {
      "latitude": "30.019909475301823",
      "longitude": "-90.07241795283468"
    }
  },
  {
    "service_request": "2022-958036",
    "request_type": "Trash/Recycling",
    "request_reason": "Missed Trash Pick-Up",
    "date_created": "2022-12-31T13:05:33.000",
    "date_modified": "2022-12-31T13:05:34.000",
    "request_status": "Pending",
    "responsible_agency": "Department of Sanitation",
    "final_address": "2600 BLK First St",
    "address_councildis": "B",
    "status": "Assigned to Contractor",
    "contractor": "Richards Disposal",
    "rowid": "958036",
    "final_x": "3674863.77556",
    "final_y": "526367.963456",
    "longitude": "-90.08920179436288",
    "latitude": "29.941529110644534",
    "geocoded_column": {
      "latitude": "29.941529110644534",
      "longitude": "-90.08920179436288"
    }
  },
  {
    "service_request": "2022-958035",
    "request_type": "Trash/Recycling",
    "request_reason": "Request a Large Item Pick Up",
    "date_created": "2022-12-31T13:04:43.000",
    "date_modified": "2022-12-31T13:04:44.000",
    "request_status": "Pending",
    "responsible_agency": "Department of Sanitation",
    "final_address": "8200 Pritchard Pl",
    "address_councildis": "A",
    "status": "Assigned to Contractor",
    "contractor": "Richards Disposal",
    "rowid": "958035",
    "final_x": "3665752.14464",
    "final_y": "533116.953476",
    "longitude": "-90.11774308261475",
    "latitude": "29.960355529525483",
    "geocoded_column": {
      "latitude": "29.960355529525483",
      "longitude": "-90.11774308261475"
    }
  },
  {
    "service_request": "2022-958034",
    "request_type": "Trash/Recycling",
    "request_reason": "Missed Trash Pick-Up",
    "date_created": "2022-12-31T12:54:49.000",
    "date_modified": "2022-12-31T12:54:50.000",
    "request_status": "Pending",
    "responsible_agency": "Department of Sanitation",
    "final_address": "1311 S Gayoso St",
    "address_councildis": "B",
    "status": "Assigned to Contractor",
    "contractor": "Richards Disposal",
    "rowid": "958034",
    "final_x": "3671000.4962",
    "final_y": "531198.921474",
    "longitude": "-90.10123495736056",
    "latitude": "29.954927436514144",
    "geocoded_column": {
      "latitude": "29.954927436514144",
      "longitude": "-90.10123495736056"
    }
  },
  {
    "service_request": "2022-958033",
    "request_type": "Trash/Recycling",
    "request_reason": "Order Recycling Cart",
    "date_created": "2022-12-31T12:51:14.000",
    "date_modified": "2022-12-31T12:51:14.000",
    "request_status": "Pending",
    "responsible_agency": "Department of Sanitation",
    "final_address": "2121 Piety St",
    "address_councildis": "D",
    "status": "Pending",
    "rowid": "958033",
    "final_x": "3690852.12547",
    "final_y": "539725.169738",
    "longitude": "-90.03824694725257",
    "latitude": "29.97776975081894",
    "geocoded_column": {
      "latitude": "29.97776975081894",
      "longitude": "-90.03824694725257"
    }
  },
  {
    "service_request": "2022-958032",
    "request_type": "Trash/Recycling",
    "request_reason": "Missed Trash Pick-Up",
    "date_created": "2022-12-31T12:51:09.000",
    "date_modified": "2022-12-31T12:51:10.000",
    "request_status": "Pending",
    "responsible_agency": "Department of Sanitation",
    "final_address": "2416 Second St",
    "address_councildis": "B",
    "status": "Assigned to Contractor",
    "contractor": "Richards Disposal",
    "rowid": "958032",
    "final_x": "3674989.52885",
    "final_y": "525554.864701",
    "longitude": "-90.08883264732633",
    "latitude": "29.939289600747628",
    "geocoded_column": {
      "latitude": "29.939289600747628",
      "longitude": "-90.08883264732633"
    }
  },
  {
    "service_request": "2022-958031",
    "request_type": "Trash/Recycling",
    "request_reason": "Replace Trash Cart",
    "date_created": "2022-12-31T12:49:14.000",
    "date_modified": "2022-12-31T12:49:14.000",
    "request_status": "Pending",
    "responsible_agency": "Department of Sanitation",
    "final_address": "2121 Piety St",
    "address_councildis": "D",
    "status": "Assigned to Contractor",
    "contractor": "IV Waste",
    "rowid": "958031",
    "final_x": "3690852.12547",
    "final_y": "539725.169738",
    "longitude": "-90.03824694725257",
    "latitude": "29.97776975081894",
    "geocoded_column": {
      "latitude": "29.97776975081894",
      "longitude": "-90.03824694725257"
    }
  },
  {
    "service_request": "2022-958030",
    "request_type": "Trash/Recycling",
    "request_reason": "Missed Trash Pick-Up",
    "date_created": "2022-12-31T12:46:44.000",
    "date_modified": "2022-12-31T12:46:45.000",
    "request_status": "Pending",
    "responsible_agency": "Department of Sanitation",
    "final_address": "1022 Octavia St",
    "address_councildis": "A",
    "status": "Assigned to Contractor",
    "contractor": "Richards Disposal",
    "rowid": "958030",
    "final_x": "3666609.30413",
    "final_y": "519807.799416",
    "longitude": "-90.11548302775535",
    "latitude": "29.923734607461967",
    "geocoded_column": {
      "latitude": "29.923734607461967",
      "longitude": "-90.11548302775535"
    }
  },
  {
    "service_request": "2022-958029",
    "request_type": "Trash/Recycling",
    "request_reason": "MIssed Recycling Pick-Up",
    "date_created": "2022-12-31T12:44:45.000",
    "date_modified": "2022-12-31T12:44:45.000",
    "request_status": "Pending",
    "responsible_agency": "Department of Sanitation",
    "final_address": "6479 Colbert St",
    "address_councildis": "A",
    "status": "Assigned to Contractor",
    "contractor": "IV Waste",
    "rowid": "958029",
    "final_x": "3667813.36084",
    "final_y": "550739.410773",
    "longitude": "-90.11064036020993",
    "latitude": "30.00875101887176",
    "geocoded_column": {
      "latitude": "30.00875101887176",
      "longitude": "-90.11064036020993"
    }
  },
  {
    "service_request": "2022-958028",
    "request_type": "Trash/Recycling",
    "request_reason": "Missed Trash Pick-Up",
    "date_created": "2022-12-31T12:43:28.000",
    "date_modified": "2022-12-31T12:43:29.000",
    "request_status": "Pending",
    "responsible_agency": "Department of Sanitation",
    "final_address": "6479 Colbert St",
    "address_councildis": "A",
    "status": "Assigned to Contractor",
    "contractor": "IV Waste",
    "rowid": "958028",
    "final_x": "3667813.36084",
    "final_y": "550739.410773",
    "longitude": "-90.11064036020993",
    "latitude": "30.00875101887176",
    "geocoded_column": {
      "latitude": "30.00875101887176",
      "longitude": "-90.11064036020993"
    }
  },
  {
    "service_request": "2022-958027",
    "request_type": "Trash/Recycling",
    "request_reason": "Request a Large Item Pick Up",
    "date_created": "2022-12-31T12:35:46.000",
    "date_modified": "2022-12-31T12:35:47.000",
    "request_status": "Pending",
    "responsible_agency": "Department of Sanitation",
    "final_address": "5320 Eads St",
    "address_councildis": "D",
    "status": "Assigned to Contractor",
    "contractor": "IV Waste",
    "rowid": "958027",
    "final_x": "3686929.71298",
    "final_y": "552726.989654",
    "longitude": "-90.05017539539818",
    "latitude": "30.01364139474673",
    "geocoded_column": {
      "latitude": "30.01364139474673",
      "longitude": "-90.05017539539818"
    }
  },
  {
    "service_request": "2022-958026",
    "request_type": "Trash/Recycling",
    "request_reason": "Missed Trash Pick-Up",
    "date_created": "2022-12-31T12:34:57.000",
    "date_modified": "2022-12-31T12:34:58.000",
    "request_status": "Pending",
    "responsible_agency": "Department of Sanitation",
    "final_address": "7306 Oak St",
    "address_councildis": "A",
    "status": "Assigned to Contractor",
    "contractor": "Richards Disposal",
    "rowid": "958026",
    "final_x": "3663841.24608",
    "final_y": "526661.634558",
    "longitude": "-90.12399247638186",
    "latitude": "29.942661091798858",
    "geocoded_column": {
      "latitude": "29.942661091798858",
      "longitude": "-90.12399247638186"
    }
  },
  {
    "service_request": "2022-958025",
    "request_type": "Roads/Drainage",
    "request_reason": "WaterMain Break",
    "date_created": "2022-12-31T12:34:54.000",
    "date_modified": "2022-12-31T12:34:54.000",
    "request_status": "Closed",
    "responsible_agency": "Department of Public Works",
    "final_address": "3308 Palmyra St",
    "address_councildis": "B",
    "status": "Invalid Case",
    "rowid": "958025",
    "final_x": "3672966.28404",
    "final_y": "535808.907911",
    "longitude": "-90.09487039838098",
    "latitude": "29.967545090427706",
    "geocoded_column": {
      "latitude": "29.967545090427706",
      "longitude": "-90.09487039838098"
    }
  },
  {
    "service_request": "2022-958024",
    "request_type": "Trash/Recycling",
    "request_reason": "Missed Trash Pick-Up",
    "date_created": "2022-12-31T12:34:43.000",
    "date_modified": "2022-12-31T12:34:44.000",
    "request_status": "Pending",
    "responsible_agency": "Department of Sanitation",
    "final_address": "6065 Tchoupitoulas St",
    "address_councildis": "A",
    "status": "Assigned to Contractor",
    "contractor": "Richards Disposal",
    "rowid": "958024",
    "final_x": "3663678.66151",
    "final_y": "517736.940278",
    "longitude": "-90.1248029862518",
    "latitude": "29.91812571265639",
    "geocoded_column": {
      "latitude": "29.91812571265639",
      "longitude": "-90.1248029862518"
    }
  },
  {
    "service_request": "2022-958023",
    "request_type": "Trash/Recycling",
    "request_reason": "Missed Trash Pick-Up",
    "date_created": "2022-12-31T12:29:04.000",
    "date_modified": "2022-12-31T12:29:05.000",
    "request_status": "Pending",
    "responsible_agency": "Department of Sanitation",
    "final_address": "1015 Louisiana Ave",
    "address_councildis": "B",
    "status": "Assigned to Contractor",
    "contractor": "Richards Disposal",
    "rowid": "958023",
    "final_x": "3675199.70267",
    "final_y": "519448.536567",
    "longitude": "-90.08837856136961",
    "latitude": "29.922492902670886",
    "geocoded_column": {
      "latitude": "29.922492902670886",
      "longitude": "-90.08837856136961"
    }
  },
  {
    "service_request": "2022-958022",
    "request_type": "Trash/Recycling",
    "request_reason": "MIssed Recycling Pick-Up",
    "date_created": "2022-12-31T12:07:12.000",
    "date_modified": "2022-12-31T12:07:12.000",
    "request_status": "Pending",
    "responsible_agency": "Department of Sanitation",
    "final_address": "2925 Robert St",
    "address_councildis": "B",
    "status": "Assigned to Contractor",
    "contractor": "Richards Disposal",
    "rowid": "958022",
    "final_x": "3668983.09524",
    "final_y": "526234.729662",
    "longitude": "-90.10777282265109",
    "latitude": "29.941337020766696",
    "geocoded_column": {
      "latitude": "29.941337020766696",
      "longitude": "-90.10777282265109"
    }
  },
  {
    "service_request": "2022-958021",
    "request_type": "Trash/Recycling",
    "request_reason": "Missed Trash Pick-Up",
    "date_created": "2022-12-31T12:03:01.000",
    "date_modified": "2022-12-31T12:03:02.000",
    "request_status": "Pending",
    "responsible_agency": "Department of Sanitation",
    "final_address": "2612 S Claiborne Ave",
    "address_councildis": "B",
    "status": "Assigned to Contractor",
    "contractor": "Richards Disposal",
    "rowid": "958021",
    "final_x": "3673627.90958",
    "final_y": "526875.10195",
    "longitude": "-90.09308634398779",
    "latitude": "29.942960414774642",
    "geocoded_column": {
      "latitude": "29.942960414774642",
      "longitude": "-90.09308634398779"
    }
  },
  {
    "service_request": "2022-958020",
    "request_type": "Trash/Recycling",
    "request_reason": "Missed Trash Pick-Up",
    "date_created": "2022-12-31T12:03:00.000",
    "date_modified": "2022-12-31T12:03:01.000",
    "request_status": "Pending",
    "responsible_agency": "Department of Sanitation",
    "final_address": "2612 S Claiborne Ave",
    "address_councildis": "B",
    "status": "Assigned to Contractor",
    "contractor": "Richards Disposal",
    "rowid": "958020",
    "final_x": "3673627.90958",
    "final_y": "526875.10195",
    "longitude": "-90.09308634398779",
    "latitude": "29.942960414774642",
    "geocoded_column": {
      "latitude": "29.942960414774642",
      "longitude": "-90.09308634398779"
    }
  },
  {
    "service_request": "2022-958019",
    "request_type": "Roads/Drainage",
    "request_reason": "Debris in Roadway",
    "date_created": "2022-12-31T12:02:49.000",
    "date_modified": "2022-12-31T12:02:50.000",
    "request_status": "Pending",
    "responsible_agency": "Department of Public Works",
    "final_address": "1800 BLK N Claiborne Ave",
    "address_councildis": "D",
    "status": "Pending",
    "rowid": "958019",
    "final_x": "3683548.18077",
    "final_y": "538036.216038",
    "longitude": "-90.06137450728811",
    "latitude": "29.97335068707077",
    "geocoded_column": {
      "latitude": "29.97335068707077",
      "longitude": "-90.06137450728811"
    }
  },
  {
    "service_request": "2022-958018",
    "request_type": "Trash/Recycling",
    "request_reason": "MIssed Recycling Pick-Up",
    "date_created": "2022-12-31T11:54:47.000",
    "date_modified": "2022-12-31T11:54:48.000",
    "request_status": "Pending",
    "responsible_agency": "Department of Sanitation",
    "final_address": "7046 Camp St",
    "address_councildis": "A",
    "status": "Assigned to Contractor",
    "contractor": "Richards Disposal",
    "rowid": "958018",
    "final_x": "3661167.12211",
    "final_y": "521337.579385",
    "longitude": "-90.13261150046407",
    "latitude": "29.928098950716247",
    "geocoded_column": {
      "latitude": "29.928098950716247",
      "longitude": "-90.13261150046407"
    }
  },
  {
    "service_request": "2022-958017",
    "request_type": "Trash/Recycling",
    "request_reason": "Missed Trash Pick-Up",
    "date_created": "2022-12-31T11:50:48.000",
    "date_modified": "2022-12-31T11:50:49.000",
    "request_status": "Pending",
    "responsible_agency": "Department of Sanitation",
    "final_address": "6325 York St",
    "address_councildis": "A",
    "status": "Assigned to Contractor",
    "contractor": "Richards Disposal",
    "rowid": "958017",
    "final_x": "3667418.18778",
    "final_y": "529241.238977",
    "longitude": "-90.11261242875403",
    "latitude": "29.949649878864143",
    "geocoded_column": {
      "latitude": "29.949649878864143",
      "longitude": "-90.11261242875403"
    }
  },
  {
    "service_request": "2022-958016",
    "request_type": "Roads/Drainage",
    "request_reason": "Pothole",
    "date_created": "2022-12-31T11:50:34.000",
    "date_modified": "2022-12-31T11:50:34.000",
    "request_status": "Pending",
    "responsible_agency": "Department of Public Works",
    "final_address": "7038 Milne Blvd",
    "address_councildis": "A",
    "status": "Pending",
    "rowid": "958016",
    "final_x": "3667599.45057",
    "final_y": "554356.155928",
    "longitude": "-90.1111943012857",
    "latitude": "30.01870207170555",
    "geocoded_column": {
      "latitude": "30.01870207170555",
      "longitude": "-90.1111943012857"
    }
  },
  {
    "service_request": "2022-958015",
    "request_type": "Trash/Recycling",
    "request_reason": "Replace Trash Cart",
    "date_created": "2022-12-31T11:49:11.000",
    "date_modified": "2022-12-31T11:49:11.000",
    "request_status": "Pending",
    "responsible_agency": "Department of Sanitation",
    "final_address": "6311 Rhodes Ave",
    "address_councildis": "C",
    "status": "Assigned to Contractor",
    "contractor": "Richards Disposal",
    "rowid": "958015",
    "final_x": "3707450.86814",
    "final_y": "519335.281079",
    "longitude": "-89.98657974991833",
    "latitude": "29.92117858647133",
    "geocoded_column": {
      "latitude": "29.92117858647133",
      "longitude": "-89.98657974991833"
    }
  },
  {
    "service_request": "2022-958014",
    "request_type": "Trash/Recycling",
    "request_reason": "MIssed Recycling Pick-Up",
    "date_created": "2022-12-31T11:47:15.000",
    "date_modified": "2022-12-31T11:47:16.000",
    "request_status": "Pending",
    "responsible_agency": "Department of Sanitation",
    "final_address": "1312 Fern St",
    "address_councildis": "A",
    "status": "Assigned to Contractor",
    "contractor": "Richards Disposal",
    "rowid": "958014",
    "final_x": "3662822.9792",
    "final_y": "528227.44544",
    "longitude": "-90.12715535903098",
    "latitude": "29.946996082372866",
    "geocoded_column": {
      "latitude": "29.946996082372866",
      "longitude": "-90.12715535903098"
    }
  },
  {
    "service_request": "2022-958013",
    "request_type": "Trash/Recycling",
    "request_reason": "Order Recycling Cart",
    "date_created": "2022-12-31T11:46:37.000",
    "date_modified": "2022-12-31T11:46:37.000",
    "request_status": "Pending",
    "responsible_agency": "Department of Sanitation",
    "final_address": "20 Cypress Grove Ct",
    "address_councildis": "C",
    "status": "Pending",
    "rowid": "958013",
    "final_x": "3704837.72004",
    "final_y": "512083.627697",
    "longitude": "-89.99509556492976",
    "latitude": "29.90132322044202",
    "geocoded_column": {
      "latitude": "29.90132322044202",
      "longitude": "-89.99509556492976"
    }
  },
  {
    "service_request": "2022-958012",
    "request_type": "Roads/Drainage",
    "request_reason": "Pothole",
    "date_created": "2022-12-31T11:40:37.000",
    "date_modified": "2022-12-31T11:40:37.000",
    "request_status": "Pending",
    "responsible_agency": "Department of Public Works",
    "final_address": "2931 St Thomas St",
    "address_councildis": "B",
    "status": "Pending",
    "rowid": "958012",
    "final_x": "3677395.83694",
    "final_y": "518901.021623",
    "longitude": "-90.08146513097275",
    "latitude": "29.92092162089272",
    "geocoded_column": {
      "latitude": "29.92092162089272",
      "longitude": "-90.08146513097275"
    }
  },
  {
    "service_request": "2022-958011",
    "request_type": "Trash/Recycling",
    "request_reason": "MIssed Recycling Pick-Up",
    "date_created": "2022-12-31T11:39:26.000",
    "date_modified": "2022-12-31T11:39:27.000",
    "request_status": "Pending",
    "responsible_agency": "Department of Sanitation",
    "final_address": "1618 Dublin St",
    "address_councildis": "A",
    "status": "Assigned to Contractor",
    "contractor": "Richards Disposal",
    "rowid": "958011",
    "final_x": "3662720.02336",
    "final_y": "529796.128769",
    "longitude": "-90.12742830486165",
    "latitude": "29.95131243708717",
    "geocoded_column": {
      "latitude": "29.95131243708717",
      "longitude": "-90.12742830486165"
    }
  },
  {
    "service_request": "2022-958010",
    "request_type": "Trash/Recycling",
    "request_reason": "Missed Trash Pick-Up",
    "date_created": "2022-12-31T11:38:57.000",
    "date_modified": "2022-12-31T11:38:58.000",
    "request_status": "Pending",
    "responsible_agency": "Department of Sanitation",
    "final_address": "2237 Octavia St",
    "address_councildis": "A",
    "status": "Assigned to Contractor",
    "contractor": "Richards Disposal",
    "rowid": "958010",
    "final_x": "3667624.30241",
    "final_y": "524006.437692",
    "longitude": "-90.11213778543795",
    "latitude": "29.93524982542993",
    "geocoded_column": {
      "latitude": "29.93524982542993",
      "longitude": "-90.11213778543795"
    }
  },
  {
    "service_request": "2022-958009",
    "request_type": "Trash/Recycling",
    "request_reason": "Missed Trash Pick-Up",
    "date_created": "2022-12-31T11:37:05.000",
    "date_modified": "2022-12-31T11:37:05.000",
    "request_status": "Pending",
    "responsible_agency": "Department of Sanitation",
    "final_address": "1241 Constance St",
    "address_councildis": "B",
    "status": "Assigned to Contractor",
    "contractor": "Richards Disposal",
    "rowid": "958009",
    "final_x": "3680888.57999",
    "final_y": "525219.218237",
    "longitude": "-90.0702202832014",
    "latitude": "29.938189195610676",
    "geocoded_column": {
      "latitude": "29.938189195610676",
      "longitude": "-90.0702202832014"
    }
  },
  {
    "service_request": "2022-958008",
    "request_type": "Trash/Recycling",
    "request_reason": "Illegal Dumping",
    "date_created": "2022-12-31T11:36:33.000",
    "date_modified": "2022-12-31T11:36:33.000",
    "request_status": "Pending",
    "responsible_agency": "Department of Sanitation",
    "final_address": "2931 St Thomas St",
    "address_councildis": "B",
    "status": "Pending",
    "rowid": "958008",
    "final_x": "3677395.83694",
    "final_y": "518901.021623",
    "longitude": "-90.08146513097275",
    "latitude": "29.92092162089272",
    "geocoded_column": {
      "latitude": "29.92092162089272",
      "longitude": "-90.08146513097275"
    }
  },
  {
    "service_request": "2022-958007",
    "request_type": "Trash/Recycling",
    "request_reason": "Missed Trash Pick-Up",
    "date_created": "2022-12-31T11:36:15.000",
    "date_modified": "2022-12-31T11:36:15.000",
    "request_status": "Pending",
    "responsible_agency": "Department of Sanitation",
    "final_address": "1239 Constance St",
    "address_councildis": "B",
    "status": "Assigned to Contractor",
    "contractor": "Richards Disposal",
    "rowid": "958007",
    "final_x": "3680891.55976",
    "final_y": "525230.147517",
    "longitude": "-90.07021049543229",
    "latitude": "29.938219157181614",
    "geocoded_column": {
      "latitude": "29.938219157181614",
      "longitude": "-90.07021049543229"
    }
  },
  {
    "service_request": "2022-958006",
    "request_type": "Trash/Recycling",
    "request_reason": "Missed Trash Pick-Up",
    "date_created": "2022-12-31T11:34:53.000",
    "date_modified": "2022-12-31T11:34:53.000",
    "request_status": "Pending",
    "responsible_agency": "Department of Sanitation",
    "final_address": "1310 State St",
    "address_councildis": "A",
    "status": "Assigned to Contractor",
    "contractor": "Richards Disposal",
    "rowid": "958006",
    "final_x": "3665176.10893",
    "final_y": "520950.159353",
    "longitude": "-90.11996893590921",
    "latitude": "29.926917545026498",
    "geocoded_column": {
      "latitude": "29.926917545026498",
      "longitude": "-90.11996893590921"
    }
  },
  {
    "service_request": "2022-958005",
    "request_type": "Parks & Parkways",
    "request_reason": "Request Tree Service (Right of Way/Public Property)",
    "date_created": "2022-12-31T11:32:25.000",
    "date_modified": "2022-12-31T11:32:26.000",
    "request_status": "Pending",
    "responsible_agency": "Department of Parks & Parkway",
    "final_address": "1614 Bodenger Blvd",
    "address_councildis": "C",
    "status": "Pending",
    "rowid": "958005",
    "final_x": "3688547.00105",
    "final_y": "525701.207485",
    "longitude": "-90.04602491371398",
    "latitude": "29.939280147727743",
    "geocoded_column": {
      "latitude": "29.939280147727743",
      "longitude": "-90.04602491371398"
    }
  },
  {
    "service_request": "2022-958004",
    "request_type": "Trash/Recycling",
    "request_reason": "Missed Trash Pick-Up",
    "date_created": "2022-12-31T11:28:45.000",
    "date_modified": "2022-12-31T11:28:46.000",
    "request_status": "Pending",
    "responsible_agency": "Department of Sanitation",
    "final_address": "5420 S Robertson St",
    "address_councildis": "A",
    "status": "Assigned to Contractor",
    "contractor": "Richards Disposal",
    "rowid": "958004",
    "final_x": "3667795.11777",
    "final_y": "524298.60326",
    "longitude": "-90.1115886849281",
    "latitude": "29.936048180285372",
    "geocoded_column": {
      "latitude": "29.936048180285372",
      "longitude": "-90.1115886849281"
    }
  },
  {
    "service_request": "2022-958003",
    "request_type": "Trash/Recycling",
    "request_reason": "MIssed Recycling Pick-Up",
    "date_created": "2022-12-31T11:27:36.000",
    "date_modified": "2022-12-31T11:27:36.000",
    "request_status": "Pending",
    "responsible_agency": "Department of Sanitation",
    "final_address": "1512 Audubon St",
    "address_councildis": "A",
    "status": "Assigned to Contractor",
    "contractor": "Richards Disposal",
    "rowid": "958003",
    "final_x": "3665060.85274",
    "final_y": "527354.346751",
    "longitude": "-90.12011872023237",
    "latitude": "29.9445303779126",
    "geocoded_column": {
      "latitude": "29.9445303779126",
      "longitude": "-90.12011872023237"
    }
  },
  {
    "service_request": "2022-958002",
    "request_type": "Trash/Recycling",
    "request_reason": "MIssed Recycling Pick-Up",
    "date_created": "2022-12-31T11:26:53.000",
    "date_modified": "2022-12-31T11:29:13.000",
    "request_status": "Pending",
    "responsible_agency": "Department of Sanitation",
    "final_address": "2016 Broadway St",
    "address_councildis": "A",
    "status": "Assigned to Contractor",
    "contractor": "Richards Disposal",
    "rowid": "958002",
    "final_x": "3665793.53312",
    "final_y": "529007.625472",
    "longitude": "-90.11775004832693",
    "latitude": "29.94905500935149",
    "geocoded_column": {
      "latitude": "29.94905500935149",
      "longitude": "-90.11775004832693"
    }
  },
  {
    "service_request": "2022-958001",
    "request_type": "Trash/Recycling",
    "request_reason": "Request a Large Item Pick Up",
    "date_created": "2022-12-31T11:25:54.000",
    "date_modified": "2022-12-31T11:25:55.000",
    "request_status": "Pending",
    "responsible_agency": "Department of Sanitation",
    "final_address": "326 S Cortez St",
    "address_councildis": "A",
    "status": "Assigned to Contractor",
    "contractor": "Richards Disposal",
    "rowid": "958001",
    "final_x": "3671480.62951",
    "final_y": "536756.164552",
    "longitude": "-90.0995299266907",
    "latitude": "29.970193796810985",
    "geocoded_column": {
      "latitude": "29.970193796810985",
      "longitude": "-90.0995299266907"
    }
  },
  {
    "service_request": "2022-958000",
    "request_type": "Trash/Recycling",
    "request_reason": "Missed Trash Pick-Up",
    "date_created": "2022-12-31T11:22:33.000",
    "date_modified": "2022-12-31T11:22:34.000",
    "request_status": "Pending",
    "responsible_agency": "Department of Sanitation",
    "final_address": "6100 BLK Pitt St",
    "address_councildis": "A",
    "status": "Assigned to Contractor",
    "contractor": "Richards Disposal",
    "rowid": "958000",
    "final_x": "3664684.20308",
    "final_y": "521403.547532",
    "longitude": "-90.12150662296786",
    "latitude": "29.92817853346125",
    "geocoded_column": {
      "latitude": "29.92817853346125",
      "longitude": "-90.12150662296786"
    }
  },
  {
    "service_request": "2022-957999",
    "request_type": "Trash/Recycling",
    "request_reason": "Missed Trash Pick-Up",
    "date_created": "2022-12-31T11:22:20.000",
    "date_modified": "2022-12-31T11:22:20.000",
    "request_status": "Pending",
    "responsible_agency": "Department of Sanitation",
    "final_address": "1021 Henry Clay Ave",
    "address_councildis": "A",
    "status": "Assigned to Contractor",
    "contractor": "Richards Disposal",
    "rowid": "957999",
    "final_x": "3664156.70228",
    "final_y": "520320.188152",
    "longitude": "-90.12320795011891",
    "latitude": "29.92521496487658",
    "geocoded_column": {
      "latitude": "29.92521496487658",
      "longitude": "-90.12320795011891"
    }
  },
  {
    "service_request": "2022-957998",
    "request_type": "Trash/Recycling",
    "request_reason": "Missed Trash Pick-Up",
    "date_created": "2022-12-31T11:17:14.000",
    "date_modified": "2022-12-31T11:17:15.000",
    "request_status": "Pending",
    "responsible_agency": "Department of Sanitation",
    "final_address": "1207 Josephine St",
    "address_councildis": "B",
    "status": "Assigned to Contractor",
    "contractor": "Richards Disposal",
    "rowid": "957998",
    "final_x": "3678920.16443",
    "final_y": "522681.56953",
    "longitude": "-90.07652262843074",
    "latitude": "29.931271014602547",
    "geocoded_column": {
      "latitude": "29.931271014602547",
      "longitude": "-90.07652262843074"
    }
  },
  {
    "service_request": "2022-957997",
    "request_type": "Trash/Recycling",
    "request_reason": "Missed Trash Pick-Up",
    "date_created": "2022-12-31T11:16:08.000",
    "date_modified": "2022-12-31T11:16:09.000",
    "request_status": "Pending",
    "responsible_agency": "Department of Sanitation",
    "final_address": "915 Louisiana Ave",
    "address_councildis": "B",
    "status": "Assigned to Contractor",
    "contractor": "Richards Disposal",
    "rowid": "957997",
    "final_x": "3675388.89077",
    "final_y": "519119.493303",
    "longitude": "-90.087792660594",
    "latitude": "29.921582486144608",
    "geocoded_column": {
      "latitude": "29.921582486144608",
      "longitude": "-90.087792660594"
    }
  },
  {
    "service_request": "2022-957996",
    "request_type": "Roads/Drainage",
    "request_reason": "Street Subsidence (Sinking)",
    "date_created": "2022-12-31T11:13:37.000",
    "date_modified": "2022-12-31T11:13:37.000",
    "request_status": "Pending",
    "responsible_agency": "Department of Public Works",
    "final_address": "PRENTISS AVE & WARRINGTON DR",
    "address_councildis": "D",
    "status": "Pending",
    "rowid": "957996",
    "final_x": "3680828.4",
    "final_y": "553626.38",
    "longitude": "-90.06942102283878",
    "latitude": "30.016300849525358",
    "geocoded_column": {
      "latitude": "30.016300849525358",
      "longitude": "-90.06942102283878"
    }
  },