[
  {
    "service_request": "2025-1176415",
    "request_type": "Streetlights",
    "request_reason": "Streetlight Outage/Malfunction",
    "date_created": "2025-03-17T23:59:02.000",
    "date_modified": "2025-03-17T23:59:04.000",
    "request_status": "Pending",
    "responsible_agency": "Department of Public Works",
    "final_address": "S BROAD ST OVERPASS & EARHART BLVD",
    "address_councildis": "B",
    "status": "Pending",
    "contractor": "Legacy Professional Services",
    "rowid": "1176415",
    "final_x": "3672611.27",
    "final_y": "531305.48",
    "longitude": "-90.09614509967831",
    "latitude": "29.955172713765666",
    "geocoded_column": {
      "latitude": "29.955172713765666",
      "longitude": "-90.09614509967831"
    }
  },
  {
    "service_request": "2025-1176414",
    "request_type": "Road Striping",
    "request_reason": "Lane Striping or other Pavement Markings",
    "date_created": "2025-03-17T23:19:29.000",
    "date_modified": "2025-03-17T23:19:31.000",
    "request_status": "Pending",
    "responsible_agency": "Department of Public Works",
    "final_address": "HAYNE BLVD & CROWDER BLVD",
    "address_councildis": "E",
    "status": "Pending",
    "rowid": "1176414",
    "final_x": "3702618.5",
    "final_y": "563229.08",
    "longitude": "-90.00022129608212",
    "latitude": "30.042025665825655",
    "geocoded_column": {
      "latitude": "30.042025665825655",
      "longitude": "-90.00022129608212"
    }
  },
  {
    "service_request": "2025-1176413",
    "request_type": "Streetlights",
    "request_reason": "New Streetlight Request",
    "date_created": "2025-03-17T22:53:21.000",
    "date_modified": "2025-03-17T22:53:22.000",
    "request_status": "Pending",
    "responsible_agency": "Department of Public Works",
    "final_address": "13860 Lincoln Beach Blvd",
    "address_councildis": "E",
    "status": "Pending",
    "contractor": "Legacy Professional Services",
    "rowid": "1176413",
    "final_x": "3717237.21656",
    "final_y": "572692.990633",
    "longitude": "-89.95366102155593",
    "latitude": "30.06757175932031",
    "geocoded_column": {
      "latitude": "30.06757175932031",
      "longitude": "-89.95366102155593"
    }
  },
  {
    "service_request": "2025-1176412",
    "request_type": "Trash/Recycling",
    "request_reason": "MIssed Recycling Pick-Up",
    "date_created": "2025-03-17T22:51:53.000",
    "date_modified": "2025-03-17T22:51:54.000",
    "request_status": "Pending",
    "responsible_agency": "Department of Sanitation",
    "final_address": "4355 General Meyer Ave",
    "address_councildis": "C",
    "status": "Assigned to Contractor",
    "contractor": "Richards Disposal",
    "rowid": "1176412",
    "final_x": "3699953.95274",
    "final_y": "524186.90854",
    "longitude": "-90.01006716171995",
    "latitude": "29.934759046262933",
    "geocoded_column": {
      "latitude": "29.934759046262933",
      "longitude": "-90.01006716171995"
    }
  },
  {
    "service_request": "2025-1176411",
    "request_type": "Health Related Request",
    "request_reason": "Noise Ordinance Complaint",
    "date_created": "2025-03-17T22:49:53.000",
    "date_modified": "2025-03-17T22:49:56.000",
    "request_status": "Pending",
    "responsible_agency": "Health Department",
    "final_address": "3919 N Johnson St",
    "address_councildis": "D",
    "status": "Pending",
    "rowid": "1176411",
    "final_x": "3692501.31305",
    "final_y": "538766.345545",
    "longitude": "-90.03307262951074",
    "latitude": "29.975081969812056",
    "geocoded_column": {
      "latitude": "29.975081969812056",
      "longitude": "-90.03307262951074"
    }
  },
  {
    "service_request": "2025-1176410",
    "request_type": "Trash/Recycling",
    "request_reason": "Repair Trash Cart",
    "date_created": "2025-03-17T22:43:35.000",
    "date_modified": "2025-03-17T22:43:37.000",
    "request_status": "Pending",
    "responsible_agency": "Department of Sanitation",
    "final_address": "725 N Rendon St",
    "address_councildis": "A",
    "status": "Assigned to Contractor",
    "contractor": "IV Waste",
    "rowid": "1176410",
    "final_x": "3675053.2875",
    "final_y": "538429.177097",
    "longitude": "-90.08818966898437",
    "latitude": "29.974687751093512",
    "geocoded_column": {
      "latitude": "29.974687751093512",
      "longitude": "-90.08818966898437"
    }
  },
  {
    "service_request": "2025-1176409",
    "request_type": "Trash/Recycling",
    "request_reason": "Order Recycling Cart",
    "date_created": "2025-03-17T22:42:18.000",
    "date_modified": "2025-03-17T22:42:20.000",
    "request_status": "Pending",
    "responsible_agency": "Department of Sanitation",
    "final_address": "725 N Rendon St",
    "address_councildis": "A",
    "status": "Pending",
    "rowid": "1176409",
    "final_x": "3675053.2875",
    "final_y": "538429.177097",
    "longitude": "-90.08818966898437",
    "latitude": "29.974687751093512",
    "geocoded_column": {
      "latitude": "29.974687751093512",
      "longitude": "-90.08818966898437"
    }
  },
  {
    "service_request": "2025-1176408",
    "request_type": "Streetlights",
    "request_reason": "Streetlight Outage/Malfunction",
    "date_created": "2025-03-17T22:36:41.000",
    "date_modified": "2025-03-17T22:36:42.000",
    "request_status": "Pending",
    "responsible_agency": "Department of Public Works",
    "final_address": "8000 BLK Vincent Rd",
    "address_councildis": "E",
    "status": "Pending",
    "contractor": "Legacy Professional Services",
    "rowid": "1176408",
    "final_x": "3717570.92735",
    "final_y": "572594.100334",
    "longitude": "-89.95260987807359",
    "latitude": "30.067288799979945",
    "geocoded_column": {
      "latitude": "30.067288799979945",
      "longitude": "-89.95260987807359"
    }
  },
  {
    "service_request": "2025-1176407",
    "request_type": "Streetlights",
    "request_reason": "Streetlight Outage/Malfunction",
    "date_created": "2025-03-17T22:28:18.000",
    "date_modified": "2025-03-17T22:28:19.000",
    "request_status": "Pending",
    "responsible_agency": "Department of Public Works",
    "final_address": "6151 West End Blvd",
    "address_councildis": "A",
    "status": "Pending",
    "contractor": "Legacy Professional Services",
    "rowid": "1176407",
    "final_x": "3666626.43572",
    "final_y": "548768.056467",
    "longitude": "-90.11445650896938",
    "latitude": "30.00336525097256",
    "geocoded_column": {
      "latitude": "30.00336525097256",
      "longitude": "-90.11445650896938"
    }
  },
  {
    "service_request": "2025-1176406",
    "request_type": "Streetlights",
    "request_reason": "Streetlight Outage/Malfunction",
    "date_created": "2025-03-17T22:27:26.000",
    "date_modified": "2025-03-17T22:27:27.000",
    "request_status": "Pending",
    "responsible_agency": "Department of Public Works",
    "final_address": "8000 BLK Vincent Rd",
    "address_councildis": "E",
    "status": "Pending",
    "contractor": "Legacy Professional Services",
    "rowid": "1176406",
    "final_x": "3717570.92735",
    "final_y": "572594.100334",
    "longitude": "-89.95260987807359",
    "latitude": "30.067288799979945",
    "geocoded_column": {
      "latitude": "30.067288799979945",
      "longitude": "-89.95260987807359"
    }
  },
  {
    "service_request": "2025-1176405",
    "request_type": "Utility Poles",
    "request_reason": "Wires Sagging/Hanging Low",
    "date_created": "2025-03-17T21:48:08.000",
    "date_modified": "2025-03-17T21:48:11.000",
    "request_status": "Pending",
    "responsible_agency": "Utility Company Collective",
    "final_address": "2021 Josephine St",
    "address_councildis": "B",
    "status": "Pending",
    "rowid": "1176405",
    "final_x": "3676854.43323",
    "final_y": "525376.169981",
    "longitude": "-90.08295105912926",
    "latitude": "29.938742423355016",
    "geocoded_column": {
      "latitude": "29.938742423355016",
      "longitude": "-90.08295105912926"
    }
  },
  {
    "service_request": "2025-1176404",
    "request_type": "General Services",
    "request_reason": "General Service Request",
    "date_created": "2025-03-17T21:30:22.000",
    "date_modified": "2025-03-17T21:30:25.000",
    "request_status": "Pending",
    "responsible_agency": "Orleans Parish Communication District",
    "final_address": "1 Mandeville St",
    "address_councildis": "C",
    "status": "Pending",
    "rowid": "1176404",
    "final_x": "3686066.73346",
    "final_y": "534470.852997",
    "longitude": "-90.05354618255517",
    "latitude": "29.963470065109224",
    "geocoded_column": {
      "latitude": "29.963470065109224",
      "longitude": "-90.05354618255517"
    }
  },
  {
    "service_request": "2025-1176403",
    "request_type": "Trash/Recycling",
    "request_reason": "Request a Large Item Pick Up",
    "date_created": "2025-03-17T21:24:54.000",
    "date_modified": "2025-03-17T21:24:56.000",
    "request_status": "Pending",
    "responsible_agency": "Department of Sanitation",
    "final_address": "5515 N Robertson St",
    "address_councildis": "E",
    "status": "Assigned to Contractor",
    "contractor": "Waste Pro",
    "rowid": "1176403",
    "final_x": "3698273.78224",
    "final_y": "535358.126726",
    "longitude": "-90.01496562721007",
    "latitude": "29.965529216295362",
    "geocoded_column": {
      "latitude": "29.965529216295362",
      "longitude": "-90.01496562721007"
    }
  },
  {
    "service_request": "2025-1176402",
    "request_type": "Streetlights",
    "request_reason": "Streetlight Outage/Malfunction",
    "date_created": "2025-03-17T21:03:26.000",
    "date_modified": "2025-03-17T21:03:27.000",
    "request_status": "Pending",
    "responsible_agency": "Department of Public Works",
    "final_address": "714 Desire St",
    "address_councildis": "C",
    "status": "Pending",
    "contractor": "Legacy Professional Services",
    "rowid": "1176402",
    "final_x": "3689802.97321",
    "final_y": "534359.198277",
    "longitude": "-90.04175155275912",
    "latitude": "29.9630477815007",
    "geocoded_column": {
      "latitude": "29.9630477815007",
      "longitude": "-90.04175155275912"
    }
  },
  {
    "service_request": "2025-1176401",
    "request_type": "Trash/Recycling",
    "request_reason": "Request a Large Item Pick Up",
    "date_created": "2025-03-17T20:52:21.000",
    "date_modified": "2025-03-17T20:52:23.000",
    "request_status": "Pending",
    "responsible_agency": "Department of Sanitation",
    "final_address": "4029 Annunciation St",
    "address_councildis": "B",
    "status": "Assigned to Contractor",
    "contractor": "IV Waste",
    "rowid": "1176401",
    "final_x": "3672370.17691",
    "final_y": "517910.071286",
    "longitude": "-90.09736263250755",
    "latitude": "29.918346842793554",
    "geocoded_column": {
      "latitude": "29.918346842793554",
      "longitude": "-90.09736263250755"
    }
  },
  {
    "service_request": "2025-1176400",
    "request_type": "Trash/Recycling",
    "request_reason": "Request a Large Item Pick Up",
    "date_created": "2025-03-17T20:48:07.000",
    "date_modified": "2025-03-17T20:48:09.000",
    "request_status": "Pending",
    "responsible_agency": "Department of Sanitation",
    "final_address": "35 Honeysuckle Ln",
    "address_councildis": "E",
    "status": "Assigned to Contractor",
    "contractor": "Waste Pro",
    "rowid": "1176400",
    "final_x": "3713024.20478",
    "final_y": "568411.211237",
    "longitude": "-89.96714039497594",
    "latitude": "30.05593743804322",
    "geocoded_column": {
      "latitude": "30.05593743804322",
      "longitude": "-89.96714039497594"
    }
  },
  {
    "service_request": "2025-1176398",
    "request_type": "Trash/Recycling",
    "request_reason": "Request a Large Item Pick Up",
    "date_created": "2025-03-17T19:14:19.000",
    "date_modified": "2025-03-17T19:14:23.000",
    "request_status": "Pending",
    "responsible_agency": "Department of Sanitation",
    "final_address": "1222 St Andrew St",
    "address_councildis": "B",
    "status": "Assigned to Contractor",
    "contractor": "IV Waste",
    "rowid": "1176398",
    "final_x": "3679129.71458",
    "final_y": "522995.037563",
    "longitude": "-90.07585024511599",
    "latitude": "29.932126627179628",
    "geocoded_column": {
      "latitude": "29.932126627179628",
      "longitude": "-90.07585024511599"
    }
  },
  {
    "service_request": "2025-1176397",
    "request_type": "Trash/Recycling",
    "request_reason": "Request a Large Item Pick Up",
    "date_created": "2025-03-17T19:09:39.000",
    "date_modified": "2025-03-17T19:09:41.000",
    "request_status": "Pending",
    "responsible_agency": "Department of Sanitation",
    "final_address": "7543 Briarwood Dr",
    "address_councildis": "E",
    "status": "Assigned to Contractor",
    "contractor": "Waste Pro",
    "rowid": "1176397",
    "final_x": "3717793.49893",
    "final_y": "570602.851111",
    "longitude": "-89.95198218213788",
    "latitude": "30.06180632014306",
    "geocoded_column": {
      "latitude": "30.06180632014306",
      "longitude": "-89.95198218213788"
    }
  },
  {
    "service_request": "2025-1176396",
    "request_type": "Healthy Homes",
    "request_reason": "Healthy Homes",
    "date_created": "2025-03-17T19:07:39.000",
    "date_modified": "2025-03-17T19:07:41.000",
    "request_status": "Pending",
    "responsible_agency": "Department of Code Enforcement",
    "final_address": "3306 Delachaise St",
    "address_councildis": "B",
    "status": "Pending",
    "rowid": "1176396",
    "final_x": "3671504.92091",
    "final_y": "527134.490367",
    "longitude": "-90.09978033482088",
    "latitude": "29.943736662295535",
    "geocoded_column": {
      "latitude": "29.943736662295535",
      "longitude": "-90.09978033482088"
    }
  },
  {
    "service_request": "2025-1176395",
    "request_type": "Trash/Recycling",
    "request_reason": "Request a Large Item Pick Up",
    "date_created": "2025-03-17T19:07:00.000",
    "date_modified": "2025-03-17T19:07:03.000",
    "request_status": "Pending",
    "responsible_agency": "Department of Sanitation",
    "final_address": "7906 Gannon Rd",
    "address_councildis": "E",
    "status": "Assigned to Contractor",
    "contractor": "Waste Pro",
    "rowid": "1176395",
    "final_x": "3715735.47999",
    "final_y": "570631.729895",
    "longitude": "-89.95848642437443",
    "latitude": "30.061953782332942",
    "geocoded_column": {
      "latitude": "30.061953782332942",
      "longitude": "-89.95848642437443"
    }
  },
  {
    "service_request": "2025-1176394",
    "request_type": "Street and Traffic Signs",
    "request_reason": "One Way Sign Missing or Damaged",
    "date_created": "2025-03-17T18:33:40.000",
    "date_modified": "2025-03-17T18:33:42.000",
    "request_status": "Pending",
    "responsible_agency": "Department of Public Works",
    "final_address": "GIROD ST & S RAMPART ST",
    "address_councildis": "B",
    "status": "Pending",
    "rowid": "1176394",
    "final_x": "3679135.6",
    "final_y": "528875.88",
    "longitude": "-90.07562788839684",
    "latitude": "29.948296817611222",
    "geocoded_column": {
      "latitude": "29.948296817611222",
      "longitude": "-90.07562788839684"
    }
  },
  {
    "service_request": "2025-1176393",
    "request_type": "Drainage",
    "request_reason": "Catch Basin Clogged",
    "date_created": "2025-03-17T18:29:29.000",
    "date_modified": "2025-03-17T18:29:31.000",
    "request_status": "Pending",
    "responsible_agency": "Sewerage & Water Board ",
    "final_address": "814 N Galvez St",
    "address_councildis": "D",
    "status": "Pending",
    "rowid": "1176393",
    "final_x": "3678678.8676",
    "final_y": "536046.883271",
    "longitude": "-90.07682169425036",
    "latitude": "29.968028431226124",
    "geocoded_column": {
      "latitude": "29.968028431226124",
      "longitude": "-90.07682169425036"
    }
  },
  {
    "service_request": "2025-1176392",
    "request_type": "Drainage",
    "request_reason": "Catch Basin Clogged",
    "date_created": "2025-03-17T18:28:43.000",
    "date_modified": "2025-03-17T18:28:44.000",
    "request_status": "Pending",
    "responsible_agency": "Sewerage & Water Board ",
    "final_address": "828 N Galvez St",
    "address_councildis": "D",
    "status": "Pending",
    "rowid": "1176392",
    "final_x": "3678741.89378",
    "final_y": "536120.197895",
    "longitude": "-90.07662011591162",
    "latitude": "29.968228120853862",
    "geocoded_column": {
      "latitude": "29.968228120853862",
      "longitude": "-90.07662011591162"
    }
  },
  {
    "service_request": "2025-1176391",
    "request_type": "Property Maintenance",
    "request_reason": "Property Maintenance",
    "date_created": "2025-03-17T18:27:47.000",
    "date_modified": "2025-03-17T18:27:49.000",
    "request_status": "Pending",
    "responsible_agency": "Department of Code Enforcement",
    "final_address": "820 N Galvez St",
    "address_councildis": "D",
    "status": "Pending",
    "rowid": "1176391",
    "final_x": "3678710.10338",
    "final_y": "536084.224391",
    "longitude": "-90.0767217572554",
    "latitude": "29.968130164679877",
    "geocoded_column": {
      "latitude": "29.968130164679877",
      "longitude": "-90.0767217572554"
    }
  },
  {
    "service_request": "2025-1176390",
    "request_type": "Property Maintenance",
    "request_reason": "Property Maintenance",
    "date_created": "2025-03-17T18:26:37.000",
    "date_modified": "2025-03-17T18:26:39.000",
    "request_status": "Pending",
    "responsible_agency": "Department of Code Enforcement",
    "final_address": "820 N Galvez St",
    "address_councildis": "D",
    "status": "Pending",
    "rowid": "1176390",
    "final_x": "3678710.10338",
    "final_y": "536084.224391",
    "longitude": "-90.0767217572554",
    "latitude": "29.968130164679877",
    "geocoded_column": {
      "latitude": "29.968130164679877",
      "longitude": "-90.0767217572554"
    }
  },
  {
    "service_request": "2025-1176389",
    "request_type": "Trash/Recycling",
    "request_reason": "Order Recycling Cart",
    "date_created": "2025-03-17T18:06:32.000",
    "date_modified": "2025-03-17T18:06:33.000",
    "request_status": "Pending",
    "responsible_agency": "Department of Sanitation",
    "final_address": "333 Belleville St Apt 1A",
    "address_councildis": "C",
    "status": "Pending",
    "rowid": "1176389",
    "final_x": "3687826.23734",
    "final_y": "530514.588354",
    "longitude": "-90.04813000310209",
    "latitude": "29.95253755052771",
    "geocoded_column": {
      "latitude": "29.95253755052771",
      "longitude": "-90.04813000310209"
    }
  },
  {
    "service_request": "2025-1176388",
    "request_type": "Trash/Recycling",
    "request_reason": "Replace Trash Cart",
    "date_created": "2025-03-17T18:02:41.000",
    "date_modified": "2025-03-17T18:02:43.000",
    "request_status": "Pending",
    "responsible_agency": "Department of Sanitation",
    "final_address": "333 Belleville St Apt 1A",
    "address_councildis": "C",
    "status": "Assigned to Contractor",
    "contractor": "Richards Disposal",
    "rowid": "1176388",
    "final_x": "3687826.23734",
    "final_y": "530514.588354",
    "longitude": "-90.04813000310209",
    "latitude": "29.95253755052771",
    "geocoded_column": {
      "latitude": "29.95253755052771",
      "longitude": "-90.04813000310209"
    }
  },
  {
    "service_request": "2025-1176387",
    "request_type": "Trash/Recycling",
    "request_reason": "Request a Large Item Pick Up",
    "date_created": "2025-03-17T18:02:29.000",
    "date_modified": "2025-03-17T18:02:30.000",
    "request_status": "Pending",
    "responsible_agency": "Department of Sanitation",
    "final_address": "1212 Deslonde St",
    "address_councildis": "E",
    "status": "Assigned to Contractor",
    "contractor": "Waste Pro",
    "rowid": "1176387",
    "final_x": "3695428.91549",
    "final_y": "534951.821766",
    "longitude": "-90.02396421232473",
    "latitude": "29.96450171713659",
    "geocoded_column": {
      "latitude": "29.96450171713659",
      "longitude": "-90.02396421232473"
    }
  },
  {
    "service_request": "2025-1176386",
    "request_type": "Trash/Recycling",
    "request_reason": "Request a Large Item Pick Up",
    "date_created": "2025-03-17T17:57:32.000",
    "date_modified": "2025-03-17T17:57:39.000",
    "request_status": "Pending",
    "responsible_agency": "Department of Sanitation",
    "final_address": "6331 St Claude Ave",
    "address_councildis": "E",
    "status": "Assigned to Contractor",
    "contractor": "Waste Pro",
    "rowid": "1176386",
    "final_x": "3700406.77463",
    "final_y": "533049.03034",
    "longitude": "-90.00831409527996",
    "latitude": "29.959112374565688",
    "geocoded_column": {
      "latitude": "29.959112374565688",
      "longitude": "-90.00831409527996"
    }
  },
  {
    "service_request": "2025-1176385",
    "request_type": "Roads and Streets",
    "request_reason": "Debris in Driving Lanes",
    "date_created": "2025-03-17T17:53:30.000",
    "date_modified": "2025-03-17T17:53:32.000",
    "request_status": "Pending",
    "responsible_agency": "Department of Public Works",
    "final_address": "5978 General Diaz St",
    "address_councildis": "A",
    "status": "Pending",
    "rowid": "1176385",
    "final_x": "3669423.63694",
    "final_y": "547133.175761",
    "longitude": "-90.10567502644442",
    "latitude": "29.998787784854745",
    "geocoded_column": {
      "latitude": "29.998787784854745",
      "longitude": "-90.10567502644442"
    }
  },
  {
    "service_request": "2025-1176384",
    "request_type": "Streetlights",
    "request_reason": "Streetlight Outage/Malfunction",
    "date_created": "2025-03-17T17:45:20.000",
    "date_modified": "2025-03-17T17:45:21.000",
    "request_status": "Pending",
    "responsible_agency": "Department of Public Works",
    "final_address": "9 Tennyson Pl",
    "address_councildis": "C",
    "status": "Pending",
    "contractor": "Legacy Professional Services",
    "rowid": "1176384",
    "final_x": "3704830.2931",
    "final_y": "517427.244406",
    "longitude": "-89.99492202165032",
    "latitude": "29.916016576643006",
    "geocoded_column": {
      "latitude": "29.916016576643006",
      "longitude": "-89.99492202165032"
    }
  },
  {
    "service_request": "2025-1176383",
    "request_type": "Roads and Streets",
    "request_reason": "Street Subsidence (Sinking)",
    "date_created": "2025-03-17T17:36:16.000",
    "date_modified": "2025-03-17T17:36:18.000",
    "request_status": "Pending",
    "responsible_agency": "Department of Public Works",
    "final_address": "6511 Foch Rd",
    "address_councildis": "D",
    "status": "Pending",
    "rowid": "1176383",
    "final_x": "3697165.13571",
    "final_y": "555106.877017",
    "longitude": "-90.01775062306739",
    "latitude": "30.01986605106768",
    "geocoded_column": {
      "latitude": "30.01986605106768",
      "longitude": "-90.01775062306739"
    }
  },
  {
    "service_request": "2025-1176382",
    "request_type": "Abandoned Vehicles",
    "request_reason": "Abandoned/Junk Vehicles",
    "date_created": "2025-03-17T17:35:22.000",
    "date_modified": "2025-03-17T17:35:23.000",
    "request_status": "Pending",
    "responsible_agency": "Department of Public Works",
    "final_address": "623 Washington Ave",
    "address_councildis": "B",
    "status": "Pending",
    "rowid": "1176382",
    "final_x": "3677995.58504",
    "final_y": "519488.621047",
    "longitude": "-90.07955170252094",
    "latitude": "29.92251929838362",
    "geocoded_column": {
      "latitude": "29.92251929838362",
      "longitude": "-90.07955170252094"
    }
  },
  {
    "service_request": "2025-1176381",
    "request_type": "Abandoned Vehicles",
    "request_reason": "Abandoned/Junk Vehicles",
    "date_created": "2025-03-17T17:35:03.000",
    "date_modified": "2025-03-17T17:35:04.000",
    "request_status": "Pending",
    "responsible_agency": "Department of Public Works",
    "final_address": "623 Washington Ave",
    "address_councildis": "B",
    "status": "Pending",
    "rowid": "1176381",
    "final_x": "3677995.58504",
    "final_y": "519488.621047",
    "longitude": "-90.07955170252094",
    "latitude": "29.92251929838362",
    "geocoded_column": {
      "latitude": "29.92251929838362",
      "longitude": "-90.07955170252094"
    }
  },
  {
    "service_request": "2025-1176380",
    "request_type": "Parks & Parkways",
    "request_reason": "Park Maintenance/Clean Up",
    "date_created": "2025-03-17T17:31:52.000",
    "date_modified": "2025-03-17T17:31:54.000",
    "request_status": "Pending",
    "responsible_agency": "Department of Parks & Parkway",
    "final_address": "4 Charlotte Dr",
    "address_councildis": "D",
    "status": "Pending",
    "rowid": "1176380",
    "final_x": "3680332.59106",
    "final_y": "551300.610837",
    "longitude": "-90.0710685135254",
    "latitude": "30.009920853717215",
    "geocoded_column": {
      "latitude": "30.009920853717215",
      "longitude": "-90.0710685135254"
    }
  },
  {
    "service_request": "2025-1176379",
    "request_type": "Abandoned Vehicles",
    "request_reason": "Abandoned/Junk Vehicles",
    "date_created": "2025-03-17T17:22:19.000",
    "date_modified": "2025-03-17T17:22:20.000",
    "request_status": "Pending",
    "responsible_agency": "Department of Public Works",
    "final_address": "6600 BLK Foch Rd",
    "address_councildis": "D",
    "status": "Pending",
    "rowid": "1176379",
    "final_x": "3696819.32581",
    "final_y": "555856.296868",
    "longitude": "-90.01881610005027",
    "latitude": "30.02193758413625",
    "geocoded_column": {
      "latitude": "30.02193758413625",
      "longitude": "-90.01881610005027"
    }
  },
  {
    "service_request": "2025-1176378",
    "request_type": "Street and Traffic Signs",
    "request_reason": "Street Name Sign Damaged or Missing",
    "date_created": "2025-03-17T17:19:43.000",
    "date_modified": "2025-03-17T17:19:44.000",
    "request_status": "Pending",
    "responsible_agency": "Department of Public Works",
    "final_address": "POLAND AVE & N GALVEZ ST",
    "address_councildis": "D",
    "status": "Pending",
    "rowid": "1176378",
    "final_x": "3693641.9",
    "final_y": "538843.28",
    "longitude": "-90.02946761079242",
    "latitude": "29.975257874078274",
    "geocoded_column": {
      "latitude": "29.975257874078274",
      "longitude": "-90.02946761079242"
    }
  },
  {
    "service_request": "2025-1176377",
    "request_type": "Street and Traffic Signs",
    "request_reason": "Street Name Sign Damaged or Missing",
    "date_created": "2025-03-17T17:18:46.000",
    "date_modified": "2025-03-17T17:18:48.000",
    "request_status": "Pending",
    "responsible_agency": "Department of Public Works",
    "final_address": "POLAND AVE & N JOHNSON ST",
    "address_councildis": "D",
    "status": "Pending",
    "rowid": "1176377",
    "final_x": "3693547.8",
    "final_y": "538465.68",
    "longitude": "-90.02977836928788",
    "latitude": "29.974222552747626",
    "geocoded_column": {
      "latitude": "29.974222552747626",
      "longitude": "-90.02977836928788"
    }
  },
  {
    "service_request": "2025-1176376",
    "request_type": "Street and Traffic Signs",
    "request_reason": "Street Name Sign Damaged or Missing",
    "date_created": "2025-03-17T17:17:42.000",
    "date_modified": "2025-03-17T17:17:43.000",
    "request_status": "Pending",
    "responsible_agency": "Department of Public Works",
    "final_address": "N MIRO ST & POLAND AVE",
    "address_councildis": "D",
    "status": "Pending",
    "rowid": "1176376",
    "final_x": "3693620.0",
    "final_y": "539250.68",
    "longitude": "-90.02952213587294",
    "latitude": "29.976378763699138",
    "geocoded_column": {
      "latitude": "29.976378763699138",
      "longitude": "-90.02952213587294"
    }
  },
  {
    "service_request": "2025-1176375",
    "request_type": "Street and Traffic Signs",
    "request_reason": "Street Name Sign Damaged or Missing",
    "date_created": "2025-03-17T17:16:30.000",
    "date_modified": "2025-03-17T17:16:31.000",
    "request_status": "Pending",
    "responsible_agency": "Department of Public Works",
    "final_address": "N MIRO ST & FRANCE ST",
    "address_councildis": "D",
    "status": "Pending",
    "rowid": "1176375",
    "final_x": "3693420.9",
    "final_y": "539305.38",
    "longitude": "-90.03014898599281",
    "latitude": "29.976535396946794",
    "geocoded_column": {
      "latitude": "29.976535396946794",
      "longitude": "-90.03014898599281"
    }
  },
  {
    "service_request": "2025-1176374",
    "request_type": "Street and Traffic Signs",
    "request_reason": "Street Name Sign Damaged or Missing",
    "date_created": "2025-03-17T17:15:34.000",
    "date_modified": "2025-03-17T17:15:36.000",
    "request_status": "Pending",
    "responsible_agency": "Department of Public Works",
    "final_address": "N MIRO ST & ALVAR ST",
    "address_councildis": "D",
    "status": "Pending",
    "rowid": "1176374",
    "final_x": "3692521.6",
    "final_y": "539520.98",
    "longitude": "-90.0329815112222",
    "latitude": "29.977156312511806",
    "geocoded_column": {
      "latitude": "29.977156312511806",
      "longitude": "-90.0329815112222"
    }
  },
  {
    "service_request": "2025-1176373",
    "request_type": "Street and Traffic Signs",
    "request_reason": "Street Name Sign Damaged or Missing",
    "date_created": "2025-03-17T17:14:46.000",
    "date_modified": "2025-03-17T17:14:48.000",
    "request_status": "Pending",
    "responsible_agency": "Department of Public Works",
    "final_address": "N MIRO ST & PAULINE ST",
    "address_councildis": "D",
    "status": "Pending",
    "rowid": "1176373",
    "final_x": "3692239.4",
    "final_y": "539591.08",
    "longitude": "-90.03387027626925",
    "latitude": "29.977357865336234",
    "geocoded_column": {
      "latitude": "29.977357865336234",
      "longitude": "-90.03387027626925"
    }
  },
  {
    "service_request": "2025-1176372",
    "request_type": "Trash/Recycling",
    "request_reason": "Illegal Dumping",
    "date_created": "2025-03-17T17:14:45.000",
    "date_modified": "2025-03-17T17:14:47.000",
    "request_status": "Pending",
    "responsible_agency": "Department of Sanitation",
    "final_address": "PINES BLVD & E LAVERNE ST",
    "address_councildis": "D",
    "status": "Pending",
    "rowid": "1176372",
    "final_x": "3697277.0",
    "final_y": "556478.98",
    "longitude": "-90.01734737834269",
    "latitude": "30.02363528116626",
    "geocoded_column": {
      "latitude": "30.02363528116626",
      "longitude": "-90.01734737834269"
    }
  },
  {
    "service_request": "2025-1176371",
    "request_type": "Street and Traffic Signs",
    "request_reason": "Street Name Sign Damaged or Missing",
    "date_created": "2025-03-17T17:11:03.000",
    "date_modified": "2025-03-17T17:11:06.000",
    "request_status": "Pending",
    "responsible_agency": "Department of Public Works",
    "final_address": "N TONTI ST & LOUISA ST",
    "address_councildis": "D",
    "status": "Pending",
    "rowid": "1176371",
    "final_x": "3690693.5",
    "final_y": "540376.38",
    "longitude": "-90.03872470163897",
    "latitude": "29.979565276024147",
    "geocoded_column": {
      "latitude": "29.979565276024147",
      "longitude": "-90.03872470163897"
    }
  },
  {
    "service_request": "2025-1176370",
    "request_type": "Trash/Recycling",
    "request_reason": "Illegal Dumping",
    "date_created": "2025-03-17T17:10:20.000",
    "date_modified": "2025-03-17T17:10:21.000",
    "request_status": "Pending",
    "responsible_agency": "Department of Sanitation",
    "final_address": "7100 BLK E Hermes St",
    "address_councildis": "D",
    "status": "Pending",
    "rowid": "1176370",
    "final_x": "3697244.7203",
    "final_y": "557638.078081",
    "longitude": "-90.01740731346814",
    "latitude": "30.026823378246483",
    "geocoded_column": {
      "latitude": "30.026823378246483",
      "longitude": "-90.01740731346814"
    }
  },
  {
    "service_request": "2025-1176369",
    "request_type": "City-Owned Cemeteries",
    "request_reason": "Property Maintenance",
    "date_created": "2025-03-17T17:09:43.000",
    "date_modified": "2025-03-17T17:09:44.000",
    "request_status": "Pending",
    "responsible_agency": "Department of Property Management",
    "final_address": "1701 Hillary St",
    "address_councildis": "A",
    "status": "Pending",
    "rowid": "1176369",
    "final_x": "3664506.58228",
    "final_y": "528429.208128",
    "longitude": "-90.12183284086257",
    "latitude": "29.947502026158155",
    "geocoded_column": {
      "latitude": "29.947502026158155",
      "longitude": "-90.12183284086257"
    }
  },
  {
    "service_request": "2025-1176368",
    "request_type": "Street and Traffic Signs",
    "request_reason": "Street Name Sign Damaged or Missing",
    "date_created": "2025-03-17T17:09:36.000",
    "date_modified": "2025-03-17T17:09:38.000",
    "request_status": "Pending",
    "responsible_agency": "Department of Public Works",
    "final_address": "N MIRO ST & CLOUET ST",
    "address_councildis": "D",
    "status": "Pending",
    "rowid": "1176368",
    "final_x": "3690035.1",
    "final_y": "540135.78",
    "longitude": "-90.0408127582683",
    "latitude": "29.978924149323937",
    "geocoded_column": {
      "latitude": "29.978924149323937",
      "longitude": "-90.0408127582683"
    }
  },
  {
    "service_request": "2025-1176367",
    "request_type": "Trash/Recycling",
    "request_reason": "Repair Trash Cart",
    "date_created": "2025-03-17T17:08:25.000",
    "date_modified": "2025-03-17T17:08:29.000",
    "request_status": "Pending",
    "responsible_agency": "Department of Sanitation",
    "final_address": "1418 Eighth St",
    "address_councildis": "B",
    "status": "Assigned to Contractor",
    "contractor": "IV Waste",
    "rowid": "1176367",
    "final_x": "3675416.85045",
    "final_y": "521190.727225",
    "longitude": "-90.08763332613762",
    "latitude": "29.92727687566244",
    "geocoded_column": {
      "latitude": "29.92727687566244",
      "longitude": "-90.08763332613762"
    }
  },
  {
    "service_request": "2025-1176366",
    "request_type": "Street and Traffic Signs",
    "request_reason": "Street Name Sign Damaged or Missing",
    "date_created": "2025-03-17T17:07:50.000",
    "date_modified": "2025-03-17T17:07:52.000",
    "request_status": "Pending",
    "responsible_agency": "Department of Public Works",
    "final_address": "N MIRO ST & PIETY ST",
    "address_councildis": "D",
    "status": "Pending",
    "rowid": "1176366",
    "final_x": "3690870.0",
    "final_y": "539932.68",
    "longitude": "-90.03818308563392",
    "latitude": "29.978339774675785",
    "geocoded_column": {
      "latitude": "29.978339774675785",
      "longitude": "-90.03818308563392"
    }
  },
  {
    "service_request": "2025-1176365",
    "request_type": "Street and Traffic Signs",
    "request_reason": "Street Name Sign Damaged or Missing",
    "date_created": "2025-03-17T17:06:27.000",
    "date_modified": "2025-03-17T17:06:28.000",
    "request_status": "Pending",
    "responsible_agency": "Department of Public Works",
    "final_address": "N MIRO ST & GALLIER ST",
    "address_councildis": "D",
    "status": "Pending",
    "rowid": "1176365",
    "final_x": "3691488.5",
    "final_y": "539771.98",
    "longitude": "-90.03623539104214",
    "latitude": "29.977878669809332",
    "geocoded_column": {
      "latitude": "29.977878669809332",
      "longitude": "-90.03623539104214"
    }
  },
  {
    "service_request": "2025-1176364",
    "request_type": "Street and Traffic Signs",
    "request_reason": "Street Name Sign Damaged or Missing",
    "date_created": "2025-03-17T17:05:28.000",
    "date_modified": "2025-03-17T17:05:29.000",
    "request_status": "Pending",
    "responsible_agency": "Department of Public Works",
    "final_address": "6 Gallier St",
    "address_councildis": "D",
    "status": "Pending",
    "rowid": "1176364",
    "final_x": "3691765.98768",
    "final_y": "541248.896204",
    "longitude": "-90.03530615021604",
    "latitude": "29.98193102147982",
    "geocoded_column": {
      "latitude": "29.98193102147982",
      "longitude": "-90.03530615021604"
    }
  },
  {
    "service_request": "2025-1176363",
    "request_type": "City-Owned Cemeteries",
    "request_reason": "Property Maintenance",
    "date_created": "2025-03-17T17:05:11.000",
    "date_modified": "2025-03-17T17:05:13.000",
    "request_status": "Pending",
    "responsible_agency": "Department of Property Management",
    "final_address": "7409 Spruce St",
    "address_councildis": "A",
    "status": "Pending",
    "rowid": "1176363",
    "final_x": "3665199.88064",
    "final_y": "529277.096833",
    "longitude": "-90.1196154634946",
    "latitude": "29.94981327211562",
    "geocoded_column": {
      "latitude": "29.94981327211562",
      "longitude": "-90.1196154634946"
    }
  },
  {
    "service_request": "2025-1176362",
    "request_type": "Street and Traffic Signs",
    "request_reason": "Street Name Sign Damaged or Missing",
    "date_created": "2025-03-17T17:04:34.000",
    "date_modified": "2025-03-17T17:04:37.000",
    "request_status": "Pending",
    "responsible_agency": "Department of Public Works",
    "final_address": "N JOHNSON ST & LOUISA ST",
    "address_councildis": "D",
    "status": "Pending",
    "rowid": "1176362",
    "final_x": "3690406.3",
    "final_y": "539248.48",
    "longitude": "-90.03967201072889",
    "latitude": "29.976472871118112",
    "geocoded_column": {
      "latitude": "29.976472871118112",
      "longitude": "-90.03967201072889"
    }
  },
  {
    "service_request": "2025-1176361",
    "request_type": "Property Maintenance",
    "request_reason": "Property Maintenance",
    "date_created": "2025-03-17T17:03:20.000",
    "date_modified": "2025-03-17T17:03:29.000",
    "request_status": "Pending",
    "responsible_agency": "Department of Code Enforcement",
    "final_address": "1943 Feliciana St",
    "address_councildis": "D",
    "status": "Pending",
    "rowid": "1176361",
    "final_x": "3689648.47715",
    "final_y": "539387.651594",
    "longitude": "-90.04206048449947",
    "latitude": "29.976879047592185",
    "geocoded_column": {
      "latitude": "29.976879047592185",
      "longitude": "-90.04206048449947"
    }
  },
  {
    "service_request": "2025-1176360",
    "request_type": "Street and Traffic Signs",
    "request_reason": "Traffic or Parking Sign Damaged or Missing",
    "date_created": "2025-03-17T17:01:43.000",
    "date_modified": "2025-03-17T17:01:45.000",
    "request_status": "Pending",
    "responsible_agency": "Department of Public Works",
    "final_address": "1965 Chippewa St",
    "address_councildis": "B",
    "status": "Pending",
    "rowid": "1176360",
    "final_x": "3680535.62626",
    "final_y": "521438.169337",
    "longitude": "-90.07146604891857",
    "latitude": "29.927803252013806",
    "geocoded_column": {
      "latitude": "29.927803252013806",
      "longitude": "-90.07146604891857"
    }
  },
  {
    "service_request": "2025-1176359",
    "request_type": "Parks & Parkways",
    "request_reason": "Tree Stump (removal, grind)",
    "date_created": "2025-03-17T17:01:06.000",
    "date_modified": "2025-03-17T17:01:08.000",
    "request_status": "Pending",
    "responsible_agency": "Department of Parks & Parkway",
    "final_address": "6478 General Diaz St",
    "address_councildis": "A",
    "status": "Pending",
    "rowid": "1176359",
    "final_x": "3669720.81114",
    "final_y": "550565.669716",
    "longitude": "-90.10461997207399",
    "latitude": "30.00821718816477",
    "geocoded_column": {
      "latitude": "30.00821718816477",
      "longitude": "-90.10461997207399"
    }
  },
  {
    "service_request": "2025-1176358",
    "request_type": "Street and Traffic Signs",
    "request_reason": "Street Name Sign Damaged or Missing",
    "date_created": "2025-03-17T16:59:54.000",
    "date_modified": "2025-03-17T16:59:56.000",
    "request_status": "Pending",
    "responsible_agency": "Department of Public Works",
    "final_address": "3075 N Prieur St",
    "address_councildis": "D",
    "status": "Pending",
    "rowid": "1176358",
    "final_x": "3689502.75158",
    "final_y": "539086.910474",
    "longitude": "-90.04253143053195",
    "latitude": "29.976056630706164",
    "geocoded_column": {
      "latitude": "29.976056630706164",
      "longitude": "-90.04253143053195"
    }
  },
  {
    "service_request": "2025-1176357",
    "request_type": "Street and Traffic Signs",
    "request_reason": "Street Name Sign Damaged or Missing",
    "date_created": "2025-03-17T16:58:29.000",
    "date_modified": "2025-03-17T16:58:30.000",
    "request_status": "Pending",
    "responsible_agency": "Department of Public Works",
    "final_address": "N PRIEUR ST & CLOUET ST",
    "address_councildis": "D",
    "status": "Pending",
    "rowid": "1176357",
    "final_x": "3689747.7",
    "final_y": "539001.58",
    "longitude": "-90.04176085247761",
    "latitude": "29.975814412532017",
    "geocoded_column": {
      "latitude": "29.975814412532017",
      "longitude": "-90.04176085247761"
    }
  },
  {
    "service_request": "2025-1176356",
    "request_type": "Road Striping",
    "request_reason": "Crosswalks",
    "date_created": "2025-03-17T16:57:59.000",
    "date_modified": "2025-03-17T16:58:01.000",
    "request_status": "Pending",
    "responsible_agency": "Department of Public Works",
    "final_address": "ST MARY ST & CHIPPEWA ST",
    "address_councildis": "B",
    "status": "Pending",
    "rowid": "1176356",
    "final_x": "3680805.75",
    "final_y": "521677.45",
    "longitude": "-90.07060500839097",
    "latitude": "29.928453012888433",
    "geocoded_column": {
      "latitude": "29.928453012888433",
      "longitude": "-90.07060500839097"
    }
  },
  {
    "service_request": "2025-1176355",
    "request_type": "Abandoned Vehicles",
    "request_reason": "Abandoned/Junk Vehicles",
    "date_created": "2025-03-17T16:57:36.000",
    "date_modified": "2025-03-17T16:57:38.000",
    "request_status": "Pending",
    "responsible_agency": "Department of Public Works",
    "final_address": "2329 Delery St",
    "address_councildis": "E",
    "status": "Pending",
    "rowid": "1176355",
    "final_x": "3702276.83645",
    "final_y": "537381.121288",
    "longitude": "-90.00225003023554",
    "latitude": "29.970964468977638",
    "geocoded_column": {
      "latitude": "29.970964468977638",
      "longitude": "-90.00225003023554"
    }
  },
  {
    "service_request": "2025-1176354",
    "request_type": "Street and Traffic Signs",
    "request_reason": "Street Name Sign Damaged or Missing",
    "date_created": "2025-03-17T16:56:23.000",
    "date_modified": "2025-03-17T16:56:25.000",
    "request_status": "Pending",
    "responsible_agency": "Department of Public Works",
    "final_address": "N ROMAN ST & GALLIER ST",
    "address_councildis": "D",
    "status": "Pending",
    "rowid": "1176354",
    "final_x": "3691114.9",
    "final_y": "538266.38",
    "longitude": "-90.03746912362443",
    "latitude": "29.97375042804392",
    "geocoded_column": {
      "latitude": "29.97375042804392",
      "longitude": "-90.03746912362443"
    }
  },
  {
    "service_request": "2025-1176353",
    "request_type": "Trash/Recycling",
    "request_reason": "Order Recycling Cart",
    "date_created": "2025-03-17T16:55:18.000",
    "date_modified": "2025-03-17T16:55:19.000",
    "request_status": "Pending",
    "responsible_agency": "Department of Sanitation",
    "final_address": "1515 Sixth St",
    "address_councildis": "B",
    "status": "Pending",
    "rowid": "1176353",
    "final_x": "3675727.77333",
    "final_y": "521954.725498",
    "longitude": "-90.08662557961229",
    "latitude": "29.929368325135375",
    "geocoded_column": {
      "latitude": "29.929368325135375",
      "longitude": "-90.08662557961229"
    }
  },
  {
    "service_request": "2025-1176352",
    "request_type": "Street and Traffic Signs",
    "request_reason": "Street Name Sign Damaged or Missing",
    "date_created": "2025-03-17T16:55:16.000",
    "date_modified": "2025-03-17T16:55:17.000",
    "request_status": "Pending",
    "responsible_agency": "Department of Public Works",
    "final_address": "CONGRESS ST & N ROMAN ST",
    "address_councildis": "D",
    "status": "Pending",
    "rowid": "1176352",
    "final_x": "3691368.9",
    "final_y": "538204.98",
    "longitude": "-90.03666913373749",
    "latitude": "29.973573698827785",
    "geocoded_column": {
      "latitude": "29.973573698827785",
      "longitude": "-90.03666913373749"
    }
  },
  {
    "service_request": "2025-1176351",
    "request_type": "Street and Traffic Signs",
    "request_reason": "Additional Signage Request",
    "date_created": "2025-03-17T16:55:12.000",
    "date_modified": "2025-03-17T16:55:14.000",
    "request_status": "Pending",
    "responsible_agency": "Department of Public Works",
    "final_address": "1900 St Thomas St",
    "address_councildis": "B",
    "status": "Pending",
    "rowid": "1176351",
    "final_x": "3680985.33058",
    "final_y": "521377.754681",
    "longitude": "-90.07004854193225",
    "latitude": "29.92762350637966",
    "geocoded_column": {
      "latitude": "29.92762350637966",
      "longitude": "-90.07004854193225"
    }
  },
  {
    "service_request": "2025-1176350",
    "request_type": "Abandoned Vehicles",
    "request_reason": "Abandoned/Junk Vehicles",
    "date_created": "2025-03-17T16:55:06.000",
    "date_modified": "2025-03-17T16:55:08.000",
    "request_status": "Pending",
    "responsible_agency": "Department of Public Works",
    "final_address": "2329 Delery St",
    "address_councildis": "E",
    "status": "Pending",
    "rowid": "1176350",
    "final_x": "3702276.83645",
    "final_y": "537381.121288",
    "longitude": "-90.00225003023554",
    "latitude": "29.970964468977638",
    "geocoded_column": {
      "latitude": "29.970964468977638",
      "longitude": "-90.00225003023554"
    }
  },
  {
    "service_request": "2025-1176349",
    "request_type": "Trash/Recycling",
    "request_reason": "Request a Large Item Pick Up",
    "date_created": "2025-03-17T16:54:18.000",
    "date_modified": "2025-03-17T16:54:20.000",
    "request_status": "Pending",
    "responsible_agency": "Department of Sanitation",
    "final_address": "10940 Harrow Rd",
    "address_councildis": "E",
    "status": "Assigned to Contractor",
    "contractor": "Waste Pro",
    "rowid": "1176349",
    "final_x": "3711778.88235",
    "final_y": "563817.623201",
    "longitude": "-89.97124919197346",
    "latitude": "30.043347700071017",
    "geocoded_column": {
      "latitude": "30.043347700071017",
      "longitude": "-89.97124919197346"
    }
  },
  {
    "service_request": "2025-1176348",
    "request_type": "Street and Traffic Signs",
    "request_reason": "Street Name Sign Damaged or Missing",
    "date_created": "2025-03-17T16:53:27.000",
    "date_modified": "2025-03-17T16:53:28.000",
    "request_status": "Pending",
    "responsible_agency": "Department of Public Works",
    "final_address": "N DERBIGNY ST & PAULINE ST",
    "address_councildis": "D",
    "status": "Pending",
    "rowid": "1176348",
    "final_x": "3691771.3",
    "final_y": "537701.38",
    "longitude": "-90.03541628975135",
    "latitude": "29.972176450252547",
    "geocoded_column": {
      "latitude": "29.972176450252547",
      "longitude": "-90.03541628975135"
    }
  },
  {
    "service_request": "2025-1176347",
    "request_type": "Trash/Recycling",
    "request_reason": "Dead Animal Pick Up",
    "date_created": "2025-03-17T16:53:11.000",
    "date_modified": "2025-03-17T16:53:14.000",
    "request_status": "Pending",
    "responsible_agency": "Department of Sanitation",
    "final_address": "13000 BLK Michoud Blvd",
    "address_councildis": "E",
    "status": "Assigned to Contractor",
    "contractor": "Waste Pro",
    "rowid": "1176347",
    "final_x": "3725373.52363",
    "final_y": "571103.462239",
    "longitude": "-89.92800261555675",
    "latitude": "30.062929351011412",
    "geocoded_column": {
      "latitude": "30.062929351011412",
      "longitude": "-89.92800261555675"
    }
  },
  {
    "service_request": "2025-1176346",
    "request_type": "Abandoned Vehicles",
    "request_reason": "Abandoned/Junk Vehicles",
    "date_created": "2025-03-17T16:52:58.000",
    "date_modified": "2025-03-17T20:51:47.000",
    "request_status": "Pending",
    "responsible_agency": "Department of Public Works",
    "final_address": "2400 BLK Congress St",
    "address_councildis": "D",
    "status": "Inspected",
    "rowid": "1176346",
    "final_x": "3691979.56154",
    "final_y": "540661.524764",
    "longitude": "-90.0346526113897",
    "latitude": "29.980309306107046",
    "geocoded_column": {
      "latitude": "29.980309306107046",
      "longitude": "-90.0346526113897"
    }
  },
  {
    "service_request": "2025-1176345",
    "request_type": "Trash/Recycling",
    "request_reason": "Request a Large Item Pick Up",
    "date_created": "2025-03-17T16:52:41.000",
    "date_modified": "2025-03-17T16:52:43.000",
    "request_status": "Pending",
    "responsible_agency": "Department of Sanitation",
    "final_address": "9800 E Rockton Cir",
    "address_councildis": "E",
    "status": "Assigned to Contractor",
    "contractor": "Waste Pro",
    "rowid": "1176345",
    "final_x": "3708247.24696",
    "final_y": "562988.954848",
    "longitude": "-89.98244142473779",
    "latitude": "30.04118415198417",
    "geocoded_column": {
      "latitude": "30.04118415198417",
      "longitude": "-89.98244142473779"
    }
  },
  {
    "service_request": "2025-1176344",
    "request_type": "Street and Traffic Signs",
    "request_reason": "Additional Signage Request",
    "date_created": "2025-03-17T16:52:40.000",
    "date_modified": "2025-03-17T16:52:42.000",
    "request_status": "Pending",
    "responsible_agency": "Department of Public Works",
    "final_address": "ST MARY ST & CHIPPEWA ST",
    "address_councildis": "B",
    "status": "Pending",
    "rowid": "1176344",
    "final_x": "3680805.75",
    "final_y": "521677.45",
    "longitude": "-90.07060500839097",
    "latitude": "29.928453012888433",
    "geocoded_column": {
      "latitude": "29.928453012888433",
      "longitude": "-90.07060500839097"
    }
  },
  {
    "service_request": "2025-1176343",
    "request_type": "Roads and Streets",
    "request_reason": "Abandoned Service Cut",
    "date_created": "2025-03-17T16:52:01.000",
    "date_modified": "2025-03-17T16:52:03.000",
    "request_status": "Pending",
    "responsible_agency": "Department of Public Works",
    "final_address": "N DERBIGNY ST & PAULINE ST",
    "address_councildis": "D",
    "status": "Pending",
    "rowid": "1176343",
    "final_x": "3691771.3",
    "final_y": "537701.38",
    "longitude": "-90.03541628975135",
    "latitude": "29.972176450252547",
    "geocoded_column": {
      "latitude": "29.972176450252547",
      "longitude": "-90.03541628975135"
    }
  },
  {
    "service_request": "2025-1176342",
    "request_type": "Trash/Recycling",
    "request_reason": "Replace Trash Cart",
    "date_created": "2025-03-17T16:50:35.000",
    "date_modified": "2025-03-17T16:50:36.000",
    "request_status": "Pending",
    "responsible_agency": "Department of Sanitation",
    "final_address": "1625 France St",
    "address_councildis": "D",
    "status": "Assigned to Contractor",
    "contractor": "IV Waste",
    "rowid": "1176342",
    "final_x": "3692939.84233",
    "final_y": "537240.337672",
    "longitude": "-90.03174239223361",
    "latitude": "29.97087230051563",
    "geocoded_column": {
      "latitude": "29.97087230051563",
      "longitude": "-90.03174239223361"
    }
  },
  {
    "service_request": "2025-1176341",
    "request_type": "Trash/Recycling",
    "request_reason": "Order Recycling Cart",
    "date_created": "2025-03-17T16:49:49.000",
    "date_modified": "2025-03-17T16:49:50.000",
    "request_status": "Pending",
    "responsible_agency": "Department of Sanitation",
    "final_address": "1616 France St",
    "address_councildis": "D",
    "status": "Pending",
    "rowid": "1176341",
    "final_x": "3692851.82697",
    "final_y": "537196.44212",
    "longitude": "-90.03202192907654",
    "latitude": "29.970754352099117",
    "geocoded_column": {
      "latitude": "29.970754352099117",
      "longitude": "-90.03202192907654"
    }
  },
  {
    "service_request": "2025-1176340",
    "request_type": "Abandoned Vehicles",
    "request_reason": "Abandoned/Junk Vehicles",
    "date_created": "2025-03-17T16:49:06.000",
    "date_modified": "2025-03-17T16:49:08.000",
    "request_status": "Pending",
    "responsible_agency": "Department of Public Works",
    "final_address": "2100 BLK Desire St",
    "address_councildis": "D",
    "status": "Pending",
    "rowid": "1176340",
    "final_x": "3691160.41489",
    "final_y": "539658.095668",
    "longitude": "-90.03727566268043",
    "latitude": "29.977575736403235",
    "geocoded_column": {
      "latitude": "29.977575736403235",
      "longitude": "-90.03727566268043"
    }
  },
  {
    "service_request": "2025-1176339",
    "request_type": "Trash/Recycling",
    "request_reason": "Repair Trash Cart",
    "date_created": "2025-03-17T16:48:53.000",
    "date_modified": "2025-03-17T16:48:54.000",
    "request_status": "Pending",
    "responsible_agency": "Department of Sanitation",
    "final_address": "1616 France St",
    "address_councildis": "D",
    "status": "Assigned to Contractor",
    "contractor": "IV Waste",
    "rowid": "1176339",
    "final_x": "3692851.82697",
    "final_y": "537196.44212",
    "longitude": "-90.03202192907654",
    "latitude": "29.970754352099117",
    "geocoded_column": {
      "latitude": "29.970754352099117",
      "longitude": "-90.03202192907654"
    }
  },
  {
    "service_request": "2025-1176338",
    "request_type": "Street and Traffic Signs",
    "request_reason": "Street Name Sign Damaged or Missing",
    "date_created": "2025-03-17T16:47:52.000",
    "date_modified": "2025-03-17T16:47:54.000",
    "request_status": "Pending",
    "responsible_agency": "Department of Public Works",
    "final_address": "N DERBIGNY ST & DESIRE ST",
    "address_councildis": "D",
    "status": "Pending",
    "rowid": "1176338",
    "final_x": "3690730.0",
    "final_y": "537955.48",
    "longitude": "-90.03869581123377",
    "latitude": "29.972907526535103",
    "geocoded_column": {
      "latitude": "29.972907526535103",
      "longitude": "-90.03869581123377"
    }
  },
  {
    "service_request": "2025-1176337",
    "request_type": "Trash/Recycling",
    "request_reason": "Request a Large Item Pick Up",
    "date_created": "2025-03-17T16:47:12.000",
    "date_modified": "2025-03-17T18:00:17.000",
    "case_close_date": "2025-03-17T13:00:15.000",
    "request_status": "Closed",
    "responsible_agency": "Department of Sanitation",
    "final_address": "10810 Roger Dr Apt C",
    "address_councildis": "E",
    "status": "Assigned to Contractor",
    "contractor": "Waste Pro",
    "contractor_action": "Completed",
    "rowid": "1176337",
    "final_x": "3711744.80683",
    "final_y": "563026.950112",
    "longitude": "-89.9713865852704",
    "latitude": "30.041174780500764",
    "geocoded_column": {
      "latitude": "30.041174780500764",
      "longitude": "-89.9713865852704"
    }
  },
  {
    "service_request": "2025-1176336",
    "request_type": "Parks & Parkways",
    "request_reason": "Request Tree Service (Right of Way/Public Property)",
    "date_created": "2025-03-17T16:45:20.000",
    "date_modified": "2025-03-17T16:45:21.000",
    "request_status": "Pending",
    "responsible_agency": "Department of Parks & Parkway",
    "final_address": "8040 Branch Dr",
    "address_councildis": "E",
    "status": "Pending",
    "rowid": "1176336",
    "final_x": "3713790.26661",
    "final_y": "569900.980134",
    "longitude": "-89.96466279094454",
    "latitude": "30.06000855365174",
    "geocoded_column": {
      "latitude": "30.06000855365174",
      "longitude": "-89.96466279094454"
    }
  },
  {
    "service_request": "2025-1176335",
    "request_type": "Trash/Recycling",
    "request_reason": "Request a Large Item Pick Up",
    "date_created": "2025-03-17T16:44:55.000",
    "date_modified": "2025-03-17T16:44:57.000",
    "request_status": "Pending",
    "responsible_agency": "Department of Sanitation",
    "final_address": "10841 Roger Dr",
    "address_councildis": "E",
    "status": "Assigned to Contractor",
    "contractor": "Waste Pro",
    "rowid": "1176335",
    "final_x": "3711812.37182",
    "final_y": "563244.70224",
    "longitude": "-89.97116487729235",
    "latitude": "30.04177130309243",
    "geocoded_column": {
      "latitude": "30.04177130309243",
      "longitude": "-89.97116487729235"
    }
  },
  {
    "service_request": "2025-1176334",
    "request_type": "Trash/Recycling",
    "request_reason": "Request a Large Item Pick Up",
    "date_created": "2025-03-17T16:43:50.000",
    "date_modified": "2025-03-17T16:43:53.000",
    "request_status": "Pending",
    "responsible_agency": "Department of Sanitation",
    "final_address": "10931 Roger Dr",
    "address_councildis": "E",
    "status": "Assigned to Contractor",
    "contractor": "Waste Pro",
    "rowid": "1176334",
    "final_x": "3711983.80453",
    "final_y": "563371.03248",
    "longitude": "-89.97061834358104",
    "latitude": "30.042113055697705",
    "geocoded_column": {
      "latitude": "30.042113055697705",
      "longitude": "-89.97061834358104"
    }
  },
  {
    "service_request": "2025-1176333",
    "request_type": "Trash/Recycling",
    "request_reason": "Request a Large Item Pick Up",
    "date_created": "2025-03-17T16:41:45.000",
    "date_modified": "2025-03-17T16:41:47.000",
    "request_status": "Pending",
    "responsible_agency": "Department of Sanitation",
    "final_address": "10940 Roger Dr",
    "address_councildis": "E",
    "status": "Assigned to Contractor",
    "contractor": "Waste Pro",
    "rowid": "1176333",
    "final_x": "3712138.98622",
    "final_y": "563385.519136",
    "longitude": "-89.97012737042596",
    "latitude": "30.042147812759573",
    "geocoded_column": {
      "latitude": "30.042147812759573",
      "longitude": "-89.97012737042596"
    }
  },
  {
    "service_request": "2025-1176332",
    "request_type": "Street and Traffic Signs",
    "request_reason": "Traffic or Parking Sign Damaged or Missing",
    "date_created": "2025-03-17T16:41:19.000",
    "date_modified": "2025-03-17T16:41:21.000",
    "request_status": "Pending",
    "responsible_agency": "Department of Public Works",
    "final_address": "226 Carondelet St",
    "address_councildis": "B",
    "status": "Pending",
    "rowid": "1176332",
    "final_x": "3680577.63528",
    "final_y": "530289.810113",
    "longitude": "-90.07102560928817",
    "latitude": "29.95214104898222",
    "geocoded_column": {
      "latitude": "29.95214104898222",
      "longitude": "-90.07102560928817"
    }
  },
  {
    "service_request": "2025-1176331",
    "request_type": "Street and Traffic Signs",
    "request_reason": "Street Name Sign Damaged or Missing",
    "date_created": "2025-03-17T16:41:06.000",
    "date_modified": "2025-03-17T16:41:08.000",
    "request_status": "Pending",
    "responsible_agency": "Department of Public Works",
    "final_address": "1600 BLK N Derbigny St",
    "address_councildis": "D",
    "status": "Pending",
    "rowid": "1176331",
    "final_x": "3681934.46582",
    "final_y": "538071.09589",
    "longitude": "-90.06646972769097",
    "latitude": "29.973495751308562",
    "geocoded_column": {
      "latitude": "29.973495751308562",
      "longitude": "-90.06646972769097"
    }
  },
  {
    "service_request": "2025-1176330",
    "request_type": "Trash/Recycling",
    "request_reason": "Request a Large Item Pick Up",
    "date_created": "2025-03-17T16:39:30.000",
    "date_modified": "2025-03-17T16:39:32.000",
    "request_status": "Pending",
    "responsible_agency": "Department of Sanitation",
    "final_address": "7567 Horizon Ct",
    "address_councildis": "E",
    "status": "Assigned to Contractor",
    "contractor": "Waste Pro",
    "rowid": "1176330",
    "final_x": "3725688.6007",
    "final_y": "569648.311206",
    "longitude": "-89.9270631104813",
    "latitude": "30.058917672510685",
    "geocoded_column": {
      "latitude": "30.058917672510685",
      "longitude": "-89.9270631104813"
    }
  },
  {
    "service_request": "2025-1176329",
    "request_type": "Street and Traffic Signs",
    "request_reason": "Street Name Sign Damaged or Missing",
    "date_created": "2025-03-17T16:39:01.000",
    "date_modified": "2025-03-17T16:39:02.000",
    "request_status": "Pending",
    "responsible_agency": "Department of Public Works",
    "final_address": "ST BERNARD AVE & N ROCHEBLAVE ST",
    "address_councildis": "D",
    "status": "Pending",
    "rowid": "1176329",
    "final_x": "3680640.7",
    "final_y": "540769.08",
    "longitude": "-90.07046179869488",
    "latitude": "29.980953539676335",
    "geocoded_column": {
      "latitude": "29.980953539676335",
      "longitude": "-90.07046179869488"
    }
  },
  {
    "service_request": "2025-1176328",
    "request_type": "Trash/Recycling",
    "request_reason": "Request a Large Item Pick Up",
    "date_created": "2025-03-17T16:38:49.000",
    "date_modified": "2025-03-17T16:38:50.000",
    "request_status": "Pending",
    "responsible_agency": "Department of Sanitation",
    "final_address": "5025 Beaucaire St",
    "address_councildis": "E",
    "status": "Assigned to Contractor",
    "contractor": "Waste Pro",
    "rowid": "1176328",
    "final_x": "3724578.68364",
    "final_y": "562016.431711",
    "longitude": "-89.9308666780125",
    "latitude": "30.037970589870014",
    "geocoded_column": {
      "latitude": "30.037970589870014",
      "longitude": "-89.9308666780125"
    }
  },
  {
    "service_request": "2025-1176327",
    "request_type": "Trash/Recycling",
    "request_reason": "Repair Trash Cart",
    "date_created": "2025-03-17T16:38:06.000",
    "date_modified": "2025-03-17T16:38:08.000",
    "request_status": "Pending",
    "responsible_agency": "Department of Sanitation",
    "final_address": "2305 Piety St",
    "address_councildis": "D",
    "status": "Assigned to Contractor",
    "contractor": "IV Waste",
    "rowid": "1176327",
    "final_x": "3691014.24092",
    "final_y": "540363.591243",
    "longitude": "-90.037712133374",
    "latitude": "29.97952014331913",
    "geocoded_column": {
      "latitude": "29.97952014331913",
      "longitude": "-90.037712133374"
    }
  },
  {
    "service_request": "2025-1176326",
    "request_type": "Trash/Recycling",
    "request_reason": "Request a Large Item Pick Up",
    "date_created": "2025-03-17T16:37:06.000",
    "date_modified": "2025-03-17T16:37:08.000",
    "request_status": "Pending",
    "responsible_agency": "Department of Sanitation",
    "final_address": "10951 Roger Dr",
    "address_councildis": "E",
    "status": "Assigned to Contractor",
    "contractor": "Waste Pro",
    "rowid": "1176326",
    "final_x": "3712069.00805",
    "final_y": "563436.469408",
    "longitude": "-89.97034661065726",
    "latitude": "30.04229019447439",
    "geocoded_column": {
      "latitude": "30.04229019447439",
      "longitude": "-89.97034661065726"
    }
  },
  {
    "service_request": "2025-1176325",
    "request_type": "Street and Traffic Signs",
    "request_reason": "Street Name Sign Damaged or Missing",
    "date_created": "2025-03-17T16:36:47.000",
    "date_modified": "2025-03-17T16:36:48.000",
    "request_status": "Pending",
    "responsible_agency": "Department of Public Works",
    "final_address": "HOPE ST & ST BERNARD AVE",
    "address_councildis": "D",
    "status": "Pending",
    "rowid": "1176325",
    "final_x": "3680140.5",
    "final_y": "541842.28",
    "longitude": "-90.07200433990636",
    "latitude": "29.983919614610226",
    "geocoded_column": {
      "latitude": "29.983919614610226",
      "longitude": "-90.07200433990636"
    }
  },
  {
    "service_request": "2025-1176324",
    "request_type": "Street and Traffic Signs",
    "request_reason": "Street Name Sign Damaged or Missing",
    "date_created": "2025-03-17T16:35:56.000",
    "date_modified": "2025-03-17T16:35:58.000",
    "request_status": "Pending",
    "responsible_agency": "Department of Public Works",
    "final_address": "SERANTINE ST & ST BERNARD AVE",
    "address_councildis": "D",
    "status": "Pending",
    "rowid": "1176324",
    "final_x": "3679790.4",
    "final_y": "542422.28",
    "longitude": "-90.07308999581088",
    "latitude": "29.98552500420157",
    "geocoded_column": {
      "latitude": "29.98552500420157",
      "longitude": "-90.07308999581088"
    }
  },
  {
    "service_request": "2025-1176323",
    "request_type": "Trash/Recycling",
    "request_reason": "Request a Large Item Pick Up",
    "date_created": "2025-03-17T16:34:44.000",
    "date_modified": "2025-03-17T16:34:45.000",
    "request_status": "Pending",
    "responsible_agency": "Department of Sanitation",
    "final_address": "11040 Roger Dr",
    "address_councildis": "E",
    "status": "Assigned to Contractor",
    "contractor": "Waste Pro",
    "rowid": "1176323",
    "final_x": "3712397.49253",
    "final_y": "563579.453024",
    "longitude": "-89.96930310364468",
    "latitude": "30.042672594059926",
    "geocoded_column": {
      "latitude": "30.042672594059926",
      "longitude": "-89.96930310364468"
    }
  },
  {
    "service_request": "2025-1176322",
    "request_type": "Street and Traffic Signs",
    "request_reason": "Street Name Sign Damaged or Missing",
    "date_created": "2025-03-17T16:34:30.000",
    "date_modified": "2025-03-17T16:34:31.000",
    "request_status": "Pending",
    "responsible_agency": "Department of Public Works",
    "final_address": "ST BERNARD AVE & N GAYOSO ST",
    "address_councildis": "D",
    "status": "Pending",
    "rowid": "1176322",
    "final_x": "3679652.3",
    "final_y": "542691.88",
    "longitude": "-90.07351683448209",
    "latitude": "29.986270485626516",
    "geocoded_column": {
      "latitude": "29.986270485626516",
      "longitude": "-90.07351683448209"
    }
  },
  {
    "service_request": "2025-1176321",
    "request_type": "Trash/Recycling",
    "request_reason": "Request a Large Item Pick Up",
    "date_created": "2025-03-17T16:32:10.000",
    "date_modified": "2025-03-17T16:32:13.000",
    "request_status": "Pending",
    "responsible_agency": "Department of Sanitation",
    "final_address": "7231 Boston Dr",
    "address_councildis": "E",
    "status": "Assigned to Contractor",
    "contractor": "Waste Pro",
    "rowid": "1176321",
    "final_x": "3706081.2915",
    "final_y": "561501.200671",
    "longitude": "-89.98934170116867",
    "latitude": "30.037163451446105",
    "geocoded_column": {
      "latitude": "30.037163451446105",
      "longitude": "-89.98934170116867"
    }
  },
  {
    "service_request": "2025-1176320",
    "request_type": "Trash/Recycling",
    "request_reason": "Request a Large Item Pick Up",
    "date_created": "2025-03-17T16:30:41.000",
    "date_modified": "2025-03-17T16:30:42.000",
    "request_status": "Pending",
    "responsible_agency": "Department of Sanitation",
    "final_address": "4102 Dumaine St",
    "address_councildis": "A",
    "status": "Assigned to Contractor",
    "contractor": "IV Waste",
    "rowid": "1176320",
    "final_x": "3673025.92552",
    "final_y": "540586.691147",
    "longitude": "-90.09451892272837",
    "latitude": "29.980680600354958",
    "geocoded_column": {
      "latitude": "29.980680600354958",
      "longitude": "-90.09451892272837"
    }
  },
  {
    "service_request": "2025-1176319",
    "request_type": "Trash/Recycling",
    "request_reason": "Request a Large Item Pick Up",
    "date_created": "2025-03-17T16:30:27.000",
    "date_modified": "2025-03-17T16:30:30.000",
    "request_status": "Pending",
    "responsible_agency": "Department of Sanitation",
    "final_address": "27 Curtis Dr",
    "address_councildis": "E",
    "status": "Assigned to Contractor",
    "contractor": "Waste Pro",
    "rowid": "1176319",
    "final_x": "3698200.19517",
    "final_y": "561056.407006",
    "longitude": "-90.01426378238263",
    "latitude": "30.036192260614442",
    "geocoded_column": {
      "latitude": "30.036192260614442",
      "longitude": "-90.01426378238263"
    }
  },
  {
    "service_request": "2025-1176318",
    "request_type": "Streetlights",
    "request_reason": "Streetlight Outage/Malfunction",
    "date_created": "2025-03-17T16:30:08.000",
    "date_modified": "2025-03-17T16:30:09.000",
    "request_status": "Pending",
    "responsible_agency": "Department of Public Works",
    "final_address": "7150 Foch Rd",
    "address_councildis": "D",
    "status": "Pending",
    "contractor": "Legacy Professional Services",
    "rowid": "1176318",
    "final_x": "3696303.17879",
    "final_y": "557138.845594",
    "longitude": "-90.02040054888882",
    "latitude": "30.0254803772286",
    "geocoded_column": {
      "latitude": "30.0254803772286",
      "longitude": "-90.02040054888882"
    }
  },
  {
    "service_request": "2025-1176317",
    "request_type": "Trash/Recycling",
    "request_reason": "Return Trash Cart",
    "date_created": "2025-03-17T16:28:42.000",
    "date_modified": "2025-03-17T16:28:44.000",
    "request_status": "Pending",
    "responsible_agency": "Department of Sanitation",
    "final_address": "901 Washington Ave",
    "address_councildis": "B",
    "status": "Assigned to Contractor",
    "contractor": "IV Waste",
    "rowid": "1176317",
    "final_x": "3677474.5821",
    "final_y": "520263.503864",
    "longitude": "-90.08116957002572",
    "latitude": "29.92466564026224",
    "geocoded_column": {
      "latitude": "29.92466564026224",
      "longitude": "-90.08116957002572"
    }
  },
  {
    "service_request": "2025-1176316",
    "request_type": "Abandoned Vehicles",
    "request_reason": "Abandoned/Junk Vehicles",
    "date_created": "2025-03-17T16:26:25.000",
    "date_modified": "2025-03-17T16:26:26.000",
    "request_status": "Pending",
    "responsible_agency": "Department of Public Works",
    "final_address": "6769 Downman Rd",
    "address_councildis": "D",
    "status": "Pending",
    "rowid": "1176316",
    "final_x": "3695668.76854",
    "final_y": "555678.255065",
    "longitude": "-90.02245798343932",
    "latitude": "30.02148427951888",
    "geocoded_column": {
      "latitude": "30.02148427951888",
      "longitude": "-90.02245798343932"
    }
  },
  {
    "service_request": "2025-1176315",
    "request_type": "Abandoned Vehicles",
    "request_reason": "Abandoned/Junk Vehicles",
    "date_created": "2025-03-17T16:23:06.000",
    "date_modified": "2025-03-17T16:23:07.000",
    "request_status": "Pending",
    "responsible_agency": "Department of Public Works",
    "final_address": "6777 Downman Rd",
    "address_councildis": "D",
    "status": "Pending",
    "rowid": "1176315",
    "final_x": "3695649.93616",
    "final_y": "555736.464857",
    "longitude": "-90.02251538427285",
    "latitude": "30.021644926814947",
    "geocoded_column": {
      "latitude": "30.021644926814947",
      "longitude": "-90.02251538427285"
    }
  },
  {
    "service_request": "2025-1176314",
    "request_type": "Safety & Permits",
    "request_reason": "Licenses & Permits",
    "date_created": "2025-03-17T16:22:46.000",
    "date_modified": "2025-03-17T16:22:48.000",
    "request_status": "Pending",
    "responsible_agency": "Safety and Permits",
    "final_address": "2439 Laharpe St",
    "address_councildis": "D",
    "status": "Pending",
    "rowid": "1176314",
    "final_x": "3679493.88335",
    "final_y": "539437.282186",
    "longitude": "-90.07413018210738",
    "latitude": "29.9773262617581",
    "geocoded_column": {
      "latitude": "29.9773262617581",
      "longitude": "-90.07413018210738"
    }
  },
  {
    "service_request": "2025-1176313",
    "request_type": "Trash/Recycling",
    "request_reason": "Order Second Trash Cart",
    "date_created": "2025-03-17T16:21:46.000",
    "date_modified": "2025-03-17T16:21:47.000",
    "request_status": "Pending",
    "responsible_agency": "Department of Sanitation",
    "final_address": "16 W Blue Ridge Ct",
    "address_councildis": "E",
    "status": "Assigned to Contractor",
    "contractor": "Waste Pro",
    "rowid": "1176313",
    "final_x": "3713866.44683",
    "final_y": "567475.626788",
    "longitude": "-89.96451357435227",
    "latitude": "30.053337325093505",
    "geocoded_column": {
      "latitude": "30.053337325093505",
      "longitude": "-89.96451357435227"
    }
  },
  {
    "service_request": "2025-1176312",
    "request_type": "Health Related Request",
    "request_reason": "Noise Ordinance Complaint",
    "date_created": "2025-03-17T16:21:25.000",
    "date_modified": "2025-03-17T16:22:45.000",
    "request_status": "Pending",
    "responsible_agency": "Safety and Permits",
    "final_address": "2439 Laharpe St",
    "address_councildis": "D",
    "status": "Pending",
    "rowid": "1176312",
    "final_x": "3679493.88335",
    "final_y": "539437.282186",
    "longitude": "-90.07413018210738",
    "latitude": "29.9773262617581",
    "geocoded_column": {
      "latitude": "29.9773262617581",
      "longitude": "-90.07413018210738"
    }
  },
  {
    "service_request": "2025-1176311",
    "request_type": "Trash/Recycling",
    "request_reason": "Order Recycling Cart",
    "date_created": "2025-03-17T16:18:26.000",
    "date_modified": "2025-03-17T16:18:28.000",
    "request_status": "Pending",
    "responsible_agency": "Department of Sanitation",
    "final_address": "2275 St Claude Ave",
    "address_councildis": "C",
    "status": "Pending",
    "rowid": "1176311",
    "final_x": "3685707.49423",
    "final_y": "536467.223431",
    "longitude": "-90.05461026479846",
    "latitude": "29.968970419158282",
    "geocoded_column": {
      "latitude": "29.968970419158282",
      "longitude": "-90.05461026479846"
    }
  },
  {
    "service_request": "2025-1176310",
    "request_type": "Trash/Recycling",
    "request_reason": "Order Trash Cart",
    "date_created": "2025-03-17T16:14:38.000",
    "date_modified": "2025-03-17T16:14:40.000",
    "request_status": "Pending",
    "responsible_agency": "Department of Sanitation",
    "final_address": "2275 St Claude Ave",
    "address_councildis": "C",
    "status": "Assigned to Contractor",
    "contractor": "IV Waste",
    "rowid": "1176310",
    "final_x": "3685707.49423",
    "final_y": "536467.223431",
    "longitude": "-90.05461026479846",
    "latitude": "29.968970419158282",
    "geocoded_column": {
      "latitude": "29.968970419158282",
      "longitude": "-90.05461026479846"
    }
  },
  {
    "service_request": "2025-1176309",
    "request_type": "Trash/Recycling",
    "request_reason": "Request a Large Item Pick Up",
    "date_created": "2025-03-17T16:14:31.000",
    "date_modified": "2025-03-17T16:14:33.000",
    "request_status": "Pending",
    "responsible_agency": "Department of Sanitation",
    "final_address": "7660 Rochon Ave",
    "address_councildis": "E",
    "status": "Assigned to Contractor",
    "contractor": "Waste Pro",
    "rowid": "1176309",
    "final_x": "3718447.08914",
    "final_y": "571826.48964",
    "longitude": "-89.94986950412404",
    "latitude": "30.065149133821258",
    "geocoded_column": {
      "latitude": "30.065149133821258",
      "longitude": "-89.94986950412404"
    }
  },
  {
    "service_request": "2025-1176308",
    "request_type": "Trash/Recycling",
    "request_reason": "Replace Trash Cart",
    "date_created": "2025-03-17T16:11:38.000",
    "date_modified": "2025-03-17T16:11:40.000",
    "request_status": "Pending",
    "responsible_agency": "Department of Sanitation",
    "final_address": "7660 Rochon Ave",
    "address_councildis": "E",
    "status": "Assigned to Contractor",
    "contractor": "Waste Pro",
    "rowid": "1176308",
    "final_x": "3718447.08914",
    "final_y": "571826.48964",
    "longitude": "-89.94986950412404",
    "latitude": "30.065149133821258",
    "geocoded_column": {
      "latitude": "30.065149133821258",
      "longitude": "-89.94986950412404"
    }
  },
  {
    "service_request": "2025-1176307",
    "request_type": "Trash/Recycling",
    "request_reason": "Request a Large Item Pick Up",
    "date_created": "2025-03-17T16:09:46.000",
    "date_modified": "2025-03-17T16:09:48.000",
    "request_status": "Pending",
    "responsible_agency": "Department of Sanitation",
    "final_address": "6021 Brighton Pl",
    "address_councildis": "C",
    "status": "Assigned to Contractor",
    "contractor": "Richards Disposal",
    "rowid": "1176307",
    "final_x": "3706231.87742",
    "final_y": "520053.783096",
    "longitude": "-89.99040094705246",
    "latitude": "29.923193555936457",
    "geocoded_column": {
      "latitude": "29.923193555936457",
      "longitude": "-89.99040094705246"
    }
  },
  {
    "service_request": "2025-1176306",
    "request_type": "Utility Poles",
    "request_reason": "Wires Sagging/Hanging Low",
    "date_created": "2025-03-17T16:03:39.000",
    "date_modified": "2025-03-17T16:03:41.000",
    "request_status": "Pending",
    "responsible_agency": "Utility Company Collective",
    "final_address": "4732 St Claude Ave",
    "address_councildis": "E",
    "status": "Pending",
    "rowid": "1176306",
    "final_x": "3694923.81027",
    "final_y": "534435.078213",
    "longitude": "-90.02557791317464",
    "latitude": "29.963096716249932",
    "geocoded_column": {
      "latitude": "29.963096716249932",
      "longitude": "-90.02557791317464"
    }
  },
  {
    "service_request": "2025-1176305",
    "request_type": "Trash/Recycling",
    "request_reason": "Repair Trash Cart",
    "date_created": "2025-03-17T16:01:16.000",
    "date_modified": "2025-03-17T16:01:18.000",
    "request_status": "Pending",
    "responsible_agency": "Department of Sanitation",
    "final_address": "3127 Constance St",
    "address_councildis": "B",
    "status": "Assigned to Contractor",
    "contractor": "IV Waste",
    "rowid": "1176305",
    "final_x": "3676108.25531",
    "final_y": "519797.335224",
    "longitude": "-90.08549863485327",
    "latitude": "29.923424812001475",
    "geocoded_column": {
      "latitude": "29.923424812001475",
      "longitude": "-90.08549863485327"
    }
  },
  {
    "service_request": "2025-1176304",
    "request_type": "Trash/Recycling",
    "request_reason": "Request a Large Item Pick Up",
    "date_created": "2025-03-17T15:58:04.000",
    "date_modified": "2025-03-17T15:58:06.000",
    "request_status": "Pending",
    "responsible_agency": "Department of Sanitation",
    "final_address": "4751 Rosalia Dr",
    "address_councildis": "E",
    "status": "Assigned to Contractor",
    "contractor": "Waste Pro",
    "rowid": "1176304",
    "final_x": "3711256.91858",
    "final_y": "555891.544089",
    "longitude": "-89.9731961461778",
    "latitude": "30.021571178997974",
    "geocoded_column": {
      "latitude": "30.021571178997974",
      "longitude": "-89.9731961461778"
    }
  },
  {
    "service_request": "2025-1176303",
    "request_type": "Trash/Recycling",
    "request_reason": "Request a Large Item Pick Up",
    "date_created": "2025-03-17T15:54:30.000",
    "date_modified": "2025-03-17T15:54:32.000",
    "request_status": "Pending",
    "responsible_agency": "Department of Sanitation",
    "final_address": "1934 Port St",
    "address_councildis": "D",
    "status": "Assigned to Contractor",
    "contractor": "IV Waste",
    "rowid": "1176303",
    "final_x": "3688226.56732",
    "final_y": "539666.477514",
    "longitude": "-90.0465414241112",
    "latitude": "29.977689703651965",
    "geocoded_column": {
      "latitude": "29.977689703651965",
      "longitude": "-90.0465414241112"
    }
  },
  {
    "service_request": "2025-1176302",
    "request_type": "Trash/Recycling",
    "request_reason": "Request a Large Item Pick Up",
    "date_created": "2025-03-17T15:53:19.000",
    "date_modified": "2025-03-17T15:53:22.000",
    "request_status": "Pending",
    "responsible_agency": "Department of Sanitation",
    "final_address": "8711 Lomond Rd",
    "address_councildis": "E",
    "status": "Assigned to Contractor",
    "contractor": "Waste Pro",
    "rowid": "1176302",
    "final_x": "3704549.63134",
    "final_y": "562576.02832",
    "longitude": "-89.9941423566783",
    "latitude": "30.04016811312456",
    "geocoded_column": {
      "latitude": "30.04016811312456",
      "longitude": "-89.9941423566783"
    }
  },
  {
    "service_request": "2025-1176301",
    "request_type": "Trash/Recycling",
    "request_reason": "Illegal Dumping",
    "date_created": "2025-03-17T15:48:32.000",
    "date_modified": "2025-03-17T15:48:34.000",
    "request_status": "Pending",
    "responsible_agency": "Department of Sanitation",
    "final_address": "14000 BLK Michoud Blvd",
    "address_councildis": "E",
    "status": "Pending",
    "rowid": "1176301",
    "final_x": "3725803.03622",
    "final_y": "571580.117782",
    "longitude": "-89.92662643066525",
    "latitude": "30.064225459965307",
    "geocoded_column": {
      "latitude": "30.064225459965307",
      "longitude": "-89.92662643066525"
    }
  },
  {
    "service_request": "2025-1176300",
    "request_type": "Trash/Recycling",
    "request_reason": "Replace Recycling Cart",
    "date_created": "2025-03-17T15:48:31.000",
    "date_modified": "2025-03-17T15:48:35.000",
    "request_status": "Pending",
    "responsible_agency": "Department of Sanitation",
    "final_address": "1519 Jackson Ave",
    "address_councildis": "B",
    "status": "Pending",
    "rowid": "1176300",
    "final_x": "3677876.62894",
    "final_y": "523459.968507",
    "longitude": "-90.0797900565652",
    "latitude": "29.933442788360022",
    "geocoded_column": {
      "latitude": "29.933442788360022",
      "longitude": "-90.0797900565652"
    }
  },
  {
    "service_request": "2025-1176299",
    "request_type": "Trash/Recycling",
    "request_reason": "Repair Trash Cart",
    "date_created": "2025-03-17T15:48:08.000",
    "date_modified": "2025-03-17T15:48:09.000",
    "request_status": "Pending",
    "responsible_agency": "Department of Sanitation",
    "final_address": "1908 Brutus St",
    "address_councildis": "D",
    "status": "Assigned to Contractor",
    "contractor": "IV Waste",
    "rowid": "1176299",
    "final_x": "3681745.71324",
    "final_y": "550093.057556",
    "longitude": "-90.06664612573265",
    "latitude": "30.006557638255906",
    "geocoded_column": {
      "latitude": "30.006557638255906",
      "longitude": "-90.06664612573265"
    }
  },
  {
    "service_request": "2025-1176298",
    "request_type": "Trash/Recycling",
    "request_reason": "Request a Large Item Pick Up",
    "date_created": "2025-03-17T15:46:56.000",
    "date_modified": "2025-03-17T15:46:58.000",
    "request_status": "Pending",
    "responsible_agency": "Department of Sanitation",
    "final_address": "1229 Saux Ln",
    "address_councildis": "C",
    "status": "Assigned to Contractor",
    "contractor": "Richards Disposal",
    "rowid": "1176298",
    "final_x": "3692667.43241",
    "final_y": "526678.568382",
    "longitude": "-90.03298122553436",
    "latitude": "29.941839625807454",
    "geocoded_column": {
      "latitude": "29.941839625807454",
      "longitude": "-90.03298122553436"
    }
  },
  {
    "service_request": "2025-1176297",
    "request_type": "Trash/Recycling",
    "request_reason": "Request a Large Item Pick Up",
    "date_created": "2025-03-17T15:46:38.000",
    "date_modified": "2025-03-17T15:46:40.000",
    "request_status": "Pending",
    "responsible_agency": "Department of Sanitation",
    "final_address": "7212 Bunker Hill Rd",
    "address_councildis": "E",
    "status": "Assigned to Contractor",
    "contractor": "Waste Pro",
    "rowid": "1176297",
    "final_x": "3705542.34302",
    "final_y": "561060.215262",
    "longitude": "-89.99106121134265",
    "latitude": "30.03596828587469",
    "geocoded_column": {
      "latitude": "30.03596828587469",
      "longitude": "-89.99106121134265"
    }
  },
  {
    "service_request": "2025-1176296",
    "request_type": "Trash/Recycling",
    "request_reason": "Request a Large Item Pick Up",
    "date_created": "2025-03-17T15:44:20.000",
    "date_modified": "2025-03-17T15:44:21.000",
    "request_status": "Pending",
    "responsible_agency": "Department of Sanitation",
    "final_address": "4800 Annunciation St",
    "address_councildis": "B",
    "status": "Assigned to Contractor",
    "contractor": "IV Waste",
    "rowid": "1176296",
    "final_x": "3669664.87246",
    "final_y": "517567.753462",
    "longitude": "-90.10591342986729",
    "latitude": "29.917485537982923",
    "geocoded_column": {
      "latitude": "29.917485537982923",
      "longitude": "-90.10591342986729"
    }
  },
  {
    "service_request": "2025-1176295",
    "request_type": "Parks & Parkways",
    "request_reason": "Request Tree Service (Right of Way/Public Property)",
    "date_created": "2025-03-17T15:43:13.000",
    "date_modified": "2025-03-17T15:43:15.000",
    "request_status": "Pending",
    "responsible_agency": "Department of Parks & Parkway",
    "final_address": "6871 Colbert St",
    "address_councildis": "A",
    "status": "Pending",
    "rowid": "1176295",
    "final_x": "3668035.06074",
    "final_y": "553372.246743",
    "longitude": "-90.10985111944221",
    "latitude": "30.015983886590416",
    "geocoded_column": {
      "latitude": "30.015983886590416",
      "longitude": "-90.10985111944221"
    }
  },
  {
    "service_request": "2025-1176294",
    "request_type": "Trash/Recycling",
    "request_reason": "Missed Trash Pick-Up",
    "date_created": "2025-03-17T15:42:53.000",
    "date_modified": "2025-03-17T16:46:24.000",
    "case_close_date": "2025-03-17T11:46:23.000",
    "request_status": "Closed",
    "responsible_agency": "Department of Sanitation",
    "final_address": "7724 Vincent Rd",
    "address_councildis": "E",
    "status": "Invalid Request",
    "contractor": "Waste Pro",
    "contractor_action": "Invalid Request",
    "rowid": "1176294",
    "final_x": "3717991.40517",
    "final_y": "572021.8506",
    "longitude": "-89.95130250650108",
    "latitude": "30.065701414732306",
    "geocoded_column": {
      "latitude": "30.065701414732306",
      "longitude": "-89.95130250650108"
    }
  },
  {
    "service_request": "2025-1176293",
    "request_type": "Roads and Streets",
    "request_reason": "Street Subsidence (Sinking)",
    "date_created": "2025-03-17T15:41:24.000",
    "date_modified": "2025-03-17T15:41:26.000",
    "request_status": "Pending",
    "responsible_agency": "Department of Public Works",
    "final_address": "6871 Colbert St",
    "address_councildis": "A",
    "status": "Pending",
    "rowid": "1176293",
    "final_x": "3668035.06074",
    "final_y": "553372.246743",
    "longitude": "-90.10985111944221",
    "latitude": "30.015983886590416",
    "geocoded_column": {
      "latitude": "30.015983886590416",
      "longitude": "-90.10985111944221"
    }
  },
  {
    "service_request": "2025-1176292",
    "request_type": "Abandoned Vehicles",
    "request_reason": "Abandoned/Junk Vehicles",
    "date_created": "2025-03-17T15:41:24.000",
    "date_modified": "2025-03-17T15:41:26.000",
    "request_status": "Pending",
    "responsible_agency": "Department of Public Works",
    "final_address": "4938 N Dorgenois St",
    "address_councildis": "E",
    "status": "Pending",
    "rowid": "1176292",
    "final_x": "3697346.2328",
    "final_y": "539489.149514",
    "longitude": "-90.01774499058965",
    "latitude": "29.97691735891215",
    "geocoded_column": {
      "latitude": "29.97691735891215",
      "longitude": "-90.01774499058965"
    }
  },
  {
    "service_request": "2025-1176291",
    "request_type": "Trash/Recycling",
    "request_reason": "Order Recycling Cart",
    "date_created": "2025-03-17T15:38:06.000",
    "date_modified": "2025-03-17T15:38:07.000",
    "request_status": "Pending",
    "responsible_agency": "Department of Sanitation",
    "final_address": "2201 Killdeer St",
    "address_councildis": "D",
    "status": "Pending",
    "rowid": "1176291",
    "final_x": "3683720.80853",
    "final_y": "557583.987419",
    "longitude": "-90.06014334218109",
    "latitude": "30.02709476989191",
    "geocoded_column": {
      "latitude": "30.02709476989191",
      "longitude": "-90.06014334218109"
    }
  },
  {
    "service_request": "2025-1176290",
    "request_type": "Trash/Recycling",
    "request_reason": "Request a Large Item Pick Up",
    "date_created": "2025-03-17T15:37:56.000",
    "date_modified": "2025-03-17T15:37:57.000",
    "request_status": "Pending",
    "responsible_agency": "Department of Sanitation",
    "final_address": "2845 Baronne St",
    "address_councildis": "B",
    "status": "Assigned to Contractor",
    "contractor": "IV Waste",
    "rowid": "1176290",
    "final_x": "3675184.40705",
    "final_y": "522969.222715",
    "longitude": "-90.08830608961844",
    "latitude": "29.93217410799066",
    "geocoded_column": {
      "latitude": "29.93217410799066",
      "longitude": "-90.08830608961844"
    }
  },
  {
    "service_request": "2025-1176289",
    "request_type": "Trash/Recycling",
    "request_reason": "Request a Large Item Pick Up",
    "date_created": "2025-03-17T15:34:06.000",
    "date_modified": "2025-03-17T15:34:08.000",
    "request_status": "Pending",
    "responsible_agency": "Department of Sanitation",
    "final_address": "7744 St Charles Ave",
    "address_councildis": "A",
    "status": "Assigned to Contractor",
    "contractor": "IV Waste",
    "rowid": "1176289",
    "final_x": "3661392.67366",
    "final_y": "525997.454014",
    "longitude": "-90.13174522285735",
    "latitude": "29.940905637962846",
    "geocoded_column": {
      "latitude": "29.940905637962846",
      "longitude": "-90.13174522285735"
    }
  },
  {
    "service_request": "2025-1176288",
    "request_type": "Abandoned Vehicles",
    "request_reason": "Abandoned/Junk Vehicles",
    "date_created": "2025-03-17T15:32:39.000",
    "date_modified": "2025-03-17T15:32:41.000",
    "request_status": "Pending",
    "responsible_agency": "Department of Public Works",
    "final_address": "2801 N Rampart St",
    "address_councildis": "C",
    "status": "Pending",
    "rowid": "1176288",
    "final_x": "3687649.23913",
    "final_y": "535905.843783",
    "longitude": "-90.04849800074929",
    "latitude": "29.96736709522254",
    "geocoded_column": {
      "latitude": "29.96736709522254",
      "longitude": "-90.04849800074929"
    }
  },
  {
    "service_request": "2025-1176287",
    "request_type": "Trash/Recycling",
    "request_reason": "Request a Large Item Pick Up",
    "date_created": "2025-03-17T15:31:43.000",
    "date_modified": "2025-03-17T15:31:45.000",
    "request_status": "Pending",
    "responsible_agency": "Department of Sanitation",
    "final_address": "7531 Sandy Cove Dr",
    "address_councildis": "E",
    "status": "Assigned to Contractor",
    "contractor": "Waste Pro",
    "rowid": "1176287",
    "final_x": "3715974.28978",
    "final_y": "568999.16183",
    "longitude": "-89.95779350306553",
    "latitude": "30.05745701477894",
    "geocoded_column": {
      "latitude": "30.05745701477894",
      "longitude": "-89.95779350306553"
    }
  },
  {
    "service_request": "2025-1176286",
    "request_type": "Trash/Recycling",
    "request_reason": "Request a Large Item Pick Up",
    "date_created": "2025-03-17T15:29:26.000",
    "date_modified": "2025-03-17T15:29:30.000",
    "request_status": "Pending",
    "responsible_agency": "Department of Sanitation",
    "final_address": "6963 Salem Dr",
    "address_councildis": "E",
    "status": "Assigned to Contractor",
    "contractor": "Waste Pro",
    "rowid": "1176286",
    "final_x": "3706804.06859",
    "final_y": "560618.045534",
    "longitude": "-89.98709037280047",
    "latitude": "30.034711793025984",
    "geocoded_column": {
      "latitude": "30.034711793025984",
      "longitude": "-89.98709037280047"
    }
  },
  {
    "service_request": "2025-1176285",
    "request_type": "Trash/Recycling",
    "request_reason": "Repair Trash Cart",
    "date_created": "2025-03-17T15:27:38.000",
    "date_modified": "2025-03-17T15:27:40.000",
    "request_status": "Pending",
    "responsible_agency": "Department of Sanitation",
    "final_address": "817 Gordon St",
    "address_councildis": "E",
    "status": "Assigned to Contractor",
    "contractor": "Waste Pro",
    "rowid": "1176285",
    "final_x": "3698826.96068",
    "final_y": "532474.577732",
    "longitude": "-90.01332362633477",
    "latitude": "29.95758297147283",
    "geocoded_column": {
      "latitude": "29.95758297147283",
      "longitude": "-90.01332362633477"
    }
  },
  {
    "service_request": "2025-1176284",
    "request_type": "Trash/Recycling",
    "request_reason": "Request a Large Item Pick Up",
    "date_created": "2025-03-17T15:26:36.000",
    "date_modified": "2025-03-17T15:26:38.000",
    "request_status": "Pending",
    "responsible_agency": "Department of Sanitation",
    "final_address": "817 Gordon St",
    "address_councildis": "E",
    "status": "Assigned to Contractor",
    "contractor": "Waste Pro",
    "rowid": "1176284",
    "final_x": "3698826.96068",
    "final_y": "532474.577732",
    "longitude": "-90.01332362633477",
    "latitude": "29.95758297147283",
    "geocoded_column": {
      "latitude": "29.95758297147283",
      "longitude": "-90.01332362633477"
    }
  },
  {
    "service_request": "2025-1176283",
    "request_type": "Abandoned Vehicles",
    "request_reason": "Abandoned/Junk Vehicles",
    "date_created": "2025-03-17T15:26:30.000",
    "date_modified": "2025-03-17T15:27:48.000",
    "request_status": "Pending",
    "responsible_agency": "Department of Public Works",
    "final_address": "1115 Marais St",
    "address_councildis": "C",
    "status": "Pending",
    "rowid": "1176283",
    "final_x": "3681519.80828",
    "final_y": "535306.73863",
    "longitude": "-90.06787572026104",
    "latitude": "29.965907320902488",
    "geocoded_column": {
      "latitude": "29.965907320902488",
      "longitude": "-90.06787572026104"
    }
  },
  {
    "service_request": "2025-1176282",
    "request_type": "Trash/Recycling",
    "request_reason": "Request a Large Item Pick Up",
    "date_created": "2025-03-17T15:24:13.000",
    "date_modified": "2025-03-17T15:24:15.000",
    "request_status": "Pending",
    "responsible_agency": "Department of Sanitation",
    "final_address": "7551 Rochon Ave",
    "address_councildis": "E",
    "status": "Assigned to Contractor",
    "contractor": "Waste Pro",
    "rowid": "1176282",
    "final_x": "3718962.38917",
    "final_y": "571467.157224",
    "longitude": "-89.9482543334188",
    "latitude": "30.064144003089986",
    "geocoded_column": {
      "latitude": "30.064144003089986",
      "longitude": "-89.9482543334188"
    }
  },
  {
    "service_request": "2025-1176281",
    "request_type": "Alley Ways",
    "request_reason": "Alley Way Regrading",
    "date_created": "2025-03-17T15:22:43.000",
    "date_modified": "2025-03-17T15:22:44.000",
    "request_status": "Pending",
    "responsible_agency": "Department of Public Works",
    "final_address": "6980 Louisville St",
    "address_councildis": "A",
    "status": "Pending",
    "rowid": "1176281",
    "final_x": "3668304.60692",
    "final_y": "554007.912856",
    "longitude": "-90.10897801024527",
    "latitude": "30.017723827304938",
    "geocoded_column": {
      "latitude": "30.017723827304938",
      "longitude": "-90.10897801024527"
    }
  },
  {
    "service_request": "2025-1176280",
    "request_type": "Trash/Recycling",
    "request_reason": "Request a Large Item Pick Up",
    "date_created": "2025-03-17T15:22:37.000",
    "date_modified": "2025-03-17T15:22:39.000",
    "request_status": "Pending",
    "responsible_agency": "Department of Sanitation",
    "final_address": "7531 Pebble Dr",
    "address_councildis": "E",
    "status": "Assigned to Contractor",
    "contractor": "Waste Pro",
    "rowid": "1176280",
    "final_x": "3715540.61656",
    "final_y": "568535.393061",
    "longitude": "-89.95918185160555",
    "latitude": "30.056196149312207",
    "geocoded_column": {
      "latitude": "30.056196149312207",
      "longitude": "-89.95918185160555"
    }
  },
  {
    "service_request": "2025-1176279",
    "request_type": "Trash/Recycling",
    "request_reason": "Replace Recycling Cart",
    "date_created": "2025-03-17T15:17:34.000",
    "date_modified": "2025-03-17T15:17:36.000",
    "request_status": "Pending",
    "responsible_agency": "Department of Sanitation",
    "final_address": "1441 Elysian Fields Ave",
    "address_councildis": "C",
    "status": "Pending",
    "rowid": "1176279",
    "final_x": "3685000.5094",
    "final_y": "537738.008392",
    "longitude": "-90.0567982561313",
    "latitude": "29.97248631073135",
    "geocoded_column": {
      "latitude": "29.97248631073135",
      "longitude": "-90.0567982561313"
    }
  },
  {
    "service_request": "2025-1176278",
    "request_type": "Trash/Recycling",
    "request_reason": "Repair Trash Cart",
    "date_created": "2025-03-17T15:16:15.000",
    "date_modified": "2025-03-17T15:16:16.000",
    "request_status": "Pending",
    "responsible_agency": "Department of Sanitation",
    "final_address": "5319 Laurel St",
    "address_councildis": "B",
    "status": "Assigned to Contractor",
    "contractor": "IV Waste",
    "rowid": "1176278",
    "final_x": "3667224.00602",
    "final_y": "517928.163574",
    "longitude": "-90.11360579045395",
    "latitude": "29.918548221536962",
    "geocoded_column": {
      "latitude": "29.918548221536962",
      "longitude": "-90.11360579045395"
    }
  },
  {
    "service_request": "2025-1176277",
    "request_type": "Trash/Recycling",
    "request_reason": "Repair Trash Cart",
    "date_created": "2025-03-17T15:15:51.000",
    "date_modified": "2025-03-17T15:15:54.000",
    "request_status": "Pending",
    "responsible_agency": "Department of Sanitation",
    "final_address": "700 Foucher St",
    "address_councildis": "B",
    "status": "Assigned to Contractor",
    "contractor": "IV Waste",
    "rowid": "1176277",
    "final_x": "3674593.65204",
    "final_y": "517915.293366",
    "longitude": "-90.09034412273735",
    "latitude": "29.918295067137283",
    "geocoded_column": {
      "latitude": "29.918295067137283",
      "longitude": "-90.09034412273735"
    }
  },
  {
    "service_request": "2025-1176276",
    "request_type": "Streetlights",
    "request_reason": "Streetlight Knocked Down/Leaning",
    "date_created": "2025-03-17T15:15:04.000",
    "date_modified": "2025-03-17T15:15:05.000",
    "request_status": "Pending",
    "responsible_agency": "Department of Public Works",
    "final_address": "2860 Law St",
    "address_councildis": "D",
    "status": "Pending",
    "contractor": "Legacy Professional Services",
    "rowid": "1176276",
    "final_x": "3688365.52911",
    "final_y": "542097.407948",
    "longitude": "-90.04601627977502",
    "latitude": "29.984369607794005",
    "geocoded_column": {
      "latitude": "29.984369607794005",
      "longitude": "-90.04601627977502"
    }
  },