[
  {
    "service_request": "2025-1187079",
    "request_type": "Street and Traffic Signs",
    "request_reason": "Traffic or Parking Sign Damaged or Missing",
    "date_created": "2025-04-25T23:34:28.000",
    "date_modified": "2025-04-25T23:34:31.000",
    "request_status": "Pending",
    "responsible_agency": "Department of Public Works",
    "final_address": "ELYSIAN FIELDS AVE & ROBERT E LEE BLVD",
    "address_councildis": "D",
    "status": "Pending",
    "rowid": "1187079",
    "final_x": "3683369.1",
    "final_y": "555753.08",
    "longitude": "-90.0613189326636",
    "latitude": "30.02207119115978",
    "geocoded_column": {
      "latitude": "30.02207119115978",
      "longitude": "-90.0613189326636"
    }
  },
  {
    "service_request": "2025-1187077",
    "request_type": "Parks & Parkways",
    "request_reason": "Request Tree Service (Right of Way/Public Property)",
    "date_created": "2025-04-25T23:00:01.000",
    "date_modified": "2025-04-25T23:00:02.000",
    "request_status": "Pending",
    "responsible_agency": "Department of Parks & Parkway",
    "final_address": "1413 Clara St",
    "address_councildis": "B",
    "status": "Pending",
    "rowid": "1187077",
    "final_x": "3675702.41089",
    "final_y": "527955.798207",
    "longitude": "-90.08649950414264",
    "latitude": "29.94587006812392",
    "geocoded_column": {
      "latitude": "29.94587006812392",
      "longitude": "-90.08649950414264"
    }
  },
  {
    "service_request": "2025-1187076",
    "request_type": "Trash/Recycling",
    "request_reason": "Order Trash Cart",
    "date_created": "2025-04-25T22:55:18.000",
    "date_modified": "2025-04-25T22:55:20.000",
    "request_status": "Pending",
    "responsible_agency": "Department of Sanitation",
    "final_address": "1413 Clara St",
    "address_councildis": "B",
    "status": "Assigned to Contractor",
    "contractor": "IV Waste",
    "rowid": "1187076",
    "final_x": "3675702.41089",
    "final_y": "527955.798207",
    "longitude": "-90.08649950414264",
    "latitude": "29.94587006812392",
    "geocoded_column": {
      "latitude": "29.94587006812392",
      "longitude": "-90.08649950414264"
    }
  },
  {
    "service_request": "2025-1187075",
    "request_type": "Trash/Recycling",
    "request_reason": "Order Recycling Cart",
    "date_created": "2025-04-25T21:52:21.000",
    "date_modified": "2025-04-25T21:52:23.000",
    "request_status": "Pending",
    "responsible_agency": "Department of Sanitation",
    "final_address": "1920 N Miro St",
    "address_councildis": "D",
    "status": "Pending",
    "rowid": "1187075",
    "final_x": "3682661.99996",
    "final_y": "540153.613067",
    "longitude": "-90.06409917193149",
    "latitude": "29.979199810736805",
    "geocoded_column": {
      "latitude": "29.979199810736805",
      "longitude": "-90.06409917193149"
    }
  },
  {
    "service_request": "2025-1187074",
    "request_type": "Trash/Recycling",
    "request_reason": "Repair Trash Cart",
    "date_created": "2025-04-25T21:44:20.000",
    "date_modified": "2025-04-25T21:44:22.000",
    "request_status": "Pending",
    "responsible_agency": "Department of Sanitation",
    "final_address": "4521 Elba St",
    "address_councildis": "B",
    "status": "Assigned to Contractor",
    "contractor": "IV Waste",
    "rowid": "1187074",
    "final_x": "3669372.17633",
    "final_y": "530685.914434",
    "longitude": "-90.10639393633625",
    "latitude": "29.953564879133587",
    "geocoded_column": {
      "latitude": "29.953564879133587",
      "longitude": "-90.10639393633625"
    }
  },
  {
    "service_request": "2025-1187073",
    "request_type": "Health Related Request",
    "request_reason": "Noise Ordinance Complaint",
    "date_created": "2025-04-25T21:18:53.000",
    "date_modified": "2025-04-25T21:18:55.000",
    "request_status": "Pending",
    "responsible_agency": "Health Department",
    "final_address": "600 N Broad St",
    "address_councildis": "D",
    "status": "Pending",
    "rowid": "1187073",
    "final_x": "3676514.68328",
    "final_y": "536431.051079",
    "longitude": "-90.0836430411453",
    "latitude": "29.969149839828454",
    "geocoded_column": {
      "latitude": "29.969149839828454",
      "longitude": "-90.0836430411453"
    }
  },
  {
    "service_request": "2025-1187072",
    "request_type": "Utility Poles",
    "request_reason": "Wires Sagging/Hanging Low",
    "date_created": "2025-04-25T21:18:19.000",
    "date_modified": "2025-04-25T21:18:21.000",
    "request_status": "Pending",
    "responsible_agency": "Utility Company Collective",
    "final_address": "2119 Bienville Ave",
    "address_councildis": "B",
    "status": "Pending",
    "rowid": "1187072",
    "final_x": "3677641.7565",
    "final_y": "534427.459461",
    "longitude": "-90.08015286340728",
    "latitude": "29.963606796725312",
    "geocoded_column": {
      "latitude": "29.963606796725312",
      "longitude": "-90.08015286340728"
    }
  },
  {
    "service_request": "2025-1187071",
    "request_type": "Abandoned Vehicles",
    "request_reason": "Abandoned/Junk Vehicles",
    "date_created": "2025-04-25T21:18:06.000",
    "date_modified": "2025-04-25T21:18:09.000",
    "request_status": "Pending",
    "responsible_agency": "Department of Public Works",
    "final_address": "4800 Crowder Blvd",
    "address_councildis": "E",
    "status": "Pending",
    "rowid": "1187071",
    "final_x": "3706300.04011",
    "final_y": "555931.274009",
    "longitude": "-89.98885694781305",
    "latitude": "30.021841275267573",
    "geocoded_column": {
      "latitude": "30.021841275267573",
      "longitude": "-89.98885694781305"
    }
  },
  {
    "service_request": "2025-1187070",
    "request_type": "Abandoned Vehicles",
    "request_reason": "Abandoned/Junk Vehicles",
    "date_created": "2025-04-25T21:11:26.000",
    "date_modified": "2025-04-25T21:11:27.000",
    "request_status": "Pending",
    "responsible_agency": "Department of Public Works",
    "final_address": "4800 Read Blvd",
    "address_councildis": "E",
    "status": "Pending",
    "rowid": "1187070",
    "final_x": "3712638.34501",
    "final_y": "556440.655514",
    "longitude": "-89.96881059327092",
    "latitude": "30.02303585900835",
    "geocoded_column": {
      "latitude": "30.02303585900835",
      "longitude": "-89.96881059327092"
    }
  },
  {
    "service_request": "2025-1187069",
    "request_type": "Trash/Recycling",
    "request_reason": "Missed Trash Pick-Up",
    "date_created": "2025-04-25T20:56:26.000",
    "date_modified": "2025-04-25T20:56:28.000",
    "request_status": "Pending",
    "responsible_agency": "Department of Sanitation",
    "final_address": "4911 Magnolia St",
    "address_councildis": "B",
    "status": "Assigned to Contractor",
    "contractor": "IV Waste",
    "rowid": "1187069",
    "final_x": "3669089.46644",
    "final_y": "524648.525436",
    "longitude": "-90.10749056344149",
    "latitude": "29.936972342251075",
    "geocoded_column": {
      "latitude": "29.936972342251075",
      "longitude": "-90.10749056344149"
    }
  },
  {
    "service_request": "2025-1187068",
    "request_type": "Trash/Recycling",
    "request_reason": "Illegal Dumping",
    "date_created": "2025-04-25T20:51:35.000",
    "date_modified": "2025-04-25T20:51:38.000",
    "request_status": "Pending",
    "responsible_agency": "Department of Sanitation",
    "final_address": "4400 BLK Lurline St",
    "address_councildis": "E",
    "status": "Pending",
    "rowid": "1187068",
    "final_x": "3712098.85201",
    "final_y": "554871.547525",
    "longitude": "-89.97057422009183",
    "latitude": "30.01873908207394",
    "geocoded_column": {
      "latitude": "30.01873908207394",
      "longitude": "-89.97057422009183"
    }
  },
  {
    "service_request": "2025-1187067",
    "request_type": "Property Maintenance",
    "request_reason": "Property Maintenance",
    "date_created": "2025-04-25T20:15:28.000",
    "date_modified": "2025-04-25T20:15:31.000",
    "request_status": "Pending",
    "responsible_agency": "Department of Code Enforcement",
    "final_address": "9701 Chef Menteur Hwy",
    "address_councildis": "E",
    "status": "Pending",
    "rowid": "1187067",
    "final_x": "3711626.12786",
    "final_y": "554851.646488",
    "longitude": "-89.97206859104811",
    "latitude": "30.01869981236506",
    "geocoded_column": {
      "latitude": "30.01869981236506",
      "longitude": "-89.97206859104811"
    }
  },
  {
    "service_request": "2025-1187066",
    "request_type": "Property Maintenance",
    "request_reason": "Property Maintenance",
    "date_created": "2025-04-25T18:52:59.000",
    "date_modified": "2025-04-25T18:53:02.000",
    "request_status": "Pending",
    "responsible_agency": "Department of Code Enforcement",
    "final_address": "5726 Burgundy St",
    "address_councildis": "E",
    "status": "Pending",
    "rowid": "1187066",
    "final_x": "3698350.484",
    "final_y": "532801.779716",
    "longitude": "-90.01481630157073",
    "latitude": "29.9584977452603",
    "geocoded_column": {
      "latitude": "29.9584977452603",
      "longitude": "-90.01481630157073"
    }
  },
  {
    "service_request": "2025-1187065",
    "request_type": "Property Maintenance",
    "request_reason": "Property Maintenance",
    "date_created": "2025-04-25T18:47:35.000",
    "date_modified": "2025-04-25T18:47:36.000",
    "request_status": "Pending",
    "responsible_agency": "Department of Code Enforcement",
    "final_address": "3023 Chippewa St",
    "address_councildis": "B",
    "status": "Pending",
    "rowid": "1187065",
    "final_x": "3677016.74677",
    "final_y": "519049.500407",
    "longitude": "-90.08265663183168",
    "latitude": "29.921341272484067",
    "geocoded_column": {
      "latitude": "29.921341272484067",
      "longitude": "-90.08265663183168"
    }
  },
  {
    "service_request": "2025-1187064",
    "request_type": "Trash/Recycling",
    "request_reason": "Order Recycling Cart",
    "date_created": "2025-04-25T18:22:47.000",
    "date_modified": "2025-04-25T18:22:48.000",
    "request_status": "Pending",
    "responsible_agency": "Department of Sanitation",
    "final_address": "4035 Vincennes Pl",
    "address_councildis": "B",
    "status": "Pending",
    "rowid": "1187064",
    "final_x": "3668545.13447",
    "final_y": "530367.034114",
    "longitude": "-90.10901615301192",
    "latitude": "29.952712387198797",
    "geocoded_column": {
      "latitude": "29.952712387198797",
      "longitude": "-90.10901615301192"
    }
  },
  {
    "service_request": "2025-1187063",
    "request_type": "Traffic Signals",
    "request_reason": "Traffic Signal Malfunctioning or Damaged",
    "date_created": "2025-04-25T18:03:27.000",
    "date_modified": "2025-04-25T18:03:29.000",
    "request_status": "Pending",
    "responsible_agency": "Department of Public Works",
    "final_address": "4515 Charlene Dr",
    "address_councildis": "E",
    "status": "Pending",
    "rowid": "1187063",
    "final_x": "3708115.79998",
    "final_y": "554156.404824",
    "longitude": "-89.98318575028601",
    "latitude": "30.016902367597588",
    "geocoded_column": {
      "latitude": "30.016902367597588",
      "longitude": "-89.98318575028601"
    }
  },
  {
    "service_request": "2025-1187062",
    "request_type": "Trash/Recycling",
    "request_reason": "Order Recycling Cart",
    "date_created": "2025-04-25T18:02:20.000",
    "date_modified": "2025-04-25T18:02:21.000",
    "request_status": "Pending",
    "responsible_agency": "Department of Sanitation",
    "final_address": "1444 St Mary St Unit 2",
    "address_councildis": "B",
    "status": "Pending",
    "rowid": "1187062",
    "final_x": "3678772.3819",
    "final_y": "523807.116283",
    "longitude": "-90.0769501992804",
    "latitude": "29.934370354861862",
    "geocoded_column": {
      "latitude": "29.934370354861862",
      "longitude": "-90.0769501992804"
    }
  },
  {
    "service_request": "2025-1187061",
    "request_type": "Healthy Homes",
    "request_reason": "Healthy Homes",
    "date_created": "2025-04-25T17:50:43.000",
    "date_modified": "2025-04-25T17:50:44.000",
    "request_status": "Pending",
    "responsible_agency": "Department of Code Enforcement",
    "final_address": "1823 Marais St",
    "address_councildis": "C",
    "status": "Pending",
    "rowid": "1187061",
    "final_x": "3683681.06345",
    "final_y": "536597.960583",
    "longitude": "-90.06100527433433",
    "latitude": "29.969391927145153",
    "geocoded_column": {
      "latitude": "29.969391927145153",
      "longitude": "-90.06100527433433"
    }
  },
  {
    "service_request": "2025-1187060",
    "request_type": "Traffic Safety",
    "request_reason": "Request for Traffic Calming due to Speeding",
    "date_created": "2025-04-25T17:48:08.000",
    "date_modified": "2025-04-25T17:48:10.000",
    "request_status": "Pending",
    "responsible_agency": "Department of Public Works",
    "final_address": "2336 Annunciation St",
    "address_councildis": "B",
    "status": "Pending",
    "rowid": "1187060",
    "final_x": "3678974.23586",
    "final_y": "520754.667193",
    "longitude": "-90.07641865827779",
    "latitude": "29.92597103234842",
    "geocoded_column": {
      "latitude": "29.92597103234842",
      "longitude": "-90.07641865827779"
    }
  },
  {
    "service_request": "2025-1187059",
    "request_type": "Trash/Recycling",
    "request_reason": "Missed Trash Pick-Up",
    "date_created": "2025-04-25T17:42:56.000",
    "date_modified": "2025-04-25T17:42:58.000",
    "request_status": "Pending",
    "responsible_agency": "Department of Sanitation",
    "final_address": "2931 St Claude Ave",
    "address_councildis": "C",
    "status": "Assigned to Contractor",
    "contractor": "IV Waste",
    "rowid": "1187059",
    "final_x": "3688401.44431",
    "final_y": "536252.633159",
    "longitude": "-90.04611022881703",
    "latitude": "29.968297431309566",
    "geocoded_column": {
      "latitude": "29.968297431309566",
      "longitude": "-90.04611022881703"
    }
  },
  {
    "service_request": "2025-1187058",
    "request_type": "Trash/Recycling",
    "request_reason": "Request a Large Item Pick Up",
    "date_created": "2025-04-25T16:57:37.000",
    "date_modified": "2025-04-25T16:58:51.000",
    "request_status": "Pending",
    "responsible_agency": "Department of Sanitation",
    "final_address": "7840 Arcadia Ln",
    "address_councildis": "E",
    "status": "Pending",
    "contractor": "Waste Pro",
    "rowid": "1187058",
    "final_x": "3711920.18725",
    "final_y": "567706.2289",
    "longitude": "-89.970656460957",
    "latitude": "30.054035171798642",
    "geocoded_column": {
      "latitude": "30.054035171798642",
      "longitude": "-89.970656460957"
    }
  },
  {
    "service_request": "2025-1187057",
    "request_type": "Trash/Recycling",
    "request_reason": "Request a Large Item Pick Up",
    "date_created": "2025-04-25T16:55:00.000",
    "date_modified": "2025-04-25T16:55:02.000",
    "request_status": "Pending",
    "responsible_agency": "Department of Sanitation",
    "final_address": "6338 Mandeville St",
    "address_councildis": "D",
    "status": "Assigned to Contractor",
    "contractor": "IV Waste",
    "rowid": "1187057",
    "final_x": "3684113.21141",
    "final_y": "556463.040794",
    "longitude": "-90.05894278208541",
    "latitude": "30.024000586992912",
    "geocoded_column": {
      "latitude": "30.024000586992912",
      "longitude": "-90.05894278208541"
    }
  },
  {
    "service_request": "2025-1187056",
    "request_type": "Healthy Homes",
    "request_reason": "Healthy Homes",
    "date_created": "2025-04-25T16:46:18.000",
    "date_modified": "2025-04-25T16:46:19.000",
    "request_status": "Pending",
    "responsible_agency": "Department of Code Enforcement",
    "final_address": "2426 Barracks St",
    "address_councildis": "D",
    "status": "Pending",
    "rowid": "1187056",
    "final_x": "3678923.1636",
    "final_y": "537987.982089",
    "longitude": "-90.07598293229198",
    "latitude": "29.973358419107047",
    "geocoded_column": {
      "latitude": "29.973358419107047",
      "longitude": "-90.07598293229198"
    }
  },
  {
    "service_request": "2025-1187055",
    "request_type": "Trash/Recycling",
    "request_reason": "Request a Large Item Pick Up",
    "date_created": "2025-04-25T16:44:11.000",
    "date_modified": "2025-04-25T16:44:12.000",
    "request_status": "Pending",
    "responsible_agency": "Department of Sanitation",
    "final_address": "1366 Laharpe St",
    "address_councildis": "C",
    "status": "Assigned to Contractor",
    "contractor": "IV Waste",
    "rowid": "1187055",
    "final_x": "3682547.75151",
    "final_y": "536954.032456",
    "longitude": "-90.0645719087264",
    "latitude": "29.970405555208636",
    "geocoded_column": {
      "latitude": "29.970405555208636",
      "longitude": "-90.0645719087264"
    }
  },
  {
    "service_request": "2025-1187054",
    "request_type": "Trash/Recycling",
    "request_reason": "Order Trash Cart",
    "date_created": "2025-04-25T16:43:18.000",
    "date_modified": "2025-04-25T16:43:20.000",
    "request_status": "Pending",
    "responsible_agency": "Department of Sanitation",
    "final_address": "1366 Laharpe St",
    "address_councildis": "C",
    "status": "Assigned to Contractor",
    "contractor": "IV Waste",
    "rowid": "1187054",
    "final_x": "3682547.75151",
    "final_y": "536954.032456",
    "longitude": "-90.0645719087264",
    "latitude": "29.970405555208636",
    "geocoded_column": {
      "latitude": "29.970405555208636",
      "longitude": "-90.0645719087264"
    }
  },
  {
    "service_request": "2025-1187053",
    "request_type": "Trash/Recycling",
    "request_reason": "Repair Trash Cart",
    "date_created": "2025-04-25T16:41:35.000",
    "date_modified": "2025-04-25T16:41:37.000",
    "request_status": "Pending",
    "responsible_agency": "Department of Sanitation",
    "final_address": "4518 Sierra Madre Dr",
    "address_councildis": "E",
    "status": "Assigned to Contractor",
    "contractor": "Waste Pro",
    "rowid": "1187053",
    "final_x": "3713936.85419",
    "final_y": "555409.677465",
    "longitude": "-89.96474654627855",
    "latitude": "30.020158493965184",
    "geocoded_column": {
      "latitude": "30.020158493965184",
      "longitude": "-89.96474654627855"
    }
  },
  {
    "service_request": "2025-1187052",
    "request_type": "Trash/Recycling",
    "request_reason": "Order Second Trash Cart",
    "date_created": "2025-04-25T16:40:35.000",
    "date_modified": "2025-04-25T16:40:37.000",
    "request_status": "Pending",
    "responsible_agency": "Department of Sanitation",
    "final_address": "4518 Sierra Madre Dr",
    "address_councildis": "E",
    "status": "Assigned to Contractor",
    "contractor": "Waste Pro",
    "rowid": "1187052",
    "final_x": "3713936.85419",
    "final_y": "555409.677465",
    "longitude": "-89.96474654627855",
    "latitude": "30.020158493965184",
    "geocoded_column": {
      "latitude": "30.020158493965184",
      "longitude": "-89.96474654627855"
    }
  },
  {
    "service_request": "2025-1187051",
    "request_type": "Trash/Recycling",
    "request_reason": "Request a Large Item Pick Up",
    "date_created": "2025-04-25T16:36:15.000",
    "date_modified": "2025-04-25T16:36:17.000",
    "request_status": "Pending",
    "responsible_agency": "Department of Sanitation",
    "final_address": "2809 St Charles Ave",
    "address_councildis": "B",
    "status": "Assigned to Contractor",
    "contractor": "IV Waste",
    "rowid": "1187051",
    "final_x": "3675795.02344",
    "final_y": "522531.79001",
    "longitude": "-90.08639345918574",
    "latitude": "29.93095305294322",
    "geocoded_column": {
      "latitude": "29.93095305294322",
      "longitude": "-90.08639345918574"
    }
  },
  {
    "service_request": "2025-1187050",
    "request_type": "Street and Traffic Signs",
    "request_reason": "Stop Sign Missing or Damaged",
    "date_created": "2025-04-25T16:34:07.000",
    "date_modified": "2025-04-25T16:34:08.000",
    "request_status": "Pending",
    "responsible_agency": "Department of Public Works",
    "final_address": "7556 Michigan St",
    "address_councildis": "E",
    "status": "Pending",
    "rowid": "1187050",
    "final_x": "3711927.33278",
    "final_y": "566235.051619",
    "longitude": "-89.97068917439678",
    "latitude": "30.049989798609325",
    "geocoded_column": {
      "latitude": "30.049989798609325",
      "longitude": "-89.97068917439678"
    }
  },
  {
    "service_request": "2025-1187049",
    "request_type": "Property Maintenance",
    "request_reason": "Property Maintenance",
    "date_created": "2025-04-25T16:33:38.000",
    "date_modified": "2025-04-25T16:33:40.000",
    "request_status": "Pending",
    "responsible_agency": "Department of Code Enforcement",
    "final_address": "905 Dante St",
    "address_councildis": "A",
    "status": "Pending",
    "rowid": "1187049",
    "final_x": "3660803.02138",
    "final_y": "528126.617663",
    "longitude": "-90.13353648335915",
    "latitude": "29.9467771504927",
    "geocoded_column": {
      "latitude": "29.9467771504927",
      "longitude": "-90.13353648335915"
    }
  },
  {
    "service_request": "2025-1187048",
    "request_type": "Trash/Recycling",
    "request_reason": "Request a Large Item Pick Up",
    "date_created": "2025-04-25T16:30:41.000",
    "date_modified": "2025-04-25T16:30:51.000",
    "request_status": "Pending",
    "responsible_agency": "Department of Sanitation",
    "final_address": "4631 Clara St",
    "address_councildis": "B",
    "status": "Assigned to Contractor",
    "contractor": "IV Waste",
    "rowid": "1187048",
    "final_x": "3669481.11054",
    "final_y": "525029.117693",
    "longitude": "-90.10624125077786",
    "latitude": "29.93800732162591",
    "geocoded_column": {
      "latitude": "29.93800732162591",
      "longitude": "-90.10624125077786"
    }
  },
  {
    "service_request": "2025-1187047",
    "request_type": "Trash/Recycling",
    "request_reason": "Order Trash Cart",
    "date_created": "2025-04-25T16:27:49.000",
    "date_modified": "2025-04-25T16:27:51.000",
    "request_status": "Pending",
    "responsible_agency": "Department of Sanitation",
    "final_address": "5320 Dryades St",
    "address_councildis": "B",
    "status": "Assigned to Contractor",
    "contractor": "IV Waste",
    "rowid": "1187047",
    "final_x": "3667705.92263",
    "final_y": "521757.448954",
    "longitude": "-90.11195579077139",
    "latitude": "29.92906343175613",
    "geocoded_column": {
      "latitude": "29.92906343175613",
      "longitude": "-90.11195579077139"
    }
  },
  {
    "service_request": "2025-1187046",
    "request_type": "Parks & Parkways",
    "request_reason": "Request Tree Service (Right of Way/Public Property)",
    "date_created": "2025-04-25T16:26:36.000",
    "date_modified": "2025-04-25T16:26:39.000",
    "request_status": "Pending",
    "responsible_agency": "Department of Parks & Parkway",
    "final_address": "1810 Orleans Ave",
    "address_councildis": "D",
    "status": "Pending",
    "rowid": "1187046",
    "final_x": "3679317.67106",
    "final_y": "535023.48583",
    "longitude": "-90.07483982639361",
    "latitude": "29.96519516094099",
    "geocoded_column": {
      "latitude": "29.96519516094099",
      "longitude": "-90.07483982639361"
    }
  },
  {
    "service_request": "2025-1187045",
    "request_type": "Street and Traffic Signs",
    "request_reason": "Street Name Sign Damaged or Missing",
    "date_created": "2025-04-25T16:22:35.000",
    "date_modified": "2025-04-25T16:22:37.000",
    "request_status": "Pending",
    "responsible_agency": "Department of Public Works",
    "final_address": "CARONDELET ST & CALLIOPE ST",
    "address_councildis": "B",
    "status": "Pending",
    "rowid": "1187045",
    "final_x": "3679545.5",
    "final_y": "526957.58",
    "longitude": "-90.07440021195022",
    "latitude": "29.943009755195227",
    "geocoded_column": {
      "latitude": "29.943009755195227",
      "longitude": "-90.07440021195022"
    }
  },
  {
    "service_request": "2025-1187044",
    "request_type": "Street and Traffic Signs",
    "request_reason": "Street Name Sign Damaged or Missing",
    "date_created": "2025-04-25T16:21:43.000",
    "date_modified": "2025-04-25T16:21:45.000",
    "request_status": "Pending",
    "responsible_agency": "Department of Public Works",
    "final_address": "DRYADES ST & CALLIOPE ST",
    "address_councildis": "B",
    "status": "Pending",
    "rowid": "1187044",
    "final_x": "3678786.03",
    "final_y": "527495.82",
    "longitude": "-90.07677940951324",
    "latitude": "29.94451265845217",
    "geocoded_column": {
      "latitude": "29.94451265845217",
      "longitude": "-90.07677940951324"
    }
  },
  {
    "service_request": "2025-1187043",
    "request_type": "Street and Traffic Signs",
    "request_reason": "Street Name Sign Damaged or Missing",
    "date_created": "2025-04-25T16:19:58.000",
    "date_modified": "2025-04-25T16:20:00.000",
    "request_status": "Pending",
    "responsible_agency": "Department of Public Works",
    "final_address": "CARONDELET ST & CALLIOPE ST",
    "address_councildis": "B",
    "status": "Pending",
    "rowid": "1187043",
    "final_x": "3679545.5",
    "final_y": "526957.58",
    "longitude": "-90.07440021195022",
    "latitude": "29.943009755195227",
    "geocoded_column": {
      "latitude": "29.943009755195227",
      "longitude": "-90.07440021195022"
    }
  },
  {
    "service_request": "2025-1187042",
    "request_type": "Street and Traffic Signs",
    "request_reason": "Street Name Sign Damaged or Missing",
    "date_created": "2025-04-25T16:18:58.000",
    "date_modified": "2025-04-25T16:19:00.000",
    "request_status": "Pending",
    "responsible_agency": "Department of Public Works",
    "final_address": "ST CHARLES AVE & CALLIOPE ST",
    "address_councildis": "B",
    "status": "Pending",
    "rowid": "1187042",
    "final_x": "3679819.05",
    "final_y": "526554.96",
    "longitude": "-90.07355052352129",
    "latitude": "29.941894417235446",
    "geocoded_column": {
      "latitude": "29.941894417235446",
      "longitude": "-90.07355052352129"
    }
  },
  {
    "service_request": "2025-1187041",
    "request_type": "Street and Traffic Signs",
    "request_reason": "Street Name Sign Damaged or Missing",
    "date_created": "2025-04-25T16:17:42.000",
    "date_modified": "2025-04-25T16:17:43.000",
    "request_status": "Pending",
    "responsible_agency": "Department of Public Works",
    "final_address": "CAMP ST & CALLIOPE ST",
    "address_councildis": "B",
    "status": "Pending",
    "rowid": "1187041",
    "final_x": "3680373.98",
    "final_y": "526244.54",
    "longitude": "-90.07180928388992",
    "latitude": "29.94102407783181",
    "geocoded_column": {
      "latitude": "29.94102407783181",
      "longitude": "-90.07180928388992"
    }
  },
  {
    "service_request": "2025-1187040",
    "request_type": "Trash/Recycling",
    "request_reason": "Request a Large Item Pick Up",
    "date_created": "2025-04-25T16:16:59.000",
    "date_modified": "2025-04-25T16:17:00.000",
    "request_status": "Pending",
    "responsible_agency": "Department of Sanitation",
    "final_address": "8417 Apple St",
    "address_councildis": "A",
    "status": "Assigned to Contractor",
    "contractor": "IV Waste",
    "rowid": "1187040",
    "final_x": "3664473.40365",
    "final_y": "532958.049924",
    "longitude": "-90.12178640609676",
    "latitude": "29.95995583617637",
    "geocoded_column": {
      "latitude": "29.95995583617637",
      "longitude": "-90.12178640609676"
    }
  },
  {
    "service_request": "2025-1187039",
    "request_type": "Street and Traffic Signs",
    "request_reason": "Street Name Sign Damaged or Missing",
    "date_created": "2025-04-25T16:16:21.000",
    "date_modified": "2025-04-25T16:16:23.000",
    "request_status": "Pending",
    "responsible_agency": "Department of Public Works",
    "final_address": "ST MARY ST & CAMP ST",
    "address_councildis": "B",
    "status": "Pending",
    "rowid": "1187039",
    "final_x": "3679464.2",
    "final_y": "523135.98",
    "longitude": "-90.07478942090734",
    "latitude": "29.932504074947023",
    "geocoded_column": {
      "latitude": "29.932504074947023",
      "longitude": "-90.07478942090734"
    }
  },
  {
    "service_request": "2025-1187038",
    "request_type": "Trash/Recycling",
    "request_reason": "Return Trash Cart",
    "date_created": "2025-04-25T16:12:43.000",
    "date_modified": "2025-04-25T16:12:46.000",
    "request_status": "Pending",
    "responsible_agency": "Department of Sanitation",
    "final_address": "3743 Mimosa Ct",
    "address_councildis": "C",
    "status": "Assigned to Contractor",
    "contractor": "Richards Disposal",
    "rowid": "1187038",
    "final_x": "3703723.3969",
    "final_y": "513205.06245",
    "longitude": "-89.99857103347419",
    "latitude": "29.904442523676604",
    "geocoded_column": {
      "latitude": "29.904442523676604",
      "longitude": "-89.99857103347419"
    }
  },
  {
    "service_request": "2025-1187037",
    "request_type": "Drainage",
    "request_reason": "Street Flooding",
    "date_created": "2025-04-25T16:08:25.000",
    "date_modified": "2025-04-25T16:08:28.000",
    "request_status": "Pending",
    "responsible_agency": "Sewerage & Water Board",
    "final_address": "4331 Alba Rd",
    "address_councildis": "E",
    "status": "Pending",
    "rowid": "1187037",
    "final_x": "3761683.41193",
    "final_y": "572677.352809",
    "longitude": "-89.81316264578797",
    "latitude": "30.065982354177578",
    "geocoded_column": {
      "latitude": "30.065982354177578",
      "longitude": "-89.81316264578797"
    }
  },
  {
    "service_request": "2025-1187036",
    "request_type": "Street and Traffic Signs",
    "request_reason": "Street Name Sign Damaged or Missing",
    "date_created": "2025-04-25T16:06:32.000",
    "date_modified": "2025-04-25T16:06:34.000",
    "request_status": "Pending",
    "responsible_agency": "Department of Public Works",
    "final_address": "2200 Rev. John Raphael, Jr. Way Ste A",
    "address_councildis": "B",
    "status": "Pending",
    "rowid": "1187036",
    "final_x": "3675793.03054",
    "final_y": "525974.246589",
    "longitude": "-90.08628147773392",
    "latitude": "29.940418742767207",
    "geocoded_column": {
      "latitude": "29.940418742767207",
      "longitude": "-90.08628147773392"
    }
  },
  {
    "service_request": "2025-1187035",
    "request_type": "Roads and Streets",
    "request_reason": "Street Subsidence (Sinking)",
    "date_created": "2025-04-25T16:02:44.000",
    "date_modified": "2025-04-25T16:02:46.000",
    "request_status": "Pending",
    "responsible_agency": "Department of Public Works",
    "final_address": "714 Bordeaux St",
    "address_councildis": "B",
    "status": "Pending",
    "rowid": "1187035",
    "final_x": "3669614.75047",
    "final_y": "518031.758902",
    "longitude": "-90.10605595028083",
    "latitude": "29.918762882743955",
    "geocoded_column": {
      "latitude": "29.918762882743955",
      "longitude": "-90.10605595028083"
    }
  },
  {
    "service_request": "2025-1187034",
    "request_type": "Drainage",
    "request_reason": "Catch Basin Clogged",
    "date_created": "2025-04-25T16:02:44.000",
    "date_modified": "2025-04-25T16:02:45.000",
    "request_status": "Pending",
    "responsible_agency": "Sewerage & Water Board",
    "final_address": "4341 Alba Rd",
    "address_councildis": "E",
    "status": "Pending",
    "rowid": "1187034",
    "final_x": "3761691.69321",
    "final_y": "572743.674025",
    "longitude": "-89.81313368679389",
    "latitude": "30.06616440488415",
    "geocoded_column": {
      "latitude": "30.06616440488415",
      "longitude": "-89.81313368679389"
    }
  },
  {
    "service_request": "2025-1187033",
    "request_type": "Trash/Recycling",
    "request_reason": "Request a Large Item Pick Up",
    "date_created": "2025-04-25T16:00:48.000",
    "date_modified": "2025-04-25T16:00:49.000",
    "request_status": "Pending",
    "responsible_agency": "Department of Sanitation",
    "final_address": "3702 Bienville Ave",
    "address_councildis": "B",
    "status": "Assigned to Contractor",
    "contractor": "IV Waste",
    "rowid": "1187033",
    "final_x": "3672723.72776",
    "final_y": "538012.999305",
    "longitude": "-90.09556120750223",
    "latitude": "29.973612803812465",
    "geocoded_column": {
      "latitude": "29.973612803812465",
      "longitude": "-90.09556120750223"
    }
  },
  {
    "service_request": "2025-1187032",
    "request_type": "Healthy Homes",
    "request_reason": "Healthy Homes",
    "date_created": "2025-04-25T15:59:55.000",
    "date_modified": "2025-04-25T15:59:58.000",
    "request_status": "Pending",
    "responsible_agency": "Department of Code Enforcement",
    "final_address": "2309 Baronne St Apt 106",
    "address_councildis": "B",
    "status": "Pending",
    "rowid": "1187032",
    "final_x": "3676642.40155",
    "final_y": "523999.785532",
    "longitude": "-90.08366785832601",
    "latitude": "29.93496417802681",
    "geocoded_column": {
      "latitude": "29.93496417802681",
      "longitude": "-90.08366785832601"
    }
  },
  {
    "service_request": "2025-1187031",
    "request_type": "Mosquito, Termite & Rodent Control",
    "request_reason": "Rodent Complaint (Mice)",
    "date_created": "2025-04-25T15:56:37.000",
    "date_modified": "2025-04-25T15:56:39.000",
    "request_status": "Pending",
    "responsible_agency": "Mosquito, Termite & Rodent Control Board",
    "final_address": "2626 Palmer Ave",
    "address_councildis": "A",
    "status": "Pending",
    "rowid": "1187031",
    "final_x": "3666616.65729",
    "final_y": "526444.323326",
    "longitude": "-90.11523711498045",
    "latitude": "29.941982720142903",
    "geocoded_column": {
      "latitude": "29.941982720142903",
      "longitude": "-90.11523711498045"
    }
  },
  {
    "service_request": "2025-1187030",
    "request_type": "Trash/Recycling",
    "request_reason": "Request a Large Item Pick Up",
    "date_created": "2025-04-25T15:55:29.000",
    "date_modified": "2025-04-25T15:55:31.000",
    "request_status": "Pending",
    "responsible_agency": "Department of Sanitation",
    "final_address": "616 Sixth St",
    "address_councildis": "B",
    "status": "Assigned to Contractor",
    "contractor": "IV Waste",
    "rowid": "1187030",
    "final_x": "3677513.93486",
    "final_y": "519130.305271",
    "longitude": "-90.08108443967728",
    "latitude": "29.921548528515974",
    "geocoded_column": {
      "latitude": "29.921548528515974",
      "longitude": "-90.08108443967728"
    }
  },
  {
    "service_request": "2025-1187029",
    "request_type": "Trash/Recycling",
    "request_reason": "Dead Animal Pick Up",
    "date_created": "2025-04-25T15:55:16.000",
    "date_modified": "2025-04-25T15:55:18.000",
    "request_status": "Pending",
    "responsible_agency": "Department of Sanitation",
    "final_address": "2825 Banks St",
    "address_councildis": "B",
    "status": "Assigned to Contractor",
    "contractor": "IV Waste",
    "rowid": "1187029",
    "final_x": "3674015.10862",
    "final_y": "534682.640006",
    "longitude": "-90.09159672742649",
    "latitude": "29.96441702120774",
    "geocoded_column": {
      "latitude": "29.96441702120774",
      "longitude": "-90.09159672742649"
    }
  },
  {
    "service_request": "2025-1187028",
    "request_type": "Trash/Recycling",
    "request_reason": "Request a Large Item Pick Up",
    "date_created": "2025-04-25T15:51:05.000",
    "date_modified": "2025-04-25T15:51:06.000",
    "request_status": "Pending",
    "responsible_agency": "Department of Sanitation",
    "final_address": "4777 Eastern St",
    "address_councildis": "D",
    "status": "Assigned to Contractor",
    "contractor": "IV Waste",
    "rowid": "1187028",
    "final_x": "3688032.26422",
    "final_y": "550949.001685",
    "longitude": "-90.0467549901984",
    "latitude": "30.008718585449735",
    "geocoded_column": {
      "latitude": "30.008718585449735",
      "longitude": "-90.0467549901984"
    }
  },
  {
    "service_request": "2025-1187027",
    "request_type": "Trash/Recycling",
    "request_reason": "Request a Large Item Pick Up",
    "date_created": "2025-04-25T15:51:03.000",
    "date_modified": "2025-04-25T15:51:05.000",
    "request_status": "Pending",
    "responsible_agency": "Department of Sanitation",
    "final_address": "1744 Reynes St",
    "address_councildis": "E",
    "status": "Assigned to Contractor",
    "contractor": "Waste Pro",
    "rowid": "1187027",
    "final_x": "3696607.44944",
    "final_y": "536856.916424",
    "longitude": "-90.02017356438172",
    "latitude": "29.969702965342986",
    "geocoded_column": {
      "latitude": "29.969702965342986",
      "longitude": "-90.02017356438172"
    }
  },
  {
    "service_request": "2025-1187026",
    "request_type": "Trash/Recycling",
    "request_reason": "Order Trash Cart",
    "date_created": "2025-04-25T15:45:53.000",
    "date_modified": "2025-04-25T15:45:56.000",
    "request_status": "Pending",
    "responsible_agency": "Department of Sanitation",
    "final_address": "1470 Constance St",
    "address_councildis": "B",
    "status": "Assigned to Contractor",
    "contractor": "IV Waste",
    "rowid": "1187026",
    "final_x": "3680620.27752",
    "final_y": "523870.087484",
    "longitude": "-90.07111425786616",
    "latitude": "29.934487662574707",
    "geocoded_column": {
      "latitude": "29.934487662574707",
      "longitude": "-90.07111425786616"
    }
  },
  {
    "service_request": "2025-1187025",
    "request_type": "Trash/Recycling",
    "request_reason": "Order Trash Cart",
    "date_created": "2025-04-25T15:44:55.000",
    "date_modified": "2025-04-25T15:44:57.000",
    "request_status": "Pending",
    "responsible_agency": "Department of Sanitation",
    "final_address": "1470 Constance St",
    "address_councildis": "B",
    "status": "Assigned to Contractor",
    "contractor": "IV Waste",
    "rowid": "1187025",
    "final_x": "3680620.27752",
    "final_y": "523870.087484",
    "longitude": "-90.07111425786616",
    "latitude": "29.934487662574707",
    "geocoded_column": {
      "latitude": "29.934487662574707",
      "longitude": "-90.07111425786616"
    }
  },
  {
    "service_request": "2025-1187024",
    "request_type": "Abandoned Vehicles",
    "request_reason": "Abandoned/Junk Vehicles",
    "date_created": "2025-04-25T15:36:37.000",
    "date_modified": "2025-04-25T15:38:42.000",
    "request_status": "Pending",
    "responsible_agency": "Department of Public Works",
    "final_address": "1810 Burdette St",
    "address_councildis": "A",
    "status": "Pending",
    "rowid": "1187024",
    "final_x": "3664251.9712",
    "final_y": "529282.040641",
    "longitude": "-90.12260829809087",
    "latitude": "29.949854440325712",
    "geocoded_column": {
      "latitude": "29.949854440325712",
      "longitude": "-90.12260829809087"
    }
  },
  {
    "service_request": "2025-1187023",
    "request_type": "Trash/Recycling",
    "request_reason": "Repair Trash Cart",
    "date_created": "2025-04-25T15:35:55.000",
    "date_modified": "2025-04-25T15:35:56.000",
    "request_status": "Pending",
    "responsible_agency": "Department of Sanitation",
    "final_address": "1619 General Pershing St",
    "address_councildis": "B",
    "status": "Assigned to Contractor",
    "contractor": "IV Waste",
    "rowid": "1187023",
    "final_x": "3671329.86305",
    "final_y": "521103.217209",
    "longitude": "-90.10053791505965",
    "latitude": "29.92715779111032",
    "geocoded_column": {
      "latitude": "29.92715779111032",
      "longitude": "-90.10053791505965"
    }
  },
  {
    "service_request": "2025-1187022",
    "request_type": "Trash/Recycling",
    "request_reason": "Replace Trash Cart",
    "date_created": "2025-04-25T15:15:42.000",
    "date_modified": "2025-04-25T15:15:45.000",
    "request_status": "Pending",
    "responsible_agency": "Department of Sanitation",
    "final_address": "2232 Pauline St",
    "address_councildis": "D",
    "status": "Assigned to Contractor",
    "contractor": "IV Waste",
    "rowid": "1187022",
    "final_x": "3692264.71734",
    "final_y": "539868.08065",
    "longitude": "-90.03378039383504",
    "latitude": "29.97811872875554",
    "geocoded_column": {
      "latitude": "29.97811872875554",
      "longitude": "-90.03378039383504"
    }
  },
  {
    "service_request": "2025-1187021",
    "request_type": "Trash/Recycling",
    "request_reason": "Request a Large Item Pick Up",
    "date_created": "2025-04-25T15:14:38.000",
    "date_modified": "2025-04-25T15:14:40.000",
    "request_status": "Pending",
    "responsible_agency": "Department of Sanitation",
    "final_address": "4237 St Ann St",
    "address_councildis": "A",
    "status": "Assigned to Contractor",
    "contractor": "IV Waste",
    "rowid": "1187021",
    "final_x": "3671925.40315",
    "final_y": "541057.808588",
    "longitude": "-90.0979788184738",
    "latitude": "29.982008682521545",
    "geocoded_column": {
      "latitude": "29.982008682521545",
      "longitude": "-90.0979788184738"
    }
  },
  {
    "service_request": "2025-1187020",
    "request_type": "Trash/Recycling",
    "request_reason": "Request a Large Item Pick Up",
    "date_created": "2025-04-25T15:11:19.000",
    "date_modified": "2025-04-25T15:11:21.000",
    "request_status": "Pending",
    "responsible_agency": "Department of Sanitation",
    "final_address": "2517 Carondelet St",
    "address_councildis": "B",
    "status": "Assigned to Contractor",
    "contractor": "IV Waste",
    "rowid": "1187020",
    "final_x": "3676328.37665",
    "final_y": "523314.216699",
    "longitude": "-90.08468281806941",
    "latitude": "29.93308850105249",
    "geocoded_column": {
      "latitude": "29.93308850105249",
      "longitude": "-90.08468281806941"
    }
  },
  {
    "service_request": "2025-1187019",
    "request_type": "Trash/Recycling",
    "request_reason": "Repair Trash Cart",
    "date_created": "2025-04-25T15:06:16.000",
    "date_modified": "2025-04-25T15:06:19.000",
    "request_status": "Pending",
    "responsible_agency": "Department of Sanitation",
    "final_address": "9121 Stroelitz St",
    "address_councildis": "A",
    "status": "Assigned to Contractor",
    "contractor": "IV Waste",
    "rowid": "1187019",
    "final_x": "3665232.18023",
    "final_y": "537503.929224",
    "longitude": "-90.1192382459398",
    "latitude": "29.972433422570845",
    "geocoded_column": {
      "latitude": "29.972433422570845",
      "longitude": "-90.1192382459398"
    }
  },
  {
    "service_request": "2025-1187018",
    "request_type": "Trash/Recycling",
    "request_reason": "Request a Large Item Pick Up",
    "date_created": "2025-04-25T15:04:32.000",
    "date_modified": "2025-04-25T15:04:35.000",
    "request_status": "Pending",
    "responsible_agency": "Department of Sanitation",
    "final_address": "5831 Abbey Dr",
    "address_councildis": "C",
    "status": "Assigned to Contractor",
    "contractor": "Richards Disposal",
    "rowid": "1187018",
    "final_x": "3705268.67102",
    "final_y": "520859.007097",
    "longitude": "-89.99341167409789",
    "latitude": "29.92543864712634",
    "geocoded_column": {
      "latitude": "29.92543864712634",
      "longitude": "-89.99341167409789"
    }
  },
  {
    "service_request": "2025-1187017",
    "request_type": "Abandoned Vehicles",
    "request_reason": "Abandoned/Junk Vehicles",
    "date_created": "2025-04-25T15:01:42.000",
    "date_modified": "2025-04-25T15:01:44.000",
    "request_status": "Pending",
    "responsible_agency": "Department of Public Works",
    "final_address": "3031 Jena St",
    "address_councildis": "B",
    "status": "Pending",
    "rowid": "1187017",
    "final_x": "3669966.52974",
    "final_y": "526171.01203",
    "longitude": "-90.10467007966501",
    "latitude": "29.941132858737173",
    "geocoded_column": {
      "latitude": "29.941132858737173",
      "longitude": "-90.10467007966501"
    }
  },
  {
    "service_request": "2025-1187016",
    "request_type": "Trash/Recycling",
    "request_reason": "Repair Trash Cart",
    "date_created": "2025-04-25T14:59:19.000",
    "date_modified": "2025-04-25T14:59:54.000",
    "request_status": "Pending",
    "responsible_agency": "Department of Sanitation",
    "final_address": "179 Bellaire Dr",
    "address_councildis": "A",
    "status": "Assigned to Contractor",
    "contractor": "IV Waste",
    "rowid": "1187016",
    "final_x": "3663920.37645",
    "final_y": "540686.788235",
    "longitude": "-90.12327501777199",
    "latitude": "29.981223378291695",
    "geocoded_column": {
      "latitude": "29.981223378291695",
      "longitude": "-90.12327501777199"
    }
  },
  {
    "service_request": "2025-1187015",
    "request_type": "Trash/Recycling",
    "request_reason": "Request a Large Item Pick Up",
    "date_created": "2025-04-25T14:59:17.000",
    "date_modified": "2025-04-25T14:59:19.000",
    "request_status": "Pending",
    "responsible_agency": "Department of Sanitation",
    "final_address": "2312 Dauphine St",
    "address_councildis": "C",
    "status": "Assigned to Contractor",
    "contractor": "IV Waste",
    "rowid": "1187015",
    "final_x": "3685622.23394",
    "final_y": "535199.99879",
    "longitude": "-90.05492417180206",
    "latitude": "29.965488607219516",
    "geocoded_column": {
      "latitude": "29.965488607219516",
      "longitude": "-90.05492417180206"
    }
  },
  {
    "service_request": "2025-1187014",
    "request_type": "Trash/Recycling",
    "request_reason": "Repair Trash Cart",
    "date_created": "2025-04-25T14:57:15.000",
    "date_modified": "2025-04-25T14:57:17.000",
    "request_status": "Pending",
    "responsible_agency": "Department of Sanitation",
    "final_address": "4015 Urquhart St",
    "address_councildis": "D",
    "status": "Assigned to Contractor",
    "contractor": "IV Waste",
    "rowid": "1187014",
    "final_x": "3692164.18038",
    "final_y": "536101.426631",
    "longitude": "-90.03423280012028",
    "latitude": "29.967764902032602",
    "geocoded_column": {
      "latitude": "29.967764902032602",
      "longitude": "-90.03423280012028"
    }
  },
  {
    "service_request": "2025-1187013",
    "request_type": "Trash/Recycling",
    "request_reason": "Request a Large Item Pick Up",
    "date_created": "2025-04-25T14:57:04.000",
    "date_modified": "2025-04-25T19:23:34.000",
    "case_close_date": "2025-04-25T14:23:33.000",
    "request_status": "Closed",
    "responsible_agency": "Department of Sanitation",
    "final_address": "8502 Chase St",
    "address_councildis": "E",
    "status": "Duplicate Request",
    "contractor": "Waste Pro",
    "contractor_action": "Duplicate",
    "rowid": "1187013",
    "final_x": "3703385.21668",
    "final_y": "563248.86352",
    "longitude": "-89.99779746942464",
    "latitude": "30.04205551309708",
    "geocoded_column": {
      "latitude": "30.04205551309708",
      "longitude": "-89.99779746942464"
    }
  },
  {
    "service_request": "2025-1187012",
    "request_type": "Trash/Recycling",
    "request_reason": "Request a Large Item Pick Up",
    "date_created": "2025-04-25T14:56:02.000",
    "date_modified": "2025-04-25T14:56:04.000",
    "request_status": "Pending",
    "responsible_agency": "Department of Sanitation",
    "final_address": "2312 Dauphine St",
    "address_councildis": "C",
    "status": "Assigned to Contractor",
    "contractor": "IV Waste",
    "rowid": "1187012",
    "final_x": "3685622.23394",
    "final_y": "535199.99879",
    "longitude": "-90.05492417180206",
    "latitude": "29.965488607219516",
    "geocoded_column": {
      "latitude": "29.965488607219516",
      "longitude": "-90.05492417180206"
    }
  },
  {
    "service_request": "2025-1187011",
    "request_type": "Trash/Recycling",
    "request_reason": "Request a Large Item Pick Up",
    "date_created": "2025-04-25T14:54:27.000",
    "date_modified": "2025-04-25T14:54:30.000",
    "request_status": "Pending",
    "responsible_agency": "Department of Sanitation",
    "final_address": "5440 Grand Bayou Dr",
    "address_councildis": "E",
    "status": "Assigned to Contractor",
    "contractor": "Waste Pro",
    "rowid": "1187011",
    "final_x": "3725934.35929",
    "final_y": "563605.984865",
    "longitude": "-89.92652079138843",
    "latitude": "30.042295509262967",
    "geocoded_column": {
      "latitude": "30.042295509262967",
      "longitude": "-89.92652079138843"
    }
  },
  {
    "service_request": "2025-1187010",
    "request_type": "Trash/Recycling",
    "request_reason": "Dead Animal Pick Up",
    "date_created": "2025-04-25T14:46:10.000",
    "date_modified": "2025-04-25T14:46:12.000",
    "request_status": "Pending",
    "responsible_agency": "Department of Sanitation",
    "final_address": "1331 Burdette St",
    "address_councildis": "A",
    "status": "Assigned to Contractor",
    "contractor": "IV Waste",
    "rowid": "1187010",
    "final_x": "3663231.12922",
    "final_y": "528038.152895",
    "longitude": "-90.12587296998096",
    "latitude": "29.946463768543282",
    "geocoded_column": {
      "latitude": "29.946463768543282",
      "longitude": "-90.12587296998096"
    }
  },
  {
    "service_request": "2025-1187009",
    "request_type": "Abandoned Vehicles",
    "request_reason": "Abandoned/Junk Vehicles",
    "date_created": "2025-04-25T14:45:48.000",
    "date_modified": "2025-04-25T14:45:50.000",
    "request_status": "Pending",
    "responsible_agency": "Department of Public Works",
    "final_address": "2121 Franklin Ave",
    "address_councildis": "D",
    "status": "Pending",
    "rowid": "1187009",
    "final_x": "3687687.80873",
    "final_y": "540412.681291",
    "longitude": "-90.04821657145183",
    "latitude": "29.979758125579217",
    "geocoded_column": {
      "latitude": "29.979758125579217",
      "longitude": "-90.04821657145183"
    }
  },
  {
    "service_request": "2025-1187008",
    "request_type": "Abandoned Vehicles",
    "request_reason": "Abandoned/Junk Vehicles",
    "date_created": "2025-04-25T14:42:26.000",
    "date_modified": "2025-04-25T14:43:51.000",
    "request_status": "Pending",
    "responsible_agency": "Department of Public Works",
    "final_address": "1705 Rousselin Dr",
    "address_councildis": "D",
    "status": "Pending",
    "rowid": "1187008",
    "final_x": "3679770.18901",
    "final_y": "540650.012043",
    "longitude": "-90.07321539561194",
    "latitude": "29.980652496213974",
    "geocoded_column": {
      "latitude": "29.980652496213974",
      "longitude": "-90.07321539561194"
    }
  },
  {
    "service_request": "2025-1187007",
    "request_type": "Trash/Recycling",
    "request_reason": "Order Trash Cart",
    "date_created": "2025-04-25T14:42:08.000",
    "date_modified": "2025-04-25T14:42:09.000",
    "request_status": "Pending",
    "responsible_agency": "Department of Sanitation",
    "final_address": "14312 Dwyer Blvd",
    "address_councildis": "E",
    "status": "Assigned to Contractor",
    "contractor": "Waste Pro",
    "rowid": "1187007",
    "final_x": "3729608.77165",
    "final_y": "563225.743712",
    "longitude": "-89.91492328410293",
    "latitude": "30.041125450309597",
    "geocoded_column": {
      "latitude": "30.041125450309597",
      "longitude": "-89.91492328410293"
    }
  },
  {
    "service_request": "2025-1187006",
    "request_type": "Mosquito, Termite & Rodent Control",
    "request_reason": "Mosquito Complaint",
    "date_created": "2025-04-25T14:35:28.000",
    "date_modified": "2025-04-25T14:35:29.000",
    "request_status": "Pending",
    "responsible_agency": "Mosquito, Termite & Rodent Control Board",
    "final_address": "2120 Adams St",
    "address_councildis": "A",
    "status": "Pending",
    "rowid": "1187006",
    "final_x": "3665267.46362",
    "final_y": "529886.180865",
    "longitude": "-90.11938169726797",
    "latitude": "29.95148608734099",
    "geocoded_column": {
      "latitude": "29.95148608734099",
      "longitude": "-90.11938169726797"
    }
  },
  {
    "service_request": "2025-1187005",
    "request_type": "Abandoned Vehicles",
    "request_reason": "Abandoned/Junk Vehicles",
    "date_created": "2025-04-25T14:33:37.000",
    "date_modified": "2025-04-25T14:38:41.000",
    "request_status": "Pending",
    "responsible_agency": "Department of Public Works",
    "final_address": "5300 BLK Tullis Dr",
    "address_councildis": "C",
    "status": "Pending",
    "rowid": "1187005",
    "final_x": "3703807.05035",
    "final_y": "511915.797807",
    "longitude": "-89.99835442890897",
    "latitude": "29.900894803485077",
    "geocoded_column": {
      "latitude": "29.900894803485077",
      "longitude": "-89.99835442890897"
    }
  },
  {
    "service_request": "2025-1187004",
    "request_type": "Drainage",
    "request_reason": "Ditch and Culvert Maintenance",
    "date_created": "2025-04-25T14:32:45.000",
    "date_modified": "2025-04-25T14:32:47.000",
    "request_status": "Pending",
    "responsible_agency": "Department of Public Works",
    "final_address": "2120 Adams St",
    "address_councildis": "A",
    "status": "Pending",
    "rowid": "1187004",
    "final_x": "3665267.46362",
    "final_y": "529886.180865",
    "longitude": "-90.11938169726797",
    "latitude": "29.95148608734099",
    "geocoded_column": {
      "latitude": "29.95148608734099",
      "longitude": "-90.11938169726797"
    }
  },
  {
    "service_request": "2025-1187003",
    "request_type": "Abandoned Vehicles",
    "request_reason": "Abandoned/Junk Vehicles",
    "date_created": "2025-04-25T14:32:32.000",
    "date_modified": "2025-04-25T14:32:34.000",
    "request_status": "Pending",
    "responsible_agency": "Department of Public Works",
    "final_address": "3611 Danneel St",
    "address_councildis": "B",
    "status": "Pending",
    "rowid": "1187003",
    "final_x": "3672891.6004",
    "final_y": "522680.393722",
    "longitude": "-90.09555411925255",
    "latitude": "29.931448224451433",
    "geocoded_column": {
      "latitude": "29.931448224451433",
      "longitude": "-90.09555411925255"
    }
  },
  {
    "service_request": "2025-1187002",
    "request_type": "Streetlights",
    "request_reason": "Streetlight Outage/Malfunction",
    "date_created": "2025-04-25T14:31:14.000",
    "date_modified": "2025-04-25T14:31:15.000",
    "request_status": "Pending",
    "responsible_agency": "Department of Public Works",
    "final_address": "2120 Fern St",
    "address_councildis": "A",
    "status": "Pending",
    "contractor": "Legacy Professional Services",
    "rowid": "1187002",
    "final_x": "3664761.50509",
    "final_y": "530352.027842",
    "longitude": "-90.12096371153841",
    "latitude": "29.952781745004145",
    "geocoded_column": {
      "latitude": "29.952781745004145",
      "longitude": "-90.12096371153841"
    }
  },
  {
    "service_request": "2025-1187001",
    "request_type": "Trash/Recycling",
    "request_reason": "Illegal Dumping",
    "date_created": "2025-04-25T14:30:23.000",
    "date_modified": "2025-04-25T14:30:26.000",
    "request_status": "Pending",
    "responsible_agency": "Department of Sanitation",
    "final_address": "1229 Tricou St",
    "address_councildis": "E",
    "status": "Pending",
    "rowid": "1187001",
    "final_x": "3700396.91792",
    "final_y": "533594.770629",
    "longitude": "-90.00832529241691",
    "latitude": "29.96061327896144",
    "geocoded_column": {
      "latitude": "29.96061327896144",
      "longitude": "-90.00832529241691"
    }
  },
  {
    "service_request": "2025-1187000",
    "request_type": "Trash/Recycling",
    "request_reason": "Request a Large Item Pick Up",
    "date_created": "2025-04-25T14:30:03.000",
    "date_modified": "2025-04-25T14:30:05.000",
    "request_status": "Pending",
    "responsible_agency": "Department of Sanitation",
    "final_address": "1619 Jefferson Ave",
    "address_councildis": "B",
    "status": "Assigned to Contractor",
    "contractor": "IV Waste",
    "rowid": "1187000",
    "final_x": "3667476.11213",
    "final_y": "521729.51321",
    "longitude": "-90.112682199416",
    "latitude": "29.92899335094825",
    "geocoded_column": {
      "latitude": "29.92899335094825",
      "longitude": "-90.112682199416"
    }
  },
  {
    "service_request": "2025-1186999",
    "request_type": "Abandoned Vehicles",
    "request_reason": "Abandoned/Junk Vehicles",
    "date_created": "2025-04-25T14:28:52.000",
    "date_modified": "2025-04-25T14:28:54.000",
    "request_status": "Pending",
    "responsible_agency": "Department of Public Works",
    "final_address": "7833 S Claiborne Ave",
    "address_councildis": "A",
    "status": "Pending",
    "rowid": "1186999",
    "final_x": "3665566.53095",
    "final_y": "531017.240578",
    "longitude": "-90.11839951754914",
    "latitude": "29.95458741831327",
    "geocoded_column": {
      "latitude": "29.95458741831327",
      "longitude": "-90.11839951754914"
    }
  },
  {
    "service_request": "2025-1186998",
    "request_type": "Abandoned Vehicles",
    "request_reason": "Abandoned/Junk Vehicles",
    "date_created": "2025-04-25T14:22:32.000",
    "date_modified": "2025-04-25T14:22:35.000",
    "request_status": "Pending",
    "responsible_agency": "Department of Public Works",
    "final_address": "609 Vallette St",
    "address_councildis": "C",
    "status": "Pending",
    "rowid": "1186998",
    "final_x": "3687474.15081",
    "final_y": "529408.955969",
    "longitude": "-90.04928085160925",
    "latitude": "29.949508294018955",
    "geocoded_column": {
      "latitude": "29.949508294018955",
      "longitude": "-90.04928085160925"
    }
  },
  {
    "service_request": "2025-1186997",
    "request_type": "Abandoned Vehicles",
    "request_reason": "Abandoned/Junk Vehicles",
    "date_created": "2025-04-25T14:21:18.000",
    "date_modified": "2025-04-25T14:21:23.000",
    "request_status": "Pending",
    "responsible_agency": "Department of Public Works",
    "final_address": "3523 S Miro St",
    "address_councildis": "B",
    "status": "Pending",
    "rowid": "1186997",
    "final_x": "3671109.78516",
    "final_y": "527992.597695",
    "longitude": "-90.10099874937761",
    "latitude": "29.946107867984068",
    "geocoded_column": {
      "latitude": "29.946107867984068",
      "longitude": "-90.10099874937761"
    }
  },
  {
    "service_request": "2025-1186996",
    "request_type": "Roads and Streets",
    "request_reason": "Pothole",
    "date_created": "2025-04-25T14:19:32.000",
    "date_modified": "2025-04-25T14:19:34.000",
    "request_status": "Pending",
    "responsible_agency": "Department of Public Works",
    "final_address": "6054 Lincoln Beach Blvd",
    "address_councildis": "E",
    "status": "Pending",
    "rowid": "1186996",
    "final_x": "3695175.58307",
    "final_y": "560034.576349",
    "longitude": "-90.02385900350005",
    "latitude": "30.033478010123172",
    "geocoded_column": {
      "latitude": "30.033478010123172",
      "longitude": "-90.02385900350005"
    }
  },
  {
    "service_request": "2025-1186995",
    "request_type": "Trash/Recycling",
    "request_reason": "Request a Large Item Pick Up",
    "date_created": "2025-04-25T14:17:12.000",
    "date_modified": "2025-04-25T14:17:14.000",
    "request_status": "Pending",
    "responsible_agency": "Department of Sanitation",
    "final_address": "6050 Lincoln Beach Blvd",
    "address_councildis": "E",
    "status": "Assigned to Contractor",
    "contractor": "Waste Pro",
    "rowid": "1186995",
    "final_x": "3695130.86806",
    "final_y": "560018.085085",
    "longitude": "-90.0240009026222",
    "latitude": "30.03343407046569",
    "geocoded_column": {
      "latitude": "30.03343407046569",
      "longitude": "-90.0240009026222"
    }
  },
  {
    "service_request": "2025-1186994",
    "request_type": "Streetlights",
    "request_reason": "Streetlight Outage/Malfunction",
    "date_created": "2025-04-25T14:16:53.000",
    "date_modified": "2025-04-25T14:16:55.000",
    "request_status": "Pending",
    "responsible_agency": "Department of Public Works",
    "final_address": "1662 Nie Prkwy",
    "address_councildis": "C",
    "status": "Pending",
    "contractor": "Legacy Professional Services",
    "rowid": "1186994",
    "final_x": "3701267.53405",
    "final_y": "524632.22918",
    "longitude": "-90.00590394846715",
    "latitude": "29.93594174560895",
    "geocoded_column": {
      "latitude": "29.93594174560895",
      "longitude": "-90.00590394846715"
    }
  },
  {
    "service_request": "2025-1186993",
    "request_type": "Trash/Recycling",
    "request_reason": "Repair Trash Cart",
    "date_created": "2025-04-25T14:15:50.000",
    "date_modified": "2025-04-25T14:15:52.000",
    "request_status": "Pending",
    "responsible_agency": "Department of Sanitation",
    "final_address": "2833 St Thomas St",
    "address_councildis": "B",
    "status": "Assigned to Contractor",
    "contractor": "IV Waste",
    "rowid": "1186993",
    "final_x": "3677761.74978",
    "final_y": "519216.445623",
    "longitude": "-90.08029922170263",
    "latitude": "29.9217779373946",
    "geocoded_column": {
      "latitude": "29.9217779373946",
      "longitude": "-90.08029922170263"
    }
  },
  {
    "service_request": "2025-1186992",
    "request_type": "Mosquito, Termite & Rodent Control",
    "request_reason": "Rodent Complaint (Rats)",
    "date_created": "2025-04-25T14:15:46.000",
    "date_modified": "2025-04-25T14:15:48.000",
    "request_status": "Pending",
    "responsible_agency": "Mosquito, Termite & Rodent Control Board",
    "final_address": "2314 Magnolia St",
    "address_councildis": "B",
    "status": "Pending",
    "rowid": "1186992",
    "final_x": "3674876.41185",
    "final_y": "526520.943358",
    "longitude": "-90.08915665465922",
    "latitude": "29.941949377870078",
    "geocoded_column": {
      "latitude": "29.941949377870078",
      "longitude": "-90.08915665465922"
    }
  },
  {
    "service_request": "2025-1186991",
    "request_type": "Trash/Recycling",
    "request_reason": "Order Recycling Cart",
    "date_created": "2025-04-25T14:13:36.000",
    "date_modified": "2025-04-25T14:13:37.000",
    "request_status": "Pending",
    "responsible_agency": "Department of Sanitation",
    "final_address": "4660 Nottingham Dr",
    "address_councildis": "E",
    "status": "Pending",
    "rowid": "1186991",
    "final_x": "3716360.07397",
    "final_y": "556459.434202",
    "longitude": "-89.95705018031455",
    "latitude": "30.02296510398617",
    "geocoded_column": {
      "latitude": "30.02296510398617",
      "longitude": "-89.95705018031455"
    }
  },
  {
    "service_request": "2025-1186990",
    "request_type": "Trash/Recycling",
    "request_reason": "Repair Trash Cart",
    "date_created": "2025-04-25T14:12:35.000",
    "date_modified": "2025-04-25T14:12:36.000",
    "request_status": "Pending",
    "responsible_agency": "Department of Sanitation",
    "final_address": "609 Washington Ave",
    "address_councildis": "B",
    "status": "Assigned to Contractor",
    "contractor": "IV Waste",
    "rowid": "1186990",
    "final_x": "3678055.74894",
    "final_y": "519407.605815",
    "longitude": "-90.07936458792716",
    "latitude": "29.92229472245452",
    "geocoded_column": {
      "latitude": "29.92229472245452",
      "longitude": "-90.07936458792716"
    }
  },
  {
    "service_request": "2025-1186989",
    "request_type": "Streetlights",
    "request_reason": "Streetlight Outage/Malfunction",
    "date_created": "2025-04-25T14:10:32.000",
    "date_modified": "2025-04-25T14:10:34.000",
    "request_status": "Pending",
    "responsible_agency": "Department of Public Works",
    "final_address": "1600 BLK Nie Pkwy",
    "address_councildis": "C",
    "status": "Pending",
    "contractor": "Legacy Professional Services",
    "rowid": "1186989",
    "final_x": "3701199.41613",
    "final_y": "524424.439784",
    "longitude": "-90.00612659498556",
    "latitude": "29.935372566857097",
    "geocoded_column": {
      "latitude": "29.935372566857097",
      "longitude": "-90.00612659498556"
    }
  },
  {
    "service_request": "2025-1186988",
    "request_type": "Trash/Recycling",
    "request_reason": "Replace Trash Cart",
    "date_created": "2025-04-25T14:07:52.000",
    "date_modified": "2025-04-25T14:07:55.000",
    "request_status": "Pending",
    "responsible_agency": "Department of Sanitation",
    "final_address": "1043 Poland Ave",
    "address_councildis": "C",
    "status": "Assigned to Contractor",
    "contractor": "IV Waste",
    "rowid": "1186988",
    "final_x": "3693083.72867",
    "final_y": "534865.408582",
    "longitude": "-90.03137320517452",
    "latitude": "29.964337590403215",
    "geocoded_column": {
      "latitude": "29.964337590403215",
      "longitude": "-90.03137320517452"
    }
  },
  {
    "service_request": "2025-1186987",
    "request_type": "Utility Poles",
    "request_reason": "Utility Pole Leaning",
    "date_created": "2025-04-25T14:06:27.000",
    "date_modified": "2025-04-25T14:06:29.000",
    "request_status": "Pending",
    "responsible_agency": "Utility Company Collective",
    "final_address": "421 W Harrison Ave",
    "address_councildis": "A",
    "status": "Pending",
    "rowid": "1186987",
    "final_x": "3664647.72436",
    "final_y": "549715.205396",
    "longitude": "-90.12067592567496",
    "latitude": "30.00602731075628",
    "geocoded_column": {
      "latitude": "30.00602731075628",
      "longitude": "-90.12067592567496"
    }
  },
  {
    "service_request": "2025-1186986",
    "request_type": "Trash/Recycling",
    "request_reason": "Stop Trash Service",
    "date_created": "2025-04-25T14:05:19.000",
    "date_modified": "2025-04-25T14:05:25.000",
    "request_status": "Pending",
    "responsible_agency": "Department of Sanitation",
    "final_address": "1722 Seventh St",
    "address_councildis": "B",
    "status": "Assigned to Contractor",
    "contractor": "IV Waste",
    "rowid": "1186986",
    "final_x": "3674886.18523",
    "final_y": "522562.795514",
    "longitude": "-90.08926147840613",
    "latitude": "29.931065471727308",
    "geocoded_column": {
      "latitude": "29.931065471727308",
      "longitude": "-90.08926147840613"
    }
  },
  {
    "service_request": "2025-1186985",
    "request_type": "Trash/Recycling",
    "request_reason": "Return Trash Cart",
    "date_created": "2025-04-25T14:04:04.000",
    "date_modified": "2025-04-25T14:04:07.000",
    "request_status": "Pending",
    "responsible_agency": "Department of Sanitation",
    "final_address": "2424 Jena St",
    "address_councildis": "B",
    "status": "Assigned to Contractor",
    "contractor": "IV Waste",
    "rowid": "1186985",
    "final_x": "3670095.28833",
    "final_y": "523874.683516",
    "longitude": "-90.10434132436562",
    "latitude": "29.93481490027657",
    "geocoded_column": {
      "latitude": "29.93481490027657",
      "longitude": "-90.10434132436562"
    }
  },
  {
    "service_request": "2025-1186984",
    "request_type": "Trash/Recycling",
    "request_reason": "Replace Trash Cart",
    "date_created": "2025-04-25T14:02:59.000",
    "date_modified": "2025-04-25T14:03:01.000",
    "request_status": "Pending",
    "responsible_agency": "Department of Sanitation",
    "final_address": "3434 Calhoun St",
    "address_councildis": "A",
    "status": "Assigned to Contractor",
    "contractor": "IV Waste",
    "rowid": "1186984",
    "final_x": "3667657.38842",
    "final_y": "529382.559489",
    "longitude": "-90.11185240421449",
    "latitude": "29.950031455054148",
    "geocoded_column": {
      "latitude": "29.950031455054148",
      "longitude": "-90.11185240421449"
    }
  },
  {
    "service_request": "2025-1186983",
    "request_type": "Trash/Recycling",
    "request_reason": "Request a Large Item Pick Up",
    "date_created": "2025-04-25T13:58:03.000",
    "date_modified": "2025-04-25T19:26:05.000",
    "case_close_date": "2025-04-25T14:26:04.000",
    "request_status": "Closed",
    "responsible_agency": "Department of Sanitation",
    "final_address": "5260 Revel St",
    "address_councildis": "E",
    "status": "Invalid Request",
    "contractor": "Waste Pro",
    "contractor_action": "Additional information required from resident",
    "rowid": "1186983",
    "final_x": "3725015.19097",
    "final_y": "562870.764512",
    "longitude": "-89.92945414626176",
    "latitude": "30.0403049550689",
    "geocoded_column": {
      "latitude": "30.0403049550689",
      "longitude": "-89.92945414626176"
    }
  },
  {
    "service_request": "2025-1186982",
    "request_type": "Abandoned Vehicles",
    "request_reason": "Abandoned/Junk Vehicles",
    "date_created": "2025-04-25T13:56:03.000",
    "date_modified": "2025-04-25T13:56:06.000",
    "request_status": "Pending",
    "responsible_agency": "Department of Public Works",
    "final_address": "7908 Breakwater Dr",
    "address_councildis": "A",
    "status": "Pending",
    "rowid": "1186982",
    "final_x": "3665072.45434",
    "final_y": "557789.225371",
    "longitude": "-90.11906378515177",
    "latitude": "30.028215666653644",
    "geocoded_column": {
      "latitude": "30.028215666653644",
      "longitude": "-90.11906378515177"
    }
  },
  {
    "service_request": "2025-1186981",
    "request_type": "Abandoned Vehicles",
    "request_reason": "Abandoned/Junk Vehicles",
    "date_created": "2025-04-25T13:54:15.000",
    "date_modified": "2025-04-25T13:54:17.000",
    "request_status": "Pending",
    "responsible_agency": "Department of Public Works",
    "final_address": "8800 Lake Forest Blvd",
    "address_councildis": "E",
    "status": "Pending",
    "rowid": "1186981",
    "final_x": "3706906.4659",
    "final_y": "558210.502299",
    "longitude": "-89.98685618854782",
    "latitude": "30.028088685881247",
    "geocoded_column": {
      "latitude": "30.028088685881247",
      "longitude": "-89.98685618854782"
    }
  },
  {
    "service_request": "2025-1186980",
    "request_type": "Abandoned Vehicles",
    "request_reason": "Abandoned/Junk Vehicles",
    "date_created": "2025-04-25T13:53:28.000",
    "date_modified": "2025-04-25T13:53:29.000",
    "request_status": "Pending",
    "responsible_agency": "Department of Public Works",
    "final_address": "7908 Breakwater Dr",
    "address_councildis": "A",
    "status": "Pending",
    "rowid": "1186980",
    "final_x": "3665072.45434",
    "final_y": "557789.225371",
    "longitude": "-90.11906378515177",
    "latitude": "30.028215666653644",
    "geocoded_column": {
      "latitude": "30.028215666653644",
      "longitude": "-90.11906378515177"
    }
  },
  {
    "service_request": "2025-1186979",
    "request_type": "Trash/Recycling",
    "request_reason": "Replace Recycling Cart",
    "date_created": "2025-04-25T13:52:53.000",
    "date_modified": "2025-04-25T13:52:55.000",
    "request_status": "Pending",
    "responsible_agency": "Department of Sanitation",
    "final_address": "4636 Mandeville St",
    "address_councildis": "D",
    "status": "Pending",
    "rowid": "1186979",
    "final_x": "3684655.02217",
    "final_y": "549876.563924",
    "longitude": "-90.05746250390226",
    "latitude": "30.00587360601688",
    "geocoded_column": {
      "latitude": "30.00587360601688",
      "longitude": "-90.05746250390226"
    }
  },
  {
    "service_request": "2025-1186978",
    "request_type": "Abandoned Vehicles",
    "request_reason": "Abandoned/Junk Vehicles",
    "date_created": "2025-04-25T13:50:46.000",
    "date_modified": "2025-04-25T13:50:47.000",
    "request_status": "Pending",
    "responsible_agency": "Department of Public Works",
    "final_address": "7926 Breakwater Dr",
    "address_councildis": "A",
    "status": "Pending",
    "rowid": "1186978",
    "final_x": "3665271.83719",
    "final_y": "557807.630619",
    "longitude": "-90.11843312754137",
    "latitude": "30.028260463323875",
    "geocoded_column": {
      "latitude": "30.028260463323875",
      "longitude": "-90.11843312754137"
    }
  },
  {
    "service_request": "2025-1186977",
    "request_type": "Abandoned Vehicles",
    "request_reason": "Abandoned/Junk Vehicles",
    "date_created": "2025-04-25T13:50:36.000",
    "date_modified": "2025-04-25T13:52:08.000",
    "request_status": "Pending",
    "responsible_agency": "Department of Public Works",
    "final_address": "606 N Johnson St",
    "address_councildis": "D",
    "status": "Pending",
    "rowid": "1186977",
    "final_x": "3678503.23246",
    "final_y": "535201.583814",
    "longitude": "-90.07740561614422",
    "latitude": "29.96570944060594",
    "geocoded_column": {
      "latitude": "29.96570944060594",
      "longitude": "-90.07740561614422"
    }
  },
  {
    "service_request": "2025-1186976",
    "request_type": "Trash/Recycling",
    "request_reason": "Request a Large Item Pick Up",
    "date_created": "2025-04-25T13:50:35.000",
    "date_modified": "2025-04-25T13:50:37.000",
    "request_status": "Pending",
    "responsible_agency": "Department of Sanitation",
    "final_address": "6018 Benjamin St",
    "address_councildis": "A",
    "status": "Assigned to Contractor",
    "contractor": "IV Waste",
    "rowid": "1186976",
    "final_x": "3665453.14343",
    "final_y": "522163.43609",
    "longitude": "-90.11905381999654",
    "latitude": "29.93024560339561",
    "geocoded_column": {
      "latitude": "29.93024560339561",
      "longitude": "-90.11905381999654"
    }
  },
  {
    "service_request": "2025-1186975",
    "request_type": "Trash/Recycling",
    "request_reason": "Repair Trash Cart",
    "date_created": "2025-04-25T13:48:31.000",
    "date_modified": "2025-04-25T13:48:33.000",
    "request_status": "Pending",
    "responsible_agency": "Department of Sanitation",
    "final_address": "4042 Iroquois St",
    "address_councildis": "D",
    "status": "Assigned to Contractor",
    "contractor": "IV Waste",
    "rowid": "1186975",
    "final_x": "3689072.27299",
    "final_y": "548132.209234",
    "longitude": "-90.04356944389794",
    "latitude": "30.00094128564612",
    "geocoded_column": {
      "latitude": "30.00094128564612",
      "longitude": "-90.04356944389794"
    }
  },
  {
    "service_request": "2025-1186974",
    "request_type": "Abandoned Vehicles",
    "request_reason": "Abandoned/Junk Vehicles",
    "date_created": "2025-04-25T13:47:09.000",
    "date_modified": "2025-04-25T13:47:12.000",
    "request_status": "Pending",
    "responsible_agency": "Department of Public Works",
    "final_address": "8000 Breakwater Dr",
    "address_councildis": "A",
    "status": "Pending",
    "rowid": "1186974",
    "final_x": "3665411.47661",
    "final_y": "557823.074715",
    "longitude": "-90.11799135536138",
    "latitude": "30.02829885736284",
    "geocoded_column": {
      "latitude": "30.02829885736284",
      "longitude": "-90.11799135536138"
    }
  },
  {
    "service_request": "2025-1186973",
    "request_type": "Streetlights",
    "request_reason": "Streetlight Outage/Malfunction",
    "date_created": "2025-04-25T13:45:48.000",
    "date_modified": "2025-04-25T13:45:53.000",
    "request_status": "Pending",
    "responsible_agency": "Department of Public Works",
    "final_address": "1837 Lizardi St",
    "address_councildis": "E",
    "status": "Pending",
    "contractor": "Legacy Professional Services",
    "rowid": "1186973",
    "final_x": "3697409.46512",
    "final_y": "537058.426824",
    "longitude": "-90.01763343411287",
    "latitude": "29.970231749530335",
    "geocoded_column": {
      "latitude": "29.970231749530335",
      "longitude": "-90.01763343411287"
    }
  },
  {
    "service_request": "2025-1186972",
    "request_type": "Streetlights",
    "request_reason": "Streetlight Outage/Malfunction",
    "date_created": "2025-04-25T13:43:36.000",
    "date_modified": "2025-04-25T13:43:38.000",
    "request_status": "Pending",
    "responsible_agency": "Department of Public Works",
    "final_address": "5300 N Prieur St",
    "address_councildis": "E",
    "status": "Pending",
    "contractor": "Legacy Professional Services",
    "rowid": "1186972",
    "final_x": "3697678.66736",
    "final_y": "536989.13396",
    "longitude": "-90.01678578405973",
    "latitude": "29.97003271684058",
    "geocoded_column": {
      "latitude": "29.97003271684058",
      "longitude": "-90.01678578405973"
    }
  },
  {
    "service_request": "2025-1186971",
    "request_type": "Trash/Recycling",
    "request_reason": "Request a Large Item Pick Up",
    "date_created": "2025-04-25T13:41:09.000",
    "date_modified": "2025-04-25T13:41:11.000",
    "request_status": "Pending",
    "responsible_agency": "Department of Sanitation",
    "final_address": "526 S St Patrick St",
    "address_councildis": "A",
    "status": "Assigned to Contractor",
    "contractor": "IV Waste",
    "rowid": "1186971",
    "final_x": "3668059.0633",
    "final_y": "538322.695945",
    "longitude": "-90.11028282169127",
    "latitude": "29.9746020941028",
    "geocoded_column": {
      "latitude": "29.9746020941028",
      "longitude": "-90.11028282169127"
    }
  },
  {
    "service_request": "2025-1186970",
    "request_type": "Trash/Recycling",
    "request_reason": "Replace Trash Cart",
    "date_created": "2025-04-25T13:39:57.000",
    "date_modified": "2025-04-25T13:39:59.000",
    "request_status": "Pending",
    "responsible_agency": "Department of Sanitation",
    "final_address": "1002 Delery St",
    "address_councildis": "E",
    "status": "Assigned to Contractor",
    "contractor": "Waste Pro",
    "rowid": "1186970",
    "final_x": "3700239.02404",
    "final_y": "532581.428676",
    "longitude": "-90.00886087456489",
    "latitude": "29.957831969362832",
    "geocoded_column": {
      "latitude": "29.957831969362832",
      "longitude": "-90.00886087456489"
    }
  },
  {
    "service_request": "2025-1186969",
    "request_type": "Abandoned Vehicles",
    "request_reason": "Abandoned/Junk Vehicles",
    "date_created": "2025-04-25T13:37:51.000",
    "date_modified": "2025-04-25T13:40:08.000",
    "request_status": "Pending",
    "responsible_agency": "Department of Public Works",
    "final_address": "515 Port St",
    "address_councildis": "C",
    "status": "Pending",
    "rowid": "1186969",
    "final_x": "3686938.09417",
    "final_y": "534416.805637",
    "longitude": "-90.05079643620039",
    "latitude": "29.963294664587323",
    "geocoded_column": {
      "latitude": "29.963294664587323",
      "longitude": "-90.05079643620039"
    }
  },
  {
    "service_request": "2025-1186968",
    "request_type": "Trash/Recycling",
    "request_reason": "Request a Large Item Pick Up",
    "date_created": "2025-04-25T13:33:27.000",
    "date_modified": "2025-04-25T13:33:29.000",
    "request_status": "Pending",
    "responsible_agency": "Department of Sanitation",
    "final_address": "2625 Louisa St",
    "address_councildis": "D",
    "status": "Assigned to Contractor",
    "contractor": "IV Waste",
    "rowid": "1186968",
    "final_x": "3691059.21059",
    "final_y": "541709.484364",
    "longitude": "-90.0375220293835",
    "latitude": "29.98321947019179",
    "geocoded_column": {
      "latitude": "29.98321947019179",
      "longitude": "-90.0375220293835"
    }
  },
  {
    "service_request": "2025-1186967",
    "request_type": "Trash/Recycling",
    "request_reason": "Repair Recycling Cart",
    "date_created": "2025-04-25T13:30:23.000",
    "date_modified": "2025-04-25T13:30:25.000",
    "request_status": "Pending",
    "responsible_agency": "Department of Sanitation",
    "final_address": "4510 Lennox Blvd",
    "address_councildis": "C",
    "status": "Pending",
    "rowid": "1186967",
    "final_x": "3700881.71217",
    "final_y": "514492.425395",
    "longitude": "-90.00749239023816",
    "latitude": "29.908073051094274",
    "geocoded_column": {
      "latitude": "29.908073051094274",
      "longitude": "-90.00749239023816"
    }
  },
  {
    "service_request": "2025-1186966",
    "request_type": "Trash/Recycling",
    "request_reason": "Replace Recycling Cart",
    "date_created": "2025-04-25T13:29:37.000",
    "date_modified": "2025-04-25T13:29:39.000",
    "request_status": "Pending",
    "responsible_agency": "Department of Sanitation",
    "final_address": "1591 Maura Pl",
    "address_councildis": "C",
    "status": "Pending",
    "rowid": "1186966",
    "final_x": "3699189.77821",
    "final_y": "524992.915325",
    "longitude": "-90.01245030087262",
    "latitude": "29.936999529077422",
    "geocoded_column": {
      "latitude": "29.936999529077422",
      "longitude": "-90.01245030087262"
    }
  },
  {
    "service_request": "2025-1186965",
    "request_type": "Abandoned Vehicles",
    "request_reason": "Abandoned/Junk Vehicles",
    "date_created": "2025-04-25T13:28:02.000",
    "date_modified": "2025-04-25T13:28:05.000",
    "request_status": "Pending",
    "responsible_agency": "Department of Public Works",
    "final_address": "5809 Canal Blvd",
    "address_councildis": "A",
    "status": "Pending",
    "rowid": "1186965",
    "final_x": "3668529.86695",
    "final_y": "546056.8324",
    "longitude": "-90.10853480892114",
    "latitude": "29.995854512179616",
    "geocoded_column": {
      "latitude": "29.995854512179616",
      "longitude": "-90.10853480892114"
    }
  },
  {
    "service_request": "2025-1186964",
    "request_type": "Trash/Recycling",
    "request_reason": "Repair Recycling Cart",
    "date_created": "2025-04-25T13:27:49.000",
    "date_modified": "2025-04-25T13:27:51.000",
    "request_status": "Pending",
    "responsible_agency": "Department of Sanitation",
    "final_address": "51 Gull St",
    "address_councildis": "D",
    "status": "Pending",
    "rowid": "1186964",
    "final_x": "3674782.37333",
    "final_y": "555660.574233",
    "longitude": "-90.088454035721",
    "latitude": "30.022076140575166",
    "geocoded_column": {
      "latitude": "30.022076140575166",
      "longitude": "-90.088454035721"
    }
  },
  {
    "service_request": "2025-1186963",
    "request_type": "Trash/Recycling",
    "request_reason": "Return Recycling Cart",
    "date_created": "2025-04-25T13:25:17.000",
    "date_modified": "2025-04-25T13:25:28.000",
    "request_status": "Pending",
    "responsible_agency": "Department of Sanitation",
    "final_address": "1591 Maura Pl",
    "address_councildis": "C",
    "status": "Pending",
    "rowid": "1186963",
    "final_x": "3699189.77821",
    "final_y": "524992.915325",
    "longitude": "-90.01245030087262",
    "latitude": "29.936999529077422",
    "geocoded_column": {
      "latitude": "29.936999529077422",
      "longitude": "-90.01245030087262"
    }
  },
  {
    "service_request": "2025-1186962",
    "request_type": "Trash/Recycling",
    "request_reason": "Order Trash Cart",
    "date_created": "2025-04-25T13:23:38.000",
    "date_modified": "2025-04-25T13:23:40.000",
    "request_status": "Pending",
    "responsible_agency": "Department of Sanitation",
    "final_address": "1591 Maura Pl",
    "address_councildis": "C",
    "status": "Assigned to Contractor",
    "contractor": "Richards Disposal",
    "rowid": "1186962",
    "final_x": "3699189.77821",
    "final_y": "524992.915325",
    "longitude": "-90.01245030087262",
    "latitude": "29.936999529077422",
    "geocoded_column": {
      "latitude": "29.936999529077422",
      "longitude": "-90.01245030087262"
    }
  },
  {
    "service_request": "2025-1186961",
    "request_type": "Streetlights",
    "request_reason": "Streetlight Outage/Malfunction",
    "date_created": "2025-04-25T13:21:14.000",
    "date_modified": "2025-04-25T13:21:16.000",
    "request_status": "Pending",
    "responsible_agency": "Department of Public Works",
    "final_address": "1742 Oriole St",
    "address_councildis": "D",
    "status": "Pending",
    "contractor": "Legacy Professional Services",
    "rowid": "1186961",
    "final_x": "3678716.22331",
    "final_y": "558208.878299",
    "longitude": "-90.07593570007049",
    "latitude": "30.02896494255742",
    "geocoded_column": {
      "latitude": "30.02896494255742",
      "longitude": "-90.07593570007049"
    }
  },
  {
    "service_request": "2025-1186960",
    "request_type": "Trash/Recycling",
    "request_reason": "Order Trash Cart",
    "date_created": "2025-04-25T13:21:07.000",
    "date_modified": "2025-04-25T13:21:09.000",
    "request_status": "Pending",
    "responsible_agency": "Department of Sanitation",
    "final_address": "228 Jewel St",
    "address_councildis": "D",
    "status": "Assigned to Contractor",
    "contractor": "IV Waste",
    "rowid": "1186960",
    "final_x": "3667315.96845",
    "final_y": "555737.788313",
    "longitude": "-90.11204347703837",
    "latitude": "30.02250938218727",
    "geocoded_column": {
      "latitude": "30.02250938218727",
      "longitude": "-90.11204347703837"
    }
  },
  {
    "service_request": "2025-1186959",
    "request_type": "Abandoned Vehicles",
    "request_reason": "Abandoned/Junk Vehicles",
    "date_created": "2025-04-25T13:20:17.000",
    "date_modified": "2025-04-25T13:21:41.000",
    "request_status": "Pending",
    "responsible_agency": "Department of Public Works",
    "final_address": "705 S Solomon St",
    "address_councildis": "A",
    "status": "Pending",
    "rowid": "1186959",
    "final_x": "3669096.8073",
    "final_y": "536818.427272",
    "longitude": "-90.1070562060008",
    "latitude": "29.970435361980424",
    "geocoded_column": {
      "latitude": "29.970435361980424",
      "longitude": "-90.1070562060008"
    }
  },
  {
    "service_request": "2025-1186958",
    "request_type": "Trash/Recycling",
    "request_reason": "Repair Trash Cart",
    "date_created": "2025-04-25T13:19:49.000",
    "date_modified": "2025-04-25T13:19:51.000",
    "request_status": "Pending",
    "responsible_agency": "Department of Sanitation",
    "final_address": "5623 Brighton Pl",
    "address_councildis": "C",
    "status": "Assigned to Contractor",
    "contractor": "Richards Disposal",
    "rowid": "1186958",
    "final_x": "3704392.82058",
    "final_y": "520340.820792",
    "longitude": "-89.99619552832131",
    "latitude": "29.924041947858278",
    "geocoded_column": {
      "latitude": "29.924041947858278",
      "longitude": "-89.99619552832131"
    }
  },
  {
    "service_request": "2025-1186957",
    "request_type": "Trash/Recycling",
    "request_reason": "Missed Trash Pick-Up",
    "date_created": "2025-04-25T13:19:44.000",
    "date_modified": "2025-04-25T17:26:57.000",
    "case_close_date": "2025-04-25T12:26:57.000",
    "request_status": "Closed",
    "responsible_agency": "Department of Sanitation",
    "final_address": "7421 Arbor Dr",
    "address_councildis": "E",
    "status": "Invalid Request",
    "contractor": "Waste Pro",
    "contractor_action": "Invalid",
    "rowid": "1186957",
    "final_x": "3701323.90282",
    "final_y": "558246.454108",
    "longitude": "-90.00449530566391",
    "latitude": "30.028366735266236",
    "geocoded_column": {
      "latitude": "30.028366735266236",
      "longitude": "-90.00449530566391"
    }
  },
  {
    "service_request": "2025-1186956",
    "request_type": "Traffic Signals",
    "request_reason": "Traffic Signal Malfunctioning or Damaged",
    "date_created": "2025-04-25T13:19:13.000",
    "date_modified": "2025-04-25T13:19:14.000",
    "request_status": "Pending",
    "responsible_agency": "Department of Public Works",
    "final_address": "S CLAIBORNE AVE & TOLEDANO ST",
    "address_councildis": "B",
    "status": "Pending",
    "rowid": "1186956",
    "final_x": "3672686.1",
    "final_y": "526316.28",
    "longitude": "-90.09607892276615",
    "latitude": "29.941451833708907",
    "geocoded_column": {
      "latitude": "29.941451833708907",
      "longitude": "-90.09607892276615"
    }
  },
  {
    "service_request": "2025-1186955",
    "request_type": "Trash/Recycling",
    "request_reason": "Order Trash Cart",
    "date_created": "2025-04-25T13:18:41.000",
    "date_modified": "2025-04-25T13:18:43.000",
    "request_status": "Pending",
    "responsible_agency": "Department of Sanitation",
    "final_address": "3216 General Ogden St",
    "address_councildis": "A",
    "status": "Assigned to Contractor",
    "contractor": "IV Waste",
    "rowid": "1186955",
    "final_x": "3664758.79674",
    "final_y": "535700.010887",
    "longitude": "-90.12079356798154",
    "latitude": "29.967487027534066",
    "geocoded_column": {
      "latitude": "29.967487027534066",
      "longitude": "-90.12079356798154"
    }
  },
  {
    "service_request": "2025-1186954",
    "request_type": "Trash/Recycling",
    "request_reason": "Missed Trash Pick-Up",
    "date_created": "2025-04-25T13:12:38.000",
    "date_modified": "2025-04-25T14:15:49.000",
    "case_close_date": "2025-04-25T09:15:48.000",
    "request_status": "Closed",
    "responsible_agency": "Department of Sanitation",
    "final_address": "2905 Carondelet St Apt 4",
    "address_councildis": "B",
    "status": "Invalid Request",
    "contractor": "IV Waste",
    "contractor_action": "Invalid",
    "rowid": "1186954",
    "final_x": "3675181.15886",
    "final_y": "522574.777146",
    "longitude": "-90.08832987375463",
    "latitude": "29.93108960788942",
    "geocoded_column": {
      "latitude": "29.93108960788942",
      "longitude": "-90.08832987375463"
    }
  },
  {
    "service_request": "2025-1186953",
    "request_type": "Trash/Recycling",
    "request_reason": "Request a Large Item Pick Up",
    "date_created": "2025-04-25T13:08:28.000",
    "date_modified": "2025-04-25T13:08:30.000",
    "request_status": "Pending",
    "responsible_agency": "Department of Sanitation",
    "final_address": "7124 Mayo Rd",
    "address_councildis": "E",
    "status": "Assigned to Contractor",
    "contractor": "Waste Pro",
    "rowid": "1186953",
    "final_x": "3701287.75543",
    "final_y": "559074.98998",
    "longitude": "-90.00457916810386",
    "latitude": "30.03064604108723",
    "geocoded_column": {
      "latitude": "30.03064604108723",
      "longitude": "-90.00457916810386"
    }
  },
  {
    "service_request": "2025-1186952",
    "request_type": "Trash/Recycling",
    "request_reason": "Illegal Dumping",
    "date_created": "2025-04-25T13:04:34.000",
    "date_modified": "2025-04-25T13:05:02.000",
    "case_close_date": "2025-04-25T08:05:01.000",
    "request_status": "Closed",
    "responsible_agency": "Department of Sanitation",
    "final_address": "7726 Vanderkloot Ave",
    "address_councildis": "E",
    "status": "Resolved",
    "rowid": "1186952",
    "final_x": "3705641.10756",
    "final_y": "563459.604768",
    "longitude": "-89.99066024914293",
    "latitude": "30.042562477730744",
    "geocoded_column": {
      "latitude": "30.042562477730744",
      "longitude": "-89.99066024914293"
    }
  },
  {
    "service_request": "2025-1186951",
    "request_type": "Trash/Recycling",
    "request_reason": "Illegal Dumping",
    "date_created": "2025-04-25T13:01:44.000",
    "date_modified": "2025-04-25T13:02:04.000",
    "case_close_date": "2025-04-25T08:02:04.000",
    "request_status": "Closed",
    "responsible_agency": "Department of Sanitation",
    "final_address": "3600 BLK Westbend Pkwy",
    "address_councildis": "C",
    "status": "Resolved",
    "rowid": "1186951",
    "final_x": "3696481.97905",
    "final_y": "520724.76116",
    "longitude": "-90.02115323444103",
    "latitude": "29.925349119937245",
    "geocoded_column": {
      "latitude": "29.925349119937245",
      "longitude": "-90.02115323444103"
    }
  },
  {
    "service_request": "2025-1186950",
    "request_type": "Trash/Recycling",
    "request_reason": "Replace Recycling Cart",
    "date_created": "2025-04-25T12:54:24.000",
    "date_modified": "2025-04-25T12:54:26.000",
    "request_status": "Pending",
    "responsible_agency": "Department of Sanitation",
    "final_address": "2125 Leonidas St",
    "address_councildis": "A",
    "status": "Pending",
    "rowid": "1186950",
    "final_x": "3662959.17031",
    "final_y": "532052.107651",
    "longitude": "-90.12659817450916",
    "latitude": "29.957508726564754",
    "geocoded_column": {
      "latitude": "29.957508726564754",
      "longitude": "-90.12659817450916"
    }
  },
  {
    "service_request": "2025-1186949",
    "request_type": "Trash/Recycling",
    "request_reason": "Order Second Trash Cart",
    "date_created": "2025-04-25T12:51:43.000",
    "date_modified": "2025-04-25T12:51:45.000",
    "request_status": "Pending",
    "responsible_agency": "Department of Sanitation",
    "final_address": "7838 Venice Blvd",
    "address_councildis": "E",
    "status": "Assigned to Contractor",
    "contractor": "Waste Pro",
    "rowid": "1186949",
    "final_x": "3720698.10911",
    "final_y": "574763.058155",
    "longitude": "-89.94264120522749",
    "latitude": "30.073148534543325",
    "geocoded_column": {
      "latitude": "30.073148534543325",
      "longitude": "-89.94264120522749"
    }
  },
  {
    "service_request": "2025-1186948",
    "request_type": "Trash/Recycling",
    "request_reason": "Request a Large Item Pick Up",
    "date_created": "2025-04-25T12:51:20.000",
    "date_modified": "2025-04-25T12:51:23.000",
    "request_status": "Pending",
    "responsible_agency": "Department of Sanitation",
    "final_address": "7838 Venice Blvd",
    "address_councildis": "E",
    "status": "Assigned to Contractor",
    "contractor": "Waste Pro",
    "rowid": "1186948",
    "final_x": "3720698.10911",
    "final_y": "574763.058155",
    "longitude": "-89.94264120522749",
    "latitude": "30.073148534543325",
    "geocoded_column": {
      "latitude": "30.073148534543325",
      "longitude": "-89.94264120522749"
    }
  },
  {
    "service_request": "2025-1186947",
    "request_type": "Trash/Recycling",
    "request_reason": "Order Trash Cart",
    "date_created": "2025-04-25T12:50:11.000",
    "date_modified": "2025-04-25T12:50:13.000",
    "request_status": "Pending",
    "responsible_agency": "Department of Sanitation",
    "final_address": "7533 Primrose Dr",
    "address_councildis": "E",
    "status": "Assigned to Contractor",
    "contractor": "Waste Pro",
    "rowid": "1186947",
    "final_x": "3701896.43044",
    "final_y": "561074.877278",
    "longitude": "-90.00258236171445",
    "latitude": "30.036125531189754",
    "geocoded_column": {
      "latitude": "30.036125531189754",
      "longitude": "-90.00258236171445"
    }
  },
  {
    "service_request": "2025-1186946",
    "request_type": "Parks & Parkways",
    "request_reason": "Request Tree Service (Right of Way/Public Property)",
    "date_created": "2025-04-25T12:48:31.000",
    "date_modified": "2025-04-25T12:49:22.000",
    "request_status": "Pending",
    "responsible_agency": "Department of Parks & Parkway",
    "final_address": "1035 Marengo St",
    "address_councildis": "B",
    "status": "Pending",
    "rowid": "1186946",
    "final_x": "3672141.36283",
    "final_y": "519561.829623",
    "longitude": "-90.09802866970452",
    "latitude": "29.92289543670388",
    "geocoded_column": {
      "latitude": "29.92289543670388",
      "longitude": "-90.09802866970452"
    }
  },
  {
    "service_request": "2025-1186945",
    "request_type": "Traffic Signals",
    "request_reason": "Traffic Signal Malfunctioning or Damaged",
    "date_created": "2025-04-25T12:46:14.000",
    "date_modified": "2025-04-25T12:46:15.000",
    "request_status": "Pending",
    "responsible_agency": "Department of Public Works",
    "final_address": "5601 St Claude Ave",
    "address_councildis": "E",
    "status": "Pending",
    "rowid": "1186945",
    "final_x": "3698138.4216",
    "final_y": "533844.977285",
    "longitude": "-90.01544804707768",
    "latitude": "29.961372876238908",
    "geocoded_column": {
      "latitude": "29.961372876238908",
      "longitude": "-90.01544804707768"
    }
  },
  {
    "service_request": "2025-1186944",
    "request_type": "Trash/Recycling",
    "request_reason": "Request a Large Item Pick Up",
    "date_created": "2025-04-25T12:43:50.000",
    "date_modified": "2025-04-25T12:44:31.000",
    "request_status": "Pending",
    "responsible_agency": "Department of Sanitation",
    "final_address": "1238 N Johnson St",
    "address_councildis": "D",
    "status": "Assigned to Contractor",
    "contractor": "IV Waste",
    "rowid": "1186944",
    "final_x": "3679987.24968",
    "final_y": "537164.115208",
    "longitude": "-90.07265095808806",
    "latitude": "29.97106091988519",
    "geocoded_column": {
      "latitude": "29.97106091988519",
      "longitude": "-90.07265095808806"
    }
  },
  {
    "service_request": "2025-1186943",
    "request_type": "Trash/Recycling",
    "request_reason": "Replace Trash Cart",
    "date_created": "2025-04-25T12:40:27.000",
    "date_modified": "2025-04-25T12:40:31.000",
    "request_status": "Pending",
    "responsible_agency": "Department of Sanitation",
    "final_address": "2541 Bienville Ave",
    "address_councildis": "B",
    "status": "Assigned to Contractor",
    "contractor": "IV Waste",
    "rowid": "1186943",
    "final_x": "3676370.92206",
    "final_y": "535402.870726",
    "longitude": "-90.08413244951755",
    "latitude": "29.96632700342122",
    "geocoded_column": {
      "latitude": "29.96632700342122",
      "longitude": "-90.08413244951755"
    }
  },
  {
    "service_request": "2025-1186942",
    "request_type": "Trash/Recycling",
    "request_reason": "Order Trash Cart",
    "date_created": "2025-04-25T12:36:30.000",
    "date_modified": "2025-04-25T12:36:32.000",
    "request_status": "Pending",
    "responsible_agency": "Department of Sanitation",
    "final_address": "3523 Gibson St",
    "address_councildis": "D",
    "status": "Assigned to Contractor",
    "contractor": "IV Waste",
    "rowid": "1186942",
    "final_x": "3678950.68091",
    "final_y": "545293.861135",
    "longitude": "-90.0756427693792",
    "latitude": "29.9934462138147",
    "geocoded_column": {
      "latitude": "29.9934462138147",
      "longitude": "-90.0756427693792"
    }
  },
  {
    "service_request": "2025-1186941",
    "request_type": "Trash/Recycling",
    "request_reason": "Request a Large Item Pick Up",
    "date_created": "2025-04-25T12:36:04.000",
    "date_modified": "2025-04-25T12:36:06.000",
    "request_status": "Pending",
    "responsible_agency": "Department of Sanitation",
    "final_address": "2228 Governor Nicholls St",
    "address_councildis": "D",
    "status": "Assigned to Contractor",
    "contractor": "IV Waste",
    "rowid": "1186941",
    "final_x": "3679225.66581",
    "final_y": "537251.087176",
    "longitude": "-90.0750531246099",
    "latitude": "29.971323080709496",
    "geocoded_column": {
      "latitude": "29.971323080709496",
      "longitude": "-90.0750531246099"
    }
  },