[
  {
    "service_request": "2026-1277981",
    "request_type": "General Services",
    "request_reason": "General Service Request",
    "date_created": "2026-04-30T23:45:33.000",
    "date_modified": "2026-04-30T23:45:36.000",
    "request_status": "Pending",
    "responsible_agency": "Orleans Parish Communication District",
    "final_address": "335 S Alexander St",
    "address_councildis": "A",
    "status": "Pending",
    "rowid": "1277981",
    "final_x": "3669302.22849",
    "final_y": "538328.033865",
    "longitude": "-90.10635640983945",
    "latitude": "29.97458022689269",
    "geocoded_column": {
      "latitude": "29.97458022689269",
      "longitude": "-90.10635640983945"
    }
  },
  {
    "service_request": "2026-1277980",
    "request_type": "Trash/Recycling",
    "request_reason": "Request a Large Item Pick Up",
    "date_created": "2026-04-30T23:14:40.000",
    "date_modified": "2026-04-30T23:14:42.000",
    "request_status": "Pending",
    "responsible_agency": "Department of Sanitation",
    "final_address": "7800 Henley St",
    "address_councildis": "E",
    "status": "Assigned to Contractor",
    "contractor": "Waste Pro",
    "rowid": "1277980",
    "final_x": "3696638.17981",
    "final_y": "559688.304413",
    "longitude": "-90.0192496121383",
    "latitude": "30.032479855185617",
    "geocoded_column": {
      "latitude": "30.032479855185617",
      "longitude": "-90.0192496121383"
    }
  },
  {
    "service_request": "2026-1277979",
    "request_type": "Abandoned Vehicles",
    "request_reason": "Abandoned/Junk Vehicles",
    "date_created": "2026-04-30T22:54:33.000",
    "date_modified": "2026-04-30T22:54:35.000",
    "request_status": "Pending",
    "responsible_agency": "Department of Public Works",
    "final_address": "DAUPHINE ST & POLAND AVE",
    "address_councildis": "C",
    "status": "Pending",
    "rowid": "1277979",
    "final_x": "3692749.83",
    "final_y": "533854.96",
    "longitude": "-90.03246385229265",
    "latitude": "29.961569639738006",
    "geocoded_column": {
      "latitude": "29.961569639738006",
      "longitude": "-90.03246385229265"
    }
  },
  {
    "service_request": "2026-1277978",
    "request_type": "Streetlights",
    "request_reason": "Streetlight Outage/Malfunction",
    "date_created": "2026-04-30T22:21:10.000",
    "date_modified": "2026-04-30T22:21:14.000",
    "request_status": "Pending",
    "responsible_agency": "Department of Public Works",
    "final_address": "1830 River Oaks Dr",
    "address_councildis": "C",
    "status": "Pending",
    "rowid": "1277978",
    "final_x": "3701733.05969",
    "final_y": "523917.767804",
    "longitude": "-90.00446044299441",
    "latitude": "29.9339623888208",
    "geocoded_column": {
      "latitude": "29.9339623888208",
      "longitude": "-90.00446044299441"
    }
  },
  {
    "service_request": "2026-1277977",
    "request_type": "Health Related Request",
    "request_reason": "Noise Ordinance Complaint",
    "date_created": "2026-04-30T22:01:19.000",
    "date_modified": "2026-04-30T22:01:22.000",
    "request_status": "Pending",
    "responsible_agency": "Health Department",
    "final_address": "801 Bourbon St, New Orleans, Louisiana, 70116",
    "address_councildis": "C",
    "status": "Pending",
    "rowid": "1277977",
    "final_x": "3682490.98735",
    "final_y": "533018.672772",
    "longitude": "-90.06488875731978",
    "latitude": "29.959586396383013",
    "geocoded_column": {
      "latitude": "29.959586396383013",
      "longitude": "-90.06488875731978"
    }
  },
  {
    "service_request": "2026-1277976",
    "request_type": "Roads and Streets",
    "request_reason": "Street Subsidence (Sinking)",
    "date_created": "2026-04-30T21:51:42.000",
    "date_modified": "2026-04-30T21:51:44.000",
    "request_status": "Pending",
    "responsible_agency": "Sewerage & Water Board",
    "final_address": "900 Chapelle St",
    "address_councildis": "A",
    "status": "Pending",
    "rowid": "1277976",
    "final_x": "3670403.78305",
    "final_y": "552492.451478",
    "longitude": "-90.10239685333562",
    "latitude": "30.013495003787906",
    "geocoded_column": {
      "latitude": "30.013495003787906",
      "longitude": "-90.10239685333562"
    }
  },
  {
    "service_request": "2026-1277975",
    "request_type": "Trash/Recycling",
    "request_reason": "Request a Large Item Pick Up",
    "date_created": "2026-04-30T21:47:30.000",
    "date_modified": "2026-04-30T21:47:32.000",
    "request_status": "Pending",
    "responsible_agency": "Department of Sanitation",
    "final_address": "1500 Prytania St",
    "address_councildis": "B",
    "status": "Assigned to Contractor",
    "contractor": "IV Waste",
    "rowid": "1277975",
    "final_x": "3679653.66056",
    "final_y": "525186.344957",
    "longitude": "-90.07412017794726",
    "latitude": "29.9381361786935",
    "geocoded_column": {
      "latitude": "29.9381361786935",
      "longitude": "-90.07412017794726"
    }
  },
  {
    "service_request": "2026-1277974",
    "request_type": "Trash/Recycling",
    "request_reason": "Repair Trash Cart",
    "date_created": "2026-04-30T21:30:53.000",
    "date_modified": "2026-04-30T21:30:56.000",
    "request_status": "Pending",
    "responsible_agency": "Department of Sanitation",
    "final_address": "1121 Dufossat St",
    "address_councildis": "B",
    "status": "Assigned to Contractor",
    "contractor": "IV Waste",
    "rowid": "1277974",
    "final_x": "3668113.97383",
    "final_y": "519546.602295",
    "longitude": "-90.11074211592107",
    "latitude": "29.922972338543524",
    "geocoded_column": {
      "latitude": "29.922972338543524",
      "longitude": "-90.11074211592107"
    }
  },
  {
    "service_request": "2026-1277973",
    "request_type": "Street and Traffic Signs",
    "request_reason": "Traffic or Parking Sign Damaged or Missing",
    "date_created": "2026-04-30T21:14:35.000",
    "date_modified": "2026-04-30T21:14:38.000",
    "request_status": "Pending",
    "responsible_agency": "Department of Public Works",
    "final_address": "6400 BLK Freret St",
    "address_councildis": "A",
    "status": "Pending",
    "rowid": "1277973",
    "final_x": "3665279.16022",
    "final_y": "524929.583459",
    "longitude": "-90.1195105557842",
    "latitude": "29.937856698237553",
    "geocoded_column": {
      "latitude": "29.937856698237553",
      "longitude": "-90.1195105557842"
    }
  },
  {
    "service_request": "2026-1277972",
    "request_type": "Abandoned Vehicles",
    "request_reason": "Abandoned/Junk Vehicles",
    "date_created": "2026-04-30T21:09:16.000",
    "date_modified": "2026-04-30T21:09:18.000",
    "request_status": "Pending",
    "responsible_agency": "Department of Public Works",
    "final_address": "4920 LaSalle St",
    "address_councildis": "B",
    "status": "Pending",
    "rowid": "1277972",
    "final_x": "3668969.52289",
    "final_y": "523513.924987",
    "longitude": "-90.10790754074502",
    "latitude": "29.93385608327327",
    "geocoded_column": {
      "latitude": "29.93385608327327",
      "longitude": "-90.10790754074502"
    }
  },
  {
    "service_request": "2026-1277971",
    "request_type": "General Services",
    "request_reason": "General Service Request",
    "date_created": "2026-04-30T20:33:50.000",
    "date_modified": "2026-04-30T20:33:52.000",
    "request_status": "Pending",
    "responsible_agency": "Orleans Parish Communication District",
    "final_address": "2522 Hudson Pl",
    "address_councildis": "C",
    "status": "Pending",
    "rowid": "1277971",
    "final_x": "3703478.02545",
    "final_y": "521786.115642",
    "longitude": "-89.9990300633913",
    "latitude": "29.928045328649784",
    "geocoded_column": {
      "latitude": "29.928045328649784",
      "longitude": "-89.9990300633913"
    }
  },
  {
    "service_request": "2026-1277970",
    "request_type": "Road Striping",
    "request_reason": "Lane Striping or other Pavement Markings",
    "date_created": "2026-04-30T20:31:22.000",
    "date_modified": "2026-04-30T20:31:25.000",
    "request_status": "Pending",
    "responsible_agency": "Department of Public Works",
    "final_address": "6300 BLK Freret St",
    "address_councildis": "A",
    "status": "Pending",
    "rowid": "1277970",
    "final_x": "3664999.73689",
    "final_y": "525104.796035",
    "longitude": "-90.12038686626917",
    "latitude": "29.938346613038348",
    "geocoded_column": {
      "latitude": "29.938346613038348",
      "longitude": "-90.12038686626917"
    }
  },
  {
    "service_request": "2026-1277969",
    "request_type": "Streetlights",
    "request_reason": "Streetlight Outage/Malfunction",
    "date_created": "2026-04-30T20:22:38.000",
    "date_modified": "2026-04-30T20:22:40.000",
    "request_status": "Pending",
    "responsible_agency": "Department of Public Works",
    "final_address": "1321 New York St",
    "address_councildis": "D",
    "status": "Pending",
    "rowid": "1277969",
    "final_x": "3677303.93902",
    "final_y": "555631.485145",
    "longitude": "-90.08048752397089",
    "latitude": "30.021920588435375",
    "geocoded_column": {
      "latitude": "30.021920588435375",
      "longitude": "-90.08048752397089"
    }
  },
  {
    "service_request": "2026-1277968",
    "request_type": "Streetlights",
    "request_reason": "Streetlight Outage/Malfunction",
    "date_created": "2026-04-30T20:17:40.000",
    "date_modified": "2026-04-30T20:17:42.000",
    "request_status": "Pending",
    "responsible_agency": "Department of Public Works",
    "final_address": "4208 Orleans Ave",
    "address_councildis": "A",
    "status": "Pending",
    "rowid": "1277968",
    "final_x": "3671885.94907",
    "final_y": "540607.251723",
    "longitude": "-90.09811877436721",
    "latitude": "29.980770974475018",
    "geocoded_column": {
      "latitude": "29.980770974475018",
      "longitude": "-90.09811877436721"
    }
  },
  {
    "service_request": "2026-1277967",
    "request_type": "Trash/Recycling",
    "request_reason": "Missed Trash Pick-Up",
    "date_created": "2026-04-30T20:16:09.000",
    "date_modified": "2026-04-30T20:16:11.000",
    "request_status": "Pending",
    "responsible_agency": "Department of Sanitation",
    "final_address": "7219 Freret St",
    "address_councildis": "A",
    "status": "Assigned to Contractor",
    "contractor": "IV Waste",
    "rowid": "1277967",
    "final_x": "3663648.90195",
    "final_y": "526031.868734",
    "longitude": "-90.12462072878321",
    "latitude": "29.94093501740255",
    "geocoded_column": {
      "latitude": "29.94093501740255",
      "longitude": "-90.12462072878321"
    }
  },
  {
    "service_request": "2026-1277966",
    "request_type": "Health Related Request",
    "request_reason": "Noise Ordinance Complaint",
    "date_created": "2026-04-30T20:14:07.000",
    "date_modified": "2026-04-30T20:14:08.000",
    "request_status": "Pending",
    "responsible_agency": "Health Department",
    "final_address": "722 Louisa St, New Orleans, Louisiana, 70117",
    "address_councildis": "C",
    "status": "Pending",
    "rowid": "1277966",
    "final_x": "3689190.58281",
    "final_y": "534517.950789",
    "longitude": "-90.04367975914064",
    "latitude": "29.963503261728903",
    "geocoded_column": {
      "latitude": "29.963503261728903",
      "longitude": "-90.04367975914064"
    }
  },
  {
    "service_request": "2026-1277965",
    "request_type": "Streetlights",
    "request_reason": "Streetlight Outage/Malfunction",
    "date_created": "2026-04-30T20:14:01.000",
    "date_modified": "2026-04-30T20:14:04.000",
    "request_status": "Pending",
    "responsible_agency": "Department of Public Works",
    "final_address": "4316 St Peter St",
    "address_councildis": "A",
    "status": "Pending",
    "rowid": "1277965",
    "final_x": "3671439.37806",
    "final_y": "540742.202699",
    "longitude": "-90.09952465574442",
    "latitude": "29.98115527303121",
    "geocoded_column": {
      "latitude": "29.98115527303121",
      "longitude": "-90.09952465574442"
    }
  },
  {
    "service_request": "2026-1277964",
    "request_type": "Trash/Recycling",
    "request_reason": "Request a Large Item Pick Up",
    "date_created": "2026-04-30T19:47:14.000",
    "date_modified": "2026-04-30T19:47:17.000",
    "request_status": "Pending",
    "responsible_agency": "Department of Sanitation",
    "final_address": "5852 Oxford Pl",
    "address_councildis": "C",
    "status": "Assigned to Contractor",
    "contractor": "Richards Disposal",
    "rowid": "1277964",
    "final_x": "3705244.73899",
    "final_y": "519824.396728",
    "longitude": "-89.99352540736913",
    "latitude": "29.922594598020726",
    "geocoded_column": {
      "latitude": "29.922594598020726",
      "longitude": "-89.99352540736913"
    }
  },
  {
    "service_request": "2026-1277963",
    "request_type": "Trash/Recycling",
    "request_reason": "Request a Large Item Pick Up",
    "date_created": "2026-04-30T19:45:01.000",
    "date_modified": "2026-04-30T19:45:04.000",
    "request_status": "Pending",
    "responsible_agency": "Department of Sanitation",
    "final_address": "145 10Th St",
    "address_councildis": "A",
    "status": "Assigned to Contractor",
    "contractor": "IV Waste",
    "rowid": "1277963",
    "final_x": "3665685.73895",
    "final_y": "547552.429394",
    "longitude": "-90.11746907860375",
    "latitude": "30.000050176563505",
    "geocoded_column": {
      "latitude": "30.000050176563505",
      "longitude": "-90.11746907860375"
    }
  },
  {
    "service_request": "2026-1277962",
    "request_type": "General Services",
    "request_reason": "General Service Request",
    "date_created": "2026-04-30T19:38:47.000",
    "date_modified": "2026-04-30T19:38:49.000",
    "request_status": "Pending",
    "responsible_agency": "Orleans Parish Communication District",
    "final_address": "2516 Dumaine St",
    "address_councildis": "C",
    "status": "Pending",
    "rowid": "1277962",
    "final_x": "3677788.50254",
    "final_y": "536981.356808",
    "longitude": "-90.07960121104477",
    "latitude": "29.970624731001354",
    "geocoded_column": {
      "latitude": "29.970624731001354",
      "longitude": "-90.07960121104477"
    }
  },
  {
    "service_request": "2026-1277961",
    "request_type": "Roads and Streets",
    "request_reason": "Abandoned Service Cut",
    "date_created": "2026-04-30T19:37:09.000",
    "date_modified": "2026-04-30T19:37:11.000",
    "request_status": "Pending",
    "responsible_agency": "Department of Public Works",
    "final_address": "4819 Gallier Dr",
    "address_councildis": "D",
    "status": "Pending",
    "rowid": "1277961",
    "final_x": "3692169.66262",
    "final_y": "551623.542869",
    "longitude": "-90.03365948484283",
    "latitude": "30.010444938697272",
    "geocoded_column": {
      "latitude": "30.010444938697272",
      "longitude": "-90.03365948484283"
    }
  },
  {
    "service_request": "2026-1277960",
    "request_type": "Trash/Recycling",
    "request_reason": "Illegal Dumping",
    "date_created": "2026-04-30T19:31:51.000",
    "date_modified": "2026-04-30T19:31:53.000",
    "request_status": "Pending",
    "responsible_agency": "Department of Sanitation",
    "final_address": "2516 Dumaine St",
    "address_councildis": "C",
    "status": "Pending",
    "rowid": "1277960",
    "final_x": "3677788.50254",
    "final_y": "536981.356808",
    "longitude": "-90.07960121104477",
    "latitude": "29.970624731001354",
    "geocoded_column": {
      "latitude": "29.970624731001354",
      "longitude": "-90.07960121104477"
    }
  },
  {
    "service_request": "2026-1277959",
    "request_type": "Drainage",
    "request_reason": "Catch Basin Not Draining",
    "date_created": "2026-04-30T19:20:43.000",
    "date_modified": "2026-04-30T19:20:45.000",
    "request_status": "Pending",
    "responsible_agency": "Sewerage & Water Board",
    "final_address": "3322 Annunciation St",
    "address_councildis": "B",
    "status": "Pending",
    "rowid": "1277959",
    "final_x": "3675674.09838",
    "final_y": "518663.092087",
    "longitude": "-90.08690805390944",
    "latitude": "29.920319001808245",
    "geocoded_column": {
      "latitude": "29.920319001808245",
      "longitude": "-90.08690805390944"
    }
  },
  {
    "service_request": "2026-1277958",
    "request_type": "Trash/Recycling",
    "request_reason": "Request a Large Item Pick Up",
    "date_created": "2026-04-30T18:31:31.000",
    "date_modified": "2026-04-30T18:31:33.000",
    "request_status": "Pending",
    "responsible_agency": "Department of Sanitation",
    "final_address": "819 Soniat St",
    "address_councildis": "B",
    "status": "Assigned to Contractor",
    "contractor": "IV Waste",
    "rowid": "1277958",
    "final_x": "3668406.74554",
    "final_y": "518345.65855",
    "longitude": "-90.10985842412649",
    "latitude": "29.91966152963728",
    "geocoded_column": {
      "latitude": "29.91966152963728",
      "longitude": "-90.10985842412649"
    }
  },
  {
    "service_request": "2026-1277957",
    "request_type": "Trash/Recycling",
    "request_reason": "MIssed Recycling Pick-Up",
    "date_created": "2026-04-30T17:58:51.000",
    "date_modified": "2026-04-30T17:58:53.000",
    "request_status": "Pending",
    "responsible_agency": "Department of Sanitation",
    "final_address": "4601 Constance St",
    "address_councildis": "B",
    "status": "Assigned to Contractor",
    "contractor": "IV Waste",
    "rowid": "1277957",
    "final_x": "3670309.41082",
    "final_y": "518372.128054",
    "longitude": "-90.1038517363669",
    "latitude": "29.919678313443253",
    "geocoded_column": {
      "latitude": "29.919678313443253",
      "longitude": "-90.1038517363669"
    }
  },
  {
    "service_request": "2026-1277955",
    "request_type": "Trash/Recycling",
    "request_reason": "Return Trash Cart",
    "date_created": "2026-04-30T17:56:45.000",
    "date_modified": "2026-04-30T17:56:47.000",
    "request_status": "Pending",
    "responsible_agency": "Department of Sanitation",
    "final_address": "11294 Midpoint Dr",
    "address_councildis": "E",
    "status": "Assigned to Contractor",
    "contractor": "Waste Pro",
    "rowid": "1277955",
    "final_x": "3718522.56185",
    "final_y": "559483.636253",
    "longitude": "-89.95010193325913",
    "latitude": "30.03120885078771",
    "geocoded_column": {
      "latitude": "30.03120885078771",
      "longitude": "-89.95010193325913"
    }
  },
  {
    "service_request": "2026-1277956",
    "request_type": "Trash/Recycling",
    "request_reason": "Return Trash Cart",
    "date_created": "2026-04-30T17:56:45.000",
    "date_modified": "2026-04-30T17:56:48.000",
    "request_status": "Pending",
    "responsible_agency": "Department of Sanitation",
    "final_address": "11294 Midpoint Dr",
    "address_councildis": "E",
    "status": "Assigned to Contractor",
    "contractor": "Waste Pro",
    "rowid": "1277956",
    "final_x": "3718522.56185",
    "final_y": "559483.636253",
    "longitude": "-89.95010193325913",
    "latitude": "30.03120885078771",
    "geocoded_column": {
      "latitude": "30.03120885078771",
      "longitude": "-89.95010193325913"
    }
  },
  {
    "service_request": "2026-1277954",
    "request_type": "General Services",
    "request_reason": "General Service Request",
    "date_created": "2026-04-30T17:51:35.000",
    "date_modified": "2026-04-30T17:51:37.000",
    "request_status": "Pending",
    "responsible_agency": "Orleans Parish Communication District",
    "final_address": "1581 Magazine St",
    "address_councildis": "B",
    "status": "Pending",
    "rowid": "1277954",
    "final_x": "3680017.78408",
    "final_y": "523287.187323",
    "longitude": "-90.07303655448769",
    "latitude": "29.932903114747276",
    "geocoded_column": {
      "latitude": "29.932903114747276",
      "longitude": "-90.07303655448769"
    }
  },
  {
    "service_request": "2026-1277953",
    "request_type": "Abandoned Vehicles",
    "request_reason": "Abandoned/Junk Vehicles",
    "date_created": "2026-04-30T17:44:44.000",
    "date_modified": "2026-04-30T17:44:47.000",
    "request_status": "Pending",
    "responsible_agency": "Department of Public Works",
    "final_address": "3518 Touro St",
    "address_councildis": "D",
    "status": "Pending",
    "rowid": "1277953",
    "final_x": "3683451.16021",
    "final_y": "545588.194704",
    "longitude": "-90.06141616795202",
    "latitude": "29.994118931917765",
    "geocoded_column": {
      "latitude": "29.994118931917765",
      "longitude": "-90.06141616795202"
    }
  },
  {
    "service_request": "2026-1277952",
    "request_type": "Trash/Recycling",
    "request_reason": "Request a Large Item Pick Up",
    "date_created": "2026-04-30T17:31:16.000",
    "date_modified": "2026-04-30T17:31:18.000",
    "request_status": "Pending",
    "responsible_agency": "Department of Sanitation",
    "final_address": "320 Alix St",
    "address_councildis": "C",
    "status": "Assigned to Contractor",
    "contractor": "Richards Disposal",
    "rowid": "1277952",
    "final_x": "3686532.61436",
    "final_y": "530078.590081",
    "longitude": "-90.05223006039935",
    "latitude": "29.95137853746635",
    "geocoded_column": {
      "latitude": "29.95137853746635",
      "longitude": "-90.05223006039935"
    }
  },
  {
    "service_request": "2026-1277951",
    "request_type": "Street and Traffic Signs",
    "request_reason": "Stop Sign Missing or Damaged",
    "date_created": "2026-04-30T17:23:19.000",
    "date_modified": "2026-04-30T17:23:22.000",
    "request_status": "Pending",
    "responsible_agency": "Department of Public Works",
    "final_address": "2001 Elysian Fields Ave",
    "address_councildis": "D",
    "status": "Pending",
    "rowid": "1277951",
    "final_x": "3684853.99407",
    "final_y": "539663.065098",
    "longitude": "-90.05719326657642",
    "latitude": "29.977784031051165",
    "geocoded_column": {
      "latitude": "29.977784031051165",
      "longitude": "-90.05719326657642"
    }
  },
  {
    "service_request": "2026-1277950",
    "request_type": "Roads and Streets",
    "request_reason": "Pothole",
    "date_created": "2026-04-30T17:11:52.000",
    "date_modified": "2026-04-30T17:11:54.000",
    "request_status": "Pending",
    "responsible_agency": "Department of Public Works",
    "final_address": "3511 Rue Mignon",
    "address_councildis": "C",
    "status": "Pending",
    "rowid": "1277950",
    "final_x": "3703275.62097",
    "final_y": "517776.087158",
    "longitude": "-89.99981632407118",
    "latitude": "29.917025615526146",
    "geocoded_column": {
      "latitude": "29.917025615526146",
      "longitude": "-89.99981632407118"
    }
  },
  {
    "service_request": "2026-1277949",
    "request_type": "Property Maintenance",
    "request_reason": "Property Maintenance",
    "date_created": "2026-04-30T16:59:34.000",
    "date_modified": "2026-04-30T16:59:55.000",
    "request_status": "Pending",
    "responsible_agency": "Department of Code Enforcement",
    "final_address": "1720 Horace St",
    "address_councildis": "C",
    "status": "Pending",
    "rowid": "1277949",
    "final_x": "3696342.84106",
    "final_y": "524943.038717",
    "longitude": "-90.02143999262569",
    "latitude": "29.936952318315527",
    "geocoded_column": {
      "latitude": "29.936952318315527",
      "longitude": "-90.02143999262569"
    }
  },
  {
    "service_request": "2026-1277948",
    "request_type": "Trash/Recycling",
    "request_reason": "Request a Large Item Pick Up",
    "date_created": "2026-04-30T16:34:12.000",
    "date_modified": "2026-04-30T16:34:15.000",
    "request_status": "Pending",
    "responsible_agency": "Department of Sanitation",
    "final_address": "4924 Coliseum St",
    "address_councildis": "B",
    "status": "Assigned to Contractor",
    "contractor": "IV Waste",
    "rowid": "1277948",
    "final_x": "3668809.78561",
    "final_y": "519598.982648",
    "longitude": "-90.10854393450562",
    "latitude": "29.92309593547045",
    "geocoded_column": {
      "latitude": "29.92309593547045",
      "longitude": "-90.10854393450562"
    }
  },
  {
    "service_request": "2026-1277947",
    "request_type": "Trash/Recycling",
    "request_reason": "MIssed Recycling Pick-Up",
    "date_created": "2026-04-30T16:33:08.000",
    "date_modified": "2026-04-30T16:44:25.000",
    "case_close_date": "2026-04-30T11:44:24.000",
    "request_status": "Closed",
    "responsible_agency": "Department of Sanitation",
    "final_address": "968 S Telemachus St",
    "address_councildis": "B",
    "status": "Invalid Request",
    "contractor": "IV Waste",
    "contractor_action": "Invalid Request",
    "rowid": "1277947",
    "final_x": "3669899.94817",
    "final_y": "534027.647749",
    "longitude": "-90.10461430047121",
    "latitude": "29.962737991561422",
    "geocoded_column": {
      "latitude": "29.962737991561422",
      "longitude": "-90.10461430047121"
    }
  },
  {
    "service_request": "2026-1277946",
    "request_type": "Trash/Recycling",
    "request_reason": "Replace Trash Cart",
    "date_created": "2026-04-30T16:28:14.000",
    "date_modified": "2026-04-30T16:28:17.000",
    "request_status": "Pending",
    "responsible_agency": "Department of Sanitation",
    "final_address": "1552 Mandolin St",
    "address_councildis": "D",
    "status": "Assigned to Contractor",
    "contractor": "IV Waste",
    "rowid": "1277946",
    "final_x": "3679172.69685",
    "final_y": "548010.053202",
    "longitude": "-90.07484722122159",
    "latitude": "30.000908078467038",
    "geocoded_column": {
      "latitude": "30.000908078467038",
      "longitude": "-90.07484722122159"
    }
  },
  {
    "service_request": "2026-1277945",
    "request_type": "Trash/Recycling",
    "request_reason": "Request a Large Item Pick Up",
    "date_created": "2026-04-30T16:25:26.000",
    "date_modified": "2026-04-30T16:25:30.000",
    "request_status": "Pending",
    "responsible_agency": "Department of Sanitation",
    "final_address": "8117 Apple St",
    "address_councildis": "A",
    "status": "Assigned to Contractor",
    "contractor": "IV Waste",
    "rowid": "1277945",
    "final_x": "3665287.91181",
    "final_y": "532221.242947",
    "longitude": "-90.1192390097369",
    "latitude": "29.95790615234316",
    "geocoded_column": {
      "latitude": "29.95790615234316",
      "longitude": "-90.1192390097369"
    }
  },
  {
    "service_request": "2026-1277944",
    "request_type": "Trash/Recycling",
    "request_reason": "Request a Large Item Pick Up",
    "date_created": "2026-04-30T16:18:51.000",
    "date_modified": "2026-04-30T16:18:52.000",
    "request_status": "Pending",
    "responsible_agency": "Department of Sanitation",
    "final_address": "1233 Ursulines Ave",
    "address_councildis": "C",
    "status": "Assigned to Contractor",
    "contractor": "IV Waste",
    "rowid": "1277944",
    "final_x": "3681754.21634",
    "final_y": "534991.015814",
    "longitude": "-90.06714648496964",
    "latitude": "29.96503207114525",
    "geocoded_column": {
      "latitude": "29.96503207114525",
      "longitude": "-90.06714648496964"
    }
  },
  {
    "service_request": "2026-1277943",
    "request_type": "Streetlights",
    "request_reason": "Streetlight Knocked Down/Leaning",
    "date_created": "2026-04-30T16:17:40.000",
    "date_modified": "2026-04-30T16:17:41.000",
    "request_status": "Pending",
    "responsible_agency": "Department of Public Works",
    "final_address": "5000 BLK N Claiborne Ave",
    "address_councildis": "E",
    "status": "Pending",
    "rowid": "1277943",
    "final_x": "3696595.39385",
    "final_y": "535969.06138",
    "longitude": "-90.02024376867323",
    "latitude": "29.967262060824503",
    "geocoded_column": {
      "latitude": "29.967262060824503",
      "longitude": "-90.02024376867323"
    }
  },
  {
    "service_request": "2026-1277942",
    "request_type": "Abandoned Vehicles",
    "request_reason": "Abandoned/Junk Vehicles",
    "date_created": "2026-04-30T16:15:54.000",
    "date_modified": "2026-04-30T16:15:55.000",
    "request_status": "Pending",
    "responsible_agency": "Department of Public Works",
    "final_address": "3439 Constance St",
    "address_councildis": "B",
    "status": "Pending",
    "rowid": "1277942",
    "final_x": "3674849.07886",
    "final_y": "519192.705463",
    "longitude": "-90.08949410676303",
    "latitude": "29.92179991962535",
    "geocoded_column": {
      "latitude": "29.92179991962535",
      "longitude": "-90.08949410676303"
    }
  },
  {
    "service_request": "2026-1277941",
    "request_type": "Abandoned Vehicles",
    "request_reason": "Abandoned/Junk Vehicles",
    "date_created": "2026-04-30T16:03:16.000",
    "date_modified": "2026-04-30T16:03:18.000",
    "request_status": "Pending",
    "responsible_agency": "Department of Public Works",
    "final_address": "2400 BLK Orleans Ave",
    "address_councildis": "C",
    "status": "Pending",
    "rowid": "1277941",
    "final_x": "3677710.31285",
    "final_y": "536283.634569",
    "longitude": "-90.07987224795775",
    "latitude": "29.968708585229376",
    "geocoded_column": {
      "latitude": "29.968708585229376",
      "longitude": "-90.07987224795775"
    }
  },
  {
    "service_request": "2026-1277940",
    "request_type": "Mosquito, Termite & Rodent Control",
    "request_reason": "Mosquito Complaint",
    "date_created": "2026-04-30T16:01:19.000",
    "date_modified": "2026-04-30T16:01:20.000",
    "request_status": "Pending",
    "responsible_agency": "Mosquito, Termite & Rodent Control Board",
    "final_address": "13616 N Cavelier Dr",
    "address_councildis": "E",
    "status": "Pending",
    "rowid": "1277940",
    "final_x": "3724101.32409",
    "final_y": "569699.523366",
    "longitude": "-89.93207830630612",
    "latitude": "30.059111952183287",
    "geocoded_column": {
      "latitude": "30.059111952183287",
      "longitude": "-89.93207830630612"
    }
  },
  {
    "service_request": "2026-1277939",
    "request_type": "Trash/Recycling",
    "request_reason": "Request a Large Item Pick Up",
    "date_created": "2026-04-30T16:01:14.000",
    "date_modified": "2026-04-30T16:01:16.000",
    "request_status": "Pending",
    "responsible_agency": "Department of Sanitation",
    "final_address": "3121 Adrian St",
    "address_councildis": "C",
    "status": "Assigned to Contractor",
    "contractor": "Richards Disposal",
    "rowid": "1277939",
    "final_x": "3710698.80741",
    "final_y": "519136.375607",
    "longitude": "-89.97633498980255",
    "latitude": "29.920526300026115",
    "geocoded_column": {
      "latitude": "29.920526300026115",
      "longitude": "-89.97633498980255"
    }
  },
  {
    "service_request": "2026-1277938",
    "request_type": "Trash/Recycling",
    "request_reason": "Request a Large Item Pick Up",
    "date_created": "2026-04-30T15:59:42.000",
    "date_modified": "2026-04-30T15:59:44.000",
    "request_status": "Pending",
    "responsible_agency": "Department of Sanitation",
    "final_address": "5141 Carlisle Ct",
    "address_councildis": "C",
    "status": "Assigned to Contractor",
    "contractor": "Richards Disposal",
    "rowid": "1277938",
    "final_x": "3703174.63895",
    "final_y": "516472.027317",
    "longitude": "-90.0001829538753",
    "latitude": "29.91344312926251",
    "geocoded_column": {
      "latitude": "29.91344312926251",
      "longitude": "-90.0001829538753"
    }
  },
  {
    "service_request": "2026-1277937",
    "request_type": "General Services",
    "request_reason": "General Service Request",
    "date_created": "2026-04-30T15:48:22.000",
    "date_modified": "2026-04-30T15:50:13.000",
    "case_close_date": "2026-04-30T10:50:12.000",
    "request_status": "Closed",
    "responsible_agency": "Orleans Parish Communication District",
    "final_address": "3RD ST & S CLAIBORNE AVE",
    "address_councildis": "B",
    "status": "Referred to Risk Management",
    "rowid": "1277937",
    "final_x": "3673716.3",
    "final_y": "526998.68",
    "longitude": "-90.09280304937765",
    "latitude": "29.943297582897983",
    "geocoded_column": {
      "latitude": "29.943297582897983",
      "longitude": "-90.09280304937765"
    }
  },
  {
    "service_request": "2026-1277936",
    "request_type": "Trash/Recycling",
    "request_reason": "Replace Recycling Cart",
    "date_created": "2026-04-30T15:47:27.000",
    "date_modified": "2026-04-30T15:47:29.000",
    "request_status": "Pending",
    "responsible_agency": "Department of Sanitation",
    "final_address": "3006 General Ogden St",
    "address_councildis": "A",
    "status": "Pending",
    "rowid": "1277936",
    "final_x": "3664237.64212",
    "final_y": "535129.25127",
    "longitude": "-90.12245843943765",
    "latitude": "29.965932780385543",
    "geocoded_column": {
      "latitude": "29.965932780385543",
      "longitude": "-90.12245843943765"
    }
  },
  {
    "service_request": "2026-1277935",
    "request_type": "Trash/Recycling",
    "request_reason": "Repair Trash Cart",
    "date_created": "2026-04-30T15:46:39.000",
    "date_modified": "2026-04-30T15:46:41.000",
    "request_status": "Pending",
    "responsible_agency": "Department of Sanitation",
    "final_address": "419 Hendee St",
    "address_councildis": "C",
    "status": "Assigned to Contractor",
    "contractor": "Richards Disposal",
    "rowid": "1277935",
    "final_x": "3690854.33596",
    "final_y": "530039.868033",
    "longitude": "-90.03858561310606",
    "latitude": "29.95113849706757",
    "geocoded_column": {
      "latitude": "29.95113849706757",
      "longitude": "-90.03858561310606"
    }
  },
  {
    "service_request": "2026-1277934",
    "request_type": "Trash/Recycling",
    "request_reason": "Repair Recycling Cart",
    "date_created": "2026-04-30T15:46:30.000",
    "date_modified": "2026-04-30T15:46:33.000",
    "request_status": "Pending",
    "responsible_agency": "Department of Sanitation",
    "final_address": "3741 Pin Oak Ave",
    "address_councildis": "C",
    "status": "Pending",
    "rowid": "1277934",
    "final_x": "3704579.86666",
    "final_y": "514385.601843",
    "longitude": "-89.99582452431173",
    "latitude": "29.907661143676684",
    "geocoded_column": {
      "latitude": "29.907661143676684",
      "longitude": "-89.99582452431173"
    }
  },
  {
    "service_request": "2026-1277933",
    "request_type": "Roads and Streets",
    "request_reason": "Pothole",
    "date_created": "2026-04-30T15:43:50.000",
    "date_modified": "2026-04-30T15:44:41.000",
    "request_status": "Pending",
    "responsible_agency": "Department of Public Works",
    "final_address": "5825 Winchester Park Dr",
    "address_councildis": "E",
    "status": "Pending",
    "rowid": "1277933",
    "final_x": "3715112.76555",
    "final_y": "562288.570079",
    "longitude": "-89.96077071965144",
    "latitude": "30.039034031971443",
    "geocoded_column": {
      "latitude": "30.039034031971443",
      "longitude": "-89.96077071965144"
    }
  },
  {
    "service_request": "2026-1277932",
    "request_type": "Trash/Recycling",
    "request_reason": "Repair Trash Cart",
    "date_created": "2026-04-30T15:43:03.000",
    "date_modified": "2026-04-30T15:47:00.000",
    "request_status": "Pending",
    "responsible_agency": "Department of Sanitation",
    "final_address": "413 Hendee St",
    "address_councildis": "C",
    "status": "Assigned to Contractor",
    "contractor": "Richards Disposal",
    "rowid": "1277932",
    "final_x": "3690854.65622",
    "final_y": "530075.148481",
    "longitude": "-90.03858334313956",
    "latitude": "29.95123549616478",
    "geocoded_column": {
      "latitude": "29.95123549616478",
      "longitude": "-90.03858334313956"
    }
  },
  {
    "service_request": "2026-1277931",
    "request_type": "Trash/Recycling",
    "request_reason": "Repair Recycling Cart",
    "date_created": "2026-04-30T15:42:46.000",
    "date_modified": "2026-04-30T15:42:47.000",
    "request_status": "Pending",
    "responsible_agency": "Department of Sanitation",
    "final_address": "3004 General Ogden St",
    "address_councildis": "A",
    "status": "Pending",
    "rowid": "1277931",
    "final_x": "3664227.73364",
    "final_y": "535118.719814",
    "longitude": "-90.12249008170897",
    "latitude": "29.96590411025564",
    "geocoded_column": {
      "latitude": "29.96590411025564",
      "longitude": "-90.12249008170897"
    }
  },
  {
    "service_request": "2026-1277930",
    "request_type": "Trash/Recycling",
    "request_reason": "Missed Trash Pick-Up",
    "date_created": "2026-04-30T15:41:56.000",
    "date_modified": "2026-04-30T16:15:53.000",
    "case_close_date": "2026-04-30T11:15:52.000",
    "request_status": "Closed",
    "responsible_agency": "Department of Sanitation",
    "final_address": "2016 Erato St",
    "address_councildis": "B",
    "status": "Invalid Request",
    "contractor": "IV Waste",
    "contractor_action": "Invalid Request",
    "rowid": "1277930",
    "final_x": "3677939.83669",
    "final_y": "527020.828798",
    "longitude": "-90.07946750097476",
    "latitude": "29.943232078740028",
    "geocoded_column": {
      "latitude": "29.943232078740028",
      "longitude": "-90.07946750097476"
    }
  },
  {
    "service_request": "2026-1277929",
    "request_type": "Trash/Recycling",
    "request_reason": "Repair Trash Cart",
    "date_created": "2026-04-30T15:31:40.000",
    "date_modified": "2026-04-30T15:34:54.000",
    "request_status": "Pending",
    "responsible_agency": "Department of Sanitation",
    "final_address": "1926 Painters St",
    "address_councildis": "D",
    "status": "Pending",
    "contractor": "IV Waste",
    "rowid": "1277929",
    "final_x": "3687272.13986",
    "final_y": "539661.646858",
    "longitude": "-90.04955599623202",
    "latitude": "29.977705858204594",
    "geocoded_column": {
      "latitude": "29.977705858204594",
      "longitude": "-90.04955599623202"
    }
  },
  {
    "service_request": "2026-1277928",
    "request_type": "Trash/Recycling",
    "request_reason": "Order Trash Cart",
    "date_created": "2026-04-30T15:29:14.000",
    "date_modified": "2026-04-30T15:29:16.000",
    "request_status": "Pending",
    "responsible_agency": "Department of Sanitation",
    "final_address": "1201 Riviera Ave",
    "address_councildis": "D",
    "status": "Assigned to Contractor",
    "contractor": "IV Waste",
    "rowid": "1277928",
    "final_x": "3676821.97435",
    "final_y": "550909.154965",
    "longitude": "-90.0821733380724",
    "latitude": "30.008950360000725",
    "geocoded_column": {
      "latitude": "30.008950360000725",
      "longitude": "-90.0821733380724"
    }
  },
  {
    "service_request": "2026-1277927",
    "request_type": "Trash/Recycling",
    "request_reason": "Return Trash Cart",
    "date_created": "2026-04-30T15:28:50.000",
    "date_modified": "2026-04-30T15:28:52.000",
    "request_status": "Pending",
    "responsible_agency": "Department of Sanitation",
    "final_address": "1732 Valmont St",
    "address_councildis": "B",
    "status": "Assigned to Contractor",
    "contractor": "IV Waste",
    "rowid": "1277927",
    "final_x": "3667905.36257",
    "final_y": "522089.299962",
    "longitude": "-90.111315023539",
    "latitude": "29.929970069446817",
    "geocoded_column": {
      "latitude": "29.929970069446817",
      "longitude": "-90.111315023539"
    }
  },
  {
    "service_request": "2026-1277926",
    "request_type": "Trash/Recycling",
    "request_reason": "Return Trash Cart",
    "date_created": "2026-04-30T15:28:08.000",
    "date_modified": "2026-04-30T15:28:33.000",
    "request_status": "Pending",
    "responsible_agency": "Department of Sanitation",
    "final_address": "2036 Palmer Ave",
    "address_councildis": "A",
    "status": "Assigned to Contractor",
    "contractor": "IV Waste",
    "rowid": "1277926",
    "final_x": "3665847.62528",
    "final_y": "524585.894588",
    "longitude": "-90.11772736910913",
    "latitude": "29.9368950930788",
    "geocoded_column": {
      "latitude": "29.9368950930788",
      "longitude": "-90.11772736910913"
    }
  },
  {
    "service_request": "2026-1277925",
    "request_type": "Healthy Homes",
    "request_reason": "Healthy Homes",
    "date_created": "2026-04-30T15:27:45.000",
    "date_modified": "2026-04-30T15:27:47.000",
    "request_status": "Pending",
    "responsible_agency": "Department of Code Enforcement",
    "final_address": "3222 Canal St",
    "address_councildis": "B",
    "status": "Pending",
    "rowid": "1277925",
    "final_x": "3673669.96251",
    "final_y": "536206.475207",
    "longitude": "-90.09263456850428",
    "latitude": "29.968617334764012",
    "geocoded_column": {
      "latitude": "29.968617334764012",
      "longitude": "-90.09263456850428"
    }
  },
  {
    "service_request": "2026-1277924",
    "request_type": "Trash/Recycling",
    "request_reason": "Order Trash Cart",
    "date_created": "2026-04-30T15:21:48.000",
    "date_modified": "2026-04-30T15:21:50.000",
    "request_status": "Pending",
    "responsible_agency": "Department of Sanitation",
    "final_address": "2218 Valence St",
    "address_councildis": "B",
    "status": "Assigned to Contractor",
    "contractor": "IV Waste",
    "rowid": "1277924",
    "final_x": "3669401.92398",
    "final_y": "523036.346491",
    "longitude": "-90.1065586076973",
    "latitude": "29.932530173099984",
    "geocoded_column": {
      "latitude": "29.932530173099984",
      "longitude": "-90.1065586076973"
    }
  },
  {
    "service_request": "2026-1277923",
    "request_type": "Trash/Recycling",
    "request_reason": "Order Recycling Cart",
    "date_created": "2026-04-30T15:19:04.000",
    "date_modified": "2026-04-30T15:19:08.000",
    "request_status": "Pending",
    "responsible_agency": "Department of Sanitation",
    "final_address": "6911 Camberley Dr",
    "address_councildis": "E",
    "status": "Pending",
    "rowid": "1277923",
    "final_x": "3713487.6428",
    "final_y": "564150.532769",
    "longitude": "-89.9658362896132",
    "latitude": "30.04420710487343",
    "geocoded_column": {
      "latitude": "30.04420710487343",
      "longitude": "-89.9658362896132"
    }
  },
  {
    "service_request": "2026-1277922",
    "request_type": "Trash/Recycling",
    "request_reason": "Replace Trash Cart",
    "date_created": "2026-04-30T15:15:16.000",
    "date_modified": "2026-04-30T15:33:26.000",
    "request_status": "Pending",
    "responsible_agency": "Department of Sanitation",
    "final_address": "0 BLK Charlotte Dr",
    "address_councildis": "D",
    "status": "Pending",
    "contractor": "IV Waste",
    "rowid": "1277922",
    "final_x": "3680306.04421",
    "final_y": "551384.304171",
    "longitude": "-90.07114947197744",
    "latitude": "30.010151784319163",
    "geocoded_column": {
      "latitude": "30.010151784319163",
      "longitude": "-90.07114947197744"
    }
  },
  {
    "service_request": "2026-1277921",
    "request_type": "Trash/Recycling",
    "request_reason": "Order Recycling Cart",
    "date_created": "2026-04-30T15:15:01.000",
    "date_modified": "2026-04-30T15:15:02.000",
    "request_status": "Pending",
    "responsible_agency": "Department of Sanitation",
    "final_address": "2216 Valence St",
    "address_councildis": "B",
    "status": "Pending",
    "rowid": "1277921",
    "final_x": "3669401.92398",
    "final_y": "523036.346491",
    "longitude": "-90.1065586076973",
    "latitude": "29.932530173099984",
    "geocoded_column": {
      "latitude": "29.932530173099984",
      "longitude": "-90.1065586076973"
    }
  },
  {
    "service_request": "2026-1277920",
    "request_type": "Trash/Recycling",
    "request_reason": "Request a Large Item Pick Up",
    "date_created": "2026-04-30T15:14:16.000",
    "date_modified": "2026-04-30T15:14:18.000",
    "request_status": "Pending",
    "responsible_agency": "Department of Sanitation",
    "final_address": "4320 S Dorgenois St",
    "address_councildis": "B",
    "status": "Assigned to Contractor",
    "contractor": "IV Waste",
    "rowid": "1277920",
    "final_x": "3670302.41543",
    "final_y": "528792.169152",
    "longitude": "-90.10352080392268",
    "latitude": "29.9483302793382",
    "geocoded_column": {
      "latitude": "29.9483302793382",
      "longitude": "-90.10352080392268"
    }
  },
  {
    "service_request": "2026-1277919",
    "request_type": "Roads and Streets",
    "request_reason": "Pothole",
    "date_created": "2026-04-30T15:13:14.000",
    "date_modified": "2026-04-30T15:14:48.000",
    "request_status": "Pending",
    "responsible_agency": "Department of Public Works",
    "final_address": "1926 Painters St",
    "address_councildis": "D",
    "status": "Pending",
    "rowid": "1277919",
    "final_x": "3687272.13986",
    "final_y": "539661.646858",
    "longitude": "-90.04955599623202",
    "latitude": "29.977705858204594",
    "geocoded_column": {
      "latitude": "29.977705858204594",
      "longitude": "-90.04955599623202"
    }
  },
  {
    "service_request": "2026-1277918",
    "request_type": "Property Maintenance",
    "request_reason": "Property Maintenance",
    "date_created": "2026-04-30T15:13:12.000",
    "date_modified": "2026-04-30T15:13:14.000",
    "request_status": "Pending",
    "responsible_agency": "Department of Code Enforcement",
    "final_address": "3140 Jackson Ave",
    "address_councildis": "B",
    "status": "Pending",
    "rowid": "1277918",
    "final_x": "3673923.45524",
    "final_y": "528450.708608",
    "longitude": "-90.09209934575418",
    "latitude": "29.947284015525973",
    "geocoded_column": {
      "latitude": "29.947284015525973",
      "longitude": "-90.09209934575418"
    }
  },
  {
    "service_request": "2026-1277917",
    "request_type": "Property Maintenance",
    "request_reason": "Property Maintenance",
    "date_created": "2026-04-30T15:11:36.000",
    "date_modified": "2026-04-30T15:12:26.000",
    "request_status": "Pending",
    "responsible_agency": "Department of Code Enforcement",
    "final_address": "5954 Beechcraft St",
    "address_councildis": "D",
    "status": "Pending",
    "rowid": "1277917",
    "final_x": "3696508.37495",
    "final_y": "553276.979479",
    "longitude": "-90.01989204033204",
    "latitude": "30.01485524040014",
    "geocoded_column": {
      "latitude": "30.01485524040014",
      "longitude": "-90.01989204033204"
    }
  },
  {
    "service_request": "2026-1277916",
    "request_type": "Trash/Recycling",
    "request_reason": "MIssed Recycling Pick-Up",
    "date_created": "2026-04-30T15:09:55.000",
    "date_modified": "2026-04-30T16:59:02.000",
    "case_close_date": "2026-04-30T11:59:00.000",
    "request_status": "Closed",
    "responsible_agency": "Department of Sanitation",
    "final_address": "2515 Mendez St",
    "address_councildis": "D",
    "status": "Invalid Request",
    "contractor": "IV Waste",
    "contractor_action": "Invalid Request",
    "rowid": "1277916",
    "final_x": "3685984.72418",
    "final_y": "553639.898711",
    "longitude": "-90.05312883776584",
    "latitude": "30.01618062330877",
    "geocoded_column": {
      "latitude": "30.01618062330877",
      "longitude": "-90.05312883776584"
    }
  },
  {
    "service_request": "2026-1277915",
    "request_type": "Trash/Recycling",
    "request_reason": "Request a Large Item Pick Up",
    "date_created": "2026-04-30T15:08:12.000",
    "date_modified": "2026-04-30T15:08:15.000",
    "request_status": "Pending",
    "responsible_agency": "Department of Sanitation",
    "final_address": "4408 Fontainebleau Dr",
    "address_councildis": "B",
    "status": "Assigned to Contractor",
    "contractor": "IV Waste",
    "rowid": "1277915",
    "final_x": "3669145.98823",
    "final_y": "529465.641793",
    "longitude": "-90.1071493780513",
    "latitude": "29.950216186716126",
    "geocoded_column": {
      "latitude": "29.950216186716126",
      "longitude": "-90.1071493780513"
    }
  },
  {
    "service_request": "2026-1277914",
    "request_type": "Roads and Streets",
    "request_reason": "Pothole",
    "date_created": "2026-04-30T15:05:00.000",
    "date_modified": "2026-04-30T15:05:02.000",
    "request_status": "Pending",
    "responsible_agency": "Department of Public Works",
    "final_address": "2ND ST & CONSTANCE ST",
    "address_councildis": "B",
    "status": "Pending",
    "rowid": "1277914",
    "final_x": "3678035.9",
    "final_y": "521022.28",
    "longitude": "-90.07937146486867",
    "latitude": "29.92673514940224",
    "geocoded_column": {
      "latitude": "29.92673514940224",
      "longitude": "-90.07937146486867"
    }
  },
  {
    "service_request": "2026-1277913",
    "request_type": "Trash/Recycling",
    "request_reason": "MIssed Recycling Pick-Up",
    "date_created": "2026-04-30T15:02:45.000",
    "date_modified": "2026-04-30T15:02:47.000",
    "request_status": "Pending",
    "responsible_agency": "Department of Sanitation",
    "final_address": "4574 Hickerson Dr",
    "address_councildis": "E",
    "status": "Assigned to Contractor",
    "contractor": "Waste Pro",
    "rowid": "1277913",
    "final_x": "3710387.02411",
    "final_y": "554778.084184",
    "longitude": "-89.97598642899233",
    "latitude": "30.018537962742638",
    "geocoded_column": {
      "latitude": "30.018537962742638",
      "longitude": "-89.97598642899233"
    }
  },
  {
    "service_request": "2026-1277912",
    "request_type": "Trash/Recycling",
    "request_reason": "Request a Large Item Pick Up",
    "date_created": "2026-04-30T15:02:41.000",
    "date_modified": "2026-04-30T15:02:43.000",
    "request_status": "Pending",
    "responsible_agency": "Department of Sanitation",
    "final_address": "3520 Preston Pl",
    "address_councildis": "C",
    "status": "Assigned to Contractor",
    "contractor": "Richards Disposal",
    "rowid": "1277912",
    "final_x": "3708567.31153",
    "final_y": "517816.666614",
    "longitude": "-89.98311215391513",
    "latitude": "29.916966798404893",
    "geocoded_column": {
      "latitude": "29.916966798404893",
      "longitude": "-89.98311215391513"
    }
  },
  {
    "service_request": "2026-1277911",
    "request_type": "Streetlights",
    "request_reason": "Streetlight Outage/Malfunction",
    "date_created": "2026-04-30T15:02:19.000",
    "date_modified": "2026-04-30T15:02:20.000",
    "request_status": "Pending",
    "responsible_agency": "Department of Public Works",
    "final_address": "3520 Preston Pl",
    "address_councildis": "C",
    "status": "Pending",
    "rowid": "1277911",
    "final_x": "3708567.31153",
    "final_y": "517816.666614",
    "longitude": "-89.98311215391513",
    "latitude": "29.916966798404893",
    "geocoded_column": {
      "latitude": "29.916966798404893",
      "longitude": "-89.98311215391513"
    }
  },
  {
    "service_request": "2026-1277910",
    "request_type": "Trash/Recycling",
    "request_reason": "Request a Large Item Pick Up",
    "date_created": "2026-04-30T15:00:33.000",
    "date_modified": "2026-04-30T15:00:34.000",
    "request_status": "Pending",
    "responsible_agency": "Department of Sanitation",
    "final_address": "7846 N Coronet Ct",
    "address_councildis": "E",
    "status": "Assigned to Contractor",
    "contractor": "Waste Pro",
    "rowid": "1277910",
    "final_x": "3703293.37438",
    "final_y": "557638.339291",
    "longitude": "-89.99829431504085",
    "latitude": "30.02663170648529",
    "geocoded_column": {
      "latitude": "30.02663170648529",
      "longitude": "-89.99829431504085"
    }
  },
  {
    "service_request": "2026-1277909",
    "request_type": "Trash/Recycling",
    "request_reason": "Request a Large Item Pick Up",
    "date_created": "2026-04-30T14:56:38.000",
    "date_modified": "2026-04-30T14:56:40.000",
    "request_status": "Pending",
    "responsible_agency": "Department of Sanitation",
    "final_address": "6930 Queensway Dr",
    "address_councildis": "E",
    "status": "Assigned to Contractor",
    "contractor": "Waste Pro",
    "rowid": "1277909",
    "final_x": "3719546.04044",
    "final_y": "568891.027685",
    "longitude": "-89.9465079475778",
    "latitude": "30.05704131050695",
    "geocoded_column": {
      "latitude": "30.05704131050695",
      "longitude": "-89.9465079475778"
    }
  },
  {
    "service_request": "2026-1277908",
    "request_type": "Trash/Recycling",
    "request_reason": "Request a Large Item Pick Up",
    "date_created": "2026-04-30T14:54:46.000",
    "date_modified": "2026-04-30T14:54:47.000",
    "request_status": "Pending",
    "responsible_agency": "Department of Sanitation",
    "final_address": "4759 Marque Dr",
    "address_councildis": "E",
    "status": "Assigned to Contractor",
    "contractor": "Waste Pro",
    "rowid": "1277908",
    "final_x": "3710097.57265",
    "final_y": "555846.563993",
    "longitude": "-89.97686101549913",
    "latitude": "30.021485289863474",
    "geocoded_column": {
      "latitude": "30.021485289863474",
      "longitude": "-89.97686101549913"
    }
  },
  {
    "service_request": "2026-1277907",
    "request_type": "Trash/Recycling",
    "request_reason": "Missed Trash Pick-Up",
    "date_created": "2026-04-30T14:53:12.000",
    "date_modified": "2026-04-30T14:53:15.000",
    "request_status": "Pending",
    "responsible_agency": "Department of Sanitation",
    "final_address": "1701 Flood St",
    "address_councildis": "E",
    "status": "Assigned to Contractor",
    "contractor": "Waste Pro",
    "rowid": "1277907",
    "final_x": "3698350.01994",
    "final_y": "536097.962567",
    "longitude": "-90.01469798629256",
    "latitude": "29.967561088044704",
    "geocoded_column": {
      "latitude": "29.967561088044704",
      "longitude": "-90.01469798629256"
    }
  },
  {
    "service_request": "2026-1277906",
    "request_type": "Trash/Recycling",
    "request_reason": "Request a Large Item Pick Up",
    "date_created": "2026-04-30T14:49:23.000",
    "date_modified": "2026-04-30T14:49:24.000",
    "request_status": "Pending",
    "responsible_agency": "Department of Sanitation",
    "final_address": "5109 Eastern St",
    "address_councildis": "D",
    "status": "Assigned to Contractor",
    "contractor": "IV Waste",
    "rowid": "1277906",
    "final_x": "3687968.61455",
    "final_y": "551783.676949",
    "longitude": "-90.04692647460209",
    "latitude": "30.011015601355307",
    "geocoded_column": {
      "latitude": "30.011015601355307",
      "longitude": "-90.04692647460209"
    }
  },
  {
    "service_request": "2026-1277905",
    "request_type": "Trash/Recycling",
    "request_reason": "Request a Large Item Pick Up",
    "date_created": "2026-04-30T14:49:18.000",
    "date_modified": "2026-04-30T14:49:20.000",
    "request_status": "Pending",
    "responsible_agency": "Department of Sanitation",
    "final_address": "4704 Annette St",
    "address_councildis": "D",
    "status": "Assigned to Contractor",
    "contractor": "IV Waste",
    "rowid": "1277905",
    "final_x": "3681972.63618",
    "final_y": "549823.135572",
    "longitude": "-90.06593865073752",
    "latitude": "30.00580855038816",
    "geocoded_column": {
      "latitude": "30.00580855038816",
      "longitude": "-90.06593865073752"
    }
  },
  {
    "service_request": "2026-1277904",
    "request_type": "Trash/Recycling",
    "request_reason": "Request a Large Item Pick Up",
    "date_created": "2026-04-30T14:48:54.000",
    "date_modified": "2026-04-30T14:48:56.000",
    "request_status": "Pending",
    "responsible_agency": "Department of Sanitation",
    "final_address": "6450 Center St",
    "address_councildis": "A",
    "status": "Assigned to Contractor",
    "contractor": "IV Waste",
    "rowid": "1277904",
    "final_x": "3664838.5698",
    "final_y": "551081.924885",
    "longitude": "-90.1200272763599",
    "latitude": "30.00977976061555",
    "geocoded_column": {
      "latitude": "30.00977976061555",
      "longitude": "-90.1200272763599"
    }
  },
  {
    "service_request": "2026-1277903",
    "request_type": "Roads and Streets",
    "request_reason": "Debris in Driving Lanes",
    "date_created": "2026-04-30T14:47:50.000",
    "date_modified": "2026-04-30T14:47:53.000",
    "request_status": "Pending",
    "responsible_agency": "Department of Public Works",
    "final_address": "CHEF MENTEUR HWY & CROWDER BLVD",
    "address_councildis": "E",
    "status": "Pending",
    "rowid": "1277903",
    "final_x": "3706525.0",
    "final_y": "553188.98",
    "longitude": "-89.9882478551619",
    "latitude": "30.01429376640613",
    "geocoded_column": {
      "latitude": "30.01429376640613",
      "longitude": "-89.9882478551619"
    }
  },
  {
    "service_request": "2026-1277902",
    "request_type": "Drainage",
    "request_reason": "Catch Basin Not Draining",
    "date_created": "2026-04-30T14:47:13.000",
    "date_modified": "2026-04-30T14:47:15.000",
    "request_status": "Pending",
    "responsible_agency": "Sewerage & Water Board",
    "final_address": "1438 Marais St",
    "address_councildis": "C",
    "status": "Pending",
    "rowid": "1277902",
    "final_x": "3682408.17807",
    "final_y": "536115.875335",
    "longitude": "-90.06504199547139",
    "latitude": "29.968105161208076",
    "geocoded_column": {
      "latitude": "29.968105161208076",
      "longitude": "-90.06504199547139"
    }
  },
  {
    "service_request": "2026-1277901",
    "request_type": "Trash/Recycling",
    "request_reason": "Request a Large Item Pick Up",
    "date_created": "2026-04-30T14:46:55.000",
    "date_modified": "2026-04-30T14:47:01.000",
    "request_status": "Pending",
    "responsible_agency": "Department of Sanitation",
    "final_address": "6040 Wales St",
    "address_councildis": "E",
    "status": "Assigned to Contractor",
    "contractor": "Waste Pro",
    "rowid": "1277901",
    "final_x": "3695284.00758",
    "final_y": "559451.573917",
    "longitude": "-90.0235374315557",
    "latitude": "30.031871569216527",
    "geocoded_column": {
      "latitude": "30.031871569216527",
      "longitude": "-90.0235374315557"
    }
  },
  {
    "service_request": "2026-1277900",
    "request_type": "Trash/Recycling",
    "request_reason": "Request a Large Item Pick Up",
    "date_created": "2026-04-30T14:46:31.000",
    "date_modified": "2026-04-30T14:46:35.000",
    "request_status": "Pending",
    "responsible_agency": "Department of Sanitation",
    "final_address": "6130 Orleans Ave",
    "address_councildis": "A",
    "status": "Assigned to Contractor",
    "contractor": "IV Waste",
    "rowid": "1277900",
    "final_x": "3670929.90996",
    "final_y": "547983.050194",
    "longitude": "-90.1008878058082",
    "latitude": "30.001080183054587",
    "geocoded_column": {
      "latitude": "30.001080183054587",
      "longitude": "-90.1008878058082"
    }
  },
  {
    "service_request": "2026-1277899",
    "request_type": "Abandoned Vehicles",
    "request_reason": "Abandoned/Junk Vehicles",
    "date_created": "2026-04-30T14:43:41.000",
    "date_modified": "2026-04-30T14:43:43.000",
    "request_status": "Pending",
    "responsible_agency": "Department of Public Works",
    "final_address": "1015 Fourth St",
    "address_councildis": "B",
    "status": "Pending",
    "rowid": "1277899",
    "final_x": "3677486.93198",
    "final_y": "520817.960185",
    "longitude": "-90.08111145830533",
    "latitude": "29.926189844071597",
    "geocoded_column": {
      "latitude": "29.926189844071597",
      "longitude": "-90.08111145830533"
    }
  },
  {
    "service_request": "2026-1277898",
    "request_type": "Trash/Recycling",
    "request_reason": "Missed Trash Pick-Up",
    "date_created": "2026-04-30T14:43:30.000",
    "date_modified": "2026-04-30T15:34:13.000",
    "case_close_date": "2026-04-30T10:34:12.000",
    "request_status": "Closed",
    "responsible_agency": "Department of Sanitation",
    "final_address": "242 12Th St",
    "address_councildis": "A",
    "status": "Invalid Request",
    "contractor": "IV Waste",
    "contractor_action": "Invalid Request",
    "rowid": "1277898",
    "final_x": "3665258.31808",
    "final_y": "547782.419794",
    "longitude": "-90.1188116272138",
    "latitude": "30.000695034955037",
    "geocoded_column": {
      "latitude": "30.000695034955037",
      "longitude": "-90.1188116272138"
    }
  },
  {
    "service_request": "2026-1277897",
    "request_type": "Abandoned Vehicles",
    "request_reason": "Abandoned/Junk Vehicles",
    "date_created": "2026-04-30T14:42:54.000",
    "date_modified": "2026-04-30T14:42:56.000",
    "request_status": "Pending",
    "responsible_agency": "Department of Public Works",
    "final_address": "7450 Dalewood Rd",
    "address_councildis": "E",
    "status": "Pending",
    "rowid": "1277897",
    "final_x": "3700016.9624",
    "final_y": "559958.410525",
    "longitude": "-90.00856259742376",
    "latitude": "30.033115564689613",
    "geocoded_column": {
      "latitude": "30.033115564689613",
      "longitude": "-90.00856259742376"
    }
  },
  {
    "service_request": "2026-1277896",
    "request_type": "Abandoned Vehicles",
    "request_reason": "Abandoned/Junk Vehicles",
    "date_created": "2026-04-30T14:41:03.000",
    "date_modified": "2026-04-30T14:41:04.000",
    "request_status": "Pending",
    "responsible_agency": "Department of Public Works",
    "final_address": "7440 Dalewood Rd",
    "address_councildis": "E",
    "status": "Pending",
    "rowid": "1277896",
    "final_x": "3700035.93834",
    "final_y": "559904.947741",
    "longitude": "-90.00850458536597",
    "latitude": "30.03296795947768",
    "geocoded_column": {
      "latitude": "30.03296795947768",
      "longitude": "-90.00850458536597"
    }
  },
  {
    "service_request": "2026-1277895",
    "request_type": "Trash/Recycling",
    "request_reason": "Replace Trash Cart",
    "date_created": "2026-04-30T14:40:37.000",
    "date_modified": "2026-04-30T14:40:40.000",
    "request_status": "Pending",
    "responsible_agency": "Department of Sanitation",
    "final_address": "315 S Gayoso St",
    "address_councildis": "B",
    "status": "Assigned to Contractor",
    "contractor": "IV Waste",
    "rowid": "1277895",
    "final_x": "3673688.16296",
    "final_y": "535159.423494",
    "longitude": "-90.0926128949048",
    "latitude": "29.96573775366503",
    "geocoded_column": {
      "latitude": "29.96573775366503",
      "longitude": "-90.0926128949048"
    }
  },
  {
    "service_request": "2026-1277894",
    "request_type": "Trash/Recycling",
    "request_reason": "Missed Trash Pick-Up",
    "date_created": "2026-04-30T14:36:13.000",
    "date_modified": "2026-04-30T14:36:15.000",
    "request_status": "Pending",
    "responsible_agency": "Department of Sanitation",
    "final_address": "11001 Chef Menteur Hwy",
    "address_councildis": "E",
    "status": "Assigned to Contractor",
    "contractor": "Waste Pro",
    "rowid": "1277894",
    "final_x": "3716193.24895",
    "final_y": "556009.300185",
    "longitude": "-89.95759438072872",
    "latitude": "30.021732922624327",
    "geocoded_column": {
      "latitude": "30.021732922624327",
      "longitude": "-89.95759438072872"
    }
  },
  {
    "service_request": "2026-1277893",
    "request_type": "Mosquito, Termite & Rodent Control",
    "request_reason": "Rodent Complaint (Mice & Rats)",
    "date_created": "2026-04-30T14:34:05.000",
    "date_modified": "2026-04-30T14:38:07.000",
    "request_status": "Pending",
    "responsible_agency": "Mosquito, Termite & Rodent Control Board",
    "final_address": "3409 Monroe St",
    "address_councildis": "A",
    "status": "Pending",
    "rowid": "1277893",
    "final_x": "3665780.30228",
    "final_y": "535651.029318",
    "longitude": "-90.11756926205994",
    "latitude": "29.96732258193631",
    "geocoded_column": {
      "latitude": "29.96732258193631",
      "longitude": "-90.11756926205994"
    }
  },
  {
    "service_request": "2026-1277892",
    "request_type": "Trash/Recycling",
    "request_reason": "Request a Large Item Pick Up",
    "date_created": "2026-04-30T14:29:56.000",
    "date_modified": "2026-04-30T14:30:01.000",
    "request_status": "Pending",
    "responsible_agency": "Department of Sanitation",
    "final_address": "4544 Rosemont Pl",
    "address_councildis": "E",
    "status": "Assigned to Contractor",
    "contractor": "Waste Pro",
    "rowid": "1277892",
    "final_x": "3702730.85092",
    "final_y": "553875.629463",
    "longitude": "-90.00021014614391",
    "latitude": "30.016303710308215",
    "geocoded_column": {
      "latitude": "30.016303710308215",
      "longitude": "-90.00021014614391"
    }
  },
  {
    "service_request": "2026-1277891",
    "request_type": "Trash/Recycling",
    "request_reason": "Request a Large Item Pick Up",
    "date_created": "2026-04-30T14:27:25.000",
    "date_modified": "2026-04-30T14:27:26.000",
    "request_status": "Pending",
    "responsible_agency": "Department of Sanitation",
    "final_address": "826 Leboeuf St",
    "address_councildis": "C",
    "status": "Assigned to Contractor",
    "contractor": "Richards Disposal",
    "rowid": "1277891",
    "final_x": "3689836.30236",
    "final_y": "528410.797312",
    "longitude": "-90.04185802139159",
    "latitude": "29.946690703348548",
    "geocoded_column": {
      "latitude": "29.946690703348548",
      "longitude": "-90.04185802139159"
    }
  },
  {
    "service_request": "2026-1277890",
    "request_type": "Trash/Recycling",
    "request_reason": "Request a Large Item Pick Up",
    "date_created": "2026-04-30T14:26:36.000",
    "date_modified": "2026-04-30T14:26:38.000",
    "request_status": "Pending",
    "responsible_agency": "Department of Sanitation",
    "final_address": "2217 Lapeyrouse St",
    "address_councildis": "D",
    "status": "Assigned to Contractor",
    "contractor": "IV Waste",
    "rowid": "1277890",
    "final_x": "3680409.9741",
    "final_y": "539176.524106",
    "longitude": "-90.07124593664615",
    "latitude": "29.976581554199818",
    "geocoded_column": {
      "latitude": "29.976581554199818",
      "longitude": "-90.07124593664615"
    }
  },
  {
    "service_request": "2026-1277889",
    "request_type": "Drainage",
    "request_reason": "Ditch and Culvert Maintenance",
    "date_created": "2026-04-30T14:22:53.000",
    "date_modified": "2026-04-30T14:24:49.000",
    "request_status": "Pending",
    "responsible_agency": "Department of Public Works",
    "final_address": "L B LANDRY AVE & WALL BLVD",
    "address_councildis": "C",
    "status": "Pending",
    "rowid": "1277889",
    "final_x": "3690025.6",
    "final_y": "524005.28",
    "longitude": "-90.04141717294856",
    "latitude": "29.93457116369369",
    "geocoded_column": {
      "latitude": "29.93457116369369",
      "longitude": "-90.04141717294856"
    }
  },
  {
    "service_request": "2026-1277888",
    "request_type": "Trash/Recycling",
    "request_reason": "Request a Large Item Pick Up",
    "date_created": "2026-04-30T14:17:55.000",
    "date_modified": "2026-04-30T14:17:57.000",
    "request_status": "Pending",
    "responsible_agency": "Department of Sanitation",
    "final_address": "3225 Bringier St",
    "address_councildis": "C",
    "status": "Assigned to Contractor",
    "contractor": "Richards Disposal",
    "rowid": "1277888",
    "final_x": "3696105.25219",
    "final_y": "525078.940157",
    "longitude": "-90.02218515998094",
    "latitude": "29.937333477933628",
    "geocoded_column": {
      "latitude": "29.937333477933628",
      "longitude": "-90.02218515998094"
    }
  },
  {
    "service_request": "2026-1277887",
    "request_type": "Trash/Recycling",
    "request_reason": "Request a Large Item Pick Up",
    "date_created": "2026-04-30T14:17:26.000",
    "date_modified": "2026-04-30T14:17:28.000",
    "request_status": "Pending",
    "responsible_agency": "Department of Sanitation",
    "final_address": "11294 Waverly Dr",
    "address_councildis": "E",
    "status": "Assigned to Contractor",
    "contractor": "Waste Pro",
    "rowid": "1277887",
    "final_x": "3717864.78553",
    "final_y": "560389.857758",
    "longitude": "-89.95214598687181",
    "latitude": "30.033722411784836",
    "geocoded_column": {
      "latitude": "30.033722411784836",
      "longitude": "-89.95214598687181"
    }
  },
  {
    "service_request": "2026-1277886",
    "request_type": "Tree Service",
    "request_reason": "Blocking Stop Sign or Traffic Signal",
    "date_created": "2026-04-30T14:08:47.000",
    "date_modified": "2026-04-30T14:08:49.000",
    "request_status": "Pending",
    "responsible_agency": "Department of Parks & Parkways",
    "final_address": "S LIBERTY ST & SONIAT ST",
    "address_councildis": "B",
    "status": "Pending",
    "rowid": "1277886",
    "final_x": "3668496.0",
    "final_y": "523217.48",
    "longitude": "-90.10941243251115",
    "latitude": "29.933054870642938",
    "geocoded_column": {
      "latitude": "29.933054870642938",
      "longitude": "-90.10941243251115"
    }
  },
  {
    "service_request": "2026-1277885",
    "request_type": "Trash/Recycling",
    "request_reason": "Request a Large Item Pick Up",
    "date_created": "2026-04-30T14:08:37.000",
    "date_modified": "2026-04-30T14:08:38.000",
    "request_status": "Pending",
    "responsible_agency": "Department of Sanitation",
    "final_address": "7616 Primrose Dr",
    "address_councildis": "E",
    "status": "Assigned to Contractor",
    "contractor": "Waste Pro",
    "rowid": "1277885",
    "final_x": "3701678.53917",
    "final_y": "561215.438046",
    "longitude": "-90.00326577924208",
    "latitude": "30.036518974681236",
    "geocoded_column": {
      "latitude": "30.036518974681236",
      "longitude": "-90.00326577924208"
    }
  },
  {
    "service_request": "2026-1277884",
    "request_type": "Trash/Recycling",
    "request_reason": "Repair Trash Cart",
    "date_created": "2026-04-30T14:07:56.000",
    "date_modified": "2026-04-30T14:07:58.000",
    "request_status": "Pending",
    "responsible_agency": "Department of Sanitation",
    "final_address": "4534 Cardenas Dr",
    "address_councildis": "E",
    "status": "Assigned to Contractor",
    "contractor": "Waste Pro",
    "rowid": "1277884",
    "final_x": "3713701.21119",
    "final_y": "555474.427545",
    "longitude": "-89.96548865406022",
    "latitude": "30.020344267935933",
    "geocoded_column": {
      "latitude": "30.020344267935933",
      "longitude": "-89.96548865406022"
    }
  },
  {
    "service_request": "2026-1277883",
    "request_type": "Trash/Recycling",
    "request_reason": "Request a Large Item Pick Up",
    "date_created": "2026-04-30T14:06:57.000",
    "date_modified": "2026-04-30T14:06:59.000",
    "request_status": "Pending",
    "responsible_agency": "Department of Sanitation",
    "final_address": "1223 St Andrew St",
    "address_councildis": "B",
    "status": "Assigned to Contractor",
    "contractor": "IV Waste",
    "rowid": "1277883",
    "final_x": "3679167.52002",
    "final_y": "523039.560059",
    "longitude": "-90.07572935447217",
    "latitude": "29.93224790855743",
    "geocoded_column": {
      "latitude": "29.93224790855743",
      "longitude": "-90.07572935447217"
    }
  },
  {
    "service_request": "2026-1277882",
    "request_type": "Trash/Recycling",
    "request_reason": "Order Trash Cart",
    "date_created": "2026-04-30T14:02:53.000",
    "date_modified": "2026-04-30T14:02:54.000",
    "request_status": "Pending",
    "responsible_agency": "Department of Sanitation",
    "final_address": "8501 Hickory St",
    "address_councildis": "A",
    "status": "Assigned to Contractor",
    "contractor": "IV Waste",
    "rowid": "1277882",
    "final_x": "3662317.9728",
    "final_y": "530942.223106",
    "longitude": "-90.12865974273205",
    "latitude": "29.954475455423783",
    "geocoded_column": {
      "latitude": "29.954475455423783",
      "longitude": "-90.12865974273205"
    }
  },
  {
    "service_request": "2026-1277881",
    "request_type": "Trash/Recycling",
    "request_reason": "Request a Large Item Pick Up",
    "date_created": "2026-04-30T13:58:59.000",
    "date_modified": "2026-04-30T13:59:00.000",
    "request_status": "Pending",
    "responsible_agency": "Department of Sanitation",
    "final_address": "4566 Viola St",
    "address_councildis": "E",
    "status": "Assigned to Contractor",
    "contractor": "Waste Pro",
    "rowid": "1277881",
    "final_x": "3704052.03646",
    "final_y": "554030.100952",
    "longitude": "-89.99603011066687",
    "latitude": "30.01668611615896",
    "geocoded_column": {
      "latitude": "30.01668611615896",
      "longitude": "-89.99603011066687"
    }
  },
  {
    "service_request": "2026-1277880",
    "request_type": "Abandoned Vehicles",
    "request_reason": "Abandoned/Junk Vehicles",
    "date_created": "2026-04-30T13:58:35.000",
    "date_modified": "2026-04-30T13:58:37.000",
    "request_status": "Pending",
    "responsible_agency": "Department of Public Works",
    "final_address": "4144 Piedmont Dr",
    "address_councildis": "D",
    "status": "Pending",
    "rowid": "1277880",
    "final_x": "3684859.40533",
    "final_y": "547908.652434",
    "longitude": "-90.05688606799698",
    "latitude": "30.000456300970736",
    "geocoded_column": {
      "latitude": "30.000456300970736",
      "longitude": "-90.05688606799698"
    }
  },
  {
    "service_request": "2026-1277879",
    "request_type": "Property Maintenance",
    "request_reason": "Property Maintenance",
    "date_created": "2026-04-30T13:55:49.000",
    "date_modified": "2026-04-30T13:55:50.000",
    "request_status": "Pending",
    "responsible_agency": "Department of Code Enforcement",
    "final_address": "8307 Jeannette St",
    "address_councildis": "A",
    "status": "Pending",
    "rowid": "1277879",
    "final_x": "3662097.41677",
    "final_y": "529734.003713",
    "longitude": "-90.12939626088838",
    "latitude": "29.95115961550262",
    "geocoded_column": {
      "latitude": "29.95115961550262",
      "longitude": "-90.12939626088838"
    }
  },
  {
    "service_request": "2026-1277878",
    "request_type": "Trash/Recycling",
    "request_reason": "Request a Large Item Pick Up",
    "date_created": "2026-04-30T13:53:37.000",
    "date_modified": "2026-04-30T13:53:39.000",
    "request_status": "Pending",
    "responsible_agency": "Department of Sanitation",
    "final_address": "2773 Pressburg St",
    "address_councildis": "D",
    "status": "Assigned to Contractor",
    "contractor": "IV Waste",
    "rowid": "1277878",
    "final_x": "3687749.41961",
    "final_y": "554968.21468",
    "longitude": "-90.04750609289079",
    "latitude": "30.01977867018529",
    "geocoded_column": {
      "latitude": "30.01977867018529",
      "longitude": "-90.04750609289079"
    }
  },
  {
    "service_request": "2026-1277877",
    "request_type": "Trash/Recycling",
    "request_reason": "Request a Large Item Pick Up",
    "date_created": "2026-04-30T13:52:26.000",
    "date_modified": "2026-04-30T13:52:27.000",
    "request_status": "Pending",
    "responsible_agency": "Department of Sanitation",
    "final_address": "6501 Wales St",
    "address_councildis": "E",
    "status": "Assigned to Contractor",
    "contractor": "Waste Pro",
    "rowid": "1277877",
    "final_x": "3696926.26973",
    "final_y": "560269.432733",
    "longitude": "-90.01831815522675",
    "latitude": "30.034068646920286",
    "geocoded_column": {
      "latitude": "30.034068646920286",
      "longitude": "-90.01831815522675"
    }
  },
  {
    "service_request": "2026-1277876",
    "request_type": "Abandoned Vehicles",
    "request_reason": "Abandoned/Junk Vehicles",
    "date_created": "2026-04-30T13:49:35.000",
    "date_modified": "2026-04-30T13:49:36.000",
    "request_status": "Pending",
    "responsible_agency": "Department of Public Works",
    "final_address": "809 N Galvez St",
    "address_councildis": "C",
    "status": "Pending",
    "rowid": "1277876",
    "final_x": "3678601.94286",
    "final_y": "536062.155463",
    "longitude": "-90.0770640966489",
    "latitude": "29.96807274377493",
    "geocoded_column": {
      "latitude": "29.96807274377493",
      "longitude": "-90.0770640966489"
    }
  },
  {
    "service_request": "2026-1277875",
    "request_type": "Trash/Recycling",
    "request_reason": "Request a Large Item Pick Up",
    "date_created": "2026-04-30T13:49:18.000",
    "date_modified": "2026-04-30T13:49:20.000",
    "request_status": "Pending",
    "responsible_agency": "Department of Sanitation",
    "final_address": "7143 Thornley Dr",
    "address_councildis": "E",
    "status": "Assigned to Contractor",
    "contractor": "Waste Pro",
    "rowid": "1277875",
    "final_x": "3703170.55556",
    "final_y": "560127.916829",
    "longitude": "-89.9985907695151",
    "latitude": "30.03348101124049",
    "geocoded_column": {
      "latitude": "30.03348101124049",
      "longitude": "-89.9985907695151"
    }
  },
  {
    "service_request": "2026-1277874",
    "request_type": "Safety & Permits",
    "request_reason": "Zoning Enforcement",
    "date_created": "2026-04-30T13:48:13.000",
    "date_modified": "2026-04-30T13:51:39.000",
    "request_status": "Pending",
    "responsible_agency": "Safety and Permits",
    "final_address": "74 Pinehurst Dr",
    "address_councildis": "C",
    "status": "Pending",
    "rowid": "1277874",
    "final_x": "3714424.01445",
    "final_y": "515881.68562",
    "longitude": "-89.96469908886388",
    "latitude": "29.91145521976779",
    "geocoded_column": {
      "latitude": "29.91145521976779",
      "longitude": "-89.96469908886388"
    }
  },
  {
    "service_request": "2026-1277873",
    "request_type": "Streetlights",
    "request_reason": "Streetlight Knocked Down/Leaning",
    "date_created": "2026-04-30T13:42:36.000",
    "date_modified": "2026-04-30T13:42:39.000",
    "request_status": "Pending",
    "responsible_agency": "Department of Public Works",
    "final_address": "PALMYRA ST & S BROAD ST",
    "address_councildis": "B",
    "status": "Pending",
    "rowid": "1277873",
    "final_x": "3674898.7",
    "final_y": "534451.28",
    "longitude": "-90.08881434633729",
    "latitude": "29.963754500465434",
    "geocoded_column": {
      "latitude": "29.963754500465434",
      "longitude": "-90.08881434633729"
    }
  },
  {
    "service_request": "2026-1277872",
    "request_type": "Trash/Recycling",
    "request_reason": "Order Recycling Cart",
    "date_created": "2026-04-30T13:38:22.000",
    "date_modified": "2026-04-30T13:38:23.000",
    "request_status": "Pending",
    "responsible_agency": "Department of Sanitation",
    "final_address": "817 Lowerline St, New Orleans, Louisiana, 70118",
    "address_councildis": "A",
    "status": "Pending",
    "rowid": "1277872",
    "final_x": "3662995.86067",
    "final_y": "525737.093757",
    "longitude": "-90.1266923074845",
    "latitude": "29.94014340566311",
    "geocoded_column": {
      "latitude": "29.94014340566311",
      "longitude": "-90.1266923074845"
    }
  },
  {
    "service_request": "2026-1277871",
    "request_type": "Trash/Recycling",
    "request_reason": "Repair Trash Cart",
    "date_created": "2026-04-30T13:37:33.000",
    "date_modified": "2026-04-30T13:37:35.000",
    "request_status": "Pending",
    "responsible_agency": "Department of Sanitation",
    "final_address": "3717 S Johnson St",
    "address_councildis": "B",
    "status": "Assigned to Contractor",
    "contractor": "IV Waste",
    "rowid": "1277871",
    "final_x": "3671324.51483",
    "final_y": "527400.935871",
    "longitude": "-90.10034087423833",
    "latitude": "29.944474639535212",
    "geocoded_column": {
      "latitude": "29.944474639535212",
      "longitude": "-90.10034087423833"
    }
  },
  {
    "service_request": "2026-1277870",
    "request_type": "Trash/Recycling",
    "request_reason": "Illegal Dumping",
    "date_created": "2026-04-30T13:35:58.000",
    "date_modified": "2026-04-30T13:36:00.000",
    "request_status": "Pending",
    "responsible_agency": "Department of Sanitation",
    "final_address": "2333 Port St",
    "address_councildis": "D",
    "status": "Pending",
    "rowid": "1277870",
    "final_x": "3688669.14454",
    "final_y": "541133.03086",
    "longitude": "-90.04509154274282",
    "latitude": "29.98170853150947",
    "geocoded_column": {
      "latitude": "29.98170853150947",
      "longitude": "-90.04509154274282"
    }
  },
  {
    "service_request": "2026-1277869",
    "request_type": "Trash/Recycling",
    "request_reason": "Missed Trash Pick-Up",
    "date_created": "2026-04-30T13:34:48.000",
    "date_modified": "2026-04-30T15:26:08.000",
    "case_close_date": "2026-04-30T10:26:07.000",
    "request_status": "Closed",
    "responsible_agency": "Department of Sanitation",
    "final_address": "8614 Grant St",
    "address_councildis": "E",
    "status": "Invalid Request",
    "contractor": "Waste Pro",
    "contractor_action": "Invalid",
    "rowid": "1277869",
    "final_x": "3707222.73252",
    "final_y": "554303.67164",
    "longitude": "-89.98600197600724",
    "latitude": "30.0173361986526",
    "geocoded_column": {
      "latitude": "30.0173361986526",
      "longitude": "-89.98600197600724"
    }
  },
  {
    "service_request": "2026-1277868",
    "request_type": "Streetlights",
    "request_reason": "Streetlight Outage/Malfunction",
    "date_created": "2026-04-30T13:33:08.000",
    "date_modified": "2026-04-30T13:33:10.000",
    "request_status": "Pending",
    "responsible_agency": "Department of Public Works",
    "final_address": "817 Lowerline St",
    "address_councildis": "A",
    "status": "Pending",
    "rowid": "1277868",
    "final_x": "3662995.86067",
    "final_y": "525737.093757",
    "longitude": "-90.1266923074845",
    "latitude": "29.94014340566311",
    "geocoded_column": {
      "latitude": "29.94014340566311",
      "longitude": "-90.1266923074845"
    }
  },
  {
    "service_request": "2026-1277867",
    "request_type": "Trash/Recycling",
    "request_reason": "Repair Trash Cart",
    "date_created": "2026-04-30T13:31:48.000",
    "date_modified": "2026-04-30T13:31:50.000",
    "request_status": "Pending",
    "responsible_agency": "Department of Sanitation",
    "final_address": "6875 Vicksburg St",
    "address_councildis": "A",
    "status": "Assigned to Contractor",
    "contractor": "IV Waste",
    "rowid": "1277867",
    "final_x": "3669503.14753",
    "final_y": "553238.342807",
    "longitude": "-90.10521713959453",
    "latitude": "30.01557251405682",
    "geocoded_column": {
      "latitude": "30.01557251405682",
      "longitude": "-90.10521713959453"
    }
  },
  {
    "service_request": "2026-1277866",
    "request_type": "Trash/Recycling",
    "request_reason": "Order Second Trash Cart",
    "date_created": "2026-04-30T13:29:17.000",
    "date_modified": "2026-04-30T13:29:20.000",
    "request_status": "Pending",
    "responsible_agency": "Department of Sanitation",
    "final_address": "6875 Vicksburg St",
    "address_councildis": "A",
    "status": "Assigned to Contractor",
    "contractor": "IV Waste",
    "rowid": "1277866",
    "final_x": "3669503.14753",
    "final_y": "553238.342807",
    "longitude": "-90.10521713959453",
    "latitude": "30.01557251405682",
    "geocoded_column": {
      "latitude": "30.01557251405682",
      "longitude": "-90.10521713959453"
    }
  },
  {
    "service_request": "2026-1277865",
    "request_type": "Trash/Recycling",
    "request_reason": "Order Recycling Cart",
    "date_created": "2026-04-30T13:27:26.000",
    "date_modified": "2026-04-30T13:27:28.000",
    "request_status": "Pending",
    "responsible_agency": "Department of Sanitation",
    "final_address": "6875 Vicksburg St",
    "address_councildis": "A",
    "status": "Pending",
    "rowid": "1277865",
    "final_x": "3669503.14753",
    "final_y": "553238.342807",
    "longitude": "-90.10521713959453",
    "latitude": "30.01557251405682",
    "geocoded_column": {
      "latitude": "30.01557251405682",
      "longitude": "-90.10521713959453"
    }
  },
  {
    "service_request": "2026-1277864",
    "request_type": "Trash/Recycling",
    "request_reason": "Repair Recycling Cart",
    "date_created": "2026-04-30T13:25:09.000",
    "date_modified": "2026-04-30T13:25:13.000",
    "request_status": "Pending",
    "responsible_agency": "Department of Sanitation",
    "final_address": "3721 St Charles Ave Unit D",
    "address_councildis": "B",
    "status": "Pending",
    "rowid": "1277864",
    "final_x": "3672910.12795",
    "final_y": "521195.100857",
    "longitude": "-90.09554628138021",
    "latitude": "29.927363597390215",
    "geocoded_column": {
      "latitude": "29.927363597390215",
      "longitude": "-90.09554628138021"
    }
  },
  {
    "service_request": "2026-1277863",
    "request_type": "Streetlights",
    "request_reason": "Streetlight Knocked Down/Leaning",
    "date_created": "2026-04-30T13:23:20.000",
    "date_modified": "2026-04-30T13:23:23.000",
    "request_status": "Pending",
    "responsible_agency": "Department of Public Works",
    "final_address": "S BROAD ST & CLEVELAND AVE",
    "address_councildis": "B",
    "status": "Pending",
    "rowid": "1277863",
    "final_x": "3675070.9",
    "final_y": "534793.28",
    "longitude": "-90.08825881971806",
    "latitude": "29.96468974136546",
    "geocoded_column": {
      "latitude": "29.96468974136546",
      "longitude": "-90.08825881971806"
    }
  },
  {
    "service_request": "2026-1277862",
    "request_type": "Trash/Recycling",
    "request_reason": "Repair Trash Cart",
    "date_created": "2026-04-30T13:21:54.000",
    "date_modified": "2026-04-30T14:29:24.000",
    "request_status": "Pending",
    "responsible_agency": "Department of Sanitation",
    "final_address": "1315 Milan St",
    "address_councildis": "B",
    "status": "Assigned to Contractor",
    "contractor": "IV Waste",
    "rowid": "1277862",
    "final_x": "3671781.89595",
    "final_y": "520251.690872",
    "longitude": "-90.0991399131695",
    "latitude": "29.924802985846398",
    "geocoded_column": {
      "latitude": "29.924802985846398",
      "longitude": "-90.0991399131695"
    }
  },
  {
    "service_request": "2026-1277861",
    "request_type": "Streetlights",
    "request_reason": "Streetlight Knocked Down/Leaning",
    "date_created": "2026-04-30T13:20:51.000",
    "date_modified": "2026-04-30T13:20:53.000",
    "request_status": "Pending",
    "responsible_agency": "Department of Public Works",
    "final_address": "S BROAD ST & CANAL ST",
    "address_councildis": "B",
    "status": "Pending",
    "rowid": "1277861",
    "final_x": "3675362.5",
    "final_y": "535067.88",
    "longitude": "-90.08732853629893",
    "latitude": "29.96543608301552",
    "geocoded_column": {
      "latitude": "29.96543608301552",
      "longitude": "-90.08732853629893"
    }
  },
  {
    "service_request": "2026-1277860",
    "request_type": "Trash/Recycling",
    "request_reason": "Return Recycling Cart",
    "date_created": "2026-04-30T13:18:55.000",
    "date_modified": "2026-04-30T13:18:57.000",
    "request_status": "Pending",
    "responsible_agency": "Department of Sanitation",
    "final_address": "5230 Laurel St",
    "address_councildis": "B",
    "status": "Pending",
    "rowid": "1277860",
    "final_x": "3667769.40756",
    "final_y": "517827.236598",
    "longitude": "-90.11188763622705",
    "latitude": "29.9182547289633",
    "geocoded_column": {
      "latitude": "29.9182547289633",
      "longitude": "-90.11188763622705"
    }
  },
  {
    "service_request": "2026-1277858",
    "request_type": "Abandoned Vehicles",
    "request_reason": "Abandoned/Junk Vehicles",
    "date_created": "2026-04-30T13:11:57.000",
    "date_modified": "2026-04-30T13:13:03.000",
    "request_status": "Pending",
    "responsible_agency": "Department of Public Works",
    "final_address": "ST LOUIS ST & N ROMAN ST",
    "address_councildis": "B",
    "status": "Pending",
    "rowid": "1277858",
    "final_x": "3678713.1",
    "final_y": "534408.78",
    "longitude": "-90.07677031782016",
    "latitude": "29.963523173169477",
    "geocoded_column": {
      "latitude": "29.963523173169477",
      "longitude": "-90.07677031782016"
    }
  },
  {
    "service_request": "2026-1277857",
    "request_type": "Trash/Recycling",
    "request_reason": "Repair Trash Cart",
    "date_created": "2026-04-30T13:11:37.000",
    "date_modified": "2026-04-30T14:30:04.000",
    "request_status": "Pending",
    "responsible_agency": "Department of Sanitation",
    "final_address": "1315 Milan St",
    "address_councildis": "B",
    "status": "Assigned to Contractor",
    "contractor": "IV Waste",
    "rowid": "1277857",
    "final_x": "3671781.89595",
    "final_y": "520251.690872",
    "longitude": "-90.0991399131695",
    "latitude": "29.924802985846398",
    "geocoded_column": {
      "latitude": "29.924802985846398",
      "longitude": "-90.0991399131695"
    }
  },
  {
    "service_request": "2026-1277856",
    "request_type": "Abandoned Vehicles",
    "request_reason": "Abandoned/Junk Vehicles",
    "date_created": "2026-04-30T13:08:15.000",
    "date_modified": "2026-04-30T13:08:17.000",
    "request_status": "Pending",
    "responsible_agency": "Department of Public Works",
    "final_address": "8921 Dinkins St",
    "address_councildis": "E",
    "status": "Pending",
    "rowid": "1277856",
    "final_x": "3704803.03204",
    "final_y": "563529.901472",
    "longitude": "-89.99330628131685",
    "latitude": "30.042782741575202",
    "geocoded_column": {
      "latitude": "30.042782741575202",
      "longitude": "-89.99330628131685"
    }
  },
  {
    "service_request": "2026-1277855",
    "request_type": "Trash/Recycling",
    "request_reason": "Repair Trash Cart",
    "date_created": "2026-04-30T13:07:27.000",
    "date_modified": "2026-04-30T13:07:30.000",
    "request_status": "Pending",
    "responsible_agency": "Department of Sanitation",
    "final_address": "4305 Genoa St",
    "address_councildis": "E",
    "status": "Assigned to Contractor",
    "contractor": "Waste Pro",
    "rowid": "1277855",
    "final_x": "3760890.42557",
    "final_y": "573148.737065",
    "longitude": "-89.81564958142262",
    "latitude": "30.067307347068233",
    "geocoded_column": {
      "latitude": "30.067307347068233",
      "longitude": "-89.81564958142262"
    }
  },
  {
    "service_request": "2026-1277854",
    "request_type": "Trash/Recycling",
    "request_reason": "Request a Large Item Pick Up",
    "date_created": "2026-04-30T13:04:11.000",
    "date_modified": "2026-04-30T13:04:14.000",
    "request_status": "Pending",
    "responsible_agency": "Department of Sanitation",
    "final_address": "7812 W Laverne St",
    "address_councildis": "D",
    "status": "Assigned to Contractor",
    "contractor": "Waste Pro",
    "rowid": "1277854",
    "final_x": "3694928.47018",
    "final_y": "559157.051484",
    "longitude": "-90.02467157461858",
    "latitude": "30.031072915029938",
    "geocoded_column": {
      "latitude": "30.031072915029938",
      "longitude": "-90.02467157461858"
    }
  },
  {
    "service_request": "2026-1277853",
    "request_type": "Abandoned Vehicles",
    "request_reason": "Abandoned/Junk Vehicles",
    "date_created": "2026-04-30T13:02:41.000",
    "date_modified": "2026-04-30T13:02:43.000",
    "request_status": "Pending",
    "responsible_agency": "Department of Public Works",
    "final_address": "1100 BLK Burdette St",
    "address_councildis": "A",
    "status": "Pending",
    "rowid": "1277853",
    "final_x": "3662749.35557",
    "final_y": "527564.228124",
    "longitude": "-90.12740985556171",
    "latitude": "29.945174577913956",
    "geocoded_column": {
      "latitude": "29.945174577913956",
      "longitude": "-90.12740985556171"
    }
  },
  {
    "service_request": "2026-1277852",
    "request_type": "Abandoned Vehicles",
    "request_reason": "Abandoned/Junk Vehicles",
    "date_created": "2026-04-30T13:01:04.000",
    "date_modified": "2026-04-30T13:01:07.000",
    "request_status": "Pending",
    "responsible_agency": "Department of Public Works",
    "final_address": "1100 BLK Burdette St",
    "address_councildis": "A",
    "status": "Pending",
    "rowid": "1277852",
    "final_x": "3662749.35557",
    "final_y": "527564.228124",
    "longitude": "-90.12740985556171",
    "latitude": "29.945174577913956",
    "geocoded_column": {
      "latitude": "29.945174577913956",
      "longitude": "-90.12740985556171"
    }
  },
  {
    "service_request": "2026-1277851",
    "request_type": "Tree Service",
    "request_reason": "Tree Trim",
    "date_created": "2026-04-30T13:00:13.000",
    "date_modified": "2026-04-30T13:00:14.000",
    "request_status": "Pending",
    "responsible_agency": "Department of Parks & Parkways",
    "final_address": "1325 Crescent St",
    "address_councildis": "D",
    "status": "Pending",
    "rowid": "1277851",
    "final_x": "3677206.93909",
    "final_y": "552456.625174",
    "longitude": "-90.08090366826077",
    "latitude": "30.013193785224267",
    "geocoded_column": {
      "latitude": "30.013193785224267",
      "longitude": "-90.08090366826077"
    }
  },
  {
    "service_request": "2026-1277850",
    "request_type": "Trash/Recycling",
    "request_reason": "Replace Recycling Cart",
    "date_created": "2026-04-30T12:59:36.000",
    "date_modified": "2026-04-30T12:59:38.000",
    "request_status": "Pending",
    "responsible_agency": "Department of Sanitation",
    "final_address": "1908 Touro St",
    "address_councildis": "D",
    "status": "Pending",
    "rowid": "1277850",
    "final_x": "3683955.35394",
    "final_y": "539306.177674",
    "longitude": "-90.0600440037523",
    "latitude": "29.976830204167836",
    "geocoded_column": {
      "latitude": "29.976830204167836",
      "longitude": "-90.0600440037523"
    }
  },
  {
    "service_request": "2026-1277849",
    "request_type": "Tree Service",
    "request_reason": "Street or Sidewalk Blocked",
    "date_created": "2026-04-30T12:58:07.000",
    "date_modified": "2026-04-30T14:02:43.000",
    "case_close_date": "2026-04-30T09:02:41.000",
    "request_status": "Closed",
    "responsible_agency": "Department of Parks & Parkways",
    "final_address": "BANKS ST & S GAYOSO ST",
    "address_councildis": "B",
    "status": "Duplicate Request",
    "rowid": "1277849",
    "final_x": "3673602.5",
    "final_y": "534891.98",
    "longitude": "-90.09289255895986",
    "latitude": "29.965004924216554",
    "geocoded_column": {
      "latitude": "29.965004924216554",
      "longitude": "-90.09289255895986"
    }
  },
  {
    "service_request": "2026-1277848",
    "request_type": "Parks & Grass Service",
    "request_reason": "Request Grass Cutting Service (City Owned Property)",
    "date_created": "2026-04-30T12:50:54.000",
    "date_modified": "2026-04-30T12:53:11.000",
    "request_status": "Pending",
    "responsible_agency": "Department of Parks & Parkways",
    "final_address": "3100 BLK Paris Ave",
    "address_councildis": "D",
    "status": "Pending",
    "rowid": "1277848",
    "final_x": "3679774.76804",
    "final_y": "543892.477619",
    "longitude": "-90.07308829676361",
    "latitude": "29.989568005290803",
    "geocoded_column": {
      "latitude": "29.989568005290803",
      "longitude": "-90.07308829676361"
    }
  },
  {
    "service_request": "2026-1277847",
    "request_type": "Trash/Recycling",
    "request_reason": "Request a Large Item Pick Up",
    "date_created": "2026-04-30T12:49:19.000",
    "date_modified": "2026-04-30T12:51:44.000",
    "request_status": "Pending",
    "responsible_agency": "Department of Sanitation",
    "final_address": "4754 Bonita Dr",
    "address_councildis": "E",
    "status": "Assigned to Contractor",
    "contractor": "Waste Pro",
    "rowid": "1277847",
    "final_x": "3704416.27185",
    "final_y": "555377.375001",
    "longitude": "-89.99482956438592",
    "latitude": "30.02037890792999",
    "geocoded_column": {
      "latitude": "30.02037890792999",
      "longitude": "-89.99482956438592"
    }
  },
  {
    "service_request": "2026-1277846",
    "request_type": "Tree Service",
    "request_reason": "Tree Trim",
    "date_created": "2026-04-30T12:47:43.000",
    "date_modified": "2026-04-30T12:49:09.000",
    "request_status": "Pending",
    "responsible_agency": "Department of Parks & Parkways",
    "final_address": "2111 Easter Ln",
    "address_councildis": "C",
    "status": "Pending",
    "rowid": "1277846",
    "final_x": "3699433.48176",
    "final_y": "523582.236603",
    "longitude": "-90.01173228739772",
    "latitude": "29.93311292480641",
    "geocoded_column": {
      "latitude": "29.93311292480641",
      "longitude": "-90.01173228739772"
    }
  },
  {
    "service_request": "2026-1277845",
    "request_type": "Trash/Recycling",
    "request_reason": "Request a Large Item Pick Up",
    "date_created": "2026-04-30T12:47:18.000",
    "date_modified": "2026-04-30T12:48:15.000",
    "request_status": "Pending",
    "responsible_agency": "Department of Sanitation",
    "final_address": "1211 N Roman St",
    "address_councildis": "C",
    "status": "Assigned to Contractor",
    "contractor": "IV Waste",
    "rowid": "1277845",
    "final_x": "3680333.99151",
    "final_y": "536604.789959",
    "longitude": "-90.07157535303533",
    "latitude": "29.969512473451275",
    "geocoded_column": {
      "latitude": "29.969512473451275",
      "longitude": "-90.07157535303533"
    }
  },
  {
    "service_request": "2026-1277844",
    "request_type": "Trash/Recycling",
    "request_reason": "Request a Large Item Pick Up",
    "date_created": "2026-04-30T12:46:53.000",
    "date_modified": "2026-04-30T12:47:34.000",
    "request_status": "Pending",
    "responsible_agency": "Department of Sanitation",
    "final_address": "7590 Avon Park Blvd",
    "address_councildis": "E",
    "status": "Assigned to Contractor",
    "contractor": "Waste Pro",
    "rowid": "1277844",
    "final_x": "3719671.39237",
    "final_y": "572495.126825",
    "longitude": "-89.94597380143367",
    "latitude": "30.06694690372176",
    "geocoded_column": {
      "latitude": "30.06694690372176",
      "longitude": "-89.94597380143367"
    }
  },
  {
    "service_request": "2026-1277843",
    "request_type": "Utility Poles",
    "request_reason": "Wires Sagging/Hanging Low",
    "date_created": "2026-04-30T12:41:01.000",
    "date_modified": "2026-04-30T12:43:11.000",
    "request_status": "Pending",
    "responsible_agency": "Utility Company Collective",
    "final_address": "948 Mouton St",
    "address_councildis": "A",
    "status": "Pending",
    "rowid": "1277843",
    "final_x": "3670859.28244",
    "final_y": "553113.770647",
    "longitude": "-90.10093659696062",
    "latitude": "30.01518994876632",
    "geocoded_column": {
      "latitude": "30.01518994876632",
      "longitude": "-90.10093659696062"
    }
  },
  {
    "service_request": "2026-1277842",
    "request_type": "Roads and Streets",
    "request_reason": "Pothole",
    "date_created": "2026-04-30T12:38:39.000",
    "date_modified": "2026-04-30T12:38:41.000",
    "request_status": "Pending",
    "responsible_agency": "Department of Public Works",
    "final_address": "2111 Easter Ln",
    "address_councildis": "C",
    "status": "Pending",
    "rowid": "1277842",
    "final_x": "3699433.48176",
    "final_y": "523582.236603",
    "longitude": "-90.01173228739772",
    "latitude": "29.93311292480641",
    "geocoded_column": {
      "latitude": "29.93311292480641",
      "longitude": "-90.01173228739772"
    }
  },