[
  {
    "service_request": "2023-983902",
    "request_type": "Property Maintenance",
    "request_reason": "Property Maintenance",
    "date_created": "2023-03-18T00:21:31.000",
    "date_modified": "2023-03-18T00:21:31.000",
    "request_status": "Pending",
    "responsible_agency": "Department of Code Enforcement",
    "final_address": "3032 St Claude Ave",
    "address_councildis": "C",
    "status": "Pending",
    "rowid": "983902",
    "final_x": "3688668.36342",
    "final_y": "536037.847751",
    "longitude": "-90.04527491359319",
    "latitude": "29.967698598969157",
    "geocoded_column": {
      "latitude": "29.967698598969157",
      "longitude": "-90.04527491359319"
    }
  },
  {
    "service_request": "2023-983901",
    "request_type": "Property Maintenance",
    "request_reason": "Property Maintenance",
    "date_created": "2023-03-18T00:21:27.000",
    "date_modified": "2023-03-18T00:21:27.000",
    "request_status": "Pending",
    "responsible_agency": "Department of Code Enforcement",
    "final_address": "3032 St Claude Ave",
    "address_councildis": "C",
    "status": "Pending",
    "rowid": "983901",
    "final_x": "3688668.36342",
    "final_y": "536037.847751",
    "longitude": "-90.04527491359319",
    "latitude": "29.967698598969157",
    "geocoded_column": {
      "latitude": "29.967698598969157",
      "longitude": "-90.04527491359319"
    }
  },
  {
    "service_request": "2023-983898",
    "request_type": "Trash/Recycling",
    "request_reason": "Request a Large Item Pick Up",
    "date_created": "2023-03-17T23:26:56.000",
    "date_modified": "2023-03-17T23:26:57.000",
    "request_status": "Pending",
    "responsible_agency": "Department of Sanitation",
    "final_address": "2639 Onzaga St",
    "address_councildis": "D",
    "status": "Assigned to Contractor",
    "contractor": "IV Waste",
    "rowid": "983898",
    "final_x": "3679076.13474",
    "final_y": "540673.000971",
    "longitude": "-90.07540672463759",
    "latitude": "29.980736676919772",
    "geocoded_column": {
      "latitude": "29.980736676919772",
      "longitude": "-90.07540672463759"
    }
  },
  {
    "service_request": "2023-983897",
    "request_type": "Trash/Recycling",
    "request_reason": "Request a Large Item Pick Up",
    "date_created": "2023-03-17T22:37:49.000",
    "date_modified": "2023-03-17T22:37:50.000",
    "request_status": "Pending",
    "responsible_agency": "Department of Sanitation",
    "final_address": "120 Chalfant Pl",
    "address_councildis": "D",
    "status": "Assigned to Contractor",
    "contractor": "IV Waste",
    "rowid": "983897",
    "final_x": "3677644.17454",
    "final_y": "544601.612623",
    "longitude": "-90.0797937397795",
    "latitude": "29.991582139485505",
    "geocoded_column": {
      "latitude": "29.991582139485505",
      "longitude": "-90.0797937397795"
    }
  },
  {
    "service_request": "2023-983896",
    "request_type": "Health Related Request",
    "request_reason": "Noise Ordinance Complaint",
    "date_created": "2023-03-17T21:46:07.000",
    "date_modified": "2023-03-17T21:46:07.000",
    "request_status": "Pending",
    "responsible_agency": "Health Department",
    "final_address": "600 N Broad St",
    "address_councildis": "D",
    "status": "Pending",
    "rowid": "983896",
    "final_x": "3676514.68328",
    "final_y": "536431.051079",
    "longitude": "-90.0836430411453",
    "latitude": "29.969149839828454",
    "geocoded_column": {
      "latitude": "29.969149839828454",
      "longitude": "-90.0836430411453"
    }
  },
  {
    "service_request": "2023-983895",
    "request_type": "Traffic Signals/Signs/Striping/Streetlights",
    "request_reason": "Street Light Outage/Malfunction",
    "date_created": "2023-03-17T20:33:33.000",
    "date_modified": "2023-03-17T20:33:34.000",
    "request_status": "Pending",
    "responsible_agency": "Department of Public Works",
    "final_address": "2924 Pauger St",
    "address_councildis": "D",
    "status": "Assigned to Contractor",
    "contractor": "Legacy Professional Services",
    "rowid": "983895",
    "final_x": "3683476.4509",
    "final_y": "540465.050571",
    "longitude": "-90.06151590363741",
    "latitude": "29.9800313234574",
    "geocoded_column": {
      "latitude": "29.9800313234574",
      "longitude": "-90.06151590363741"
    }
  },
  {
    "service_request": "2023-983894",
    "request_type": "Traffic Signals/Signs/Striping/Streetlights",
    "request_reason": "Street Light Outage/Malfunction",
    "date_created": "2023-03-17T20:12:21.000",
    "date_modified": "2023-03-17T20:12:22.000",
    "request_status": "Pending",
    "responsible_agency": "Department of Public Works",
    "final_address": "3640 Rue Delphine",
    "address_councildis": "C",
    "status": "Assigned to Contractor",
    "contractor": "Legacy Professional Services",
    "rowid": "983894",
    "final_x": "3703082.81911",
    "final_y": "517139.214261",
    "longitude": "-90.00044826761842",
    "latitude": "29.915280601949295",
    "geocoded_column": {
      "latitude": "29.915280601949295",
      "longitude": "-90.00044826761842"
    }
  },
  {
    "service_request": "2023-983893",
    "request_type": "Traffic Signals/Signs/Striping/Streetlights",
    "request_reason": "Street Light Outage/Malfunction",
    "date_created": "2023-03-17T20:01:18.000",
    "date_modified": "2023-03-17T20:01:19.000",
    "request_status": "Pending",
    "responsible_agency": "Department of Public Works",
    "final_address": "5514 Constance St",
    "address_councildis": "A",
    "status": "Assigned to Contractor",
    "contractor": "Legacy Professional Services",
    "rowid": "983893",
    "final_x": "3666221.69946",
    "final_y": "518467.225078",
    "longitude": "-90.11675148870607",
    "latitude": "29.920059771153777",
    "geocoded_column": {
      "latitude": "29.920059771153777",
      "longitude": "-90.11675148870607"
    }
  },
  {
    "service_request": "2023-983892",
    "request_type": "Property Maintenance",
    "request_reason": "Property Maintenance",
    "date_created": "2023-03-17T19:27:55.000",
    "date_modified": "2023-03-17T19:27:55.000",
    "request_status": "Pending",
    "responsible_agency": "Department of Code Enforcement",
    "final_address": "4818 Chrysler St",
    "address_councildis": "E",
    "status": "Pending",
    "rowid": "983892",
    "final_x": "3715195.60127",
    "final_y": "557128.276378",
    "longitude": "-89.96070429473431",
    "latitude": "30.02484256120358",
    "geocoded_column": {
      "latitude": "30.02484256120358",
      "longitude": "-89.96070429473431"
    }
  },
  {
    "service_request": "2023-983891",
    "request_type": "Traffic Signals/Signs/Striping/Streetlights",
    "request_reason": "Street Light Outage/Malfunction",
    "date_created": "2023-03-17T19:05:43.000",
    "date_modified": "2023-03-17T19:05:44.000",
    "request_status": "Pending",
    "responsible_agency": "Department of Public Works",
    "final_address": "325 N Salcedo St",
    "address_councildis": "B",
    "status": "Assigned to Contractor",
    "contractor": "Legacy Professional Services",
    "rowid": "983891",
    "final_x": "3674691.52667",
    "final_y": "536949.685256",
    "longitude": "-90.08938292753945",
    "latitude": "29.97063045604203",
    "geocoded_column": {
      "latitude": "29.97063045604203",
      "longitude": "-90.08938292753945"
    }
  },
  {
    "service_request": "2023-983890",
    "request_type": "Abandoned Vehicles",
    "request_reason": "Abandoned/Junk Vehicles",
    "date_created": "2023-03-17T18:55:59.000",
    "date_modified": "2023-03-17T18:55:59.000",
    "request_status": "Pending",
    "responsible_agency": "Department of Public Works",
    "final_address": "600 Aymard Ct",
    "address_councildis": "A",
    "status": "Pending",
    "rowid": "983890",
    "final_x": "3667870.21569",
    "final_y": "543992.583694",
    "longitude": "-90.11068817866396",
    "latitude": "29.990197907425717",
    "geocoded_column": {
      "latitude": "29.990197907425717",
      "longitude": "-90.11068817866396"
    }
  },
  {
    "service_request": "2023-983889",
    "request_type": "Trash/Recycling",
    "request_reason": "Missed Trash Pick-Up",
    "date_created": "2023-03-17T18:45:33.000",
    "date_modified": "2023-03-17T18:45:33.000",
    "request_status": "Pending",
    "responsible_agency": "Department of Sanitation",
    "final_address": "2526 Dubreuil St",
    "address_councildis": "E",
    "status": "Assigned to Contractor",
    "contractor": "Waste Pro",
    "rowid": "983889",
    "final_x": "3702763.38897",
    "final_y": "538019.277513",
    "longitude": "-90.00069000633367",
    "latitude": "29.972703616181473",
    "geocoded_column": {
      "latitude": "29.972703616181473",
      "longitude": "-90.00069000633367"
    }
  },
  {
    "service_request": "2023-983888",
    "request_type": "Health Related Request",
    "request_reason": "Noise Ordinance Complaint",
    "date_created": "2023-03-17T18:44:01.000",
    "date_modified": "2023-03-17T18:44:02.000",
    "request_status": "Pending",
    "responsible_agency": "Health Department",
    "final_address": "221 N Miro St",
    "address_councildis": "B",
    "status": "Pending",
    "rowid": "983888",
    "final_x": "3677029.08002",
    "final_y": "534595.628741",
    "longitude": "-90.08208183446945",
    "latitude": "29.96408761575065",
    "geocoded_column": {
      "latitude": "29.96408761575065",
      "longitude": "-90.08208183446945"
    }
  },
  {
    "service_request": "2023-983887",
    "request_type": "Trash/Recycling",
    "request_reason": "Replace Trash Cart",
    "date_created": "2023-03-17T18:13:21.000",
    "date_modified": "2023-03-17T18:13:21.000",
    "request_status": "Pending",
    "responsible_agency": "Department of Sanitation",
    "final_address": "6830 Coventry St, New Orleans, Louisiana, 70126",
    "address_councildis": "E",
    "status": "Assigned to Contractor",
    "contractor": "Waste Pro",
    "rowid": "983887",
    "final_x": "3698678.37047",
    "final_y": "559650.369821",
    "longitude": "-90.01280387169867",
    "latitude": "30.032311057476928",
    "geocoded_column": {
      "latitude": "30.032311057476928",
      "longitude": "-90.01280387169867"
    }
  },
  {
    "service_request": "2023-983886",
    "request_type": "Abandoned Vehicles",
    "request_reason": "Abandoned/Junk Vehicles",
    "date_created": "2023-03-17T18:09:30.000",
    "date_modified": "2023-03-17T18:09:31.000",
    "request_status": "Pending",
    "responsible_agency": "Department of Public Works",
    "final_address": "800 BLK Brooklyn Ave",
    "address_councildis": "C",
    "status": "Pending",
    "rowid": "983886",
    "final_x": "3686147.72248",
    "final_y": "528465.256177",
    "longitude": "-90.0535022556681",
    "latitude": "29.946954245641336",
    "geocoded_column": {
      "latitude": "29.946954245641336",
      "longitude": "-90.0535022556681"
    }
  },
  {
    "service_request": "2023-983885",
    "request_type": "Traffic Signals/Signs/Striping/Streetlights",
    "request_reason": "Street Light Outage/Malfunction",
    "date_created": "2023-03-17T17:28:49.000",
    "date_modified": "2023-03-17T17:30:58.000",
    "request_status": "Pending",
    "responsible_agency": "Department of Public Works",
    "final_address": "4317 St Bernard Ave",
    "address_councildis": "D",
    "status": "Assigned to Contractor",
    "contractor": "Legacy Professional Services",
    "rowid": "983885",
    "final_x": "3676945.93608",
    "final_y": "548341.572754",
    "longitude": "-90.08187029742176",
    "latitude": "30.001886699243222",
    "geocoded_column": {
      "latitude": "30.001886699243222",
      "longitude": "-90.08187029742176"
    }
  },
  {
    "service_request": "2023-983884",
    "request_type": "Trash/Recycling",
    "request_reason": "Illegal Dumping",
    "date_created": "2023-03-17T17:28:17.000",
    "date_modified": "2023-03-17T17:28:17.000",
    "request_status": "Pending",
    "responsible_agency": "Department of Sanitation",
    "final_address": "6003 Bullard Ave",
    "address_councildis": "E",
    "status": "Pending",
    "rowid": "983884",
    "final_x": "3716107.82546",
    "final_y": "563950.871393",
    "longitude": "-89.95756300834744",
    "latitude": "30.043571875272146",
    "geocoded_column": {
      "latitude": "30.043571875272146",
      "longitude": "-89.95756300834744"
    }
  },
  {
    "service_request": "2023-983883",
    "request_type": "Abandoned Vehicles",
    "request_reason": "Abandoned/Junk Vehicles",
    "date_created": "2023-03-17T17:28:05.000",
    "date_modified": "2023-03-17T17:28:05.000",
    "request_status": "Pending",
    "responsible_agency": "Department of Public Works",
    "final_address": "900 BLK Eighth St",
    "address_councildis": "B",
    "status": "Pending",
    "rowid": "983883",
    "final_x": "3676420.30329",
    "final_y": "519747.080372",
    "longitude": "-90.08451534434955",
    "latitude": "29.92327727963951",
    "geocoded_column": {
      "latitude": "29.92327727963951",
      "longitude": "-90.08451534434955"
    }
  },
  {
    "service_request": "2023-983882",
    "request_type": "Traffic Signals/Signs/Striping/Streetlights",
    "request_reason": "Traffic Signal Malfunctioning/Damaged",
    "date_created": "2023-03-17T17:26:01.000",
    "date_modified": "2023-03-17T17:26:01.000",
    "request_status": "Pending",
    "responsible_agency": "Department of Public Works",
    "final_address": "EARHART BLVD & S CLAIBORNE AVE",
    "address_councildis": "B",
    "status": "Pending",
    "rowid": "983882",
    "final_x": "3675857.3",
    "final_y": "529234.48",
    "longitude": "-90.0859665173446",
    "latitude": "29.94938138407249",
    "geocoded_column": {
      "latitude": "29.94938138407249",
      "longitude": "-90.0859665173446"
    }
  },
  {
    "service_request": "2023-983881",
    "request_type": "Property Maintenance",
    "request_reason": "Property Maintenance",
    "date_created": "2023-03-17T17:25:19.000",
    "date_modified": "2023-03-17T17:25:19.000",
    "request_status": "Pending",
    "responsible_agency": "Department of Code Enforcement",
    "final_address": "11731 W Barrington Dr",
    "address_councildis": "E",
    "status": "Pending",
    "rowid": "983881",
    "final_x": "3713973.11711",
    "final_y": "565589.99197",
    "longitude": "-89.96424763282866",
    "latitude": "30.04814909396246",
    "geocoded_column": {
      "latitude": "30.04814909396246",
      "longitude": "-89.96424763282866"
    }
  },
  {
    "service_request": "2023-983880",
    "request_type": "Trash/Recycling",
    "request_reason": "Request a Large Item Pick Up",
    "date_created": "2023-03-17T17:19:54.000",
    "date_modified": "2023-03-17T17:19:55.000",
    "request_status": "Pending",
    "responsible_agency": "Department of Sanitation",
    "final_address": "2084 Westbend Prkwy",
    "address_councildis": "C",
    "status": "Assigned to Contractor",
    "contractor": "Richards Disposal",
    "rowid": "983880",
    "final_x": "3696953.10493",
    "final_y": "523271.952571",
    "longitude": "-90.01957385597363",
    "latitude": "29.93233818093989",
    "geocoded_column": {
      "latitude": "29.93233818093989",
      "longitude": "-90.01957385597363"
    }
  },
  {
    "service_request": "2023-983879",
    "request_type": "Traffic Signals/Signs/Striping/Streetlights",
    "request_reason": "Additional signage",
    "date_created": "2023-03-17T17:19:36.000",
    "date_modified": "2023-03-17T17:19:36.000",
    "request_status": "Pending",
    "responsible_agency": "Department of Public Works",
    "final_address": "1719 Oretha Castle Haley Blvd",
    "address_councildis": "B",
    "status": "Pending",
    "rowid": "983879",
    "final_x": "3677577.2205",
    "final_y": "525643.463997",
    "longitude": "-90.08065991360532",
    "latitude": "29.939455686489577",
    "geocoded_column": {
      "latitude": "29.939455686489577",
      "longitude": "-90.08065991360532"
    }
  },
  {
    "service_request": "2023-983878",
    "request_type": "Trash/Recycling",
    "request_reason": "Replace Trash Cart",
    "date_created": "2023-03-17T17:17:57.000",
    "date_modified": "2023-03-17T17:17:57.000",
    "request_status": "Pending",
    "responsible_agency": "Department of Sanitation",
    "final_address": "1819 Audubon St",
    "address_councildis": "A",
    "status": "Assigned to Contractor",
    "contractor": "Richards Disposal",
    "rowid": "983878",
    "final_x": "3665735.00839",
    "final_y": "528236.248384",
    "longitude": "-90.1179606708989",
    "latitude": "29.946935678800724",
    "geocoded_column": {
      "latitude": "29.946935678800724",
      "longitude": "-90.1179606708989"
    }
  },
  {
    "service_request": "2023-983877",
    "request_type": "Trash/Recycling",
    "request_reason": "Illegal Dumping",
    "date_created": "2023-03-17T17:09:30.000",
    "date_modified": "2023-03-17T17:09:30.000",
    "request_status": "Pending",
    "responsible_agency": "Department of Sanitation",
    "final_address": "CHEF MENTEUR HWY & I 10 E",
    "address_councildis": "E",
    "status": "Pending",
    "rowid": "983877",
    "final_x": "3698751.3",
    "final_y": "551852.98",
    "longitude": "-90.01285736696903",
    "latitude": "30.010868895310914",
    "geocoded_column": {
      "latitude": "30.010868895310914",
      "longitude": "-90.01285736696903"
    }
  },
  {
    "service_request": "2023-983876",
    "request_type": "Trash/Recycling",
    "request_reason": "Order Recycling Cart",
    "date_created": "2023-03-17T17:03:06.000",
    "date_modified": "2023-03-17T17:03:06.000",
    "request_status": "Pending",
    "responsible_agency": "Department of Sanitation",
    "final_address": "1739 Jourdan Ave",
    "address_councildis": "E",
    "status": "Pending",
    "rowid": "983876",
    "final_x": "3695796.68086",
    "final_y": "537035.32884",
    "longitude": "-90.02272758638351",
    "latitude": "29.970219059564368",
    "geocoded_column": {
      "latitude": "29.970219059564368",
      "longitude": "-90.02272758638351"
    }
  },
  {
    "service_request": "2023-983875",
    "request_type": "Roads/Drainage",
    "request_reason": "Damaged Sidewalk",
    "date_created": "2023-03-17T17:01:23.000",
    "date_modified": "2023-03-17T17:01:23.000",
    "request_status": "Pending",
    "responsible_agency": "Department of Public Works",
    "final_address": "1723 Governor Nicholls St",
    "address_councildis": "D",
    "status": "Pending",
    "rowid": "983875",
    "final_x": "3680684.02248",
    "final_y": "536249.720263",
    "longitude": "-90.07048228499086",
    "latitude": "29.968525550849744",
    "geocoded_column": {
      "latitude": "29.968525550849744",
      "longitude": "-90.07048228499086"
    }
  },
  {
    "service_request": "2023-983874",
    "request_type": "Abandoned Vehicles",
    "request_reason": "Abandoned/Junk Vehicles",
    "date_created": "2023-03-17T16:56:48.000",
    "date_modified": "2023-03-17T16:56:48.000",
    "request_status": "Pending",
    "responsible_agency": "Department of Public Works",
    "final_address": "1116 Short St",
    "address_councildis": "A",
    "status": "Pending",
    "rowid": "983874",
    "final_x": "3662063.5664",
    "final_y": "527886.866367",
    "longitude": "-90.12956441614622",
    "latitude": "29.946081557915708",
    "geocoded_column": {
      "latitude": "29.946081557915708",
      "longitude": "-90.12956441614622"
    }
  },
  {
    "service_request": "2023-983873",
    "request_type": "Traffic Signals/Signs/Striping/Streetlights",
    "request_reason": "Street Light Outage/Malfunction",
    "date_created": "2023-03-17T16:54:29.000",
    "date_modified": "2023-03-17T16:54:30.000",
    "request_status": "Pending",
    "responsible_agency": "Department of Public Works",
    "final_address": "6360 Pratt Dr",
    "address_councildis": "D",
    "status": "Assigned to Contractor",
    "contractor": "Legacy Professional Services",
    "rowid": "983873",
    "final_x": "3679172.79432",
    "final_y": "557408.021915",
    "longitude": "-90.07452075293",
    "latitude": "30.026749097302783",
    "geocoded_column": {
      "latitude": "30.026749097302783",
      "longitude": "-90.07452075293"
    }
  },
  {
    "service_request": "2023-983872",
    "request_type": "Traffic Signals/Signs/Striping/Streetlights",
    "request_reason": "Street Light Outage/Malfunction",
    "date_created": "2023-03-17T16:54:26.000",
    "date_modified": "2023-03-17T16:54:27.000",
    "request_status": "Pending",
    "responsible_agency": "Department of Public Works",
    "final_address": "6360 Pratt Dr",
    "address_councildis": "D",
    "status": "Assigned to Contractor",
    "contractor": "Legacy Professional Services",
    "rowid": "983872",
    "final_x": "3679172.79432",
    "final_y": "557408.021915",
    "longitude": "-90.07452075293",
    "latitude": "30.026749097302783",
    "geocoded_column": {
      "latitude": "30.026749097302783",
      "longitude": "-90.07452075293"
    }
  },
  {
    "service_request": "2023-983871",
    "request_type": "Traffic Signals/Signs/Striping/Streetlights",
    "request_reason": "Street Light Outage/Malfunction",
    "date_created": "2023-03-17T16:52:56.000",
    "date_modified": "2023-03-17T16:54:56.000",
    "request_status": "Pending",
    "responsible_agency": "Department of Public Works",
    "final_address": "New Orleans,LA",
    "address_councildis": "D",
    "status": "Assigned to Contractor",
    "contractor": "Legacy Professional Services",
    "rowid": "983871",
    "final_x": "3679172.79432",
    "final_y": "557408.021915",
    "longitude": "-90.07452075293",
    "latitude": "30.026749097302783",
    "geocoded_column": {
      "latitude": "30.026749097302783",
      "longitude": "-90.07452075293"
    }
  },
  {
    "service_request": "2023-983870",
    "request_type": "Traffic Signals/Signs/Striping/Streetlights",
    "request_reason": "Street Light Outage/Malfunction",
    "date_created": "2023-03-17T16:50:31.000",
    "date_modified": "2023-03-17T16:51:26.000",
    "request_status": "Pending",
    "responsible_agency": "Department of Public Works",
    "final_address": "6360 Pratt Drive",
    "address_councildis": "D",
    "status": "Assigned to Contractor",
    "contractor": "Legacy Professional Services",
    "rowid": "983870",
    "final_x": "3679172.79432",
    "final_y": "557408.021915",
    "longitude": "-90.07452075293",
    "latitude": "30.026749097302783",
    "geocoded_column": {
      "latitude": "30.026749097302783",
      "longitude": "-90.07452075293"
    }
  },
  {
    "service_request": "2023-983869",
    "request_type": "Trash/Recycling",
    "request_reason": "Request a Large Item Pick Up",
    "date_created": "2023-03-17T16:49:35.000",
    "date_modified": "2023-03-17T16:49:36.000",
    "request_status": "Pending",
    "responsible_agency": "Department of Sanitation",
    "final_address": "7041 Roy St",
    "address_councildis": "A",
    "status": "Assigned to Contractor",
    "contractor": "IV Waste",
    "rowid": "983869",
    "final_x": "3665248.19085",
    "final_y": "554580.417304",
    "longitude": "-90.11861595719427",
    "latitude": "30.01938745815265",
    "geocoded_column": {
      "latitude": "30.01938745815265",
      "longitude": "-90.11861595719427"
    }
  },
  {
    "service_request": "2023-983868",
    "request_type": "Trash/Recycling",
    "request_reason": "Order Recycling Cart",
    "date_created": "2023-03-17T16:48:18.000",
    "date_modified": "2023-03-17T16:48:20.000",
    "request_status": "Pending",
    "responsible_agency": "Department of Sanitation",
    "final_address": "11287 Fernley Dr",
    "address_councildis": "E",
    "status": "Pending",
    "rowid": "983868",
    "final_x": "3717835.71615",
    "final_y": "560220.980125",
    "longitude": "-89.9522442807582",
    "latitude": "30.03325902984831",
    "geocoded_column": {
      "latitude": "30.03325902984831",
      "longitude": "-89.9522442807582"
    }
  },
  {
    "service_request": "2023-983867",
    "request_type": "Trash/Recycling",
    "request_reason": "Missed Trash Pick-Up",
    "date_created": "2023-03-17T16:45:26.000",
    "date_modified": "2023-03-17T16:45:27.000",
    "request_status": "Pending",
    "responsible_agency": "Department of Sanitation",
    "final_address": "11287 Fernley Dr",
    "address_councildis": "E",
    "status": "Assigned to Contractor",
    "contractor": "Waste Pro",
    "rowid": "983867",
    "final_x": "3717835.71615",
    "final_y": "560220.980125",
    "longitude": "-89.9522442807582",
    "latitude": "30.03325902984831",
    "geocoded_column": {
      "latitude": "30.03325902984831",
      "longitude": "-89.9522442807582"
    }
  },
  {
    "service_request": "2023-983866",
    "request_type": "Property Maintenance",
    "request_reason": "Property Maintenance",
    "date_created": "2023-03-17T16:44:44.000",
    "date_modified": "2023-03-17T16:44:44.000",
    "request_status": "Pending",
    "responsible_agency": "Department of Code Enforcement",
    "final_address": "6415 Urville St",
    "address_councildis": "E",
    "status": "Pending",
    "rowid": "983866",
    "final_x": "3700960.04618",
    "final_y": "533860.968133",
    "longitude": "-90.00653732351734",
    "latitude": "29.961327309590892",
    "geocoded_column": {
      "latitude": "29.961327309590892",
      "longitude": "-90.00653732351734"
    }
  },
  {
    "service_request": "2023-983865",
    "request_type": "Property Maintenance",
    "request_reason": "Property Maintenance",
    "date_created": "2023-03-17T16:39:47.000",
    "date_modified": "2023-03-17T16:39:47.000",
    "request_status": "Pending",
    "responsible_agency": "Department of Code Enforcement",
    "final_address": "1315 Delery St",
    "address_councildis": "E",
    "status": "Pending",
    "rowid": "983865",
    "final_x": "3700834.80983",
    "final_y": "533836.280389",
    "longitude": "-90.00693369770494",
    "latitude": "29.961263413924296",
    "geocoded_column": {
      "latitude": "29.961263413924296",
      "longitude": "-90.00693369770494"
    }
  },
  {
    "service_request": "2023-983864",
    "request_type": "Roads/Drainage",
    "request_reason": "Pothole",
    "date_created": "2023-03-17T16:39:11.000",
    "date_modified": "2023-03-17T16:39:11.000",
    "request_status": "Pending",
    "responsible_agency": "Department of Public Works",
    "final_address": "5700 BLK Hurst St",
    "address_councildis": "A",
    "status": "Pending",
    "rowid": "983864",
    "final_x": "3666264.71107",
    "final_y": "521631.154688",
    "longitude": "-90.11650966423545",
    "latitude": "29.928758324928605",
    "geocoded_column": {
      "latitude": "29.928758324928605",
      "longitude": "-90.11650966423545"
    }
  },
  {
    "service_request": "2023-983863",
    "request_type": "Traffic Signals/Signs/Striping/Streetlights",
    "request_reason": "Street Light Knocked Down/Leaning",
    "date_created": "2023-03-17T16:39:04.000",
    "date_modified": "2023-03-17T16:39:05.000",
    "request_status": "Pending",
    "responsible_agency": "Department of Public Works",
    "final_address": "4200 General Meyer Ave",
    "address_councildis": "C",
    "status": "Pending",
    "contractor": "Legacy Professional Services",
    "rowid": "983863",
    "final_x": "3699649.82647",
    "final_y": "524521.289404",
    "longitude": "-90.01101509519901",
    "latitude": "29.935688131423554",
    "geocoded_column": {
      "latitude": "29.935688131423554",
      "longitude": "-90.01101509519901"
    }
  },
  {
    "service_request": "2023-983862",
    "request_type": "Parks & Parkways",
    "request_reason": "Request Grass Cutting Service (City Owned Property)",
    "date_created": "2023-03-17T16:37:35.000",
    "date_modified": "2023-03-17T16:37:36.000",
    "request_status": "Pending",
    "responsible_agency": "Department of Parks & Parkway",
    "final_address": "365 Canal St Ste 100 BLDG 1",
    "address_councildis": "C",
    "status": "Pending",
    "rowid": "983862",
    "final_x": "3682288.81487",
    "final_y": "530031.438913",
    "longitude": "-90.0656315327994",
    "latitude": "29.951378670478164",
    "geocoded_column": {
      "latitude": "29.951378670478164",
      "longitude": "-90.0656315327994"
    }
  },
  {
    "service_request": "2023-983861",
    "request_type": "Trash/Recycling",
    "request_reason": "Order Recycling Cart",
    "date_created": "2023-03-17T16:36:51.000",
    "date_modified": "2023-03-17T16:36:52.000",
    "request_status": "Pending",
    "responsible_agency": "Department of Sanitation",
    "final_address": "3520 Upperline St",
    "address_councildis": "B",
    "status": "Pending",
    "rowid": "983861",
    "final_x": "3669245.79866",
    "final_y": "527859.964031",
    "longitude": "-90.10688849370091",
    "latitude": "29.94579815927865",
    "geocoded_column": {
      "latitude": "29.94579815927865",
      "longitude": "-90.10688849370091"
    }
  },
  {
    "service_request": "2023-983860",
    "request_type": "Trash/Recycling",
    "request_reason": "Replace Trash Cart",
    "date_created": "2023-03-17T16:35:58.000",
    "date_modified": "2023-03-17T16:35:58.000",
    "request_status": "Pending",
    "responsible_agency": "Department of Sanitation",
    "final_address": "525 Valence St",
    "address_councildis": "B",
    "status": "Assigned to Contractor",
    "contractor": "Richards Disposal",
    "rowid": "983860",
    "final_x": "3670104.71431",
    "final_y": "517559.903222",
    "longitude": "-90.10452535843264",
    "latitude": "29.917450989671014",
    "geocoded_column": {
      "latitude": "29.917450989671014",
      "longitude": "-90.10452535843264"
    }
  },
  {
    "service_request": "2023-983859",
    "request_type": "Trash/Recycling",
    "request_reason": "Repair Trash Cart",
    "date_created": "2023-03-17T16:35:17.000",
    "date_modified": "2023-03-17T16:35:18.000",
    "request_status": "Pending",
    "responsible_agency": "Department of Sanitation",
    "final_address": "10111 Rosewood Pl",
    "address_councildis": "E",
    "status": "Assigned to Contractor",
    "contractor": "Waste Pro",
    "rowid": "983859",
    "final_x": "3712798.7212",
    "final_y": "557749.245403",
    "longitude": "-89.96825458567486",
    "latitude": "30.026628712091195",
    "geocoded_column": {
      "latitude": "30.026628712091195",
      "longitude": "-89.96825458567486"
    }
  },
  {
    "service_request": "2023-983858",
    "request_type": "Trash/Recycling",
    "request_reason": "Request a Large Item Pick Up",
    "date_created": "2023-03-17T16:35:03.000",
    "date_modified": "2023-03-17T16:35:04.000",
    "request_status": "Pending",
    "responsible_agency": "Department of Sanitation",
    "final_address": "2259 Mithra St",
    "address_councildis": "D",
    "status": "Assigned to Contractor",
    "contractor": "IV Waste",
    "rowid": "983858",
    "final_x": "3684251.48233",
    "final_y": "552761.75087",
    "longitude": "-90.05863597886017",
    "latitude": "30.013819170325803",
    "geocoded_column": {
      "latitude": "30.013819170325803",
      "longitude": "-90.05863597886017"
    }
  },
  {
    "service_request": "2023-983857",
    "request_type": "Traffic Signals/Signs/Striping/Streetlights",
    "request_reason": "Street Light Knocked Down/Leaning",
    "date_created": "2023-03-17T16:34:13.000",
    "date_modified": "2023-03-17T16:34:14.000",
    "request_status": "Pending",
    "responsible_agency": "Department of Public Works",
    "final_address": "1400 De Battista Pl",
    "address_councildis": "C",
    "status": "Pending",
    "contractor": "Legacy Professional Services",
    "rowid": "983857",
    "final_x": "3699837.68292",
    "final_y": "526016.21875",
    "longitude": "-90.01036754321338",
    "latitude": "29.939792704425244",
    "geocoded_column": {
      "latitude": "29.939792704425244",
      "longitude": "-90.01036754321338"
    }
  },
  {
    "service_request": "2023-983856",
    "request_type": "Trash/Recycling",
    "request_reason": "Request a Large Item Pick Up",
    "date_created": "2023-03-17T16:31:04.000",
    "date_modified": "2023-03-17T16:31:05.000",
    "request_status": "Pending",
    "responsible_agency": "Department of Sanitation",
    "final_address": "1503 De Battista Pl",
    "address_councildis": "C",
    "status": "Assigned to Contractor",
    "contractor": "Richards Disposal",
    "rowid": "983856",
    "final_x": "3699717.75818",
    "final_y": "525657.375997",
    "longitude": "-90.01075923692801",
    "latitude": "29.93880981865351",
    "geocoded_column": {
      "latitude": "29.93880981865351",
      "longitude": "-90.01075923692801"
    }
  },
  {
    "service_request": "2023-983855",
    "request_type": "Trash/Recycling",
    "request_reason": "Replace Trash Cart",
    "date_created": "2023-03-17T16:28:33.000",
    "date_modified": "2023-03-17T17:17:51.000",
    "request_status": "Pending",
    "responsible_agency": "Department of Sanitation",
    "final_address": "1819 Audubon St",
    "address_councildis": "A",
    "status": "Assigned to Contractor",
    "contractor": "Richards Disposal",
    "rowid": "983855",
    "final_x": "3665735.00839",
    "final_y": "528236.248384",
    "longitude": "-90.1179606708989",
    "latitude": "29.946935678800724",
    "geocoded_column": {
      "latitude": "29.946935678800724",
      "longitude": "-90.1179606708989"
    }
  },
  {
    "service_request": "2023-983854",
    "request_type": "Abandoned Vehicles",
    "request_reason": "Abandoned/Junk Vehicles",
    "date_created": "2023-03-17T16:21:37.000",
    "date_modified": "2023-03-17T16:26:24.000",
    "request_status": "Pending",
    "responsible_agency": "Department of Public Works",
    "final_address": "3023 Chippewa St",
    "address_councildis": "B",
    "status": "Pending",
    "rowid": "983854",
    "final_x": "3677016.74677",
    "final_y": "519049.500407",
    "longitude": "-90.08265663183168",
    "latitude": "29.921341272484067",
    "geocoded_column": {
      "latitude": "29.921341272484067",
      "longitude": "-90.08265663183168"
    }
  },
  {
    "service_request": "2023-983853",
    "request_type": "Traffic Signals/Signs/Striping/Streetlights",
    "request_reason": "Traffic Signal Malfunctioning/Damaged",
    "date_created": "2023-03-17T16:21:22.000",
    "date_modified": "2023-03-17T16:21:23.000",
    "request_status": "Pending",
    "responsible_agency": "Department of Public Works",
    "final_address": "HAYNE BLVD & LAMB RD",
    "address_councildis": "E",
    "status": "Pending",
    "rowid": "983853",
    "final_x": "3696530.3",
    "final_y": "560647.58",
    "longitude": "-90.0195557622221",
    "latitude": "30.035120895592602",
    "geocoded_column": {
      "latitude": "30.035120895592602",
      "longitude": "-90.0195557622221"
    }
  },
  {
    "service_request": "2023-983852",
    "request_type": "Parks & Parkways",
    "request_reason": "Request Tree Service (Right of Way/Public Property)",
    "date_created": "2023-03-17T16:11:41.000",
    "date_modified": "2023-03-17T16:11:42.000",
    "request_status": "Pending",
    "responsible_agency": "Department of Parks & Parkway",
    "final_address": "824 Newton St",
    "address_councildis": "C",
    "status": "Pending",
    "rowid": "983852",
    "final_x": "3687987.46255",
    "final_y": "528002.323711",
    "longitude": "-90.04770993133596",
    "latitude": "29.945624708923496",
    "geocoded_column": {
      "latitude": "29.945624708923496",
      "longitude": "-90.04770993133596"
    }
  },
  {
    "service_request": "2023-983851",
    "request_type": "Trash/Recycling",
    "request_reason": "Request a Large Item Pick Up",
    "date_created": "2023-03-17T16:03:51.000",
    "date_modified": "2023-03-17T16:03:52.000",
    "request_status": "Pending",
    "responsible_agency": "Department of Sanitation",
    "final_address": "4308 Constance St",
    "address_councildis": "B",
    "status": "Assigned to Contractor",
    "contractor": "Richards Disposal",
    "rowid": "983851",
    "final_x": "3671401.20577",
    "final_y": "518408.727094",
    "longitude": "-90.10040422684627",
    "latitude": "29.919746691801887",
    "geocoded_column": {
      "latitude": "29.919746691801887",
      "longitude": "-90.10040422684627"
    }
  },
  {
    "service_request": "2023-983850",
    "request_type": "Traffic Signals/Signs/Striping/Streetlights",
    "request_reason": "Street Light Outage/Malfunction",
    "date_created": "2023-03-17T15:57:20.000",
    "date_modified": "2023-03-17T15:57:21.000",
    "request_status": "Pending",
    "responsible_agency": "Department of Public Works",
    "final_address": "2300 Joseph St",
    "address_councildis": "A",
    "status": "Assigned to Contractor",
    "contractor": "Legacy Professional Services",
    "rowid": "983850",
    "final_x": "3667285.61133",
    "final_y": "524503.825532",
    "longitude": "-90.11319031599152",
    "latitude": "29.936627403798468",
    "geocoded_column": {
      "latitude": "29.936627403798468",
      "longitude": "-90.11319031599152"
    }
  },
  {
    "service_request": "2023-983849",
    "request_type": "Trash/Recycling",
    "request_reason": "Missed Trash Pick-Up",
    "date_created": "2023-03-17T15:55:46.000",
    "date_modified": "2023-03-17T15:55:46.000",
    "request_status": "Pending",
    "responsible_agency": "Department of Sanitation",
    "final_address": "4616 Marque Dr",
    "address_councildis": "E",
    "status": "Assigned to Contractor",
    "contractor": "Waste Pro",
    "rowid": "983849",
    "final_x": "3710070.75173",
    "final_y": "555043.419993",
    "longitude": "-89.9769758009696",
    "latitude": "30.01927783051398",
    "geocoded_column": {
      "latitude": "30.01927783051398",
      "longitude": "-89.9769758009696"
    }
  },
  {
    "service_request": "2023-983848",
    "request_type": "Roads/Drainage",
    "request_reason": "Catch Basin - Broken/Damage",
    "date_created": "2023-03-17T15:52:40.000",
    "date_modified": "2023-03-17T15:52:40.000",
    "request_status": "Pending",
    "responsible_agency": "Department of Public Works",
    "final_address": "2300 Joseph St",
    "address_councildis": "A",
    "status": "Pending",
    "rowid": "983848",
    "final_x": "3667285.61133",
    "final_y": "524503.825532",
    "longitude": "-90.11319031599152",
    "latitude": "29.936627403798468",
    "geocoded_column": {
      "latitude": "29.936627403798468",
      "longitude": "-90.11319031599152"
    }
  },
  {
    "service_request": "2023-983847",
    "request_type": "Trash/Recycling",
    "request_reason": "Replace Trash Cart",
    "date_created": "2023-03-17T15:45:31.000",
    "date_modified": "2023-03-17T15:45:32.000",
    "request_status": "Pending",
    "responsible_agency": "Department of Sanitation",
    "final_address": "6930 Dorchester St",
    "address_councildis": "E",
    "status": "Assigned to Contractor",
    "contractor": "Waste Pro",
    "rowid": "983847",
    "final_x": "3699134.03312",
    "final_y": "559404.395933",
    "longitude": "-90.01137292135392",
    "latitude": "30.031620277219826",
    "geocoded_column": {
      "latitude": "30.031620277219826",
      "longitude": "-90.01137292135392"
    }
  },
  {
    "service_request": "2023-983846",
    "request_type": "Roads/Drainage",
    "request_reason": "Catch Basin - Clogged",
    "date_created": "2023-03-17T15:40:56.000",
    "date_modified": "2023-03-17T15:40:56.000",
    "request_status": "Pending",
    "responsible_agency": "Department of Public Works",
    "final_address": "1375 Harrison Ave",
    "address_councildis": "D",
    "status": "Pending",
    "rowid": "983846",
    "final_x": "3677899.09282",
    "final_y": "547678.979346",
    "longitude": "-90.07888208684565",
    "latitude": "30.000036143442667",
    "geocoded_column": {
      "latitude": "30.000036143442667",
      "longitude": "-90.07888208684565"
    }
  },
  {
    "service_request": "2023-983845",
    "request_type": "Property Maintenance",
    "request_reason": "Property Maintenance",
    "date_created": "2023-03-17T15:38:13.000",
    "date_modified": "2023-03-17T15:38:13.000",
    "request_status": "Pending",
    "responsible_agency": "Department of Code Enforcement",
    "final_address": "1700 N Galvez St",
    "address_councildis": "D",
    "status": "Pending",
    "rowid": "983845",
    "final_x": "3681421.47119",
    "final_y": "539615.314186",
    "longitude": "-90.06803601712983",
    "latitude": "29.977757401361934",
    "geocoded_column": {
      "latitude": "29.977757401361934",
      "longitude": "-90.06803601712983"
    }
  },
  {
    "service_request": "2023-983843",
    "request_type": "Trash/Recycling",
    "request_reason": "Replace Recycling Cart",
    "date_created": "2023-03-17T15:32:01.000",
    "date_modified": "2023-03-17T15:32:01.000",
    "request_status": "Pending",
    "responsible_agency": "Department of Sanitation",
    "final_address": "7512 Garfield St",
    "address_councildis": "A",
    "status": "Pending",
    "rowid": "983843",
    "final_x": "3660880.53555",
    "final_y": "524218.581244",
    "longitude": "-90.13342095553188",
    "latitude": "29.9360290570645",
    "geocoded_column": {
      "latitude": "29.9360290570645",
      "longitude": "-90.13342095553188"
    }
  },
  {
    "service_request": "2023-983841",
    "request_type": "Roads/Drainage",
    "request_reason": "Catch Basin - Clogged",
    "date_created": "2023-03-17T15:31:34.000",
    "date_modified": "2023-03-17T15:31:34.000",
    "request_status": "Pending",
    "responsible_agency": "Department of Public Works",
    "final_address": "3400 Jackson Ave",
    "address_councildis": "B",
    "status": "Pending",
    "rowid": "983841",
    "final_x": "3673663.21588",
    "final_y": "528752.212288",
    "longitude": "-90.0929107162878",
    "latitude": "29.948120800140604",
    "geocoded_column": {
      "latitude": "29.948120800140604",
      "longitude": "-90.0929107162878"
    }
  },
  {
    "service_request": "2023-983840",
    "request_type": "Roads/Drainage",
    "request_reason": "Debris in Roadway",
    "date_created": "2023-03-17T15:30:51.000",
    "date_modified": "2023-03-17T15:30:51.000",
    "request_status": "Pending",
    "responsible_agency": "Department of Public Works",
    "final_address": "3439 Octavia St",
    "address_councildis": "A",
    "status": "Pending",
    "rowid": "983840",
    "final_x": "3668583.71322",
    "final_y": "528292.636608",
    "longitude": "-90.10896432743324",
    "latitude": "29.94700733744463",
    "geocoded_column": {
      "latitude": "29.94700733744463",
      "longitude": "-90.10896432743324"
    }
  },
  {
    "service_request": "2023-983838",
    "request_type": "Roads/Drainage",
    "request_reason": "Debris in Roadway",
    "date_created": "2023-03-17T15:22:27.000",
    "date_modified": "2023-03-17T15:22:27.000",
    "request_status": "Pending",
    "responsible_agency": "Department of Public Works",
    "final_address": "3439 Octavia St",
    "address_councildis": "A",
    "status": "Pending",
    "rowid": "983838",
    "final_x": "3668583.71322",
    "final_y": "528292.636608",
    "longitude": "-90.10896432743324",
    "latitude": "29.94700733744463",
    "geocoded_column": {
      "latitude": "29.94700733744463",
      "longitude": "-90.10896432743324"
    }
  },
  {
    "service_request": "2023-983837",
    "request_type": "Trash/Recycling",
    "request_reason": "Dead Animal Pick Up",
    "date_created": "2023-03-17T15:21:01.000",
    "date_modified": "2023-03-17T15:21:01.000",
    "request_status": "Pending",
    "responsible_agency": "Department of Sanitation",
    "final_address": "4611 Touro St",
    "address_councildis": "D",
    "status": "Assigned to Contractor",
    "contractor": "IV Waste",
    "rowid": "983837",
    "final_x": "3683211.00418",
    "final_y": "549602.671059",
    "longitude": "-90.0620340904517",
    "latitude": "30.005164631491503",
    "geocoded_column": {
      "latitude": "30.005164631491503",
      "longitude": "-90.0620340904517"
    }
  },
  {
    "service_request": "2023-983836",
    "request_type": "Trash/Recycling",
    "request_reason": "Order Trash Cart",
    "date_created": "2023-03-17T15:12:47.000",
    "date_modified": "2023-03-17T15:12:48.000",
    "request_status": "Pending",
    "responsible_agency": "Department of Sanitation",
    "final_address": "2641 Chelsea Dr",
    "address_councildis": "C",
    "status": "Assigned to Contractor",
    "contractor": "Richards Disposal",
    "rowid": "983836",
    "final_x": "3704163.19018",
    "final_y": "521316.985593",
    "longitude": "-89.99688444450369",
    "latitude": "29.926733428132295",
    "geocoded_column": {
      "latitude": "29.926733428132295",
      "longitude": "-89.99688444450369"
    }
  },
  {
    "service_request": "2023-983833",
    "request_type": "Traffic Signals/Signs/Striping/Streetlights",
    "request_reason": "Street Light Outage/Malfunction",
    "date_created": "2023-03-17T15:08:57.000",
    "date_modified": "2023-03-17T15:08:58.000",
    "request_status": "Pending",
    "responsible_agency": "Department of Public Works",
    "final_address": "2336 Odin St",
    "address_councildis": "D",
    "status": "Assigned to Contractor",
    "contractor": "Legacy Professional Services",
    "rowid": "983833",
    "final_x": "3684738.79823",
    "final_y": "553088.226839",
    "longitude": "-90.05708482459463",
    "latitude": "30.014701944550804",
    "geocoded_column": {
      "latitude": "30.014701944550804",
      "longitude": "-90.05708482459463"
    }
  },
  {
    "service_request": "2023-983832",
    "request_type": "Traffic Signals/Signs/Striping/Streetlights",
    "request_reason": "Street Light Outage/Malfunction",
    "date_created": "2023-03-17T15:07:54.000",
    "date_modified": "2023-03-17T15:07:55.000",
    "request_status": "Pending",
    "responsible_agency": "Department of Public Works",
    "final_address": "2304 Odin St",
    "address_councildis": "D",
    "status": "Assigned to Contractor",
    "contractor": "Legacy Professional Services",
    "rowid": "983832",
    "final_x": "3684484.97269",
    "final_y": "553067.841943",
    "longitude": "-90.05788750565854",
    "latitude": "30.01465366469353",
    "geocoded_column": {
      "latitude": "30.01465366469353",
      "longitude": "-90.05788750565854"
    }
  },
  {
    "service_request": "2023-983831",
    "request_type": "Trash/Recycling",
    "request_reason": "Request a Large Item Pick Up",
    "date_created": "2023-03-17T15:03:16.000",
    "date_modified": "2023-03-17T15:04:05.000",
    "request_status": "Pending",
    "responsible_agency": "Department of Sanitation",
    "final_address": "2110 Marais St",
    "address_councildis": "C",
    "status": "Assigned to Contractor",
    "contractor": "IV Waste",
    "rowid": "983831",
    "final_x": "3684670.90044",
    "final_y": "536608.611079",
    "longitude": "-90.0578789210821",
    "latitude": "29.969390953617566",
    "geocoded_column": {
      "latitude": "29.969390953617566",
      "longitude": "-90.0578789210821"
    }
  },
  {
    "service_request": "2023-983826",
    "request_type": "Roads/Drainage",
    "request_reason": "Pothole",
    "date_created": "2023-03-17T14:59:55.000",
    "date_modified": "2023-03-17T14:59:55.000",
    "request_status": "Pending",
    "responsible_agency": "Department of Public Works",
    "final_address": "2905 Grand Route St John St",
    "address_councildis": "A",
    "status": "Pending",
    "rowid": "983826",
    "final_x": "3677654.64981",
    "final_y": "540376.041995",
    "longitude": "-90.07990665975825",
    "latitude": "29.979962975101586",
    "geocoded_column": {
      "latitude": "29.979962975101586",
      "longitude": "-90.07990665975825"
    }
  },
  {
    "service_request": "2023-983825",
    "request_type": "Mosquito, Termite & Rodent Control",
    "request_reason": "Rodent Complaint (Rats)",
    "date_created": "2023-03-17T14:58:54.000",
    "date_modified": "2023-03-17T14:58:55.000",
    "request_status": "Pending",
    "responsible_agency": "Mosquito, Termite & Rodent Control Board",
    "final_address": "1201 Bienville St Apt 101",
    "address_councildis": "C",
    "status": "Pending",
    "rowid": "983825",
    "final_x": "3680214.96136",
    "final_y": "532455.287812",
    "longitude": "-90.07209550229297",
    "latitude": "29.958106361958762",
    "geocoded_column": {
      "latitude": "29.958106361958762",
      "longitude": "-90.07209550229297"
    }
  },
  {
    "service_request": "2023-983824",
    "request_type": "Trash/Recycling",
    "request_reason": "Replace Trash Cart",
    "date_created": "2023-03-17T14:54:08.000",
    "date_modified": "2023-03-17T14:54:43.000",
    "request_status": "Pending",
    "responsible_agency": "Department of Sanitation",
    "final_address": "126 14Th St",
    "address_councildis": "A",
    "status": "Assigned to Contractor",
    "contractor": "IV Waste",
    "rowid": "983824",
    "final_x": "3665846.88295",
    "final_y": "548046.549266",
    "longitude": "-90.1169434439851",
    "latitude": "30.001404133369967",
    "geocoded_column": {
      "latitude": "30.001404133369967",
      "longitude": "-90.1169434439851"
    }
  },
  {
    "service_request": "2023-983823",
    "request_type": "Roads/Drainage",
    "request_reason": "Catch Basin - Clogged",
    "date_created": "2023-03-17T14:50:45.000",
    "date_modified": "2023-03-17T14:50:45.000",
    "request_status": "Pending",
    "responsible_agency": "Department of Public Works",
    "final_address": "235 Burgundy St",
    "address_councildis": "C",
    "status": "Pending",
    "rowid": "983823",
    "final_x": "3680751.97384",
    "final_y": "531921.584643",
    "longitude": "-90.07041834146803",
    "latitude": "29.95662259522551",
    "geocoded_column": {
      "latitude": "29.95662259522551",
      "longitude": "-90.07041834146803"
    }
  },
  {
    "service_request": "2023-983822",
    "request_type": "Trash/Recycling",
    "request_reason": "Missed Trash Pick-Up",
    "date_created": "2023-03-17T14:40:22.000",
    "date_modified": "2023-03-17T14:40:23.000",
    "request_status": "Pending",
    "responsible_agency": "Department of Sanitation",
    "final_address": "4711 Bonita Dr",
    "address_councildis": "E",
    "status": "Assigned to Contractor",
    "contractor": "Waste Pro",
    "rowid": "983822",
    "final_x": "3704541.14084",
    "final_y": "555053.288281",
    "longitude": "-89.99444698501502",
    "latitude": "30.019483783019453",
    "geocoded_column": {
      "latitude": "30.019483783019453",
      "longitude": "-89.99444698501502"
    }
  },
  {
    "service_request": "2023-983821",
    "request_type": "Tax and Revenue",
    "request_reason": "Sales Tax Question",
    "date_created": "2023-03-17T14:39:31.000",
    "date_modified": "2023-03-17T14:39:32.000",
    "request_status": "Pending",
    "responsible_agency": "Bureau of Revenue",
    "status": "Pending",
    "rowid": "983821",
    "longitude": "0.0",
    "latitude": "0.0",
    "geocoded_column": {
      "latitude": "0.0",
      "longitude": "0.0"
    }
  },
  {
    "service_request": "2023-983820",
    "request_type": "Trash/Recycling",
    "request_reason": "Order Recycling Cart",
    "date_created": "2023-03-17T14:37:35.000",
    "date_modified": "2023-03-17T14:37:35.000",
    "request_status": "Pending",
    "responsible_agency": "Department of Sanitation",
    "final_address": "7617 Dogwood Dr",
    "address_councildis": "E",
    "status": "Pending",
    "rowid": "983820",
    "final_x": "3701347.7377",
    "final_y": "561070.971486",
    "longitude": "-90.00431646798161",
    "latitude": "30.036132302018615",
    "geocoded_column": {
      "latitude": "30.036132302018615",
      "longitude": "-90.00431646798161"
    }
  },
  {
    "service_request": "2023-983819",
    "request_type": "Roads/Drainage",
    "request_reason": "Catch Basin - Clogged",
    "date_created": "2023-03-17T14:36:30.000",
    "date_modified": "2023-03-17T14:36:30.000",
    "request_status": "Pending",
    "responsible_agency": "Department of Public Works",
    "final_address": "4100 St Charles Ave",
    "address_councildis": "B",
    "status": "Pending",
    "rowid": "983819",
    "final_x": "3671889.68308",
    "final_y": "520870.924729",
    "longitude": "-90.09877860355118",
    "latitude": "29.92650248798185",
    "geocoded_column": {
      "latitude": "29.92650248798185",
      "longitude": "-90.09877860355118"
    }
  },
  {
    "service_request": "2023-983817",
    "request_type": "Trash/Recycling",
    "request_reason": "Missed Trash Pick-Up",
    "date_created": "2023-03-17T14:20:40.000",
    "date_modified": "2023-03-17T14:20:40.000",
    "request_status": "Pending",
    "responsible_agency": "Department of Sanitation",
    "final_address": "3635 Napoleon Ave",
    "address_councildis": "B",
    "status": "Assigned to Contractor",
    "contractor": "Richards Disposal",
    "rowid": "983817",
    "final_x": "3670228.19239",
    "final_y": "528065.901759",
    "longitude": "-90.10377976396077",
    "latitude": "29.94633547151061",
    "geocoded_column": {
      "latitude": "29.94633547151061",
      "longitude": "-90.10377976396077"
    }
  },
  {
    "service_request": "2023-983816",
    "request_type": "Trash/Recycling",
    "request_reason": "Order Recycling Cart",
    "date_created": "2023-03-17T14:19:55.000",
    "date_modified": "2023-03-17T14:19:55.000",
    "request_status": "Pending",
    "responsible_agency": "Department of Sanitation",
    "final_address": "5107 Venus St",
    "address_councildis": "D",
    "status": "Pending",
    "rowid": "983816",
    "final_x": "3686490.19644",
    "final_y": "551663.743317",
    "longitude": "-90.05160161338563",
    "latitude": "30.01073138292729",
    "geocoded_column": {
      "latitude": "30.01073138292729",
      "longitude": "-90.05160161338563"
    }
  },
  {
    "service_request": "2023-983815",
    "request_type": "Trash/Recycling",
    "request_reason": "Order Trash Cart",
    "date_created": "2023-03-17T14:15:55.000",
    "date_modified": "2023-03-17T14:15:56.000",
    "request_status": "Pending",
    "responsible_agency": "Department of Sanitation",
    "final_address": "7561 Stonewood St",
    "address_councildis": "E",
    "status": "Assigned to Contractor",
    "contractor": "Waste Pro",
    "rowid": "983815",
    "final_x": "3719802.56953",
    "final_y": "572318.573673",
    "longitude": "-89.94556589294683",
    "latitude": "30.06645708905268",
    "geocoded_column": {
      "latitude": "30.06645708905268",
      "longitude": "-89.94556589294683"
    }
  },
  {
    "service_request": "2023-983814",
    "request_type": "Tax and Revenue",
    "request_reason": "General Tax Question",
    "date_created": "2023-03-17T14:13:06.000",
    "date_modified": "2023-03-17T14:13:06.000",
    "request_status": "Pending",
    "responsible_agency": "Bureau of Revenue",
    "status": "Pending",
    "rowid": "983814",
    "longitude": "0.0",
    "latitude": "0.0",
    "geocoded_column": {
      "latitude": "0.0",
      "longitude": "0.0"
    }
  },
  {
    "service_request": "2023-983813",
    "request_type": "Trash/Recycling",
    "request_reason": "MIssed Recycling Pick-Up",
    "date_created": "2023-03-17T14:11:01.000",
    "date_modified": "2023-03-17T14:11:02.000",
    "request_status": "Pending",
    "responsible_agency": "Department of Sanitation",
    "final_address": "3823 Chestnut St",
    "address_councildis": "B",
    "status": "Assigned to Contractor",
    "contractor": "Richards Disposal",
    "rowid": "983813",
    "final_x": "3673007.91003",
    "final_y": "519777.355768",
    "longitude": "-90.09528596337066",
    "latitude": "29.923462348557187",
    "geocoded_column": {
      "latitude": "29.923462348557187",
      "longitude": "-90.09528596337066"
    }
  },
  {
    "service_request": "2023-983812",
    "request_type": "Trash/Recycling",
    "request_reason": "Return Trash Cart",
    "date_created": "2023-03-17T14:01:53.000",
    "date_modified": "2023-03-17T14:01:54.000",
    "request_status": "Pending",
    "responsible_agency": "Department of Sanitation",
    "final_address": "6872 Mayo Rd",
    "address_councildis": "E",
    "status": "Assigned to Contractor",
    "contractor": "Waste Pro",
    "rowid": "983812",
    "final_x": "3701796.42244",
    "final_y": "557670.553435",
    "longitude": "-90.0030233069072",
    "latitude": "30.026768154926316",
    "geocoded_column": {
      "latitude": "30.026768154926316",
      "longitude": "-90.0030233069072"
    }
  },
  {
    "service_request": "2023-983811",
    "request_type": "Trash/Recycling",
    "request_reason": "Request a Large Item Pick Up",
    "date_created": "2023-03-17T14:01:38.000",
    "date_modified": "2023-03-17T14:01:39.000",
    "request_status": "Pending",
    "responsible_agency": "Department of Sanitation",
    "final_address": "4650 Knight Dr",
    "address_councildis": "E",
    "status": "Assigned to Contractor",
    "contractor": "Waste Pro",
    "rowid": "983811",
    "final_x": "3708120.95704",
    "final_y": "554951.786712",
    "longitude": "-89.98313984369432",
    "latitude": "30.019089192317633",
    "geocoded_column": {
      "latitude": "30.019089192317633",
      "longitude": "-89.98313984369432"
    }
  },
  {
    "service_request": "2023-983810",
    "request_type": "Roads/Drainage",
    "request_reason": "Damaged Sidewalk",
    "date_created": "2023-03-17T14:00:27.000",
    "date_modified": "2023-03-17T14:00:27.000",
    "request_status": "Pending",
    "responsible_agency": "Department of Public Works",
    "final_address": "4911 Magnolia St, New Orleans, Louisiana, 70115",
    "address_councildis": "B",
    "status": "Pending",
    "rowid": "983810",
    "final_x": "3669089.46644",
    "final_y": "524648.525436",
    "longitude": "-90.10749056344149",
    "latitude": "29.936972342251075",
    "geocoded_column": {
      "latitude": "29.936972342251075",
      "longitude": "-90.10749056344149"
    }
  },
  {
    "service_request": "2023-983809",
    "request_type": "Roads/Drainage",
    "request_reason": "Catch Basin - Clogged",
    "date_created": "2023-03-17T13:57:20.000",
    "date_modified": "2023-03-17T13:57:20.000",
    "request_status": "Pending",
    "responsible_agency": "Department of Public Works",
    "final_address": "2612 S Carrollton Ave",
    "address_councildis": "A",
    "status": "Pending",
    "rowid": "983809",
    "final_x": "3665424.58778",
    "final_y": "532200.644547",
    "longitude": "-90.1188081134764",
    "latitude": "29.957845530775696",
    "geocoded_column": {
      "latitude": "29.957845530775696",
      "longitude": "-90.1188081134764"
    }
  },
  {
    "service_request": "2023-983808",
    "request_type": "Property Maintenance",
    "request_reason": "Property Maintenance",
    "date_created": "2023-03-17T13:56:07.000",
    "date_modified": "2023-03-17T13:56:07.000",
    "request_status": "Pending",
    "responsible_agency": "Department of Code Enforcement",
    "final_address": "3211 Bienville St, New Orleans, Louisiana, 70119",
    "status": "Pending",
    "rowid": "983808",
    "longitude": "0.0",
    "latitude": "0.0",
    "geocoded_column": {
      "latitude": "0.0",
      "longitude": "0.0"
    }
  },
  {
    "service_request": "2023-983807",
    "request_type": "Roads/Drainage",
    "request_reason": "Damaged Sidewalk",
    "date_created": "2023-03-17T13:54:20.000",
    "date_modified": "2023-03-17T13:55:38.000",
    "request_status": "Closed",
    "responsible_agency": "Department of Public Works",
    "final_address": "4911 Magnolia St",
    "address_councildis": "B",
    "status": "Referred to External Agency",
    "rowid": "983807",
    "final_x": "3669089.46644",
    "final_y": "524648.525436",
    "longitude": "-90.10749056344149",
    "latitude": "29.936972342251075",
    "geocoded_column": {
      "latitude": "29.936972342251075",
      "longitude": "-90.10749056344149"
    }
  },
  {
    "service_request": "2023-983806",
    "request_type": "Abandoned Vehicles",
    "request_reason": "Abandoned/Junk Vehicles",
    "date_created": "2023-03-17T13:54:13.000",
    "date_modified": "2023-03-17T13:54:13.000",
    "request_status": "Pending",
    "responsible_agency": "Department of Public Works",
    "final_address": "2801 N Robertson St",
    "address_councildis": "C",
    "status": "Pending",
    "rowid": "983806",
    "final_x": "3688151.11651",
    "final_y": "537835.847241",
    "longitude": "-90.04684463737789",
    "latitude": "29.97265844513969",
    "geocoded_column": {
      "latitude": "29.97265844513969",
      "longitude": "-90.04684463737789"
    }
  },
  {
    "service_request": "2023-983805",
    "request_type": "Trash/Recycling",
    "request_reason": "MIssed Recycling Pick-Up",
    "date_created": "2023-03-17T13:50:42.000",
    "date_modified": "2023-03-17T13:50:43.000",
    "request_status": "Pending",
    "responsible_agency": "Department of Sanitation",
    "final_address": "4710 Congress Dr",
    "address_councildis": "D",
    "status": "Assigned to Contractor",
    "contractor": "IV Waste",
    "rowid": "983805",
    "final_x": "3692278.53501",
    "final_y": "551587.528725",
    "longitude": "-90.03331680794699",
    "latitude": "30.0103425171997",
    "geocoded_column": {
      "latitude": "30.0103425171997",
      "longitude": "-90.03331680794699"
    }
  },
  {
    "service_request": "2023-983804",
    "request_type": "Trash/Recycling",
    "request_reason": "Missed Trash Pick-Up",
    "date_created": "2023-03-17T13:46:42.000",
    "date_modified": "2023-03-17T13:46:42.000",
    "request_status": "Pending",
    "responsible_agency": "Department of Sanitation",
    "final_address": "3100 BLK Toledano St",
    "address_councildis": "B",
    "status": "Assigned to Contractor",
    "contractor": "Richards Disposal",
    "rowid": "983804",
    "final_x": "3672308.95292",
    "final_y": "527222.608072",
    "longitude": "-90.09723878388236",
    "latitude": "29.9439551320987",
    "geocoded_column": {
      "latitude": "29.9439551320987",
      "longitude": "-90.09723878388236"
    }
  },
  {
    "service_request": "2023-983803",
    "request_type": "Roads/Drainage",
    "request_reason": "Catch Basin - Clogged",
    "date_created": "2023-03-17T13:42:02.000",
    "date_modified": "2023-03-17T13:42:02.000",
    "request_status": "Pending",
    "responsible_agency": "Department of Public Works",
    "final_address": "3035 St Ann St",
    "address_councildis": "A",
    "status": "Pending",
    "rowid": "983803",
    "final_x": "3675728.96865",
    "final_y": "538172.990089",
    "longitude": "-90.08606450582366",
    "latitude": "29.973963118012602",
    "geocoded_column": {
      "latitude": "29.973963118012602",
      "longitude": "-90.08606450582366"
    }
  },
  {
    "service_request": "2023-983802",
    "request_type": "Roads/Drainage",
    "request_reason": "Catch Basin - Clogged",
    "date_created": "2023-03-17T13:39:15.000",
    "date_modified": "2023-03-17T14:18:38.000",
    "request_status": "Pending",
    "responsible_agency": "Department of Public Works",
    "final_address": "4628 Prentiss Ave",
    "address_councildis": "D",
    "status": "Inspected",
    "rowid": "983802",
    "final_x": "3690869.31747",
    "final_y": "554199.019992",
    "longitude": "-90.03767574602473",
    "latitude": "30.017567036437057",
    "geocoded_column": {
      "latitude": "30.017567036437057",
      "longitude": "-90.03767574602473"
    }
  },
  {
    "service_request": "2023-983801",
    "request_type": "Roads/Drainage",
    "request_reason": "Street Subsidence (Sinking)",
    "date_created": "2023-03-17T13:37:32.000",
    "date_modified": "2023-03-17T13:37:32.000",
    "request_status": "Pending",
    "responsible_agency": "Department of Public Works",
    "final_address": "1120 Freret St",
    "address_councildis": "B",
    "status": "Pending",
    "rowid": "983801",
    "final_x": "3677071.57192",
    "final_y": "528227.27776",
    "longitude": "-90.0821672414054",
    "latitude": "29.946575510204024",
    "geocoded_column": {
      "latitude": "29.946575510204024",
      "longitude": "-90.0821672414054"
    }
  },
  {
    "service_request": "2023-983800",
    "request_type": "Trash/Recycling",
    "request_reason": "Missed Trash Pick-Up",
    "date_created": "2023-03-17T13:36:00.000",
    "date_modified": "2023-03-17T13:36:01.000",
    "request_status": "Pending",
    "responsible_agency": "Department of Sanitation",
    "final_address": "1315 Exposition Blvd",
    "address_councildis": "A",
    "status": "Assigned to Contractor",
    "contractor": "Richards Disposal",
    "rowid": "983800",
    "final_x": "3663926.68647",
    "final_y": "521499.865593",
    "longitude": "-90.12389473459156",
    "latitude": "29.92846538485931",
    "geocoded_column": {
      "latitude": "29.92846538485931",
      "longitude": "-90.12389473459156"
    }
  },
  {
    "service_request": "2023-983799",
    "request_type": "Trash/Recycling",
    "request_reason": "Order Recycling Cart",
    "date_created": "2023-03-17T13:31:53.000",
    "date_modified": "2023-03-17T13:31:53.000",
    "request_status": "Pending",
    "responsible_agency": "Department of Sanitation",
    "final_address": "417 Warrington Dr",
    "address_councildis": "D",
    "status": "Pending",
    "rowid": "983799",
    "final_x": "3681561.27669",
    "final_y": "548326.51285",
    "longitude": "-90.06729047194948",
    "latitude": "30.00170587900364",
    "geocoded_column": {
      "latitude": "30.00170587900364",
      "longitude": "-90.06729047194948"
    }
  },
  {
    "service_request": "2023-983798",
    "request_type": "Tax and Revenue",
    "request_reason": "Sales Tax Question",
    "date_created": "2023-03-17T13:29:56.000",
    "date_modified": "2023-03-17T13:29:56.000",
    "request_status": "Pending",
    "responsible_agency": "Bureau of Revenue",
    "status": "Pending",
    "rowid": "983798",
    "longitude": "0.0",
    "latitude": "0.0",
    "geocoded_column": {
      "latitude": "0.0",
      "longitude": "0.0"
    }
  },
  {
    "service_request": "2023-983797",
    "request_type": "Parks & Parkways",
    "request_reason": "Tree Stump (removal, grind)",
    "date_created": "2023-03-17T13:27:00.000",
    "date_modified": "2023-03-17T13:27:00.000",
    "request_status": "Pending",
    "responsible_agency": "Department of Parks & Parkway",
    "final_address": "527 Octavia St",
    "address_councildis": "A",
    "status": "Pending",
    "rowid": "983797",
    "final_x": "3666317.9314",
    "final_y": "518098.719414",
    "longitude": "-90.11646008264077",
    "latitude": "29.9190436862832",
    "geocoded_column": {
      "latitude": "29.9190436862832",
      "longitude": "-90.11646008264077"
    }
  },
  {
    "service_request": "2023-983796",
    "request_type": "Parks & Parkways",
    "request_reason": "Request Tree Service (Right of Way/Public Property)",
    "date_created": "2023-03-17T13:26:07.000",
    "date_modified": "2023-03-17T13:26:07.000",
    "request_status": "Pending",
    "responsible_agency": "Department of Parks & Parkway",
    "final_address": "1426 S Carrollton Ave",
    "address_councildis": "A",
    "status": "Pending",
    "rowid": "983796",
    "final_x": "3662587.85255",
    "final_y": "529083.742976",
    "longitude": "-90.12786930137204",
    "latitude": "29.949357429410767",
    "geocoded_column": {
      "latitude": "29.949357429410767",
      "longitude": "-90.12786930137204"
    }
  },
  {
    "service_request": "2023-983794",
    "request_type": "Trash/Recycling",
    "request_reason": "Order Trash Cart",
    "date_created": "2023-03-17T13:18:10.000",
    "date_modified": "2023-03-17T13:18:10.000",
    "request_status": "Pending",
    "responsible_agency": "Department of Sanitation",
    "final_address": "7809 Doyle Ct",
    "address_councildis": "E",
    "status": "Assigned to Contractor",
    "contractor": "Waste Pro",
    "rowid": "983794",
    "final_x": "3700386.57943",
    "final_y": "561294.306398",
    "longitude": "-90.00734572657964",
    "latitude": "30.036777004205526",
    "geocoded_column": {
      "latitude": "30.036777004205526",
      "longitude": "-90.00734572657964"
    }
  },
  {
    "service_request": "2023-983793",
    "request_type": "Trash/Recycling",
    "request_reason": "Replace Trash Cart",
    "date_created": "2023-03-17T13:16:53.000",
    "date_modified": "2023-03-17T13:16:54.000",
    "request_status": "Pending",
    "responsible_agency": "Department of Sanitation",
    "final_address": "1811 Baronne St",
    "address_councildis": "B",
    "status": "Assigned to Contractor",
    "contractor": "Richards Disposal",
    "rowid": "983793",
    "final_x": "3677772.31406",
    "final_y": "525124.958653",
    "longitude": "-90.08006188182834",
    "latitude": "29.938024101706638",
    "geocoded_column": {
      "latitude": "29.938024101706638",
      "longitude": "-90.08006188182834"
    }
  },
  {
    "service_request": "2023-983792",
    "request_type": "Trash/Recycling",
    "request_reason": "Missed Trash Pick-Up",
    "date_created": "2023-03-17T13:14:30.000",
    "date_modified": "2023-03-17T13:40:43.000",
    "case_close_date": "2023-03-17T08:40:43.000",
    "request_status": "Closed",
    "responsible_agency": "Department of Sanitation",
    "final_address": "5176 Feliciana Dr",
    "address_councildis": "D",
    "status": "Assigned to Contractor",
    "contractor": "IV Waste",
    "contractor_action": "Completed",
    "rowid": "983792",
    "final_x": "3689916.23536",
    "final_y": "552606.19631",
    "longitude": "-90.04074387157519",
    "latitude": "30.013216960009146",
    "geocoded_column": {
      "latitude": "30.013216960009146",
      "longitude": "-90.04074387157519"
    }
  },
  {
    "service_request": "2023-983791",
    "request_type": "Trash/Recycling",
    "request_reason": "Missed Trash Pick-Up",
    "date_created": "2023-03-17T13:11:15.000",
    "date_modified": "2023-03-17T13:11:16.000",
    "request_status": "Pending",
    "responsible_agency": "Department of Sanitation",
    "final_address": "1914 Magazine St, New Orleans, Louisiana, 70130",
    "address_councildis": "B",
    "status": "Assigned to Contractor",
    "contractor": "Richards Disposal",
    "rowid": "983791",
    "final_x": "3679683.7124",
    "final_y": "522687.819514",
    "longitude": "-90.07411198752877",
    "latitude": "29.931265149568254",
    "geocoded_column": {
      "latitude": "29.931265149568254",
      "longitude": "-90.07411198752877"
    }
  },
  {
    "service_request": "2023-983790",
    "request_type": "Trash/Recycling",
    "request_reason": "Order Recycling Cart",
    "date_created": "2023-03-17T13:10:41.000",
    "date_modified": "2023-03-17T13:10:41.000",
    "request_status": "Pending",
    "responsible_agency": "Department of Sanitation",
    "final_address": "7809 Doyle Ct",
    "address_councildis": "E",
    "status": "Pending",
    "rowid": "983790",
    "final_x": "3700386.57943",
    "final_y": "561294.306398",
    "longitude": "-90.00734572657964",
    "latitude": "30.036777004205526",
    "geocoded_column": {
      "latitude": "30.036777004205526",
      "longitude": "-90.00734572657964"
    }
  },
  {
    "service_request": "2023-983788",
    "request_type": "Trash/Recycling",
    "request_reason": "Illegal Dumping",
    "date_created": "2023-03-17T13:03:49.000",
    "date_modified": "2023-03-17T13:03:49.000",
    "request_status": "Pending",
    "responsible_agency": "Department of Sanitation",
    "final_address": "407 Decatur St",
    "address_councildis": "C",
    "status": "Pending",
    "rowid": "983788",
    "final_x": "3682508.81717",
    "final_y": "531196.904066",
    "longitude": "-90.06489613715388",
    "latitude": "29.954576610090637",
    "geocoded_column": {
      "latitude": "29.954576610090637",
      "longitude": "-90.06489613715388"
    }
  },
  {
    "service_request": "2023-983787",
    "request_type": "Roads/Drainage",
    "request_reason": "Catch Basin - Clogged",
    "date_created": "2023-03-17T13:03:17.000",
    "date_modified": "2023-03-17T14:57:54.000",
    "request_status": "Pending",
    "responsible_agency": "Department of Public Works",
    "final_address": "4520 Elysian Fields Ave",
    "address_councildis": "D",
    "status": "Inspected",
    "rowid": "983787",
    "final_x": "3683844.62671",
    "final_y": "549396.330451",
    "longitude": "-90.06003958902981",
    "latitude": "30.00457792415666",
    "geocoded_column": {
      "latitude": "30.00457792415666",
      "longitude": "-90.06003958902981"
    }
  },
  {
    "service_request": "2023-983786",
    "request_type": "Trash/Recycling",
    "request_reason": "Illegal Dumping",
    "date_created": "2023-03-17T13:00:54.000",
    "date_modified": "2023-03-17T18:23:29.000",
    "case_close_date": "2023-03-17T13:23:29.000",
    "request_status": "Closed",
    "responsible_agency": "Department of Sanitation",
    "final_address": "1222 Decatur St",
    "address_councildis": "C",
    "status": "Resolved",
    "rowid": "983786",
    "final_x": "3684434.26556",
    "final_y": "533553.294405",
    "longitude": "-90.05873356357827",
    "latitude": "29.96099712831933",
    "geocoded_column": {
      "latitude": "29.96099712831933",
      "longitude": "-90.05873356357827"
    }
  },
  {
    "service_request": "2023-983785",
    "request_type": "Trash/Recycling",
    "request_reason": "Request a Large Item Pick Up",
    "date_created": "2023-03-17T13:00:42.000",
    "date_modified": "2023-03-17T13:00:44.000",
    "request_status": "Pending",
    "responsible_agency": "Department of Sanitation",
    "final_address": "9211 Stroelitz St",
    "address_councildis": "A",
    "status": "Assigned to Contractor",
    "contractor": "Richards Disposal",
    "rowid": "983785",
    "final_x": "3665023.71341",
    "final_y": "537719.977352",
    "longitude": "-90.11988939785539",
    "latitude": "29.973033555058407",
    "geocoded_column": {
      "latitude": "29.973033555058407",
      "longitude": "-90.11988939785539"
    }
  },
  {
    "service_request": "2023-983784",
    "request_type": "Trash/Recycling",
    "request_reason": "Dead Animal Pick Up",
    "date_created": "2023-03-17T12:58:53.000",
    "date_modified": "2023-03-17T12:59:24.000",
    "case_close_date": "2023-03-17T07:59:24.000",
    "request_status": "Closed",
    "responsible_agency": "Department of Sanitation",
    "final_address": "520 Royal St",
    "address_councildis": "C",
    "status": "Assigned to Contractor",
    "contractor": "Empire Services",
    "contractor_action": "Completed",
    "rowid": "983784",
    "final_x": "3682235.7405",
    "final_y": "531999.850627",
    "longitude": "-90.06573035805727",
    "latitude": "29.956792749551518",
    "geocoded_column": {
      "latitude": "29.956792749551518",
      "longitude": "-90.06573035805727"
    }
  },
  {
    "service_request": "2023-983783",
    "request_type": "Trash/Recycling",
    "request_reason": "Order Trash Cart",
    "date_created": "2023-03-17T12:54:43.000",
    "date_modified": "2023-03-17T12:54:44.000",
    "request_status": "Pending",
    "responsible_agency": "Department of Sanitation",
    "final_address": "5110 Press Dr",
    "address_councildis": "D",
    "status": "Assigned to Contractor",
    "contractor": "IV Waste",
    "rowid": "983783",
    "final_x": "3689290.60713",
    "final_y": "552190.397078",
    "longitude": "-90.04273531408613",
    "latitude": "30.012093056339886",
    "geocoded_column": {
      "latitude": "30.012093056339886",
      "longitude": "-90.04273531408613"
    }
  },
  {
    "service_request": "2023-983780",
    "request_type": "Trash/Recycling",
    "request_reason": "Start Trash Service",
    "date_created": "2023-03-17T12:48:19.000",
    "date_modified": "2023-03-17T13:02:18.000",
    "case_close_date": "2023-03-17T08:02:18.000",
    "request_status": "Closed",
    "responsible_agency": "Department of Sanitation",
    "final_address": "1136 Decatur street",
    "address_councildis": "C",
    "status": "Assigned to Contractor",
    "contractor": "Empire Services",
    "contractor_action": "Completed",
    "rowid": "983780",
    "final_x": "3684249.04399",
    "final_y": "533366.790084",
    "longitude": "-90.05932500616495",
    "latitude": "29.960489969448492",
    "geocoded_column": {
      "latitude": "29.960489969448492",
      "longitude": "-90.05932500616495"
    }
  },
  {
    "service_request": "2023-983779",
    "request_type": "Trash/Recycling",
    "request_reason": "Request a Large Item Pick Up",
    "date_created": "2023-03-17T12:48:00.000",
    "date_modified": "2023-03-17T12:49:58.000",
    "case_close_date": "2023-03-17T07:49:58.000",
    "request_status": "Closed",
    "responsible_agency": "Department of Sanitation",
    "final_address": "4805 Annette St",
    "address_councildis": "D",
    "status": "Assigned to Contractor",
    "contractor": "IV Waste",
    "contractor_action": "Completed",
    "rowid": "983779",
    "final_x": "3682060.10287",
    "final_y": "550204.21154",
    "longitude": "-90.06564900409558",
    "latitude": "30.006853711624547",
    "geocoded_column": {
      "latitude": "30.006853711624547",
      "longitude": "-90.06564900409558"
    }
  },
  {
    "service_request": "2023-983778",
    "request_type": "Trash/Recycling",
    "request_reason": "Order Recycling Cart",
    "date_created": "2023-03-17T12:46:27.000",
    "date_modified": "2023-03-17T12:46:28.000",
    "request_status": "Pending",
    "responsible_agency": "Department of Sanitation",
    "final_address": "1743 Shirley Dr",
    "address_councildis": "C",
    "status": "Pending",
    "rowid": "983778",
    "final_x": "3692906.51773",
    "final_y": "523638.638203",
    "longitude": "-90.0323353595867",
    "latitude": "29.933473394953786",
    "geocoded_column": {
      "latitude": "29.933473394953786",
      "longitude": "-90.0323353595867"
    }
  },
  {
    "service_request": "2023-983777",
    "request_type": "Roads/Drainage",
    "request_reason": "Catch Basin - Clogged",
    "date_created": "2023-03-17T12:45:58.000",
    "date_modified": "2023-03-17T12:45:58.000",
    "request_status": "Pending",
    "responsible_agency": "Department of Public Works",
    "final_address": "606 Harrison Ave",
    "address_councildis": "A",
    "status": "Pending",
    "rowid": "983777",
    "final_x": "3668352.05524",
    "final_y": "549182.465875",
    "longitude": "-90.1089910025032",
    "latitude": "30.00445414702331",
    "geocoded_column": {
      "latitude": "30.00445414702331",
      "longitude": "-90.1089910025032"
    }
  },
  {
    "service_request": "2023-983776",
    "request_type": "Roads/Drainage",
    "request_reason": "Street Flooding / Drainage",
    "date_created": "2023-03-17T12:43:36.000",
    "date_modified": "2023-03-17T12:43:37.000",
    "request_status": "Pending",
    "responsible_agency": "Department of Public Works",
    "final_address": "706 Dumaine St",
    "address_councildis": "C",
    "status": "Pending",
    "rowid": "983776",
    "final_x": "3682927.6276",
    "final_y": "533067.515076",
    "longitude": "-90.06350824047286",
    "latitude": "29.959707398027366",
    "geocoded_column": {
      "latitude": "29.959707398027366",
      "longitude": "-90.06350824047286"
    }
  },
  {
    "service_request": "2023-983775",
    "request_type": "Roads/Drainage",
    "request_reason": "Street Subsidence (Sinking)",
    "date_created": "2023-03-17T12:39:41.000",
    "date_modified": "2023-03-17T14:02:00.000",
    "case_close_date": "2023-03-17T09:02:00.000",
    "request_status": "Closed",
    "responsible_agency": "Department of Public Works",
    "final_address": "2'",
    "status": "Resolved",
    "rowid": "983775",
    "longitude": "0.0",
    "latitude": "0.0",
    "geocoded_column": {
      "latitude": "0.0",
      "longitude": "0.0"
    }
  },
  {
    "service_request": "2023-983774",
    "request_type": "Roads/Drainage",
    "request_reason": "Catch Basin - Clogged",
    "date_created": "2023-03-17T12:39:37.000",
    "date_modified": "2023-03-17T15:19:36.000",
    "request_status": "Pending",
    "responsible_agency": "Department of Public Works",
    "final_address": "4524 Perlita St",
    "address_councildis": "D",
    "status": "Inspected",
    "rowid": "983774",
    "final_x": "3678656.25013",
    "final_y": "549305.542227",
    "longitude": "-90.07643382452284",
    "latitude": "30.00448579879289",
    "geocoded_column": {
      "latitude": "30.00448579879289",
      "longitude": "-90.07643382452284"
    }
  },
  {
    "service_request": "2023-983773",
    "request_type": "Trash/Recycling",
    "request_reason": "Missed Trash Pick-Up",
    "date_created": "2023-03-17T12:39:35.000",
    "date_modified": "2023-03-17T12:39:36.000",
    "request_status": "Pending",
    "responsible_agency": "Department of Sanitation",
    "final_address": "1008 Marengo St A",
    "address_councildis": "B",
    "status": "Assigned to Contractor",
    "contractor": "Richards Disposal",
    "rowid": "983773",
    "final_x": "3672067.19086",
    "final_y": "519349.812727",
    "longitude": "-90.09827001576899",
    "latitude": "29.922314656421232",
    "geocoded_column": {
      "latitude": "29.922314656421232",
      "longitude": "-90.09827001576899"
    }
  },
  {
    "service_request": "2023-983772",
    "request_type": "Roads/Drainage",
    "request_reason": "Ditch Issue",
    "date_created": "2023-03-17T12:37:18.000",
    "date_modified": "2023-03-17T12:37:18.000",
    "request_status": "Pending",
    "responsible_agency": "Department of Public Works",
    "final_address": "5400 Douglass Street",
    "address_councildis": "E",
    "status": "Pending",
    "rowid": "983772",
    "final_x": "3696661.06275",
    "final_y": "531767.824899",
    "longitude": "-90.0201884338796",
    "latitude": "29.955708079711844",
    "geocoded_column": {
      "latitude": "29.955708079711844",
      "longitude": "-90.0201884338796"
    }
  },
  {
    "service_request": "2023-983771",
    "request_type": "Trash/Recycling",
    "request_reason": "Repair Trash Cart",
    "date_created": "2023-03-17T12:36:37.000",
    "date_modified": "2023-03-17T12:36:38.000",
    "request_status": "Pending",
    "responsible_agency": "Department of Sanitation",
    "final_address": "2720 Laurel St",
    "address_councildis": "B",
    "status": "Assigned to Contractor",
    "contractor": "Richards Disposal",
    "rowid": "983771",
    "final_x": "3677584.73403",
    "final_y": "520248.909112",
    "longitude": "-90.08082236074216",
    "latitude": "29.924622199103336",
    "geocoded_column": {
      "latitude": "29.924622199103336",
      "longitude": "-90.08082236074216"
    }
  },
  {
    "service_request": "2023-983770",
    "request_type": "Roads/Drainage",
    "request_reason": "Catch Basin - Broken/Damage",
    "date_created": "2023-03-17T12:35:31.000",
    "date_modified": "2023-03-17T14:37:46.000",
    "case_close_date": "2023-03-17T09:37:46.000",
    "request_status": "Closed",
    "responsible_agency": "Department of Public Works",
    "final_address": "3025 Law St",
    "address_councildis": "D",
    "status": "Resolved",
    "rowid": "983770",
    "final_x": "3690136.71926",
    "final_y": "541802.513036",
    "longitude": "-90.04043240905",
    "latitude": "29.983503918690587",
    "geocoded_column": {
      "latitude": "29.983503918690587",
      "longitude": "-90.04043240905"
    }
  },
  {
    "service_request": "2023-983769",
    "request_type": "Trash/Recycling",
    "request_reason": "Repair Trash Cart",
    "date_created": "2023-03-17T12:32:48.000",
    "date_modified": "2023-03-17T15:01:24.000",
    "request_status": "Pending",
    "responsible_agency": "Department of Sanitation",
    "final_address": "3429 Elysian Fields Ave",
    "address_councildis": "D",
    "status": "Assigned to Contractor",
    "contractor": "IV Waste",
    "rowid": "983769",
    "final_x": "3684433.07663",
    "final_y": "545369.307088",
    "longitude": "-90.05832212778454",
    "latitude": "29.9934870625894",
    "geocoded_column": {
      "latitude": "29.9934870625894",
      "longitude": "-90.05832212778454"
    }
  },
  {
    "service_request": "2023-983768",
    "request_type": "Traffic Signals/Signs/Striping/Streetlights",
    "request_reason": "Traffic Sign Missing/Damaged",
    "date_created": "2023-03-17T12:30:39.000",
    "date_modified": "2023-03-17T12:30:39.000",
    "request_status": "Pending",
    "responsible_agency": "Department of Public Works",
    "final_address": "1128 Pauline St",
    "address_councildis": "C",
    "status": "Pending",
    "rowid": "983768",
    "final_x": "3691253.45635",
    "final_y": "535759.614599",
    "longitude": "-90.03712109271132",
    "latitude": "29.966853398999",
    "geocoded_column": {
      "latitude": "29.966853398999",
      "longitude": "-90.03712109271132"
    }
  },
  {
    "service_request": "2023-983767",
    "request_type": "Trash/Recycling",
    "request_reason": "Repair Trash Cart",
    "date_created": "2023-03-17T12:20:40.000",
    "date_modified": "2023-03-17T12:20:41.000",
    "request_status": "Pending",
    "responsible_agency": "Department of Sanitation",
    "final_address": "2235 Easter Ln",
    "address_councildis": "C",
    "status": "Assigned to Contractor",
    "contractor": "Richards Disposal",
    "rowid": "983767",
    "final_x": "3699189.4833",
    "final_y": "522948.767547",
    "longitude": "-90.0125256209518",
    "latitude": "29.93137883978189",
    "geocoded_column": {
      "latitude": "29.93137883978189",
      "longitude": "-90.0125256209518"
    }
  },
  {
    "service_request": "2023-983766",
    "request_type": "Abandoned Vehicles",
    "request_reason": "Abandoned/Junk Vehicles",
    "date_created": "2023-03-17T12:14:58.000",
    "date_modified": "2023-03-17T12:24:24.000",
    "request_status": "Pending",
    "responsible_agency": "Department of Public Works",
    "final_address": "1700 BLK Dumaine St",
    "address_councildis": "D",
    "status": "Pending",
    "rowid": "983766",
    "final_x": "3680037.85183",
    "final_y": "535314.272007",
    "longitude": "-90.07255543039558",
    "latitude": "29.96597295450027",
    "geocoded_column": {
      "latitude": "29.96597295450027",
      "longitude": "-90.07255543039558"
    }
  },
  {
    "service_request": "2023-983765",
    "request_type": "Trash/Recycling",
    "request_reason": "Request a Large Item Pick Up",
    "date_created": "2023-03-17T12:13:46.000",
    "date_modified": "2023-03-17T12:13:47.000",
    "request_status": "Pending",
    "responsible_agency": "Department of Sanitation",
    "final_address": "7810 Hampson St",
    "address_councildis": "A",
    "status": "Assigned to Contractor",
    "contractor": "Richards Disposal",
    "rowid": "983765",
    "final_x": "3661542.14022",
    "final_y": "526361.491198",
    "longitude": "-90.13126127045666",
    "latitude": "29.94190231400205",
    "geocoded_column": {
      "latitude": "29.94190231400205",
      "longitude": "-90.13126127045666"
    }
  },
  {
    "service_request": "2023-983764",
    "request_type": "Roads/Drainage",
    "request_reason": "Pothole",
    "date_created": "2023-03-17T12:01:10.000",
    "date_modified": "2023-03-17T12:01:10.000",
    "request_status": "Pending",
    "responsible_agency": "Department of Public Works",
    "final_address": "800 Richard St",
    "address_councildis": "B",
    "status": "Pending",
    "rowid": "983764",
    "final_x": "3680934.33077",
    "final_y": "522854.286523",
    "longitude": "-90.07015815244164",
    "latitude": "29.931685029148184",
    "geocoded_column": {
      "latitude": "29.931685029148184",
      "longitude": "-90.07015815244164"
    }
  },
  {
    "service_request": "2023-983763",
    "request_type": "Roads/Drainage",
    "request_reason": "Street Subsidence (Sinking)",
    "date_created": "2023-03-17T11:59:12.000",
    "date_modified": "2023-03-17T11:59:12.000",
    "request_status": "Pending",
    "responsible_agency": "Department of Public Works",
    "final_address": "1600 Annunciation St",
    "address_councildis": "B",
    "status": "Pending",
    "rowid": "983763",
    "final_x": "3680816.8548",
    "final_y": "522743.134778",
    "longitude": "-90.07053287768962",
    "latitude": "29.93138295893644",
    "geocoded_column": {
      "latitude": "29.93138295893644",
      "longitude": "-90.07053287768962"
    }
  },
  {
    "service_request": "2023-983762",
    "request_type": "Roads/Drainage",
    "request_reason": "Street Flooding / Drainage",
    "date_created": "2023-03-17T11:56:37.000",
    "date_modified": "2023-03-17T11:56:37.000",
    "request_status": "Pending",
    "responsible_agency": "Department of Public Works",
    "final_address": "718 Richard St",
    "address_councildis": "B",
    "status": "Pending",
    "rowid": "983762",
    "final_x": "3681472.3005",
    "final_y": "522739.563578",
    "longitude": "-90.06846384201921",
    "latitude": "29.931353260809964",
    "geocoded_column": {
      "latitude": "29.931353260809964",
      "longitude": "-90.06846384201921"
    }
  },
  {
    "service_request": "2023-983761",
    "request_type": "Trash/Recycling",
    "request_reason": "Return Recycling Cart",
    "date_created": "2023-03-17T11:55:35.000",
    "date_modified": "2023-03-17T11:55:35.000",
    "request_status": "Pending",
    "responsible_agency": "Department of Sanitation",
    "final_address": "5017 Mexico St",
    "address_councildis": "D",
    "status": "Pending",
    "rowid": "983761",
    "final_x": "3690978.83043",
    "final_y": "556690.324506",
    "longitude": "-90.03724069246815",
    "latitude": "30.02441378667193",
    "geocoded_column": {
      "latitude": "30.02441378667193",
      "longitude": "-90.03724069246815"
    }
  },
  {
    "service_request": "2023-983760",
    "request_type": "Trash/Recycling",
    "request_reason": "Request a Large Item Pick Up",
    "date_created": "2023-03-17T11:54:52.000",
    "date_modified": "2023-03-17T11:54:52.000",
    "request_status": "Pending",
    "responsible_agency": "Department of Sanitation",
    "final_address": "5923 Tullis Dr",
    "address_councildis": "C",
    "status": "Assigned to Contractor",
    "contractor": "Richards Disposal",
    "rowid": "983760",
    "final_x": "3706150.53361",
    "final_y": "513388.109554",
    "longitude": "-89.99090422483891",
    "latitude": "29.904867875642903",
    "geocoded_column": {
      "latitude": "29.904867875642903",
      "longitude": "-89.99090422483891"
    }
  },
  {
    "service_request": "2023-983759",
    "request_type": "Abandoned Vehicles",
    "request_reason": "Abandoned/Junk Vehicles",
    "date_created": "2023-03-17T11:54:36.000",
    "date_modified": "2023-03-17T11:54:36.000",
    "request_status": "Pending",
    "responsible_agency": "Department of Public Works",
    "final_address": "1572 Annunciation St",
    "address_councildis": "B",
    "status": "Pending",
    "rowid": "983759",
    "final_x": "3680888.37986",
    "final_y": "523043.103739",
    "longitude": "-90.07029664377598",
    "latitude": "29.932205607026315",
    "geocoded_column": {
      "latitude": "29.932205607026315",
      "longitude": "-90.07029664377598"
    }
  },
  {
    "service_request": "2023-983758",
    "request_type": "Roads/Drainage",
    "request_reason": "Damaged Sidewalk",
    "date_created": "2023-03-17T11:49:42.000",
    "date_modified": "2023-03-17T11:49:42.000",
    "request_status": "Pending",
    "responsible_agency": "Department of Public Works",
    "final_address": "8118 Zimple St",
    "address_councildis": "A",
    "status": "Pending",
    "rowid": "983758",
    "final_x": "3661604.5097",
    "final_y": "528175.686208",
    "longitude": "-90.13100425411248",
    "latitude": "29.946888972924253",
    "geocoded_column": {
      "latitude": "29.946888972924253",
      "longitude": "-90.13100425411248"
    }
  },
  {
    "service_request": "2023-983757",
    "request_type": "Trash/Recycling",
    "request_reason": "Request a Large Item Pick Up",
    "date_created": "2023-03-17T11:46:34.000",
    "date_modified": "2023-03-17T12:48:50.000",
    "case_close_date": "2023-03-17T07:48:50.000",
    "request_status": "Closed",
    "responsible_agency": "Department of Sanitation",
    "final_address": "4805 Annette St",
    "address_councildis": "D",
    "status": "Assigned to Contractor",
    "contractor": "IV Waste",
    "contractor_action": "Completed",
    "rowid": "983757",
    "final_x": "3682060.10287",
    "final_y": "550204.21154",
    "longitude": "-90.06564900409558",
    "latitude": "30.006853711624547",
    "geocoded_column": {
      "latitude": "30.006853711624547",
      "longitude": "-90.06564900409558"
    }
  },
  {
    "service_request": "2023-983756",
    "request_type": "Trash/Recycling",
    "request_reason": "Missed Trash Pick-Up",
    "date_created": "2023-03-17T11:43:42.000",
    "date_modified": "2023-03-17T11:43:43.000",
    "request_status": "Pending",
    "responsible_agency": "Department of Sanitation",
    "final_address": "608 Arabella St",
    "address_councildis": "A",
    "status": "Assigned to Contractor",
    "contractor": "Richards Disposal",
    "rowid": "983756",
    "final_x": "3665661.39303",
    "final_y": "518361.733558",
    "longitude": "-90.11852364404969",
    "latitude": "29.919786048400677",
    "geocoded_column": {
      "latitude": "29.919786048400677",
      "longitude": "-90.11852364404969"
    }
  },
  {
    "service_request": "2023-983755",
    "request_type": "Trash/Recycling",
    "request_reason": "Replace Trash Cart",
    "date_created": "2023-03-17T11:42:28.000",
    "date_modified": "2023-03-17T11:42:29.000",
    "request_status": "Pending",
    "responsible_agency": "Department of Sanitation",
    "final_address": "1325 Henry Clay Ave",
    "address_councildis": "A",
    "status": "Assigned to Contractor",
    "contractor": "Richards Disposal",
    "rowid": "983755",
    "final_x": "3664550.24192",
    "final_y": "521306.716217",
    "longitude": "-90.12193274180115",
    "latitude": "29.927916172790592",
    "geocoded_column": {
      "latitude": "29.927916172790592",
      "longitude": "-90.12193274180115"
    }
  },
  {
    "service_request": "2023-983753",
    "request_type": "Abandoned Vehicles",
    "request_reason": "Abandoned/Junk Vehicles",
    "date_created": "2023-03-17T11:38:54.000",
    "date_modified": "2023-03-17T11:40:35.000",
    "request_status": "Pending",
    "responsible_agency": "Department of Public Works",
    "final_address": "619 France St",
    "address_councildis": "C",
    "status": "Pending",
    "rowid": "983753",
    "final_x": "3691998.15101",
    "final_y": "533471.067268",
    "longitude": "-90.03485125658023",
    "latitude": "29.960537512724287",
    "geocoded_column": {
      "latitude": "29.960537512724287",
      "longitude": "-90.03485125658023"
    }
  },
  {
    "service_request": "2023-983751",
    "request_type": "Abandoned Vehicles",
    "request_reason": "Abandoned/Junk Vehicles",
    "date_created": "2023-03-17T11:35:11.000",
    "date_modified": "2023-03-17T11:35:11.000",
    "request_status": "Closed",
    "responsible_agency": "Department of Public Works",
    "final_address": "619 France St",
    "address_councildis": "C",
    "status": "Resolved",
    "rowid": "983751",
    "final_x": "3691998.15101",
    "final_y": "533471.067268",
    "longitude": "-90.03485125658023",
    "latitude": "29.960537512724287",
    "geocoded_column": {
      "latitude": "29.960537512724287",
      "longitude": "-90.03485125658023"
    }
  },
  {
    "service_request": "2023-983750",
    "request_type": "Trash/Recycling",
    "request_reason": "Order Recycling Cart",
    "date_created": "2023-03-17T11:30:18.000",
    "date_modified": "2023-03-17T11:30:19.000",
    "request_status": "Pending",
    "responsible_agency": "Department of Sanitation",
    "final_address": "2740 Orchid St",
    "address_councildis": "A",
    "status": "Pending",
    "rowid": "983750",
    "final_x": "3677501.5325",
    "final_y": "538649.152393",
    "longitude": "-90.08044990551979",
    "latitude": "29.975219228095828",
    "geocoded_column": {
      "latitude": "29.975219228095828",
      "longitude": "-90.08044990551979"
    }
  },
  {
    "service_request": "2023-983749",
    "request_type": "Mayor's Request",
    "request_reason": "Entergy Bill Payment Assistance",
    "date_created": "2023-03-17T11:29:40.000",
    "date_modified": "2023-03-17T11:33:38.000",
    "request_status": "Pending",
    "responsible_agency": "Executive Office of the Mayor",
    "final_address": "2537 Ap Tureaud Ave Apt B",
    "address_councildis": "D",
    "status": "Pending",
    "rowid": "983749",
    "final_x": "3681667.7773",
    "final_y": "541529.561228",
    "longitude": "-90.0671912921548",
    "latitude": "29.983013431694573",
    "geocoded_column": {
      "latitude": "29.983013431694573",
      "longitude": "-90.0671912921548"
    }
  },
  {
    "service_request": "2023-983748",
    "request_type": "Trash/Recycling",
    "request_reason": "Request a Large Item Pick Up",
    "date_created": "2023-03-17T11:23:02.000",
    "date_modified": "2023-03-17T11:24:29.000",
    "request_status": "Pending",
    "responsible_agency": "Department of Sanitation",
    "final_address": "931 St Ann St",
    "address_councildis": "C",
    "status": "Assigned to Contractor",
    "contractor": "Empire Services",
    "rowid": "983748",
    "final_x": "3682014.92124",
    "final_y": "533378.709764",
    "longitude": "-90.06637949216939",
    "latitude": "29.96059085749255",
    "geocoded_column": {
      "latitude": "29.96059085749255",
      "longitude": "-90.06637949216939"
    }
  },
  {
    "service_request": "2023-983747",
    "request_type": "Trash/Recycling",
    "request_reason": "Order Trash Cart",
    "date_created": "2023-03-17T11:18:16.000",
    "date_modified": "2023-03-17T11:18:17.000",
    "request_status": "Pending",
    "responsible_agency": "Department of Sanitation",
    "final_address": "4761 Werner Dr",
    "address_councildis": "E",
    "status": "Assigned to Contractor",
    "contractor": "Waste Pro",
    "rowid": "983747",
    "final_x": "3704836.44177",
    "final_y": "555461.766425",
    "longitude": "-89.99349884860754",
    "latitude": "30.02059744941586",
    "geocoded_column": {
      "latitude": "30.02059744941586",
      "longitude": "-89.99349884860754"
    }
  },
  {
    "service_request": "2023-983746",
    "request_type": "Trash/Recycling",
    "request_reason": "Order Recycling Cart",
    "date_created": "2023-03-17T11:12:19.000",
    "date_modified": "2023-03-17T11:12:19.000",
    "request_status": "Pending",
    "responsible_agency": "Department of Sanitation",
    "final_address": "3028 Marais St.",
    "address_councildis": "C",
    "status": "Pending",
    "rowid": "983746",
    "final_x": "3688748.66396",
    "final_y": "536404.647047",
    "longitude": "-90.04500829911602",
    "latitude": "29.968704686321242",
    "geocoded_column": {
      "latitude": "29.968704686321242",
      "longitude": "-90.04500829911602"
    }
  },