[
  {
    "service_request": "2024-1098435",
    "request_type": "Roads/Drainage",
    "request_reason": "Pothole",
    "date_created": "2024-05-30T23:31:51.000",
    "date_modified": "2024-05-30T23:31:51.000",
    "request_status": "Pending",
    "responsible_agency": "Department of Public Works",
    "final_address": "1025 Austerlitz St",
    "address_councildis": "B",
    "status": "Pending",
    "rowid": "1098435",
    "final_x": "3672845.10222",
    "final_y": "519577.24268",
    "longitude": "-90.09580671010205",
    "latitude": "29.922916937524878",
    "geocoded_column": {
      "latitude": "29.922916937524878",
      "longitude": "-90.09580671010205"
    }
  },
  {
    "service_request": "2024-1098434",
    "request_type": "Roads/Drainage",
    "request_reason": "Pothole",
    "date_created": "2024-05-30T23:24:42.000",
    "date_modified": "2024-05-30T23:24:42.000",
    "request_status": "Pending",
    "responsible_agency": "Department of Public Works",
    "final_address": "1829 Bordeaux St",
    "address_councildis": "B",
    "status": "Pending",
    "rowid": "1098434",
    "final_x": "3669329.725",
    "final_y": "521672.549241",
    "longitude": "-90.1068326189762",
    "latitude": "29.92878229206484",
    "geocoded_column": {
      "latitude": "29.92878229206484",
      "longitude": "-90.1068326189762"
    }
  },
  {
    "service_request": "2024-1098433",
    "request_type": "Roads/Drainage",
    "request_reason": "Damaged Sidewalk",
    "date_created": "2024-05-30T23:14:28.000",
    "date_modified": "2024-05-30T23:14:28.000",
    "request_status": "Pending",
    "responsible_agency": "Department of Public Works",
    "final_address": "8720 Stroelitz St",
    "address_councildis": "A",
    "status": "Pending",
    "rowid": "1098433",
    "final_x": "3666233.59207",
    "final_y": "536454.044807",
    "longitude": "-90.11611082177843",
    "latitude": "29.96951737595733",
    "geocoded_column": {
      "latitude": "29.96951737595733",
      "longitude": "-90.11611082177843"
    }
  },
  {
    "service_request": "2024-1098431",
    "request_type": "Roads/Drainage",
    "request_reason": "Pothole",
    "date_created": "2024-05-30T22:07:24.000",
    "date_modified": "2024-05-30T22:07:24.000",
    "request_status": "Pending",
    "responsible_agency": "Department of Public Works",
    "final_address": "1422 General Pershing St",
    "address_councildis": "B",
    "status": "Pending",
    "rowid": "1098431",
    "final_x": "3671239.44116",
    "final_y": "520532.324984",
    "longitude": "-90.10084273889387",
    "latitude": "29.925590694745555",
    "geocoded_column": {
      "latitude": "29.925590694745555",
      "longitude": "-90.10084273889387"
    }
  },
  {
    "service_request": "2024-1098430",
    "request_type": "Trash/Recycling",
    "request_reason": "Missed Trash Pick-Up",
    "date_created": "2024-05-30T21:25:24.000",
    "date_modified": "2024-05-30T21:25:24.000",
    "request_status": "Pending",
    "responsible_agency": "Department of Sanitation",
    "final_address": "6126 Burgundy St",
    "address_councildis": "E",
    "status": "Assigned to Contractor",
    "contractor": "Waste Pro",
    "rowid": "1098430",
    "final_x": "3699362.97712",
    "final_y": "532442.904259",
    "longitude": "-90.01163220827345",
    "latitude": "29.95747889088699",
    "geocoded_column": {
      "latitude": "29.95747889088699",
      "longitude": "-90.01163220827345"
    }
  },
  {
    "service_request": "2024-1098429",
    "request_type": "Roads/Drainage",
    "request_reason": "Street Flooding / Drainage",
    "date_created": "2024-05-30T20:55:28.000",
    "date_modified": "2024-05-30T20:55:28.000",
    "request_status": "Pending",
    "responsible_agency": "Department of Public Works",
    "final_address": "2300 BLK Burdette St",
    "address_councildis": "A",
    "status": "Pending",
    "rowid": "1098429",
    "final_x": "3665519.57378",
    "final_y": "530605.988116",
    "longitude": "-90.11856155760435",
    "latitude": "29.953457976808263",
    "geocoded_column": {
      "latitude": "29.953457976808263",
      "longitude": "-90.11856155760435"
    }
  },
  {
    "service_request": "2024-1098428",
    "request_type": "Abandoned Vehicles",
    "request_reason": "Abandoned/Junk Vehicles",
    "date_created": "2024-05-30T20:52:22.000",
    "date_modified": "2024-05-30T20:52:22.000",
    "request_status": "Pending",
    "responsible_agency": "Department of Public Works",
    "final_address": "2000 Foucher St",
    "address_councildis": "B",
    "status": "Pending",
    "rowid": "1098428",
    "final_x": "3672976.10011",
    "final_y": "522644.526906",
    "longitude": "-90.09528858676246",
    "latitude": "29.93134709212931",
    "geocoded_column": {
      "latitude": "29.93134709212931",
      "longitude": "-90.09528858676246"
    }
  },
  {
    "service_request": "2024-1098427",
    "request_type": "Roads/Drainage",
    "request_reason": "Damaged Sidewalk",
    "date_created": "2024-05-30T20:51:45.000",
    "date_modified": "2024-05-30T20:51:45.000",
    "request_status": "Pending",
    "responsible_agency": "Department of Public Works",
    "final_address": "1725 Dufossat St",
    "address_councildis": "B",
    "status": "Pending",
    "rowid": "1098427",
    "final_x": "3668192.68743",
    "final_y": "522036.060218",
    "longitude": "-90.11040977787289",
    "latitude": "29.92981524824353",
    "geocoded_column": {
      "latitude": "29.92981524824353",
      "longitude": "-90.11040977787289"
    }
  },
  {
    "service_request": "2024-1098426",
    "request_type": "Trash/Recycling",
    "request_reason": "Order Recycling Cart",
    "date_created": "2024-05-30T20:40:01.000",
    "date_modified": "2024-05-30T20:40:01.000",
    "request_status": "Pending",
    "responsible_agency": "Department of Sanitation",
    "final_address": "3808 Prytania St",
    "address_councildis": "B",
    "status": "Pending",
    "rowid": "1098426",
    "final_x": "3672946.92686",
    "final_y": "520494.084472",
    "longitude": "-90.09545402307461",
    "latitude": "29.92543493440849",
    "geocoded_column": {
      "latitude": "29.92543493440849",
      "longitude": "-90.09545402307461"
    }
  },
  {
    "service_request": "2024-1098425",
    "request_type": "Roads/Drainage",
    "request_reason": "Street Subsidence (Sinking)",
    "date_created": "2024-05-30T20:37:21.000",
    "date_modified": "2024-05-30T20:37:21.000",
    "request_status": "Pending",
    "responsible_agency": "Department of Public Works",
    "final_address": "726 Louque Pl",
    "address_councildis": "A",
    "status": "Pending",
    "rowid": "1098425",
    "final_x": "3668444.11348",
    "final_y": "543495.275342",
    "longitude": "-90.10889216615112",
    "latitude": "29.98881362905192",
    "geocoded_column": {
      "latitude": "29.98881362905192",
      "longitude": "-90.10889216615112"
    }
  },
  {
    "service_request": "2024-1098424",
    "request_type": "Roads/Drainage",
    "request_reason": "Pothole",
    "date_created": "2024-05-30T20:26:41.000",
    "date_modified": "2024-05-30T20:26:41.000",
    "request_status": "Pending",
    "responsible_agency": "Department of Public Works",
    "final_address": "1400 BLK Valence St",
    "address_councildis": "B",
    "status": "Pending",
    "rowid": "1098424",
    "final_x": "3669784.65285",
    "final_y": "520336.257015",
    "longitude": "-90.1054417057675",
    "latitude": "29.925094517046503",
    "geocoded_column": {
      "latitude": "29.925094517046503",
      "longitude": "-90.1054417057675"
    }
  },
  {
    "service_request": "2024-1098423",
    "request_type": "Abandoned Vehicles",
    "request_reason": "Abandoned/Junk Vehicles",
    "date_created": "2024-05-30T20:20:39.000",
    "date_modified": "2024-05-30T20:20:39.000",
    "request_status": "Pending",
    "responsible_agency": "Department of Public Works",
    "final_address": "122 Lavergne St",
    "address_councildis": "C",
    "status": "Pending",
    "rowid": "1098423",
    "final_x": "3686476.28655",
    "final_y": "531181.809666",
    "longitude": "-90.0523689735205",
    "latitude": "29.95441374525521",
    "geocoded_column": {
      "latitude": "29.95441374525521",
      "longitude": "-90.0523689735205"
    }
  },
  {
    "service_request": "2024-1098422",
    "request_type": "Abandoned Vehicles",
    "request_reason": "Abandoned/Junk Vehicles",
    "date_created": "2024-05-30T20:18:21.000",
    "date_modified": "2024-05-30T20:18:21.000",
    "request_status": "Pending",
    "responsible_agency": "Department of Public Works",
    "final_address": "122 Lavergne St",
    "address_councildis": "C",
    "status": "Pending",
    "rowid": "1098422",
    "final_x": "3686476.28655",
    "final_y": "531181.809666",
    "longitude": "-90.0523689735205",
    "latitude": "29.95441374525521",
    "geocoded_column": {
      "latitude": "29.95441374525521",
      "longitude": "-90.0523689735205"
    }
  },
  {
    "service_request": "2024-1098421",
    "request_type": "Roads/Drainage",
    "request_reason": "Pothole",
    "date_created": "2024-05-30T20:17:16.000",
    "date_modified": "2024-05-30T20:17:16.000",
    "request_status": "Pending",
    "responsible_agency": "Department of Public Works",
    "final_address": "5935 Coliseum St",
    "address_councildis": "A",
    "status": "Pending",
    "rowid": "1098421",
    "final_x": "3665220.92672",
    "final_y": "520215.433528",
    "longitude": "-90.11985201992287",
    "latitude": "29.924895975237057",
    "geocoded_column": {
      "latitude": "29.924895975237057",
      "longitude": "-90.11985201992287"
    }
  },
  {
    "service_request": "2024-1098420",
    "request_type": "Roads/Drainage",
    "request_reason": "Pothole",
    "date_created": "2024-05-30T20:15:54.000",
    "date_modified": "2024-05-30T20:15:54.000",
    "request_status": "Pending",
    "responsible_agency": "Department of Public Works",
    "final_address": "5929 Coliseum St",
    "address_councildis": "A",
    "status": "Pending",
    "rowid": "1098420",
    "final_x": "3665263.00756",
    "final_y": "520201.212344",
    "longitude": "-90.11971965943252",
    "latitude": "29.924855645993322",
    "geocoded_column": {
      "latitude": "29.924855645993322",
      "longitude": "-90.11971965943252"
    }
  },
  {
    "service_request": "2024-1098419",
    "request_type": "Trash/Recycling",
    "request_reason": "Request a Large Item Pick Up",
    "date_created": "2024-05-30T20:14:33.000",
    "date_modified": "2024-05-30T20:14:33.000",
    "request_status": "Pending",
    "responsible_agency": "Department of Sanitation",
    "final_address": "10251 Deer Park Blvd",
    "address_councildis": "E",
    "status": "Assigned to Contractor",
    "contractor": "Waste Pro",
    "rowid": "1098419",
    "final_x": "3712422.36581",
    "final_y": "560908.68611",
    "longitude": "-89.96932497259989",
    "latitude": "30.03532824168548",
    "geocoded_column": {
      "latitude": "30.03532824168548",
      "longitude": "-89.96932497259989"
    }
  },
  {
    "service_request": "2024-1098418",
    "request_type": "Roads/Drainage",
    "request_reason": "Pothole",
    "date_created": "2024-05-30T20:14:18.000",
    "date_modified": "2024-05-30T20:14:18.000",
    "request_status": "Pending",
    "responsible_agency": "Department of Public Works",
    "final_address": "6216 Camp St",
    "address_councildis": "A",
    "status": "Pending",
    "rowid": "1098418",
    "final_x": "3663748.11187",
    "final_y": "519930.497272",
    "longitude": "-90.12451072353035",
    "latitude": "29.92415529590064",
    "geocoded_column": {
      "latitude": "29.92415529590064",
      "longitude": "-90.12451072353035"
    }
  },
  {
    "service_request": "2024-1098417",
    "request_type": "Safety & Permits",
    "request_reason": "Licenses & Permits",
    "date_created": "2024-05-30T20:12:05.000",
    "date_modified": "2024-05-30T20:12:05.000",
    "request_status": "Pending",
    "responsible_agency": "Safety and Permits",
    "final_address": "1101 N Peters St",
    "address_councildis": "C",
    "status": "Pending",
    "rowid": "1098417",
    "final_x": "3684177.92335",
    "final_y": "533089.280068",
    "longitude": "-90.05955933205112",
    "latitude": "29.959729086244725",
    "geocoded_column": {
      "latitude": "29.959729086244725",
      "longitude": "-90.05955933205112"
    }
  },
  {
    "service_request": "2024-1098416",
    "request_type": "Abandoned Vehicles",
    "request_reason": "Abandoned/Junk Vehicles",
    "date_created": "2024-05-30T20:11:22.000",
    "date_modified": "2024-05-30T20:11:22.000",
    "request_status": "Pending",
    "responsible_agency": "Department of Public Works",
    "final_address": "122 Lavergne St",
    "address_councildis": "C",
    "status": "Pending",
    "rowid": "1098416",
    "final_x": "3686476.28655",
    "final_y": "531181.809666",
    "longitude": "-90.0523689735205",
    "latitude": "29.95441374525521",
    "geocoded_column": {
      "latitude": "29.95441374525521",
      "longitude": "-90.0523689735205"
    }
  },
  {
    "service_request": "2024-1098415",
    "request_type": "Roads/Drainage",
    "request_reason": "Damaged Sidewalk",
    "date_created": "2024-05-30T19:51:29.000",
    "date_modified": "2024-05-30T19:51:29.000",
    "request_status": "Pending",
    "responsible_agency": "Department of Public Works",
    "final_address": "JULIA ST & CAMP ST",
    "address_councildis": "B",
    "status": "Pending",
    "rowid": "1098415",
    "final_x": "3680791.6",
    "final_y": "527933.18",
    "longitude": "-90.07043202214226",
    "latitude": "29.945654624905025",
    "geocoded_column": {
      "latitude": "29.945654624905025",
      "longitude": "-90.07043202214226"
    }
  },
  {
    "service_request": "2024-1098414",
    "request_type": "Roads/Drainage",
    "request_reason": "WaterMain Break",
    "date_created": "2024-05-30T19:32:27.000",
    "date_modified": "2024-05-30T19:32:27.000",
    "request_status": "Pending",
    "responsible_agency": "Department of Public Works",
    "final_address": "4518 Croyden Ave",
    "address_councildis": "C",
    "status": "Pending",
    "rowid": "1098414",
    "final_x": "3702259.59818",
    "final_y": "524132.619772",
    "longitude": "-90.00279031853512",
    "latitude": "29.934536355549838",
    "geocoded_column": {
      "latitude": "29.934536355549838",
      "longitude": "-90.00279031853512"
    }
  },
  {
    "service_request": "2024-1098413",
    "request_type": "Trash/Recycling",
    "request_reason": "Request a Large Item Pick Up",
    "date_created": "2024-05-30T19:30:57.000",
    "date_modified": "2024-05-30T19:30:57.000",
    "request_status": "Pending",
    "responsible_agency": "Department of Sanitation",
    "final_address": "5771 Norland Ave",
    "address_councildis": "C",
    "status": "Assigned to Contractor",
    "contractor": "Richards Disposal",
    "rowid": "1098413",
    "final_x": "3705010.21931",
    "final_y": "520396.923064",
    "longitude": "-89.99424456579828",
    "latitude": "29.924176384551753",
    "geocoded_column": {
      "latitude": "29.924176384551753",
      "longitude": "-89.99424456579828"
    }
  },
  {
    "service_request": "2024-1098412",
    "request_type": "Trash/Recycling",
    "request_reason": "Illegal Dumping",
    "date_created": "2024-05-30T19:16:40.000",
    "date_modified": "2024-05-30T19:16:41.000",
    "request_status": "Pending",
    "responsible_agency": "Department of Sanitation",
    "final_address": "2258 N Robertson St",
    "address_councildis": "C",
    "status": "Pending",
    "rowid": "1098412",
    "final_x": "3685474.21052",
    "final_y": "537785.4178",
    "longitude": "-90.05530055671983",
    "latitude": "29.972602150757975",
    "geocoded_column": {
      "latitude": "29.972602150757975",
      "longitude": "-90.05530055671983"
    }
  },
  {
    "service_request": "2024-1098410",
    "request_type": "Trash/Recycling",
    "request_reason": "Missed Trash Pick-Up",
    "date_created": "2024-05-30T18:25:59.000",
    "date_modified": "2024-05-30T18:26:00.000",
    "request_status": "Pending",
    "responsible_agency": "Department of Sanitation",
    "final_address": "6126 Burgundy St",
    "address_councildis": "E",
    "status": "Assigned to Contractor",
    "contractor": "Waste Pro",
    "rowid": "1098410",
    "final_x": "3699362.97712",
    "final_y": "532442.904259",
    "longitude": "-90.01163220827345",
    "latitude": "29.95747889088699",
    "geocoded_column": {
      "latitude": "29.95747889088699",
      "longitude": "-90.01163220827345"
    }
  },
  {
    "service_request": "2024-1098409",
    "request_type": "Trash/Recycling",
    "request_reason": "Request a Large Item Pick Up",
    "date_created": "2024-05-30T18:15:46.000",
    "date_modified": "2024-05-30T18:15:47.000",
    "request_status": "Pending",
    "responsible_agency": "Department of Sanitation",
    "final_address": "3 Trianon Plz",
    "address_councildis": "B",
    "status": "Assigned to Contractor",
    "contractor": "IV Waste",
    "rowid": "1098409",
    "final_x": "3667246.07764",
    "final_y": "530918.154946",
    "longitude": "-90.11309947514152",
    "latitude": "29.95426589167475",
    "geocoded_column": {
      "latitude": "29.95426589167475",
      "longitude": "-90.11309947514152"
    }
  },
  {
    "service_request": "2024-1098408",
    "request_type": "Trash/Recycling",
    "request_reason": "Request a Large Item Pick Up",
    "date_created": "2024-05-30T18:08:37.000",
    "date_modified": "2024-05-30T18:08:38.000",
    "request_status": "Pending",
    "responsible_agency": "Department of Sanitation",
    "final_address": "3228 Upperline St",
    "address_councildis": "B",
    "status": "Assigned to Contractor",
    "contractor": "IV Waste",
    "rowid": "1098408",
    "final_x": "3669168.0674",
    "final_y": "526896.629118",
    "longitude": "-90.10716646586026",
    "latitude": "29.94315158858841",
    "geocoded_column": {
      "latitude": "29.94315158858841",
      "longitude": "-90.10716646586026"
    }
  },
  {
    "service_request": "2024-1098407",
    "request_type": "Trash/Recycling",
    "request_reason": "Order Recycling Cart",
    "date_created": "2024-05-30T18:06:18.000",
    "date_modified": "2024-05-30T18:06:18.000",
    "request_status": "Pending",
    "responsible_agency": "Department of Sanitation",
    "final_address": "1512 Baronne St",
    "address_councildis": "B",
    "status": "Pending",
    "rowid": "1098407",
    "final_x": "3678392.05864",
    "final_y": "525887.336253",
    "longitude": "-90.07807892646588",
    "latitude": "29.940101735099606",
    "geocoded_column": {
      "latitude": "29.940101735099606",
      "longitude": "-90.07807892646588"
    }
  },
  {
    "service_request": "2024-1098406",
    "request_type": "Parks & Parkways",
    "request_reason": "Request Tree Service (Right of Way/Public Property)",
    "date_created": "2024-05-30T17:57:47.000",
    "date_modified": "2024-05-30T17:57:47.000",
    "request_status": "Pending",
    "responsible_agency": "Department of Parks & Parkway",
    "final_address": "1438 N Roman St",
    "address_councildis": "D",
    "status": "Pending",
    "rowid": "1098406",
    "final_x": "3680932.84117",
    "final_y": "537269.700296",
    "longitude": "-90.06966097903648",
    "latitude": "29.971322602178123",
    "geocoded_column": {
      "latitude": "29.971322602178123",
      "longitude": "-90.06966097903648"
    }
  },
  {
    "service_request": "2024-1098405",
    "request_type": "Roads/Drainage",
    "request_reason": "Catch Basin - Clogged",
    "date_created": "2024-05-30T17:51:29.000",
    "date_modified": "2024-05-30T17:51:29.000",
    "request_status": "Pending",
    "responsible_agency": "Department of Public Works",
    "final_address": "2340 Robert St",
    "address_councildis": "B",
    "status": "Pending",
    "rowid": "1098405",
    "final_x": "3668770.39732",
    "final_y": "524226.61158",
    "longitude": "-90.10851212318342",
    "latitude": "29.935821596819597",
    "geocoded_column": {
      "latitude": "29.935821596819597",
      "longitude": "-90.10851212318342"
    }
  },
  {
    "service_request": "2024-1098404",
    "request_type": "Roads/Drainage",
    "request_reason": "Catch Basin - Clogged",
    "date_created": "2024-05-30T17:49:29.000",
    "date_modified": "2024-05-30T17:49:29.000",
    "request_status": "Pending",
    "responsible_agency": "Department of Public Works",
    "final_address": "2340 Robert St",
    "address_councildis": "B",
    "status": "Pending",
    "rowid": "1098404",
    "final_x": "3668770.39732",
    "final_y": "524226.61158",
    "longitude": "-90.10851212318342",
    "latitude": "29.935821596819597",
    "geocoded_column": {
      "latitude": "29.935821596819597",
      "longitude": "-90.10851212318342"
    }
  },
  {
    "service_request": "2024-1098403",
    "request_type": "Property Maintenance",
    "request_reason": "Property Maintenance",
    "date_created": "2024-05-30T17:48:30.000",
    "date_modified": "2024-05-30T17:48:30.000",
    "request_status": "Pending",
    "responsible_agency": "Department of Code Enforcement",
    "final_address": "1443 Pauline St",
    "address_councildis": "D",
    "status": "Pending",
    "rowid": "1098403",
    "final_x": "3691614.14192",
    "final_y": "536903.793416",
    "longitude": "-90.03594114010845",
    "latitude": "29.969988263168823",
    "geocoded_column": {
      "latitude": "29.969988263168823",
      "longitude": "-90.03594114010845"
    }
  },
  {
    "service_request": "2024-1098402",
    "request_type": "Trash/Recycling",
    "request_reason": "Replace Trash Cart",
    "date_created": "2024-05-30T17:46:31.000",
    "date_modified": "2024-05-30T17:46:31.000",
    "request_status": "Pending",
    "responsible_agency": "Department of Sanitation",
    "final_address": "4868 Constance St",
    "address_councildis": "B",
    "status": "Assigned to Contractor",
    "contractor": "IV Waste",
    "rowid": "1098402",
    "final_x": "3669051.36455",
    "final_y": "518157.146614",
    "longitude": "-90.1078300379664",
    "latitude": "29.919124239683313",
    "geocoded_column": {
      "latitude": "29.919124239683313",
      "longitude": "-90.1078300379664"
    }
  },
  {
    "service_request": "2024-1098401",
    "request_type": "Traffic Signals/Signs/Striping/Streetlights",
    "request_reason": "Street Light Knocked Down/Leaning",
    "date_created": "2024-05-30T17:25:52.000",
    "date_modified": "2024-05-30T17:25:53.000",
    "request_status": "Pending",
    "responsible_agency": "Department of Public Works",
    "final_address": "1515 St Roch Ave",
    "address_councildis": "C",
    "status": "Pending",
    "contractor": "Legacy Professional Services",
    "rowid": "1098401",
    "final_x": "3686442.48207",
    "final_y": "538026.026185",
    "longitude": "-90.0522340905794",
    "latitude": "29.973234008398556",
    "geocoded_column": {
      "latitude": "29.973234008398556",
      "longitude": "-90.0522340905794"
    }
  },
  {
    "service_request": "2024-1098399",
    "request_type": "Trash/Recycling",
    "request_reason": "Request a Large Item Pick Up",
    "date_created": "2024-05-30T17:01:24.000",
    "date_modified": "2024-05-30T17:01:24.000",
    "request_status": "Pending",
    "responsible_agency": "Department of Sanitation",
    "final_address": "1206 Touro St",
    "address_councildis": "C",
    "status": "Assigned to Contractor",
    "contractor": "IV Waste",
    "rowid": "1098399",
    "final_x": "3684168.95804",
    "final_y": "536683.043271",
    "longitude": "-90.05946147947584",
    "latitude": "29.96961096968141",
    "geocoded_column": {
      "latitude": "29.96961096968141",
      "longitude": "-90.05946147947584"
    }
  },
  {
    "service_request": "2024-1098398",
    "request_type": "Trash/Recycling",
    "request_reason": "Request a Large Item Pick Up",
    "date_created": "2024-05-30T16:55:05.000",
    "date_modified": "2024-05-30T16:55:06.000",
    "request_status": "Pending",
    "responsible_agency": "Department of Sanitation",
    "final_address": "4626 Nighthart St",
    "address_councildis": "E",
    "status": "Assigned to Contractor",
    "contractor": "Waste Pro",
    "rowid": "1098398",
    "final_x": "3716114.4238",
    "final_y": "556587.78185",
    "longitude": "-89.95782150242299",
    "latitude": "30.023326119613728",
    "geocoded_column": {
      "latitude": "30.023326119613728",
      "longitude": "-89.95782150242299"
    }
  },
  {
    "service_request": "2024-1098397",
    "request_type": "Trash/Recycling",
    "request_reason": "Missed Trash Pick-Up",
    "date_created": "2024-05-30T16:54:39.000",
    "date_modified": "2024-05-30T17:00:31.000",
    "case_close_date": "2024-05-30T12:00:31.000",
    "request_status": "Closed",
    "responsible_agency": "Department of Sanitation",
    "final_address": "5336 Dryades St",
    "address_councildis": "B",
    "status": "Invalid Request",
    "contractor": "IV Waste",
    "contractor_action": "Invalid Request",
    "rowid": "1098397",
    "final_x": "3667609.66049",
    "final_y": "521793.283898",
    "longitude": "-90.11225846699281",
    "latitude": "29.929164787498774",
    "geocoded_column": {
      "latitude": "29.929164787498774",
      "longitude": "-90.11225846699281"
    }
  },
  {
    "service_request": "2024-1098396",
    "request_type": "Trash/Recycling",
    "request_reason": "Request a Large Item Pick Up",
    "date_created": "2024-05-30T16:52:56.000",
    "date_modified": "2024-05-30T16:52:57.000",
    "request_status": "Pending",
    "responsible_agency": "Department of Sanitation",
    "final_address": "5637 Albany Ct",
    "address_councildis": "C",
    "status": "Assigned to Contractor",
    "contractor": "Richards Disposal",
    "rowid": "1098396",
    "final_x": "3704504.0257",
    "final_y": "521452.222393",
    "longitude": "-89.9958035440284",
    "latitude": "29.92709434700753",
    "geocoded_column": {
      "latitude": "29.92709434700753",
      "longitude": "-89.9958035440284"
    }
  },
  {
    "service_request": "2024-1098395",
    "request_type": "Property Maintenance",
    "request_reason": "Property Maintenance",
    "date_created": "2024-05-30T16:52:30.000",
    "date_modified": "2024-05-30T16:52:30.000",
    "request_status": "Pending",
    "responsible_agency": "Department of Code Enforcement",
    "final_address": "1907 Esplanade Ave",
    "address_councildis": "D",
    "status": "Pending",
    "rowid": "1098395",
    "final_x": "3680400.64546",
    "final_y": "537330.87284",
    "longitude": "-90.07133959964052",
    "latitude": "29.971506933261782",
    "geocoded_column": {
      "latitude": "29.971506933261782",
      "longitude": "-90.07133959964052"
    }
  },
  {
    "service_request": "2024-1098394",
    "request_type": "Trash/Recycling",
    "request_reason": "Request a Large Item Pick Up",
    "date_created": "2024-05-30T16:45:00.000",
    "date_modified": "2024-05-30T16:45:00.000",
    "request_status": "Pending",
    "responsible_agency": "Department of Sanitation",
    "final_address": "606 St Roch Ave",
    "address_councildis": "C",
    "status": "Assigned to Contractor",
    "contractor": "IV Waste",
    "rowid": "1098394",
    "final_x": "3686603.4662",
    "final_y": "534709.736774",
    "longitude": "-90.05184280548771",
    "latitude": "29.964110418253586",
    "geocoded_column": {
      "latitude": "29.964110418253586",
      "longitude": "-90.05184280548771"
    }
  },
  {
    "service_request": "2024-1098393",
    "request_type": "Trash/Recycling",
    "request_reason": "Order Recycling Cart",
    "date_created": "2024-05-30T16:43:00.000",
    "date_modified": "2024-05-30T16:43:00.000",
    "request_status": "Pending",
    "responsible_agency": "Department of Sanitation",
    "final_address": "5848 E Louis Prima Dr",
    "address_councildis": "E",
    "status": "Pending",
    "contractor": "Waste Pro",
    "rowid": "1098393",
    "final_x": "3715508.86584",
    "final_y": "562964.211616",
    "longitude": "-89.95949334333247",
    "latitude": "30.040878720935197",
    "geocoded_column": {
      "latitude": "30.040878720935197",
      "longitude": "-89.95949334333247"
    }
  },
  {
    "service_request": "2024-1098392",
    "request_type": "Trash/Recycling",
    "request_reason": "Repair Trash Cart",
    "date_created": "2024-05-30T16:42:37.000",
    "date_modified": "2024-05-30T16:42:37.000",
    "request_status": "Pending",
    "responsible_agency": "Department of Sanitation",
    "final_address": "5848 E Louis Prima Dr",
    "address_councildis": "E",
    "status": "Assigned to Contractor",
    "contractor": "Waste Pro",
    "rowid": "1098392",
    "final_x": "3715508.86584",
    "final_y": "562964.211616",
    "longitude": "-89.95949334333247",
    "latitude": "30.040878720935197",
    "geocoded_column": {
      "latitude": "30.040878720935197",
      "longitude": "-89.95949334333247"
    }
  },
  {
    "service_request": "2024-1098391",
    "request_type": "Trash/Recycling",
    "request_reason": "Request a Large Item Pick Up",
    "date_created": "2024-05-30T16:39:50.000",
    "date_modified": "2024-05-30T16:39:51.000",
    "request_status": "Pending",
    "responsible_agency": "Department of Sanitation",
    "final_address": "5506 Canal Blvd",
    "address_councildis": "A",
    "status": "Assigned to Contractor",
    "contractor": "IV Waste",
    "rowid": "1098391",
    "final_x": "3668042.24129",
    "final_y": "543896.283342",
    "longitude": "-90.11014804020907",
    "latitude": "29.989928066086417",
    "geocoded_column": {
      "latitude": "29.989928066086417",
      "longitude": "-90.11014804020907"
    }
  },
  {
    "service_request": "2024-1098390",
    "request_type": "Traffic Signals/Signs/Striping/Streetlights",
    "request_reason": "Street Name Sign Damaged or Missing",
    "date_created": "2024-05-30T16:26:28.000",
    "date_modified": "2024-05-30T16:26:28.000",
    "request_status": "Pending",
    "responsible_agency": "Department of Public Works",
    "final_address": "UNION ST & OKEEFE AVE",
    "address_councildis": "B",
    "status": "Pending",
    "rowid": "1098390",
    "final_x": "3679719.6",
    "final_y": "530287.58",
    "longitude": "-90.07373496163822",
    "latitude": "29.95216088019926",
    "geocoded_column": {
      "latitude": "29.95216088019926",
      "longitude": "-90.07373496163822"
    }
  },
  {
    "service_request": "2024-1098389",
    "request_type": "Traffic Signals/Signs/Striping/Streetlights",
    "request_reason": "Traffic Sign Missing/Damaged",
    "date_created": "2024-05-30T16:25:24.000",
    "date_modified": "2024-05-30T16:25:24.000",
    "request_status": "Pending",
    "responsible_agency": "Department of Public Works",
    "final_address": "UNION ST & OKEEFE AVE",
    "address_councildis": "B",
    "status": "Pending",
    "rowid": "1098389",
    "final_x": "3679719.6",
    "final_y": "530287.58",
    "longitude": "-90.07373496163822",
    "latitude": "29.95216088019926",
    "geocoded_column": {
      "latitude": "29.95216088019926",
      "longitude": "-90.07373496163822"
    }
  },
  {
    "service_request": "2024-1098388",
    "request_type": "Traffic Signals/Signs/Striping/Streetlights",
    "request_reason": "Traffic Signal Malfunctioning/Damaged",
    "date_created": "2024-05-30T16:19:58.000",
    "date_modified": "2024-05-30T16:19:58.000",
    "request_status": "Pending",
    "responsible_agency": "Department of Public Works",
    "final_address": "WASHINGTON AVE & PINE ST",
    "address_councildis": "B",
    "status": "Pending",
    "rowid": "1098388",
    "final_x": "3669031.9",
    "final_y": "534159.58",
    "longitude": "-90.10735103362536",
    "latitude": "29.963126327737637",
    "geocoded_column": {
      "latitude": "29.963126327737637",
      "longitude": "-90.10735103362536"
    }
  },
  {
    "service_request": "2024-1098387",
    "request_type": "Traffic Signals/Signs/Striping/Streetlights",
    "request_reason": "Traffic Signal Malfunctioning/Damaged",
    "date_created": "2024-05-30T16:19:15.000",
    "date_modified": "2024-05-30T16:19:15.000",
    "request_status": "Pending",
    "responsible_agency": "Department of Public Works",
    "final_address": "NASHVILLE AVE & S CLAIBORNE AVE",
    "address_councildis": "A",
    "status": "Pending",
    "rowid": "1098387",
    "final_x": "3667687.8",
    "final_y": "526816.48",
    "longitude": "-90.1118427528031",
    "latitude": "29.94297467722136",
    "geocoded_column": {
      "latitude": "29.94297467722136",
      "longitude": "-90.1118427528031"
    }
  },
  {
    "service_request": "2024-1098386",
    "request_type": "Trash/Recycling",
    "request_reason": "Missed Trash Pick-Up",
    "date_created": "2024-05-30T16:10:39.000",
    "date_modified": "2024-05-30T16:11:08.000",
    "request_status": "Pending",
    "responsible_agency": "Department of Sanitation",
    "final_address": "2314 Delery St",
    "address_councildis": "E",
    "status": "Assigned to Contractor",
    "contractor": "Waste Pro",
    "rowid": "1098386",
    "final_x": "3702208.70065",
    "final_y": "537434.866696",
    "longitude": "-90.00246323893724",
    "latitude": "29.971114425544155",
    "geocoded_column": {
      "latitude": "29.971114425544155",
      "longitude": "-90.00246323893724"
    }
  },
  {
    "service_request": "2024-1098385",
    "request_type": "Trash/Recycling",
    "request_reason": "Repair Recycling Cart",
    "date_created": "2024-05-30T16:06:52.000",
    "date_modified": "2024-05-30T16:06:53.000",
    "request_status": "Pending",
    "responsible_agency": "Department of Sanitation",
    "final_address": "3375 State Street Dr",
    "address_councildis": "A",
    "status": "Pending",
    "rowid": "1098385",
    "final_x": "3667889.41447",
    "final_y": "528916.230464",
    "longitude": "-90.11113549254503",
    "latitude": "29.948742398908113",
    "geocoded_column": {
      "latitude": "29.948742398908113",
      "longitude": "-90.11113549254503"
    }
  },
  {
    "service_request": "2024-1098384",
    "request_type": "Trash/Recycling",
    "request_reason": "Request a Large Item Pick Up",
    "date_created": "2024-05-30T16:05:05.000",
    "date_modified": "2024-05-30T16:05:05.000",
    "request_status": "Pending",
    "responsible_agency": "Department of Sanitation",
    "final_address": "5712 Durbridge Dr",
    "address_councildis": "C",
    "status": "Assigned to Contractor",
    "contractor": "Richards Disposal",
    "rowid": "1098384",
    "final_x": "3704780.25463",
    "final_y": "521760.77657",
    "longitude": "-89.99492019046247",
    "latitude": "29.927933894490945",
    "geocoded_column": {
      "latitude": "29.927933894490945",
      "longitude": "-89.99492019046247"
    }
  },
  {
    "service_request": "2024-1098383",
    "request_type": "Trash/Recycling",
    "request_reason": "Request a Large Item Pick Up",
    "date_created": "2024-05-30T15:51:14.000",
    "date_modified": "2024-05-30T15:51:14.000",
    "request_status": "Pending",
    "responsible_agency": "Department of Sanitation",
    "final_address": "6928 Lamb Rd",
    "address_councildis": "D",
    "status": "Assigned to Contractor",
    "contractor": "Waste Pro",
    "rowid": "1098383",
    "final_x": "3697684.56426",
    "final_y": "556884.112666",
    "longitude": "-90.01604484846655",
    "latitude": "30.024736364694895",
    "geocoded_column": {
      "latitude": "30.024736364694895",
      "longitude": "-90.01604484846655"
    }
  },
  {
    "service_request": "2024-1098382",
    "request_type": "Abandoned Vehicles",
    "request_reason": "Abandoned/Junk Vehicles",
    "date_created": "2024-05-30T15:45:21.000",
    "date_modified": "2024-05-30T15:45:22.000",
    "request_status": "Pending",
    "responsible_agency": "Department of Public Works",
    "final_address": "1219 General Taylor St",
    "address_councildis": "B",
    "status": "Pending",
    "rowid": "1098382",
    "final_x": "3672865.53908",
    "final_y": "520197.822008",
    "longitude": "-90.09572104058735",
    "latitude": "29.92462272503682",
    "geocoded_column": {
      "latitude": "29.92462272503682",
      "longitude": "-90.09572104058735"
    }
  },
  {
    "service_request": "2024-1098381",
    "request_type": "Property Maintenance",
    "request_reason": "Property Maintenance",
    "date_created": "2024-05-30T15:41:44.000",
    "date_modified": "2024-05-30T16:15:44.000",
    "case_close_date": "2024-05-30T11:15:44.000",
    "request_status": "Closed",
    "responsible_agency": "Department of Code Enforcement",
    "final_address": "9900 E Wheaton Cir",
    "address_councildis": "E",
    "status": "Referred to Code Enforcement",
    "rowid": "1098381",
    "final_x": "3709202.15787",
    "final_y": "562631.75184",
    "longitude": "-89.97943693575642",
    "latitude": "30.040170996519738",
    "geocoded_column": {
      "latitude": "30.040170996519738",
      "longitude": "-89.97943693575642"
    }
  },
  {
    "service_request": "2024-1098380",
    "request_type": "Abandoned Vehicles",
    "request_reason": "Abandoned/Junk Vehicles",
    "date_created": "2024-05-30T15:41:42.000",
    "date_modified": "2024-05-30T15:41:42.000",
    "request_status": "Pending",
    "responsible_agency": "Department of Public Works",
    "final_address": "5903 General Haig St",
    "address_councildis": "A",
    "status": "Pending",
    "rowid": "1098380",
    "final_x": "3670522.58599",
    "final_y": "546479.834193",
    "longitude": "-90.10222560102804",
    "latitude": "29.99695890161036",
    "geocoded_column": {
      "latitude": "29.99695890161036",
      "longitude": "-90.10222560102804"
    }
  },
  {
    "service_request": "2024-1098379",
    "request_type": "Trash/Recycling",
    "request_reason": "Missed Trash Pick-Up",
    "date_created": "2024-05-30T15:35:44.000",
    "date_modified": "2024-05-30T16:55:02.000",
    "case_close_date": "2024-05-30T11:55:02.000",
    "request_status": "Closed",
    "responsible_agency": "Department of Sanitation",
    "final_address": "5300 Press Dr",
    "address_councildis": "D",
    "status": "Invalid Request",
    "contractor": "IV Waste",
    "contractor_action": "Invalid Request",
    "rowid": "1098379",
    "final_x": "3689194.36303",
    "final_y": "552971.481047",
    "longitude": "-90.04301160035546",
    "latitude": "30.01424372929821",
    "geocoded_column": {
      "latitude": "30.01424372929821",
      "longitude": "-90.04301160035546"
    }
  },
  {
    "service_request": "2024-1098378",
    "request_type": "Roads/Drainage",
    "request_reason": "Catch Basin - Clogged",
    "date_created": "2024-05-30T15:34:38.000",
    "date_modified": "2024-05-30T15:34:39.000",
    "request_status": "Pending",
    "responsible_agency": "Department of Public Works",
    "final_address": "5718 Cucullu St",
    "address_councildis": "A",
    "status": "Pending",
    "rowid": "1098378",
    "final_x": "3667499.57665",
    "final_y": "525734.836029",
    "longitude": "-90.11247340790463",
    "latitude": "29.94000602078062",
    "geocoded_column": {
      "latitude": "29.94000602078062",
      "longitude": "-90.11247340790463"
    }
  },
  {
    "service_request": "2024-1098377",
    "request_type": "Trash/Recycling",
    "request_reason": "Illegal Dumping",
    "date_created": "2024-05-30T15:32:02.000",
    "date_modified": "2024-05-30T15:32:02.000",
    "request_status": "Pending",
    "responsible_agency": "Department of Sanitation",
    "final_address": "6401 Florida Ave",
    "address_councildis": "E",
    "status": "Pending",
    "rowid": "1098377",
    "final_x": "3702982.03838",
    "final_y": "538679.735753",
    "longitude": "-89.99997520434388",
    "latitude": "29.97451264148602",
    "geocoded_column": {
      "latitude": "29.97451264148602",
      "longitude": "-89.99997520434388"
    }
  },
  {
    "service_request": "2024-1098376",
    "request_type": "Trash/Recycling",
    "request_reason": "Illegal Dumping",
    "date_created": "2024-05-30T15:30:19.000",
    "date_modified": "2024-05-30T15:30:19.000",
    "request_status": "Pending",
    "responsible_agency": "Department of Sanitation",
    "final_address": "1822 Duels St",
    "address_councildis": "D",
    "status": "Pending",
    "rowid": "1098376",
    "final_x": "3681757.09538",
    "final_y": "542286.983693",
    "longitude": "-90.06688273884467",
    "latitude": "29.98509336384687",
    "geocoded_column": {
      "latitude": "29.98509336384687",
      "longitude": "-90.06688273884467"
    }
  },
  {
    "service_request": "2024-1098375",
    "request_type": "Health Related Request",
    "request_reason": "Noise Ordinance Complaint",
    "date_created": "2024-05-30T15:27:32.000",
    "date_modified": "2024-05-30T15:27:32.000",
    "request_status": "Pending",
    "responsible_agency": "Health Department",
    "final_address": "2102 Chartres St",
    "address_councildis": "C",
    "status": "Pending",
    "rowid": "1098375",
    "final_x": "3684814.01308",
    "final_y": "534429.625861",
    "longitude": "-90.05750358136324",
    "latitude": "29.963395117391723",
    "geocoded_column": {
      "latitude": "29.963395117391723",
      "longitude": "-90.05750358136324"
    }
  },
  {
    "service_request": "2024-1098374",
    "request_type": "Traffic Signals/Signs/Striping/Streetlights",
    "request_reason": "Street Light Outage/Malfunction",
    "date_created": "2024-05-30T15:26:46.000",
    "date_modified": "2024-05-30T15:26:46.000",
    "request_status": "Pending",
    "responsible_agency": "Department of Public Works",
    "final_address": "4900 Michoud Blvd",
    "address_councildis": "E",
    "status": "Assigned to Contractor",
    "contractor": "Legacy Professional Services",
    "rowid": "1098374",
    "final_x": "3724880.21196",
    "final_y": "561093.498078",
    "longitude": "-89.92994950912093",
    "latitude": "30.035422750816565",
    "geocoded_column": {
      "latitude": "30.035422750816565",
      "longitude": "-89.92994950912093"
    }
  },
  {
    "service_request": "2024-1098373",
    "request_type": "Property Maintenance",
    "request_reason": "Property Maintenance",
    "date_created": "2024-05-30T15:25:59.000",
    "date_modified": "2024-05-30T15:59:50.000",
    "case_close_date": "2024-05-30T10:59:50.000",
    "request_status": "Closed",
    "responsible_agency": "Department of Code Enforcement",
    "final_address": "1023 Sumner St",
    "address_councildis": "C",
    "status": "Referred to Code Enforcement",
    "rowid": "1098373",
    "final_x": "3691056.9016",
    "final_y": "527612.221119",
    "longitude": "-90.03803266530318",
    "latitude": "29.94445700851227",
    "geocoded_column": {
      "latitude": "29.94445700851227",
      "longitude": "-90.03803266530318"
    }
  },
  {
    "service_request": "2024-1098372",
    "request_type": "Roads/Drainage",
    "request_reason": "Street Subsidence (Sinking)",
    "date_created": "2024-05-30T15:24:26.000",
    "date_modified": "2024-05-30T15:24:26.000",
    "request_status": "Pending",
    "responsible_agency": "Department of Public Works",
    "final_address": "1916 Pelopidas St",
    "address_councildis": "D",
    "status": "Pending",
    "rowid": "1098372",
    "final_x": "3682367.9286",
    "final_y": "547556.088338",
    "longitude": "-90.06476912338303",
    "latitude": "29.999562955901503",
    "geocoded_column": {
      "latitude": "29.999562955901503",
      "longitude": "-90.06476912338303"
    }
  },
  {
    "service_request": "2024-1098371",
    "request_type": "Abandoned Vehicles",
    "request_reason": "Abandoned/Junk Vehicles",
    "date_created": "2024-05-30T15:23:53.000",
    "date_modified": "2024-05-30T15:23:53.000",
    "request_status": "Pending",
    "responsible_agency": "Department of Public Works",
    "final_address": "735 Upperline St",
    "address_councildis": "B",
    "status": "Pending",
    "rowid": "1098371",
    "final_x": "3669032.69607",
    "final_y": "518100.023926",
    "longitude": "-90.10789089333986",
    "latitude": "29.91896771930638",
    "geocoded_column": {
      "latitude": "29.91896771930638",
      "longitude": "-90.10789089333986"
    }
  },
  {
    "service_request": "2024-1098370",
    "request_type": "Trash/Recycling",
    "request_reason": "Illegal Dumping",
    "date_created": "2024-05-30T15:21:17.000",
    "date_modified": "2024-05-30T15:22:51.000",
    "request_status": "Pending",
    "responsible_agency": "Department of Sanitation",
    "final_address": "7637 Berg Rd",
    "address_councildis": "E",
    "status": "Pending",
    "rowid": "1098370",
    "final_x": "3711953.07941",
    "final_y": "566792.907299",
    "longitude": "-89.97058683023066",
    "latitude": "30.051522833384904",
    "geocoded_column": {
      "latitude": "30.051522833384904",
      "longitude": "-89.97058683023066"
    }
  },
  {
    "service_request": "2024-1098369",
    "request_type": "Trash/Recycling",
    "request_reason": "Replace Trash Cart",
    "date_created": "2024-05-30T15:18:48.000",
    "date_modified": "2024-05-30T15:18:49.000",
    "request_status": "Pending",
    "responsible_agency": "Department of Sanitation",
    "final_address": "1227 Touro St",
    "address_councildis": "C",
    "status": "Assigned to Contractor",
    "contractor": "IV Waste",
    "rowid": "1098369",
    "final_x": "3684213.15023",
    "final_y": "536835.520648",
    "longitude": "-90.05931656290342",
    "latitude": "29.970028878587268",
    "geocoded_column": {
      "latitude": "29.970028878587268",
      "longitude": "-90.05931656290342"
    }
  },
  {
    "service_request": "2024-1098368",
    "request_type": "Trash/Recycling",
    "request_reason": "Repair Trash Cart",
    "date_created": "2024-05-30T15:17:26.000",
    "date_modified": "2024-05-30T15:17:27.000",
    "request_status": "Pending",
    "responsible_agency": "Department of Sanitation",
    "final_address": "1229 Touro St",
    "address_councildis": "C",
    "status": "Assigned to Contractor",
    "contractor": "IV Waste",
    "rowid": "1098368",
    "final_x": "3684212.59471",
    "final_y": "536850.520648",
    "longitude": "-90.05931779058334",
    "latitude": "29.970070140365426",
    "geocoded_column": {
      "latitude": "29.970070140365426",
      "longitude": "-90.05931779058334"
    }
  },
  {
    "service_request": "2024-1098367",
    "request_type": "Abandoned Vehicles",
    "request_reason": "Abandoned/Junk Vehicles",
    "date_created": "2024-05-30T15:15:17.000",
    "date_modified": "2024-05-30T15:15:18.000",
    "request_status": "Pending",
    "responsible_agency": "Department of Public Works",
    "final_address": "901 Clouet St",
    "address_councildis": "C",
    "status": "Pending",
    "rowid": "1098367",
    "final_x": "3688836.76406",
    "final_y": "535232.533638",
    "longitude": "-90.044771701261",
    "latitude": "29.965479060453887",
    "geocoded_column": {
      "latitude": "29.965479060453887",
      "longitude": "-90.044771701261"
    }
  },
  {
    "service_request": "2024-1098366",
    "request_type": "Parks & Parkways",
    "request_reason": "Request Tree Service (Right of Way/Public Property)",
    "date_created": "2024-05-30T15:13:54.000",
    "date_modified": "2024-05-30T15:13:54.000",
    "request_status": "Pending",
    "responsible_agency": "Department of Parks & Parkway",
    "final_address": "3925 Franklin Ave",
    "address_councildis": "D",
    "status": "Pending",
    "rowid": "1098366",
    "final_x": "3687110.03561",
    "final_y": "547444.679761",
    "longitude": "-90.049792620576",
    "latitude": "29.999111413816934",
    "geocoded_column": {
      "latitude": "29.999111413816934",
      "longitude": "-90.049792620576"
    }
  },
  {
    "service_request": "2024-1098365",
    "request_type": "Parks & Parkways",
    "request_reason": "Request Tree Service (Right of Way/Public Property)",
    "date_created": "2024-05-30T15:12:17.000",
    "date_modified": "2024-05-30T15:12:18.000",
    "request_status": "Pending",
    "responsible_agency": "Department of Parks & Parkway",
    "final_address": "4048 Banks St",
    "address_councildis": "A",
    "status": "Pending",
    "rowid": "1098365",
    "final_x": "3670406.44295",
    "final_y": "537280.886984",
    "longitude": "-90.10290453497541",
    "latitude": "29.9716683674005",
    "geocoded_column": {
      "latitude": "29.9716683674005",
      "longitude": "-90.10290453497541"
    }
  },
  {
    "service_request": "2024-1098364",
    "request_type": "Trash/Recycling",
    "request_reason": "Repair Trash Cart",
    "date_created": "2024-05-30T15:09:17.000",
    "date_modified": "2024-05-30T15:09:17.000",
    "request_status": "Pending",
    "responsible_agency": "Department of Sanitation",
    "final_address": "2918 Bruxelles St",
    "address_councildis": "D",
    "status": "Assigned to Contractor",
    "contractor": "IV Waste",
    "rowid": "1098364",
    "final_x": "3680248.92744",
    "final_y": "543177.493389",
    "longitude": "-90.07161542949477",
    "latitude": "29.987587701769893",
    "geocoded_column": {
      "latitude": "29.987587701769893",
      "longitude": "-90.07161542949477"
    }
  },
  {
    "service_request": "2024-1098363",
    "request_type": "Trash/Recycling",
    "request_reason": "Illegal Dumping",
    "date_created": "2024-05-30T15:09:15.000",
    "date_modified": "2024-05-30T15:09:15.000",
    "request_status": "Pending",
    "responsible_agency": "Department of Sanitation",
    "final_address": "6300 St Claude Ave",
    "address_councildis": "E",
    "status": "Pending",
    "rowid": "1098363",
    "final_x": "3700146.28816",
    "final_y": "532977.506564",
    "longitude": "-90.00913925230147",
    "latitude": "29.95892398960287",
    "geocoded_column": {
      "latitude": "29.95892398960287",
      "longitude": "-90.00913925230147"
    }
  },
  {
    "service_request": "2024-1098362",
    "request_type": "Trash/Recycling",
    "request_reason": "Illegal Dumping",
    "date_created": "2024-05-30T15:07:52.000",
    "date_modified": "2024-05-30T15:07:53.000",
    "request_status": "Pending",
    "responsible_agency": "Department of Sanitation",
    "final_address": "JACKSON AVE & S JOHNSON ST",
    "address_councildis": "B",
    "status": "Pending",
    "rowid": "1098362",
    "final_x": "3673734.5",
    "final_y": "528755.88",
    "longitude": "-90.09268551758272",
    "latitude": "29.948128763077964",
    "geocoded_column": {
      "latitude": "29.948128763077964",
      "longitude": "-90.09268551758272"
    }
  },
  {
    "service_request": "2024-1098361",
    "request_type": "Roads/Drainage",
    "request_reason": "Catch Basin - Clogged",
    "date_created": "2024-05-30T15:05:21.000",
    "date_modified": "2024-05-30T15:05:22.000",
    "request_status": "Pending",
    "responsible_agency": "Department of Public Works",
    "final_address": "2600 Dauphine St",
    "address_councildis": "C",
    "status": "Pending",
    "rowid": "1098361",
    "final_x": "3686856.99055",
    "final_y": "535289.894918",
    "longitude": "-90.05102169673253",
    "latitude": "29.96569785294495",
    "geocoded_column": {
      "latitude": "29.96569785294495",
      "longitude": "-90.05102169673253"
    }
  },
  {
    "service_request": "2024-1098360",
    "request_type": "Roads/Drainage",
    "request_reason": "Pothole",
    "date_created": "2024-05-30T15:02:47.000",
    "date_modified": "2024-05-30T15:02:47.000",
    "request_status": "Pending",
    "responsible_agency": "Department of Public Works",
    "final_address": "311 Alix St",
    "address_councildis": "C",
    "status": "Pending",
    "rowid": "1098360",
    "final_x": "3686524.75145",
    "final_y": "529991.770625",
    "longitude": "-90.05225795242718",
    "latitude": "29.95114005535147",
    "geocoded_column": {
      "latitude": "29.95114005535147",
      "longitude": "-90.05225795242718"
    }
  },
  {
    "service_request": "2024-1098359",
    "request_type": "Trash/Recycling",
    "request_reason": "Repair Trash Cart",
    "date_created": "2024-05-30T15:02:27.000",
    "date_modified": "2024-05-30T15:02:28.000",
    "request_status": "Pending",
    "responsible_agency": "Department of Sanitation",
    "final_address": "1120 N Roman St",
    "address_councildis": "D",
    "status": "Assigned to Contractor",
    "contractor": "IV Waste",
    "rowid": "1098359",
    "final_x": "3680251.02914",
    "final_y": "536377.279111",
    "longitude": "-90.07184526519086",
    "latitude": "29.96888940843223",
    "geocoded_column": {
      "latitude": "29.96888940843223",
      "longitude": "-90.07184526519086"
    }
  },
  {
    "service_request": "2024-1098357",
    "request_type": "Traffic Signals/Signs/Striping/Streetlights",
    "request_reason": "Traffic Sign Missing/Damaged",
    "date_created": "2024-05-30T14:58:39.000",
    "date_modified": "2024-05-30T14:58:39.000",
    "request_status": "Pending",
    "responsible_agency": "Department of Public Works",
    "final_address": "1300 Dante St",
    "address_councildis": "A",
    "status": "Pending",
    "rowid": "1098357",
    "final_x": "3661659.40211",
    "final_y": "529179.238592",
    "longitude": "-90.13079768401407",
    "latitude": "29.94964683681392",
    "geocoded_column": {
      "latitude": "29.94964683681392",
      "longitude": "-90.13079768401407"
    }
  },
  {
    "service_request": "2024-1098356",
    "request_type": "Traffic Signals/Signs/Striping/Streetlights",
    "request_reason": "Traffic Signal Malfunctioning/Damaged",
    "date_created": "2024-05-30T14:57:17.000",
    "date_modified": "2024-05-30T14:57:17.000",
    "request_status": "Pending",
    "responsible_agency": "Department of Public Works",
    "final_address": "NASHVILLE AVE & S CLAIBORNE AVE",
    "address_councildis": "A",
    "status": "Pending",
    "rowid": "1098356",
    "final_x": "3667687.8",
    "final_y": "526816.48",
    "longitude": "-90.1118427528031",
    "latitude": "29.94297467722136",
    "geocoded_column": {
      "latitude": "29.94297467722136",
      "longitude": "-90.1118427528031"
    }
  },
  {
    "service_request": "2024-1098355",
    "request_type": "Abandoned Vehicles",
    "request_reason": "Abandoned/Junk Vehicles",
    "date_created": "2024-05-30T14:56:11.000",
    "date_modified": "2024-05-30T14:56:11.000",
    "request_status": "Pending",
    "responsible_agency": "Department of Public Works",
    "final_address": "1751 Gentilly Blvd",
    "address_councildis": "A",
    "status": "Pending",
    "rowid": "1098355",
    "final_x": "3678157.30018",
    "final_y": "542336.259789",
    "longitude": "-90.07825126684214",
    "latitude": "29.985337765395933",
    "geocoded_column": {
      "latitude": "29.985337765395933",
      "longitude": "-90.07825126684214"
    }
  },
  {
    "service_request": "2024-1098354",
    "request_type": "Traffic Signals/Signs/Striping/Streetlights",
    "request_reason": "Traffic Sign Missing/Damaged",
    "date_created": "2024-05-30T14:55:00.000",
    "date_modified": "2024-05-30T14:55:00.000",
    "request_status": "Pending",
    "responsible_agency": "Department of Public Works",
    "final_address": "1300 Dante St",
    "address_councildis": "A",
    "status": "Pending",
    "rowid": "1098354",
    "final_x": "3661659.40211",
    "final_y": "529179.238592",
    "longitude": "-90.13079768401407",
    "latitude": "29.94964683681392",
    "geocoded_column": {
      "latitude": "29.94964683681392",
      "longitude": "-90.13079768401407"
    }
  },
  {
    "service_request": "2024-1098353",
    "request_type": "Trash/Recycling",
    "request_reason": "Dead Animal Pick Up",
    "date_created": "2024-05-30T14:54:16.000",
    "date_modified": "2024-05-30T15:12:19.000",
    "case_close_date": "2024-05-30T10:10:01.000",
    "request_status": "Pending",
    "responsible_agency": "Department of Sanitation",
    "final_address": "N CLAIBORNE AVE & ANNETTE ST",
    "address_councildis": "D",
    "rowid": "1098353",
    "final_x": "3682997.3",
    "final_y": "537989.68",
    "longitude": "-90.06311592889358",
    "latitude": "29.973239532156352",
    "geocoded_column": {
      "latitude": "29.973239532156352",
      "longitude": "-90.06311592889358"
    }
  },
  {
    "service_request": "2024-1098352",
    "request_type": "Trash/Recycling",
    "request_reason": "Request a Large Item Pick Up",
    "date_created": "2024-05-30T14:54:00.000",
    "date_modified": "2024-05-30T14:54:00.000",
    "request_status": "Pending",
    "responsible_agency": "Department of Sanitation",
    "final_address": "5939 Freret St",
    "address_councildis": "A",
    "status": "Assigned to Contractor",
    "contractor": "IV Waste",
    "rowid": "1098352",
    "final_x": "3666556.87508",
    "final_y": "524390.489916",
    "longitude": "-90.11549477921554",
    "latitude": "29.936337084199728",
    "geocoded_column": {
      "latitude": "29.936337084199728",
      "longitude": "-90.11549477921554"
    }
  },
  {
    "service_request": "2024-1098351",
    "request_type": "Abandoned Vehicles",
    "request_reason": "Abandoned/Junk Vehicles",
    "date_created": "2024-05-30T14:53:30.000",
    "date_modified": "2024-05-30T14:53:30.000",
    "request_status": "Pending",
    "responsible_agency": "Department of Public Works",
    "final_address": "3218 Orleans Ave",
    "address_councildis": "A",
    "status": "Pending",
    "rowid": "1098351",
    "final_x": "3674845.58632",
    "final_y": "538393.958025",
    "longitude": "-90.08884684959648",
    "latitude": "29.974597115035806",
    "geocoded_column": {
      "latitude": "29.974597115035806",
      "longitude": "-90.08884684959648"
    }
  },
  {
    "service_request": "2024-1098350",
    "request_type": "Abandoned Vehicles",
    "request_reason": "Abandoned/Junk Vehicles",
    "date_created": "2024-05-30T14:51:24.000",
    "date_modified": "2024-05-30T14:51:24.000",
    "request_status": "Pending",
    "responsible_agency": "Department of Public Works",
    "final_address": "1825 Gentilly Blvd",
    "address_councildis": "A",
    "status": "Pending",
    "rowid": "1098350",
    "final_x": "3678685.69147",
    "final_y": "542481.200589",
    "longitude": "-90.07657727685418",
    "latitude": "29.98572037741659",
    "geocoded_column": {
      "latitude": "29.98572037741659",
      "longitude": "-90.07657727685418"
    }
  },
  {
    "service_request": "2024-1098349",
    "request_type": "Roads/Drainage",
    "request_reason": "Damaged Sidewalk",
    "date_created": "2024-05-30T14:49:18.000",
    "date_modified": "2024-05-30T14:49:19.000",
    "request_status": "Pending",
    "responsible_agency": "Department of Public Works",
    "final_address": "8221 Panola St",
    "address_councildis": "A",
    "status": "Pending",
    "rowid": "1098349",
    "final_x": "3663713.79802",
    "final_y": "531105.793538",
    "longitude": "-90.12424680411986",
    "latitude": "29.954884796063393",
    "geocoded_column": {
      "latitude": "29.954884796063393",
      "longitude": "-90.12424680411986"
    }
  },
  {
    "service_request": "2024-1098348",
    "request_type": "Traffic Signals/Signs/Striping/Streetlights",
    "request_reason": "Street Light Outage/Malfunction",
    "date_created": "2024-05-30T14:48:45.000",
    "date_modified": "2024-05-30T14:48:46.000",
    "request_status": "Pending",
    "responsible_agency": "Department of Public Works",
    "final_address": "4900 Chrysler St",
    "address_councildis": "E",
    "status": "Assigned to Contractor",
    "contractor": "Legacy Professional Services",
    "rowid": "1098348",
    "final_x": "3715165.85554",
    "final_y": "557436.721435",
    "longitude": "-89.96078661063744",
    "latitude": "30.02569164231877",
    "geocoded_column": {
      "latitude": "30.02569164231877",
      "longitude": "-89.96078661063744"
    }
  },
  {
    "service_request": "2024-1098347",
    "request_type": "Trash/Recycling",
    "request_reason": "Request a Large Item Pick Up",
    "date_created": "2024-05-30T14:43:30.000",
    "date_modified": "2024-05-30T14:43:31.000",
    "request_status": "Pending",
    "responsible_agency": "Department of Sanitation",
    "final_address": "1322 Arabella St",
    "address_councildis": "A",
    "status": "Assigned to Contractor",
    "contractor": "IV Waste",
    "rowid": "1098347",
    "final_x": "3666193.92077",
    "final_y": "520793.212985",
    "longitude": "-90.11676122049721",
    "latitude": "29.92645631707063",
    "geocoded_column": {
      "latitude": "29.92645631707063",
      "longitude": "-90.11676122049721"
    }
  },
  {
    "service_request": "2024-1098346",
    "request_type": "Trash/Recycling",
    "request_reason": "MIssed Recycling Pick-Up",
    "date_created": "2024-05-30T14:43:28.000",
    "date_modified": "2024-05-30T14:43:28.000",
    "request_status": "Pending",
    "responsible_agency": "Department of Sanitation",
    "final_address": "506 Opelousas Ave",
    "address_councildis": "C",
    "status": "Assigned to Contractor",
    "contractor": "Richards Disposal",
    "rowid": "1098346",
    "final_x": "3687163.69903",
    "final_y": "529177.167552",
    "longitude": "-90.05026928040276",
    "latitude": "29.948880517407147",
    "geocoded_column": {
      "latitude": "29.948880517407147",
      "longitude": "-90.05026928040276"
    }
  },
  {
    "service_request": "2024-1098345",
    "request_type": "Property Maintenance",
    "request_reason": "Property Maintenance",
    "date_created": "2024-05-30T14:40:08.000",
    "date_modified": "2024-05-30T15:25:12.000",
    "case_close_date": "2024-05-30T10:25:12.000",
    "request_status": "Closed",
    "responsible_agency": "Department of Code Enforcement",
    "final_address": "4845 Good Dr",
    "address_councildis": "E",
    "status": "Wrong Agency",
    "rowid": "1098345",
    "final_x": "3714811.44312",
    "final_y": "557277.833179",
    "longitude": "-89.96191250158887",
    "latitude": "30.02526643100952",
    "geocoded_column": {
      "latitude": "30.02526643100952",
      "longitude": "-89.96191250158887"
    }
  },
  {
    "service_request": "2024-1098344",
    "request_type": "Parks & Parkways",
    "request_reason": "Request Tree Service (Right of Way/Public Property)",
    "date_created": "2024-05-30T14:39:21.000",
    "date_modified": "2024-05-30T14:39:21.000",
    "request_status": "Pending",
    "responsible_agency": "Department of Parks & Parkway",
    "final_address": "4130 Prytania St",
    "address_councildis": "B",
    "status": "Pending",
    "rowid": "1098344",
    "final_x": "3671744.46068",
    "final_y": "520353.675704",
    "longitude": "-90.09925461695377",
    "latitude": "29.925084520195337",
    "geocoded_column": {
      "latitude": "29.925084520195337",
      "longitude": "-90.09925461695377"
    }
  },
  {
    "service_request": "2024-1098343",
    "request_type": "Trash/Recycling",
    "request_reason": "Request a Large Item Pick Up",
    "date_created": "2024-05-30T14:37:19.000",
    "date_modified": "2024-05-30T14:37:19.000",
    "request_status": "Pending",
    "responsible_agency": "Department of Sanitation",
    "final_address": "1902 Broadway St",
    "address_councildis": "A",
    "status": "Assigned to Contractor",
    "contractor": "IV Waste",
    "rowid": "1098343",
    "final_x": "3665529.75207",
    "final_y": "528616.303744",
    "longitude": "-90.11859602220495",
    "latitude": "29.94798669306516",
    "geocoded_column": {
      "latitude": "29.94798669306516",
      "longitude": "-90.11859602220495"
    }
  },
  {
    "service_request": "2024-1098342",
    "request_type": "Trash/Recycling",
    "request_reason": "Repair Trash Cart",
    "date_created": "2024-05-30T14:36:25.000",
    "date_modified": "2024-05-30T14:36:25.000",
    "request_status": "Pending",
    "responsible_agency": "Department of Sanitation",
    "final_address": "4 Jay St",
    "address_councildis": "D",
    "status": "Assigned to Contractor",
    "contractor": "IV Waste",
    "rowid": "1098342",
    "final_x": "3675977.14171",
    "final_y": "555839.562585",
    "longitude": "-90.08467270197073",
    "latitude": "30.022532548359013",
    "geocoded_column": {
      "latitude": "30.022532548359013",
      "longitude": "-90.08467270197073"
    }
  },
  {
    "service_request": "2024-1098341",
    "request_type": "Trash/Recycling",
    "request_reason": "Repair Trash Cart",
    "date_created": "2024-05-30T14:35:42.000",
    "date_modified": "2024-05-30T14:35:42.000",
    "request_status": "Pending",
    "responsible_agency": "Department of Sanitation",
    "final_address": "2647 Governor Nicholls St",
    "address_councildis": "D",
    "status": "Assigned to Contractor",
    "contractor": "IV Waste",
    "rowid": "1098341",
    "final_x": "3677981.18011",
    "final_y": "538340.139721",
    "longitude": "-90.07894573509353",
    "latitude": "29.9743551200114",
    "geocoded_column": {
      "latitude": "29.9743551200114",
      "longitude": "-90.07894573509353"
    }
  },
  {
    "service_request": "2024-1098340",
    "request_type": "Trash/Recycling",
    "request_reason": "Repair Trash Cart",
    "date_created": "2024-05-30T14:35:18.000",
    "date_modified": "2024-05-30T14:35:19.000",
    "request_status": "Pending",
    "responsible_agency": "Department of Sanitation",
    "final_address": "2645 Governor Nicholls St",
    "address_councildis": "D",
    "status": "Assigned to Contractor",
    "contractor": "IV Waste",
    "rowid": "1098340",
    "final_x": "3677990.62888",
    "final_y": "538333.697417",
    "longitude": "-90.0789161163728",
    "latitude": "29.974337121464433",
    "geocoded_column": {
      "latitude": "29.974337121464433",
      "longitude": "-90.0789161163728"
    }
  },
  {
    "service_request": "2024-1098339",
    "request_type": "Traffic Signals/Signs/Striping/Streetlights",
    "request_reason": "Traffic Signal Malfunctioning/Damaged",
    "date_created": "2024-05-30T14:35:11.000",
    "date_modified": "2024-05-30T14:35:13.000",
    "request_status": "Pending",
    "responsible_agency": "Department of Public Works",
    "final_address": "TCHOUPITOULAS ST & HENDERSTON ST",
    "address_councildis": "B",
    "status": "Pending",
    "rowid": "1098339",
    "final_x": "3682142.76",
    "final_y": "524105.36",
    "longitude": "-90.06629960944835",
    "latitude": "29.935088380982346",
    "geocoded_column": {
      "latitude": "29.935088380982346",
      "longitude": "-90.06629960944835"
    }
  },
  {
    "service_request": "2024-1098338",
    "request_type": "Trash/Recycling",
    "request_reason": "Repair Trash Cart",
    "date_created": "2024-05-30T14:34:22.000",
    "date_modified": "2024-05-30T14:34:23.000",
    "request_status": "Pending",
    "responsible_agency": "Department of Sanitation",
    "final_address": "3117 State Street Dr Apt 1A",
    "address_councildis": "A",
    "status": "Assigned to Contractor",
    "contractor": "IV Waste",
    "rowid": "1098338",
    "final_x": "3667458.33684",
    "final_y": "527488.537215",
    "longitude": "-90.11254462008108",
    "latitude": "29.94482934143217",
    "geocoded_column": {
      "latitude": "29.94482934143217",
      "longitude": "-90.11254462008108"
    }
  },
  {
    "service_request": "2024-1098337",
    "request_type": "Trash/Recycling",
    "request_reason": "Request a Large Item Pick Up",
    "date_created": "2024-05-30T14:32:16.000",
    "date_modified": "2024-05-30T14:32:17.000",
    "request_status": "Pending",
    "responsible_agency": "Department of Sanitation",
    "final_address": "7942 Dorsett Dr",
    "address_councildis": "E",
    "status": "Assigned to Contractor",
    "contractor": "Waste Pro",
    "rowid": "1098337",
    "final_x": "3712134.40498",
    "final_y": "568317.275493",
    "longitude": "-89.9699563966401",
    "latitude": "30.05570829409302",
    "geocoded_column": {
      "latitude": "30.05570829409302",
      "longitude": "-89.9699563966401"
    }
  },
  {
    "service_request": "2024-1098336",
    "request_type": "Trash/Recycling",
    "request_reason": "Request a Large Item Pick Up",
    "date_created": "2024-05-30T14:31:35.000",
    "date_modified": "2024-05-30T14:31:36.000",
    "request_status": "Pending",
    "responsible_agency": "Department of Sanitation",
    "final_address": "8003 Dorsett Dr",
    "address_councildis": "E",
    "status": "Assigned to Contractor",
    "contractor": "Waste Pro",
    "rowid": "1098336",
    "final_x": "3712166.27774",
    "final_y": "568402.153509",
    "longitude": "-89.9698524614221",
    "latitude": "30.05594063117286",
    "geocoded_column": {
      "latitude": "30.05594063117286",
      "longitude": "-89.9698524614221"
    }
  },
  {
    "service_request": "2024-1098335",
    "request_type": "Property Maintenance",
    "request_reason": "Property Maintenance",
    "date_created": "2024-05-30T14:30:50.000",
    "date_modified": "2024-05-30T16:28:44.000",
    "case_close_date": "2024-05-30T11:28:44.000",
    "request_status": "Closed",
    "responsible_agency": "Department of Code Enforcement",
    "final_address": "7571 Lacombe St",
    "address_councildis": "E",
    "status": "Referred to Code Enforcement",
    "rowid": "1098335",
    "final_x": "3709981.38789",
    "final_y": "564839.170722",
    "longitude": "-89.97689175914326",
    "latitude": "30.046215174774606",
    "geocoded_column": {
      "latitude": "30.046215174774606",
      "longitude": "-89.97689175914326"
    }
  },
  {
    "service_request": "2024-1098334",
    "request_type": "Roads/Drainage",
    "request_reason": "Pothole",
    "date_created": "2024-05-30T14:28:59.000",
    "date_modified": "2024-05-30T14:30:54.000",
    "case_close_date": "2024-05-30T09:30:54.000",
    "request_status": "Closed",
    "responsible_agency": "Department of Public Works",
    "final_address": "2500 BLK Clouet St",
    "address_councildis": "D",
    "status": "Resolved",
    "rowid": "1098334",
    "final_x": "3690369.72749",
    "final_y": "541463.037925",
    "longitude": "-90.03970855425003",
    "latitude": "29.9825632522381",
    "geocoded_column": {
      "latitude": "29.9825632522381",
      "longitude": "-90.03970855425003"
    }
  },
  {
    "service_request": "2024-1098333",
    "request_type": "Roads/Drainage",
    "request_reason": "Pothole",
    "date_created": "2024-05-30T14:27:19.000",
    "date_modified": "2024-05-30T14:27:44.000",
    "case_close_date": "2024-05-30T09:27:44.000",
    "request_status": "Closed",
    "responsible_agency": "Department of Public Works",
    "final_address": "2600 BLK Clouet St",
    "address_councildis": "D",
    "status": "Resolved",
    "rowid": "1098333",
    "final_x": "3690514.37057",
    "final_y": "542030.29368",
    "longitude": "-90.03923146616674",
    "latitude": "29.984118511726393",
    "geocoded_column": {
      "latitude": "29.984118511726393",
      "longitude": "-90.03923146616674"
    }
  },
  {
    "service_request": "2024-1098332",
    "request_type": "Roads/Drainage",
    "request_reason": "Man hole cover issue",
    "date_created": "2024-05-30T14:25:03.000",
    "date_modified": "2024-05-30T14:25:03.000",
    "request_status": "Pending",
    "responsible_agency": "Department of Public Works",
    "final_address": "POYDRAS ST & CAMP ST",
    "address_councildis": "B",
    "status": "Pending",
    "rowid": "1098332",
    "final_x": "3681126.1",
    "final_y": "529304.08",
    "longitude": "-90.06932814891445",
    "latitude": "29.949413998119116",
    "geocoded_column": {
      "latitude": "29.949413998119116",
      "longitude": "-90.06932814891445"
    }
  },
  {
    "service_request": "2024-1098331",
    "request_type": "Roads/Drainage",
    "request_reason": "Pothole",
    "date_created": "2024-05-30T14:24:58.000",
    "date_modified": "2024-05-30T14:25:28.000",
    "case_close_date": "2024-05-30T09:25:28.000",
    "request_status": "Closed",
    "responsible_agency": "Department of Public Works",
    "final_address": "2632 Clouet St",
    "address_councildis": "D",
    "status": "Resolved",
    "rowid": "1098331",
    "final_x": "3690420.28662",
    "final_y": "541845.122444",
    "longitude": "-90.03953523754248",
    "latitude": "29.983612278463873",
    "geocoded_column": {
      "latitude": "29.983612278463873",
      "longitude": "-90.03953523754248"
    }
  },
  {
    "service_request": "2024-1098330",
    "request_type": "Roads/Drainage",
    "request_reason": "Catch Basin - Clogged",
    "date_created": "2024-05-30T14:23:57.000",
    "date_modified": "2024-05-30T14:23:57.000",
    "request_status": "Pending",
    "responsible_agency": "Department of Public Works",
    "final_address": "7416 Edward St",
    "address_councildis": "E",
    "status": "Pending",
    "rowid": "1098330",
    "final_x": "3701192.91805",
    "final_y": "560327.220893",
    "longitude": "-90.00483297536326",
    "latitude": "30.03409221390936",
    "geocoded_column": {
      "latitude": "30.03409221390936",
      "longitude": "-90.00483297536326"
    }
  },
  {
    "service_request": "2024-1098329",
    "request_type": "Trash/Recycling",
    "request_reason": "Request a Large Item Pick Up",
    "date_created": "2024-05-30T14:23:53.000",
    "date_modified": "2024-05-30T14:23:53.000",
    "request_status": "Pending",
    "responsible_agency": "Department of Sanitation",
    "final_address": "7641 Eastmore Rd",
    "address_councildis": "E",
    "status": "Assigned to Contractor",
    "contractor": "Waste Pro",
    "rowid": "1098329",
    "final_x": "3700241.83607",
    "final_y": "560703.500894",
    "longitude": "-90.0078247418031",
    "latitude": "30.035157123544433",
    "geocoded_column": {
      "latitude": "30.035157123544433",
      "longitude": "-90.0078247418031"
    }
  },
  {
    "service_request": "2024-1098328",
    "request_type": "Trash/Recycling",
    "request_reason": "Request a Large Item Pick Up",
    "date_created": "2024-05-30T14:19:35.000",
    "date_modified": "2024-05-30T14:19:38.000",
    "request_status": "Pending",
    "responsible_agency": "Department of Sanitation",
    "final_address": "6070 Dorothea St",
    "address_councildis": "D",
    "status": "Assigned to Contractor",
    "contractor": "Waste Pro",
    "rowid": "1098328",
    "final_x": "3695963.60106",
    "final_y": "557253.534043",
    "longitude": "-90.02146941093446",
    "latitude": "30.025806421183322",
    "geocoded_column": {
      "latitude": "30.025806421183322",
      "longitude": "-90.02146941093446"
    }
  },
  {
    "service_request": "2024-1098327",
    "request_type": "Abandoned Vehicles",
    "request_reason": "Abandoned/Junk Vehicles",
    "date_created": "2024-05-30T14:17:41.000",
    "date_modified": "2024-05-30T14:17:41.000",
    "request_status": "Pending",
    "responsible_agency": "Department of Public Works",
    "final_address": "4929 Chrysler St",
    "address_councildis": "E",
    "status": "Pending",
    "rowid": "1098327",
    "final_x": "3715303.62923",
    "final_y": "557641.469211",
    "longitude": "-89.96034351742091",
    "latitude": "30.02625007878456",
    "geocoded_column": {
      "latitude": "30.02625007878456",
      "longitude": "-89.96034351742091"
    }
  },
  {
    "service_request": "2024-1098326",
    "request_type": "Trash/Recycling",
    "request_reason": "Request a Large Item Pick Up",
    "date_created": "2024-05-30T14:17:39.000",
    "date_modified": "2024-05-30T14:17:40.000",
    "request_status": "Pending",
    "responsible_agency": "Department of Sanitation",
    "final_address": "7938 Hickman St",
    "address_councildis": "E",
    "status": "Assigned to Contractor",
    "contractor": "Waste Pro",
    "rowid": "1098326",
    "final_x": "3705548.04753",
    "final_y": "564242.998049",
    "longitude": "-89.99092534785153",
    "latitude": "30.044719496345667",
    "geocoded_column": {
      "latitude": "30.044719496345667",
      "longitude": "-89.99092534785153"
    }
  },
  {
    "service_request": "2024-1098325",
    "request_type": "Abandoned Vehicles",
    "request_reason": "Abandoned/Junk Vehicles",
    "date_created": "2024-05-30T14:17:11.000",
    "date_modified": "2024-05-30T14:17:11.000",
    "request_status": "Pending",
    "responsible_agency": "Department of Public Works",
    "final_address": "3500 BLK Saint Bernard Ave",
    "address_councildis": "D",
    "status": "Inspected",
    "rowid": "1098325",
    "final_x": "3678366.51167",
    "final_y": "545198.976319",
    "longitude": "-90.07749135268699",
    "latitude": "29.99320293152759",
    "geocoded_column": {
      "latitude": "29.99320293152759",
      "longitude": "-90.07749135268699"
    }
  },
  {
    "service_request": "2024-1098324",
    "request_type": "Abandoned Vehicles",
    "request_reason": "Abandoned/Junk Vehicles",
    "date_created": "2024-05-30T14:15:30.000",
    "date_modified": "2024-05-30T14:15:30.000",
    "request_status": "Pending",
    "responsible_agency": "Department of Public Works",
    "final_address": "800 BLK Melpomene St",
    "address_councildis": "B",
    "status": "Pending",
    "rowid": "1098324",
    "final_x": "3681649.19277",
    "final_y": "524603.127091",
    "longitude": "-90.06784044180259",
    "latitude": "29.93647207298302",
    "geocoded_column": {
      "latitude": "29.93647207298302",
      "longitude": "-90.06784044180259"
    }
  },
  {
    "service_request": "2024-1098323",
    "request_type": "Abandoned Vehicles",
    "request_reason": "Abandoned/Junk Vehicles",
    "date_created": "2024-05-30T14:13:11.000",
    "date_modified": "2024-05-30T14:13:11.000",
    "request_status": "Pending",
    "responsible_agency": "Department of Public Works",
    "final_address": "4943 Chrysler St",
    "address_councildis": "E",
    "status": "Pending",
    "rowid": "1098323",
    "final_x": "3715291.82725",
    "final_y": "557760.647131",
    "longitude": "-89.9603762975421",
    "latitude": "30.026578159480156",
    "geocoded_column": {
      "latitude": "30.026578159480156",
      "longitude": "-89.9603762975421"
    }
  },
  {
    "service_request": "2024-1098322",
    "request_type": "Trash/Recycling",
    "request_reason": "Request a Large Item Pick Up",
    "date_created": "2024-05-30T14:11:54.000",
    "date_modified": "2024-05-30T14:11:55.000",
    "request_status": "Pending",
    "responsible_agency": "Department of Sanitation",
    "final_address": "7640 Crestmont Rd",
    "address_councildis": "E",
    "status": "Assigned to Contractor",
    "contractor": "Waste Pro",
    "rowid": "1098322",
    "final_x": "3699572.07229",
    "final_y": "560412.34851",
    "longitude": "-90.00995191728086",
    "latitude": "30.03437785394703",
    "geocoded_column": {
      "latitude": "30.03437785394703",
      "longitude": "-90.00995191728086"
    }
  },
  {
    "service_request": "2024-1098321",
    "request_type": "Trash/Recycling",
    "request_reason": "Replace Trash Cart",
    "date_created": "2024-05-30T14:06:29.000",
    "date_modified": "2024-05-30T14:06:30.000",
    "request_status": "Pending",
    "responsible_agency": "Department of Sanitation",
    "final_address": "23 Rail St",
    "address_councildis": "D",
    "status": "Assigned to Contractor",
    "contractor": "IV Waste",
    "rowid": "1098321",
    "final_x": "3674043.84712",
    "final_y": "557245.442715",
    "longitude": "-90.0907332893834",
    "latitude": "30.026455997672745",
    "geocoded_column": {
      "latitude": "30.026455997672745",
      "longitude": "-90.0907332893834"
    }
  },
  {
    "service_request": "2024-1098320",
    "request_type": "Trash/Recycling",
    "request_reason": "Request a Large Item Pick Up",
    "date_created": "2024-05-30T14:06:27.000",
    "date_modified": "2024-05-30T14:06:27.000",
    "request_status": "Pending",
    "responsible_agency": "Department of Sanitation",
    "final_address": "2810 Lepage St",
    "address_councildis": "A",
    "status": "Assigned to Contractor",
    "contractor": "IV Waste",
    "rowid": "1098320",
    "final_x": "3677453.40258",
    "final_y": "539759.081546",
    "longitude": "-90.08056358682853",
    "latitude": "29.978272598350745",
    "geocoded_column": {
      "latitude": "29.978272598350745",
      "longitude": "-90.08056358682853"
    }
  },
  {
    "service_request": "2024-1098319",
    "request_type": "Roads/Drainage",
    "request_reason": "Catch Basin - Clogged",
    "date_created": "2024-05-30T14:05:05.000",
    "date_modified": "2024-05-30T14:05:06.000",
    "request_status": "Pending",
    "responsible_agency": "Department of Public Works",
    "final_address": "1830 Cambronne St",
    "address_councildis": "A",
    "status": "Pending",
    "rowid": "1098319",
    "final_x": "3662708.88903",
    "final_y": "530860.659522",
    "longitude": "-90.12742808709885",
    "latitude": "29.95423987534759",
    "geocoded_column": {
      "latitude": "29.95423987534759",
      "longitude": "-90.12742808709885"
    }
  },
  {
    "service_request": "2024-1098318",
    "request_type": "Trash/Recycling",
    "request_reason": "Repair Trash Cart",
    "date_created": "2024-05-30T14:00:02.000",
    "date_modified": "2024-05-30T14:00:03.000",
    "request_status": "Pending",
    "responsible_agency": "Department of Sanitation",
    "final_address": "6033 Benjamin St",
    "address_councildis": "A",
    "status": "Assigned to Contractor",
    "contractor": "IV Waste",
    "rowid": "1098318",
    "final_x": "3665306.09895",
    "final_y": "522294.315706",
    "longitude": "-90.1195136411945",
    "latitude": "29.93060976484396",
    "geocoded_column": {
      "latitude": "29.93060976484396",
      "longitude": "-90.1195136411945"
    }
  },
  {
    "service_request": "2024-1098317",
    "request_type": "Trash/Recycling",
    "request_reason": "Illegal Dumping",
    "date_created": "2024-05-30T13:58:51.000",
    "date_modified": "2024-05-30T14:04:26.000",
    "request_status": "Pending",
    "responsible_agency": "Department of Sanitation",
    "final_address": "1921 N Roman St",
    "address_councildis": "D",
    "status": "Pending",
    "rowid": "1098317",
    "final_x": "3683861.12572",
    "final_y": "538841.661449",
    "longitude": "-90.06035790440457",
    "latitude": "29.975555825544657",
    "geocoded_column": {
      "latitude": "29.975555825544657",
      "longitude": "-90.06035790440457"
    }
  },
  {
    "service_request": "2024-1098316",
    "request_type": "Trash/Recycling",
    "request_reason": "Illegal Dumping",
    "date_created": "2024-05-30T13:58:16.000",
    "date_modified": "2024-05-30T13:58:16.000",
    "request_status": "Pending",
    "responsible_agency": "Department of Sanitation",
    "final_address": "100 BLK S Clark St",
    "address_councildis": "B",
    "status": "Pending",
    "rowid": "1098316",
    "final_x": "3672725.30478",
    "final_y": "536816.060014",
    "longitude": "-90.09559706054158",
    "latitude": "29.97032157877794",
    "geocoded_column": {
      "latitude": "29.97032157877794",
      "longitude": "-90.09559706054158"
    }
  },
  {
    "service_request": "2024-1098315",
    "request_type": "Roads/Drainage",
    "request_reason": "Pothole",
    "date_created": "2024-05-30T13:56:13.000",
    "date_modified": "2024-05-30T13:56:13.000",
    "request_status": "Pending",
    "responsible_agency": "Department of Public Works",
    "final_address": "1205 Arabella St",
    "address_councildis": "A",
    "status": "Pending",
    "rowid": "1098315",
    "final_x": "3666189.92372",
    "final_y": "520305.980408",
    "longitude": "-90.11679016775416",
    "latitude": "29.92511669789943",
    "geocoded_column": {
      "latitude": "29.92511669789943",
      "longitude": "-90.11679016775416"
    }
  },
  {
    "service_request": "2024-1098313",
    "request_type": "Trash/Recycling",
    "request_reason": "Request a Large Item Pick Up",
    "date_created": "2024-05-30T13:55:45.000",
    "date_modified": "2024-05-30T13:55:45.000",
    "request_status": "Pending",
    "responsible_agency": "Department of Sanitation",
    "final_address": "831 Fourth St",
    "address_councildis": "B",
    "status": "Assigned to Contractor",
    "contractor": "IV Waste",
    "rowid": "1098313",
    "final_x": "3677808.4877",
    "final_y": "520325.447224",
    "longitude": "-90.08011340297391",
    "latitude": "29.924825926913343",
    "geocoded_column": {
      "latitude": "29.924825926913343",
      "longitude": "-90.08011340297391"
    }
  },
  {
    "service_request": "2024-1098312",
    "request_type": "Traffic Signals/Signs/Striping/Streetlights",
    "request_reason": "Additional signage",
    "date_created": "2024-05-30T13:53:13.000",
    "date_modified": "2024-05-30T13:53:13.000",
    "request_status": "Pending",
    "responsible_agency": "Department of Public Works",
    "final_address": "2426 Esplanade Ave",
    "address_councildis": "D",
    "status": "Pending",
    "rowid": "1098312",
    "final_x": "3678785.64533",
    "final_y": "538352.185737",
    "longitude": "-90.0764046258249",
    "latitude": "29.974364002399764",
    "geocoded_column": {
      "latitude": "29.974364002399764",
      "longitude": "-90.0764046258249"
    }
  },
  {
    "service_request": "2024-1098311",
    "request_type": "Trash/Recycling",
    "request_reason": "Replace Trash Cart",
    "date_created": "2024-05-30T13:52:12.000",
    "date_modified": "2024-05-30T13:52:13.000",
    "request_status": "Pending",
    "responsible_agency": "Department of Sanitation",
    "final_address": "1637 Feliciana St",
    "address_councildis": "D",
    "status": "Assigned to Contractor",
    "contractor": "IV Waste",
    "rowid": "1098311",
    "final_x": "3689411.69737",
    "final_y": "538231.617033",
    "longitude": "-90.04284942781163",
    "latitude": "29.973707696070328",
    "geocoded_column": {
      "latitude": "29.973707696070328",
      "longitude": "-90.04284942781163"
    }
  },
  {
    "service_request": "2024-1098310",
    "request_type": "Abandoned Vehicles",
    "request_reason": "Abandoned/Junk Vehicles",
    "date_created": "2024-05-30T13:50:32.000",
    "date_modified": "2024-05-30T13:50:32.000",
    "request_status": "Pending",
    "responsible_agency": "Department of Public Works",
    "final_address": "4006 Annunciation St",
    "address_councildis": "B",
    "status": "Pending",
    "rowid": "1098310",
    "final_x": "3672530.69691",
    "final_y": "517853.182198",
    "longitude": "-90.0968578934684",
    "latitude": "29.91818565394963",
    "geocoded_column": {
      "latitude": "29.91818565394963",
      "longitude": "-90.0968578934684"
    }
  },
  {
    "service_request": "2024-1098309",
    "request_type": "Traffic Signals/Signs/Striping/Streetlights",
    "request_reason": "Additional signage",
    "date_created": "2024-05-30T13:49:35.000",
    "date_modified": "2024-05-30T13:49:35.000",
    "request_status": "Pending",
    "responsible_agency": "Department of Public Works",
    "final_address": "LAKE FOREST BLVD & WRIGHT RD",
    "address_councildis": "E",
    "status": "Pending",
    "rowid": "1098309",
    "final_x": "3714954.0",
    "final_y": "560822.88",
    "longitude": "-89.96132792080115",
    "latitude": "30.03500920221173",
    "geocoded_column": {
      "latitude": "30.03500920221173",
      "longitude": "-89.96132792080115"
    }
  },
  {
    "service_request": "2024-1098308",
    "request_type": "Traffic Signals/Signs/Striping/Streetlights",
    "request_reason": "Additional signage",
    "date_created": "2024-05-30T13:49:01.000",
    "date_modified": "2024-05-30T13:49:01.000",
    "request_status": "Pending",
    "responsible_agency": "Department of Public Works",
    "final_address": "LAKE FOREST BLVD & WRIGHT RD",
    "address_councildis": "E",
    "status": "Pending",
    "rowid": "1098308",
    "final_x": "3714954.0",
    "final_y": "560822.88",
    "longitude": "-89.96132792080115",
    "latitude": "30.03500920221173",
    "geocoded_column": {
      "latitude": "30.03500920221173",
      "longitude": "-89.96132792080115"
    }
  },
  {
    "service_request": "2024-1098307",
    "request_type": "Trash/Recycling",
    "request_reason": "Start Trash Service",
    "date_created": "2024-05-30T13:48:49.000",
    "date_modified": "2024-05-30T13:48:49.000",
    "request_status": "Pending",
    "responsible_agency": "Department of Sanitation",
    "final_address": "1639 Feliciana St",
    "address_councildis": "D",
    "status": "Assigned to Contractor",
    "contractor": "IV Waste",
    "rowid": "1098307",
    "final_x": "3689320.42915",
    "final_y": "538265.967369",
    "longitude": "-90.04313645016357",
    "latitude": "29.9738049734085",
    "geocoded_column": {
      "latitude": "29.9738049734085",
      "longitude": "-90.04313645016357"
    }
  },
  {
    "service_request": "2024-1098306",
    "request_type": "Abandoned Vehicles",
    "request_reason": "Abandoned/Junk Vehicles",
    "date_created": "2024-05-30T13:45:53.000",
    "date_modified": "2024-05-30T13:45:53.000",
    "request_status": "Pending",
    "responsible_agency": "Department of Public Works",
    "final_address": "7833 Mill St",
    "address_councildis": "E",
    "status": "Pending",
    "rowid": "1098306",
    "final_x": "3696412.24189",
    "final_y": "559779.572701",
    "longitude": "-90.01996028387568",
    "latitude": "30.032737930626073",
    "geocoded_column": {
      "latitude": "30.032737930626073",
      "longitude": "-90.01996028387568"
    }
  },
  {
    "service_request": "2024-1098305",
    "request_type": "Trash/Recycling",
    "request_reason": "Request a Large Item Pick Up",
    "date_created": "2024-05-30T13:45:10.000",
    "date_modified": "2024-05-30T13:45:10.000",
    "request_status": "Pending",
    "responsible_agency": "Department of Sanitation",
    "final_address": "1410 Jackson Ave",
    "address_councildis": "B",
    "status": "Assigned to Contractor",
    "contractor": "IV Waste",
    "rowid": "1098305",
    "final_x": "3678103.46293",
    "final_y": "522922.013179",
    "longitude": "-90.0790925440959",
    "latitude": "29.93195676211378",
    "geocoded_column": {
      "latitude": "29.93195676211378",
      "longitude": "-90.0790925440959"
    }
  },
  {
    "service_request": "2024-1098304",
    "request_type": "Abandoned Vehicles",
    "request_reason": "Abandoned/Junk Vehicles",
    "date_created": "2024-05-30T13:42:53.000",
    "date_modified": "2024-05-30T13:42:53.000",
    "request_status": "Pending",
    "responsible_agency": "Department of Public Works",
    "final_address": "4471 Michoud Blvd",
    "address_councildis": "E",
    "status": "Pending",
    "rowid": "1098304",
    "final_x": "3726057.84864",
    "final_y": "558777.758812",
    "longitude": "-89.92631789315858",
    "latitude": "30.029015707123804",
    "geocoded_column": {
      "latitude": "30.029015707123804",
      "longitude": "-89.92631789315858"
    }
  },
  {
    "service_request": "2024-1098303",
    "request_type": "Trash/Recycling",
    "request_reason": "Request a Large Item Pick Up",
    "date_created": "2024-05-30T13:41:01.000",
    "date_modified": "2024-05-30T13:41:01.000",
    "request_status": "Pending",
    "responsible_agency": "Department of Sanitation",
    "final_address": "5432 N Rampart St",
    "address_councildis": "E",
    "status": "Assigned to Contractor",
    "contractor": "Waste Pro",
    "rowid": "1098303",
    "final_x": "3697310.89047",
    "final_y": "533425.427204",
    "longitude": "-90.01807643914437",
    "latitude": "29.960245407096338",
    "geocoded_column": {
      "latitude": "29.960245407096338",
      "longitude": "-90.01807643914437"
    }
  },
  {
    "service_request": "2024-1098302",
    "request_type": "Trash/Recycling",
    "request_reason": "Request a Large Item Pick Up",
    "date_created": "2024-05-30T13:39:54.000",
    "date_modified": "2024-05-30T13:39:54.000",
    "request_status": "Pending",
    "responsible_agency": "Department of Sanitation",
    "final_address": "1638 Cambronne St",
    "address_councildis": "A",
    "status": "Assigned to Contractor",
    "contractor": "IV Waste",
    "rowid": "1098302",
    "final_x": "3662293.24109",
    "final_y": "530396.05005",
    "longitude": "-90.1287559662384",
    "latitude": "29.95297437071311",
    "geocoded_column": {
      "latitude": "29.95297437071311",
      "longitude": "-90.1287559662384"
    }
  },
  {
    "service_request": "2024-1098301",
    "request_type": "Roads/Drainage",
    "request_reason": "Catch Basin - Clogged",
    "date_created": "2024-05-30T13:39:09.000",
    "date_modified": "2024-05-30T13:39:09.000",
    "request_status": "Pending",
    "responsible_agency": "Department of Public Works",
    "final_address": "2 Duckhook Dr",
    "address_councildis": "A",
    "status": "Pending",
    "rowid": "1098301",
    "final_x": "3667179.30823",
    "final_y": "539175.071178",
    "longitude": "-90.11303264383552",
    "latitude": "29.976971631165455",
    "geocoded_column": {
      "latitude": "29.976971631165455",
      "longitude": "-90.11303264383552"
    }
  },
  {
    "service_request": "2024-1098300",
    "request_type": "Trash/Recycling",
    "request_reason": "Request a Large Item Pick Up",
    "date_created": "2024-05-30T13:39:05.000",
    "date_modified": "2024-05-30T13:39:05.000",
    "request_status": "Pending",
    "responsible_agency": "Department of Sanitation",
    "final_address": "1703 Cambronne St",
    "address_councildis": "A",
    "status": "Assigned to Contractor",
    "contractor": "IV Waste",
    "rowid": "1098300",
    "final_x": "3662404.17875",
    "final_y": "530407.98573",
    "longitude": "-90.12840527585227",
    "latitude": "29.95300398273215",
    "geocoded_column": {
      "latitude": "29.95300398273215",
      "longitude": "-90.12840527585227"
    }
  },
  {
    "service_request": "2024-1098299",
    "request_type": "Roads/Drainage",
    "request_reason": "Catch Basin - Clogged",
    "date_created": "2024-05-30T13:38:41.000",
    "date_modified": "2024-05-30T13:38:42.000",
    "request_status": "Pending",
    "responsible_agency": "Department of Public Works",
    "final_address": "9 Duckhook Dr",
    "address_councildis": "A",
    "status": "Pending",
    "rowid": "1098299",
    "final_x": "3667293.85447",
    "final_y": "539123.188938",
    "longitude": "-90.11267261452448",
    "latitude": "29.976825617627888",
    "geocoded_column": {
      "latitude": "29.976825617627888",
      "longitude": "-90.11267261452448"
    }
  },
  {
    "service_request": "2024-1098298",
    "request_type": "Trash/Recycling",
    "request_reason": "Request a Large Item Pick Up",
    "date_created": "2024-05-30T13:38:21.000",
    "date_modified": "2024-05-30T13:38:21.000",
    "request_status": "Pending",
    "responsible_agency": "Department of Sanitation",
    "final_address": "1825 Jackson Ave",
    "address_councildis": "B",
    "status": "Assigned to Contractor",
    "contractor": "IV Waste",
    "rowid": "1098298",
    "final_x": "3676910.3693",
    "final_y": "524691.377596",
    "longitude": "-90.08279805771483",
    "latitude": "29.936857790826902",
    "geocoded_column": {
      "latitude": "29.936857790826902",
      "longitude": "-90.08279805771483"
    }
  },
  {
    "service_request": "2024-1098297",
    "request_type": "Trash/Recycling",
    "request_reason": "Replace Trash Cart",
    "date_created": "2024-05-30T13:36:35.000",
    "date_modified": "2024-05-30T13:36:35.000",
    "request_status": "Pending",
    "responsible_agency": "Department of Sanitation",
    "final_address": "4938 Bienville Ave",
    "address_councildis": "A",
    "status": "Assigned to Contractor",
    "contractor": "IV Waste",
    "rowid": "1098297",
    "final_x": "3668720.95342",
    "final_y": "541068.603916",
    "longitude": "-90.10809967285789",
    "latitude": "29.9821329715082",
    "geocoded_column": {
      "latitude": "29.9821329715082",
      "longitude": "-90.10809967285789"
    }
  },
  {
    "service_request": "2024-1098296",
    "request_type": "Abandoned Vehicles",
    "request_reason": "Vehicle Blocking Your Driveway",
    "date_created": "2024-05-30T13:35:49.000",
    "date_modified": "2024-05-30T13:35:49.000",
    "request_status": "Pending",
    "responsible_agency": "Department of Public Works",
    "final_address": "4471 Michoud Blvd",
    "address_councildis": "E",
    "status": "Pending",
    "rowid": "1098296",
    "final_x": "3726057.84864",
    "final_y": "558777.758812",
    "longitude": "-89.92631789315858",
    "latitude": "30.029015707123804",
    "geocoded_column": {
      "latitude": "30.029015707123804",
      "longitude": "-89.92631789315858"
    }
  },
  {
    "service_request": "2024-1098295",
    "request_type": "Roads/Drainage",
    "request_reason": "Catch Basin - Clogged",
    "date_created": "2024-05-30T13:34:35.000",
    "date_modified": "2024-05-30T13:34:36.000",
    "request_status": "Pending",
    "responsible_agency": "Department of Public Works",
    "final_address": "7900 BLK Panola St",
    "address_councildis": "A",
    "status": "Pending",
    "rowid": "1098295",
    "final_x": "3664545.97993",
    "final_y": "530296.359471",
    "longitude": "-90.12164610561202",
    "latitude": "29.952634943579156",
    "geocoded_column": {
      "latitude": "29.952634943579156",
      "longitude": "-90.12164610561202"
    }
  },
  {
    "service_request": "2024-1098294",
    "request_type": "Trash/Recycling",
    "request_reason": "Request a Large Item Pick Up",
    "date_created": "2024-05-30T13:32:51.000",
    "date_modified": "2024-05-30T13:32:51.000",
    "request_status": "Pending",
    "responsible_agency": "Department of Sanitation",
    "final_address": "4315 Rayne Dr",
    "address_councildis": "D",
    "status": "Assigned to Contractor",
    "contractor": "IV Waste",
    "rowid": "1098294",
    "final_x": "3679878.86005",
    "final_y": "548352.584402",
    "longitude": "-90.0726044916499",
    "latitude": "30.00182857253182",
    "geocoded_column": {
      "latitude": "30.00182857253182",
      "longitude": "-90.0726044916499"
    }
  },
  {
    "service_request": "2024-1098293",
    "request_type": "Trash/Recycling",
    "request_reason": "MIssed Recycling Pick-Up",
    "date_created": "2024-05-30T13:30:45.000",
    "date_modified": "2024-05-30T13:46:50.000",
    "case_close_date": "2024-05-30T08:46:50.000",
    "request_status": "Closed",
    "responsible_agency": "Department of Sanitation",
    "final_address": "3613 Magazine St",
    "address_councildis": "B",
    "status": "Invalid Request",
    "contractor": "IV Waste",
    "contractor_action": "Invalid",
    "rowid": "1098293",
    "final_x": "3674048.57428",
    "final_y": "519320.465207",
    "longitude": "-90.09201659382869",
    "latitude": "29.922175087514688",
    "geocoded_column": {
      "latitude": "29.922175087514688",
      "longitude": "-90.09201659382869"
    }
  },
  {
    "service_request": "2024-1098292",
    "request_type": "Roads/Drainage",
    "request_reason": "Pothole",
    "date_created": "2024-05-30T13:15:05.000",
    "date_modified": "2024-05-30T13:15:06.000",
    "request_status": "Pending",
    "responsible_agency": "Department of Public Works",
    "final_address": "Bolivar Street & Lafayette Street",
    "address_councildis": "B",
    "status": "Pending",
    "rowid": "1098292",
    "final_x": "3676369.75777",
    "final_y": "530539.977346",
    "longitude": "-90.08430352548406",
    "latitude": "29.952955717492298",
    "geocoded_column": {
      "latitude": "29.952955717492298",
      "longitude": "-90.08430352548406"
    }
  },