[
  {
    "service_request": "2026-1257614",
    "request_type": "Trash/Recycling",
    "request_reason": "Request a Large Item Pick Up",
    "date_created": "2026-02-09T21:14:32.000",
    "date_modified": "2026-02-09T21:14:34.000",
    "request_status": "Pending",
    "responsible_agency": "Department of Sanitation",
    "final_address": "44 Marywood Ct",
    "address_councildis": "E",
    "status": "Assigned to Contractor",
    "contractor": "Waste Pro",
    "rowid": "1257614",
    "final_x": "3712233.94373",
    "final_y": "567025.747748",
    "longitude": "-89.96969035871096",
    "latitude": "30.052153862366005",
    "geocoded_column": {
      "latitude": "30.052153862366005",
      "longitude": "-89.96969035871096"
    }
  },
  {
    "service_request": "2026-1257613",
    "request_type": "Streetlights",
    "request_reason": "Streetlight Outage/Malfunction",
    "date_created": "2026-02-09T21:04:07.000",
    "date_modified": "2026-02-09T21:04:09.000",
    "request_status": "Pending",
    "responsible_agency": "Department of Public Works",
    "final_address": "445 Topaz St",
    "address_councildis": "D",
    "status": "Pending",
    "rowid": "1257613",
    "final_x": "3668030.1817",
    "final_y": "556567.57289",
    "longitude": "-90.10975872785272",
    "latitude": "30.02477004359848",
    "geocoded_column": {
      "latitude": "30.02477004359848",
      "longitude": "-90.10975872785272"
    }
  },
  {
    "service_request": "2026-1257612",
    "request_type": "Safety & Permits",
    "request_reason": "Zoning Enforcement",
    "date_created": "2026-02-09T21:03:21.000",
    "date_modified": "2026-02-09T21:03:23.000",
    "request_status": "Pending",
    "responsible_agency": "Safety and Permits",
    "final_address": "1103 Royal St",
    "address_councildis": "C",
    "status": "Pending",
    "rowid": "1257612",
    "final_x": "3683454.08885",
    "final_y": "533683.208389",
    "longitude": "-90.06182422292649",
    "latitude": "29.961384290915166",
    "geocoded_column": {
      "latitude": "29.961384290915166",
      "longitude": "-90.06182422292649"
    }
  },
  {
    "service_request": "2026-1257611",
    "request_type": "Trash/Recycling",
    "request_reason": "Request a Large Item Pick Up",
    "date_created": "2026-02-09T20:33:00.000",
    "date_modified": "2026-02-09T20:33:03.000",
    "request_status": "Pending",
    "responsible_agency": "Department of Sanitation",
    "final_address": "1990 Hope St",
    "address_councildis": "D",
    "status": "Assigned to Contractor",
    "contractor": "IV Waste",
    "rowid": "1257611",
    "final_x": "3682231.41231",
    "final_y": "541981.805708",
    "longitude": "-90.06539524023763",
    "latitude": "29.98423980819682",
    "geocoded_column": {
      "latitude": "29.98423980819682",
      "longitude": "-90.06539524023763"
    }
  },
  {
    "service_request": "2026-1257610",
    "request_type": "Streetlights",
    "request_reason": "Streetlight Outage/Malfunction",
    "date_created": "2026-02-09T20:25:05.000",
    "date_modified": "2026-02-09T20:25:07.000",
    "request_status": "Pending",
    "responsible_agency": "Department of Public Works",
    "final_address": "10931 Kinneil Rd",
    "address_councildis": "E",
    "status": "Pending",
    "rowid": "1257610",
    "final_x": "3711385.83154",
    "final_y": "564347.671393",
    "longitude": "-89.9724714906061",
    "latitude": "30.0448179604578",
    "geocoded_column": {
      "latitude": "30.0448179604578",
      "longitude": "-89.9724714906061"
    }
  },
  {
    "service_request": "2026-1257609",
    "request_type": "General Services",
    "request_reason": "General Service Request",
    "date_created": "2026-02-09T20:07:53.000",
    "date_modified": "2026-02-09T20:07:55.000",
    "request_status": "Pending",
    "responsible_agency": "Orleans Parish Communication District",
    "final_address": "Tchoupitoulas St at third Street.",
    "status": "Pending",
    "rowid": "1257609",
    "longitude": "0.0",
    "latitude": "0.0",
    "geocoded_column": {
      "latitude": "0.0",
      "longitude": "0.0"
    }
  },
  {
    "service_request": "2026-1257608",
    "request_type": "Trash/Recycling",
    "request_reason": "Request a Large Item Pick Up",
    "date_created": "2026-02-09T19:52:57.000",
    "date_modified": "2026-02-09T19:53:00.000",
    "request_status": "Pending",
    "responsible_agency": "Department of Sanitation",
    "final_address": "6421 Perlita Dr",
    "address_councildis": "D",
    "status": "Assigned to Contractor",
    "contractor": "IV Waste",
    "rowid": "1257608",
    "final_x": "3677748.6267",
    "final_y": "556817.452762",
    "longitude": "-90.07904140421172",
    "latitude": "30.02516819106918",
    "geocoded_column": {
      "latitude": "30.02516819106918",
      "longitude": "-90.07904140421172"
    }
  },
  {
    "service_request": "2026-1257607",
    "request_type": "Trash/Recycling",
    "request_reason": "Request a Large Item Pick Up",
    "date_created": "2026-02-09T19:46:45.000",
    "date_modified": "2026-02-09T19:46:48.000",
    "request_status": "Pending",
    "responsible_agency": "Department of Sanitation",
    "final_address": "7830 Parry St",
    "address_councildis": "E",
    "status": "Assigned to Contractor",
    "contractor": "Waste Pro",
    "rowid": "1257607",
    "final_x": "3713945.12965",
    "final_y": "568965.835942",
    "longitude": "-89.96420860137064",
    "latitude": "30.05743220476295",
    "geocoded_column": {
      "latitude": "30.05743220476295",
      "longitude": "-89.96420860137064"
    }
  },
  {
    "service_request": "2026-1257606",
    "request_type": "General Services",
    "request_reason": "General Service Request",
    "date_created": "2026-02-09T19:43:07.000",
    "date_modified": "2026-02-09T19:43:08.000",
    "request_status": "Pending",
    "responsible_agency": "Orleans Parish Communication District",
    "final_address": "6733 Memphis St",
    "address_councildis": "A",
    "status": "Pending",
    "rowid": "1257606",
    "final_x": "3669729.55662",
    "final_y": "552204.440214",
    "longitude": "-90.10453682014668",
    "latitude": "30.01272297280264",
    "geocoded_column": {
      "latitude": "30.01272297280264",
      "longitude": "-90.10453682014668"
    }
  },
  {
    "service_request": "2026-1257605",
    "request_type": "Trash/Recycling",
    "request_reason": "Order Trash Cart",
    "date_created": "2026-02-09T19:42:58.000",
    "date_modified": "2026-02-09T19:43:00.000",
    "request_status": "Pending",
    "responsible_agency": "Department of Sanitation",
    "final_address": "7280 Endston Ct",
    "address_councildis": "E",
    "status": "Assigned to Contractor",
    "contractor": "Waste Pro",
    "rowid": "1257605",
    "final_x": "3711994.8716",
    "final_y": "564802.244962",
    "longitude": "-89.97052957157271",
    "latitude": "30.046047951529463",
    "geocoded_column": {
      "latitude": "30.046047951529463",
      "longitude": "-89.97052957157271"
    }
  },
  {
    "service_request": "2026-1257604",
    "request_type": "Property Maintenance",
    "request_reason": "Property Maintenance",
    "date_created": "2026-02-09T19:35:14.000",
    "date_modified": "2026-02-09T19:35:17.000",
    "request_status": "Pending",
    "responsible_agency": "Department of Code Enforcement",
    "final_address": "2501 Delery St",
    "address_councildis": "E",
    "status": "Pending",
    "rowid": "1257604",
    "final_x": "3702543.88772",
    "final_y": "537932.615945",
    "longitude": "-90.00138640818791",
    "latitude": "29.97247234604057",
    "geocoded_column": {
      "latitude": "29.97247234604057",
      "longitude": "-90.00138640818791"
    }
  },
  {
    "service_request": "2026-1257603",
    "request_type": "Trash/Recycling",
    "request_reason": "Request a Large Item Pick Up",
    "date_created": "2026-02-09T18:47:43.000",
    "date_modified": "2026-02-09T18:47:45.000",
    "request_status": "Pending",
    "responsible_agency": "Department of Sanitation",
    "final_address": "709 Park Blvd",
    "address_councildis": "C",
    "status": "Assigned to Contractor",
    "contractor": "Richards Disposal",
    "rowid": "1257603",
    "final_x": "3688176.59439",
    "final_y": "525854.715645",
    "longitude": "-90.04718889146514",
    "latitude": "29.9397136803815",
    "geocoded_column": {
      "latitude": "29.9397136803815",
      "longitude": "-90.04718889146514"
    }
  },
  {
    "service_request": "2026-1257602",
    "request_type": "Trash/Recycling",
    "request_reason": "Order Recycling Cart",
    "date_created": "2026-02-09T18:42:03.000",
    "date_modified": "2026-02-09T18:42:05.000",
    "request_status": "Pending",
    "responsible_agency": "Department of Sanitation",
    "final_address": "825 Second St",
    "address_councildis": "B",
    "status": "Pending",
    "rowid": "1257602",
    "final_x": "3678346.1691",
    "final_y": "520602.955704",
    "longitude": "-90.0784065259112",
    "latitude": "29.92557280405251",
    "geocoded_column": {
      "latitude": "29.92557280405251",
      "longitude": "-90.0784065259112"
    }
  },
  {
    "service_request": "2026-1257601",
    "request_type": "General Services",
    "request_reason": "General Service Request",
    "date_created": "2026-02-09T18:32:58.000",
    "date_modified": "2026-02-09T18:33:00.000",
    "request_status": "Pending",
    "responsible_agency": "Orleans Parish Communication District",
    "final_address": "2018 Camp St",
    "address_councildis": "B",
    "status": "Pending",
    "rowid": "1257601",
    "final_x": "3679170.34114",
    "final_y": "522756.470074",
    "longitude": "-90.07573025702844",
    "latitude": "29.9314694189033",
    "geocoded_column": {
      "latitude": "29.9314694189033",
      "longitude": "-90.07573025702844"
    }
  },
  {
    "service_request": "2026-1257600",
    "request_type": "General Services",
    "request_reason": "General Service Request",
    "date_created": "2026-02-09T18:22:16.000",
    "date_modified": "2026-02-09T18:22:18.000",
    "request_status": "Pending",
    "responsible_agency": "Orleans Parish Communication District",
    "final_address": "913 Marengo St",
    "address_councildis": "B",
    "status": "Pending",
    "rowid": "1257600",
    "final_x": "3672230.68923",
    "final_y": "519042.888311",
    "longitude": "-90.09776436433847",
    "latitude": "29.921465865437668",
    "geocoded_column": {
      "latitude": "29.921465865437668",
      "longitude": "-90.09776436433847"
    }
  },
  {
    "service_request": "2026-1257599",
    "request_type": "Trash/Recycling",
    "request_reason": "Repair Trash Cart",
    "date_created": "2026-02-09T18:08:08.000",
    "date_modified": "2026-02-09T18:08:10.000",
    "request_status": "Pending",
    "responsible_agency": "Department of Sanitation",
    "final_address": "5861 Louisville St",
    "address_councildis": "A",
    "status": "Assigned to Contractor",
    "contractor": "IV Waste",
    "rowid": "1257599",
    "final_x": "3667713.43668",
    "final_y": "546426.759313",
    "longitude": "-90.11110138879833",
    "latitude": "29.996895654527673",
    "geocoded_column": {
      "latitude": "29.996895654527673",
      "longitude": "-90.11110138879833"
    }
  },
  {
    "service_request": "2026-1257598",
    "request_type": "Trash/Recycling",
    "request_reason": "Replace Trash Cart",
    "date_created": "2026-02-09T17:43:58.000",
    "date_modified": "2026-02-09T17:44:00.000",
    "request_status": "Pending",
    "responsible_agency": "Department of Sanitation",
    "final_address": "214 N Genois St",
    "address_councildis": "B",
    "status": "Assigned to Contractor",
    "contractor": "IV Waste",
    "rowid": "1257598",
    "final_x": "3673001.54024",
    "final_y": "537667.035592",
    "longitude": "-90.0946956259669",
    "latitude": "29.972653266169196",
    "geocoded_column": {
      "latitude": "29.972653266169196",
      "longitude": "-90.0946956259669"
    }
  },
  {
    "service_request": "2026-1257597",
    "request_type": "Trash/Recycling",
    "request_reason": "Request a Large Item Pick Up",
    "date_created": "2026-02-09T17:41:31.000",
    "date_modified": "2026-02-09T17:41:33.000",
    "request_status": "Pending",
    "responsible_agency": "Department of Sanitation",
    "final_address": "2515 Palmer Ave",
    "address_councildis": "A",
    "status": "Assigned to Contractor",
    "contractor": "IV Waste",
    "rowid": "1257597",
    "final_x": "3666549.1698",
    "final_y": "526015.268286",
    "longitude": "-90.11546458584183",
    "latitude": "29.940804929248216",
    "geocoded_column": {
      "latitude": "29.940804929248216",
      "longitude": "-90.11546458584183"
    }
  },
  {
    "service_request": "2026-1257596",
    "request_type": "Safety & Permits",
    "request_reason": "Zoning Enforcement",
    "date_created": "2026-02-09T17:29:49.000",
    "date_modified": "2026-02-09T17:29:52.000",
    "request_status": "Pending",
    "responsible_agency": "Safety and Permits",
    "final_address": "5830 E Louis Prima Dr",
    "address_councildis": "E",
    "status": "Pending",
    "rowid": "1257596",
    "final_x": "3715617.11532",
    "final_y": "562819.016672",
    "longitude": "-89.95915674474126",
    "latitude": "30.04047592444048",
    "geocoded_column": {
      "latitude": "30.04047592444048",
      "longitude": "-89.95915674474126"
    }
  },
  {
    "service_request": "2026-1257595",
    "request_type": "Trash/Recycling",
    "request_reason": "Return Trash Cart",
    "date_created": "2026-02-09T17:22:26.000",
    "date_modified": "2026-02-09T17:22:28.000",
    "request_status": "Pending",
    "responsible_agency": "Department of Sanitation",
    "final_address": "927 Nashville Ave",
    "address_councildis": "A",
    "status": "Assigned to Contractor",
    "contractor": "IV Waste",
    "rowid": "1257595",
    "final_x": "3665705.84352",
    "final_y": "519509.694775",
    "longitude": "-90.11834491278498",
    "latitude": "29.922941285922118",
    "geocoded_column": {
      "latitude": "29.922941285922118",
      "longitude": "-90.11834491278498"
    }
  },
  {
    "service_request": "2026-1257594",
    "request_type": "Parks & Parkways",
    "request_reason": "Request Tree Service (Right of Way/Public Property)",
    "date_created": "2026-02-09T17:17:09.000",
    "date_modified": "2026-02-09T17:17:11.000",
    "request_status": "Pending",
    "responsible_agency": "Department of Parks & Parkway",
    "final_address": "1464 N Dorgenois St",
    "address_councildis": "D",
    "status": "Pending",
    "rowid": "1257594",
    "final_x": "3679093.29717",
    "final_y": "539146.463178",
    "longitude": "-90.07540544933704",
    "latitude": "29.97653870834625",
    "geocoded_column": {
      "latitude": "29.97653870834625",
      "longitude": "-90.07540544933704"
    }
  },
  {
    "service_request": "2026-1257593",
    "request_type": "Abandoned Vehicles",
    "request_reason": "Abandoned/Junk Vehicles",
    "date_created": "2026-02-09T17:14:31.000",
    "date_modified": "2026-02-09T17:14:32.000",
    "request_status": "Pending",
    "responsible_agency": "Department of Public Works",
    "final_address": "2015 Camp St",
    "address_councildis": "B",
    "status": "Pending",
    "rowid": "1257593",
    "final_x": "3679144.77858",
    "final_y": "522804.344763",
    "longitude": "-90.0758092963056",
    "latitude": "29.931601830006343",
    "geocoded_column": {
      "latitude": "29.931601830006343",
      "longitude": "-90.0758092963056"
    }
  },
  {
    "service_request": "2026-1257592",
    "request_type": "Trash/Recycling",
    "request_reason": "Replace Trash Cart",
    "date_created": "2026-02-09T16:57:46.000",
    "date_modified": "2026-02-09T16:57:48.000",
    "request_status": "Pending",
    "responsible_agency": "Department of Sanitation",
    "final_address": "2020 Camp St",
    "address_councildis": "B",
    "status": "Assigned to Contractor",
    "contractor": "IV Waste",
    "rowid": "1257592",
    "final_x": "3679150.01717",
    "final_y": "522739.85721",
    "longitude": "-90.07579499293321",
    "latitude": "29.931424352313797",
    "geocoded_column": {
      "latitude": "29.931424352313797",
      "longitude": "-90.07579499293321"
    }
  },
  {
    "service_request": "2026-1257591",
    "request_type": "Trash/Recycling",
    "request_reason": "Request a Large Item Pick Up",
    "date_created": "2026-02-09T16:52:40.000",
    "date_modified": "2026-02-09T16:52:42.000",
    "request_status": "Pending",
    "responsible_agency": "Department of Sanitation",
    "final_address": "4521 Stemway Dr",
    "address_councildis": "D",
    "status": "Assigned to Contractor",
    "contractor": "Waste Pro",
    "rowid": "1257591",
    "final_x": "3697094.97879",
    "final_y": "553060.571223",
    "longitude": "-90.0180465130544",
    "latitude": "30.014241697433256",
    "geocoded_column": {
      "latitude": "30.014241697433256",
      "longitude": "-90.0180465130544"
    }
  },
  {
    "service_request": "2026-1257590",
    "request_type": "Trash/Recycling",
    "request_reason": "Request a Large Item Pick Up",
    "date_created": "2026-02-09T16:51:00.000",
    "date_modified": "2026-02-09T16:51:02.000",
    "request_status": "Pending",
    "responsible_agency": "Department of Sanitation",
    "final_address": "7141 Restgate Rd",
    "address_councildis": "E",
    "status": "Assigned to Contractor",
    "contractor": "Waste Pro",
    "rowid": "1257590",
    "final_x": "3710776.06501",
    "final_y": "563296.615584",
    "longitude": "-89.97443801417019",
    "latitude": "30.04194787732562",
    "geocoded_column": {
      "latitude": "30.04194787732562",
      "longitude": "-89.97443801417019"
    }
  },
  {
    "service_request": "2026-1257589",
    "request_type": "Trash/Recycling",
    "request_reason": "Replace Trash Cart",
    "date_created": "2026-02-09T16:48:31.000",
    "date_modified": "2026-02-09T16:48:32.000",
    "request_status": "Pending",
    "responsible_agency": "Department of Sanitation",
    "final_address": "7831 Scottwood Dr",
    "address_councildis": "E",
    "status": "Assigned to Contractor",
    "contractor": "Waste Pro",
    "rowid": "1257589",
    "final_x": "3716597.52428",
    "final_y": "571768.090408",
    "longitude": "-89.95571833827505",
    "latitude": "30.06504983267245",
    "geocoded_column": {
      "latitude": "30.06504983267245",
      "longitude": "-89.95571833827505"
    }
  },
  {
    "service_request": "2026-1257588",
    "request_type": "Trash/Recycling",
    "request_reason": "Request a Large Item Pick Up",
    "date_created": "2026-02-09T16:46:25.000",
    "date_modified": "2026-02-09T16:46:28.000",
    "request_status": "Pending",
    "responsible_agency": "Department of Sanitation",
    "final_address": "1407 Broadway St",
    "address_councildis": "A",
    "status": "Assigned to Contractor",
    "contractor": "IV Waste",
    "rowid": "1257588",
    "final_x": "3664654.91085",
    "final_y": "527133.861695",
    "longitude": "-90.12140776611189",
    "latitude": "29.943935926929935",
    "geocoded_column": {
      "latitude": "29.943935926929935",
      "longitude": "-90.12140776611189"
    }
  },
  {
    "service_request": "2026-1257587",
    "request_type": "Trash/Recycling",
    "request_reason": "Order Recycling Cart",
    "date_created": "2026-02-09T16:36:54.000",
    "date_modified": "2026-02-09T16:36:56.000",
    "request_status": "Pending",
    "responsible_agency": "Department of Sanitation",
    "final_address": "2931 Behrman Hwy",
    "address_councildis": "C",
    "status": "Pending",
    "rowid": "1257587",
    "final_x": "3693620.21488",
    "final_y": "519870.574648",
    "longitude": "-90.0302175511491",
    "latitude": "29.923090197601923",
    "geocoded_column": {
      "latitude": "29.923090197601923",
      "longitude": "-90.0302175511491"
    }
  },
  {
    "service_request": "2026-1257586",
    "request_type": "Trash/Recycling",
    "request_reason": "Replace Trash Cart",
    "date_created": "2026-02-09T16:36:02.000",
    "date_modified": "2026-02-09T16:36:03.000",
    "request_status": "Pending",
    "responsible_agency": "Department of Sanitation",
    "final_address": "4325 Duplessis St",
    "address_councildis": "D",
    "status": "Assigned to Contractor",
    "contractor": "IV Waste",
    "rowid": "1257586",
    "final_x": "3678379.93666",
    "final_y": "548307.722706",
    "longitude": "-90.07734130509498",
    "latitude": "30.001750481151515",
    "geocoded_column": {
      "latitude": "30.001750481151515",
      "longitude": "-90.07734130509498"
    }
  },
  {
    "service_request": "2026-1257585",
    "request_type": "Trash/Recycling",
    "request_reason": "Request a Large Item Pick Up",
    "date_created": "2026-02-09T16:35:59.000",
    "date_modified": "2026-02-09T16:36:01.000",
    "request_status": "Pending",
    "responsible_agency": "Department of Sanitation",
    "final_address": "807 Valence St",
    "address_councildis": "B",
    "status": "Assigned to Contractor",
    "contractor": "IV Waste",
    "rowid": "1257585",
    "final_x": "3670047.80622",
    "final_y": "518393.577334",
    "longitude": "-90.10467676939787",
    "latitude": "29.9197450079455",
    "geocoded_column": {
      "latitude": "29.9197450079455",
      "longitude": "-90.10467676939787"
    }
  },
  {
    "service_request": "2026-1257584",
    "request_type": "Trash/Recycling",
    "request_reason": "Request a Large Item Pick Up",
    "date_created": "2026-02-09T16:32:38.000",
    "date_modified": "2026-02-09T16:32:40.000",
    "request_status": "Pending",
    "responsible_agency": "Department of Sanitation",
    "final_address": "566 Abalon Ct",
    "address_councildis": "C",
    "status": "Assigned to Contractor",
    "contractor": "Richards Disposal",
    "rowid": "1257584",
    "final_x": "3688970.14236",
    "final_y": "530652.615298",
    "longitude": "-90.04451317874492",
    "latitude": "29.95288174847581",
    "geocoded_column": {
      "latitude": "29.95288174847581",
      "longitude": "-90.04451317874492"
    }
  },
  {
    "service_request": "2026-1257583",
    "request_type": "Trash/Recycling",
    "request_reason": "Request a Large Item Pick Up",
    "date_created": "2026-02-09T16:30:24.000",
    "date_modified": "2026-02-09T16:30:26.000",
    "request_status": "Pending",
    "responsible_agency": "Department of Sanitation",
    "final_address": "0 BLK Admiralty Ct",
    "address_councildis": "C",
    "status": "Assigned to Contractor",
    "contractor": "Richards Disposal",
    "rowid": "1257583",
    "final_x": "3704031.03777",
    "final_y": "523040.620373",
    "longitude": "-89.99723816614093",
    "latitude": "29.931477060413563",
    "geocoded_column": {
      "latitude": "29.931477060413563",
      "longitude": "-89.99723816614093"
    }
  },
  {
    "service_request": "2026-1257582",
    "request_type": "Trash/Recycling",
    "request_reason": "Request a Large Item Pick Up",
    "date_created": "2026-02-09T16:28:50.000",
    "date_modified": "2026-02-09T16:28:52.000",
    "request_status": "Pending",
    "responsible_agency": "Department of Sanitation",
    "final_address": "5119 Kendall Dr",
    "address_councildis": "D",
    "status": "Assigned to Contractor",
    "contractor": "IV Waste",
    "rowid": "1257582",
    "final_x": "3690272.2911",
    "final_y": "552103.477078",
    "longitude": "-90.03963686167813",
    "latitude": "30.011823619101914",
    "geocoded_column": {
      "latitude": "30.011823619101914",
      "longitude": "-90.03963686167813"
    }
  },
  {
    "service_request": "2026-1257581",
    "request_type": "Roads and Streets",
    "request_reason": "Debris in Driving Lanes",
    "date_created": "2026-02-09T16:27:59.000",
    "date_modified": "2026-02-09T16:28:01.000",
    "request_status": "Pending",
    "responsible_agency": "Department of Public Works",
    "final_address": "1824 Sophie Wright Pl",
    "address_councildis": "B",
    "status": "Pending",
    "rowid": "1257581",
    "final_x": "3679653.70095",
    "final_y": "523149.326139",
    "longitude": "-90.07419072006655",
    "latitude": "29.9325350479122",
    "geocoded_column": {
      "latitude": "29.9325350479122",
      "longitude": "-90.07419072006655"
    }
  },
  {
    "service_request": "2026-1257580",
    "request_type": "Roads and Streets",
    "request_reason": "Pothole",
    "date_created": "2026-02-09T16:27:51.000",
    "date_modified": "2026-02-09T16:27:53.000",
    "request_status": "Pending",
    "responsible_agency": "Department of Public Works",
    "final_address": "6800 BLK Leake Ave",
    "address_councildis": "A",
    "status": "Pending",
    "rowid": "1257580",
    "final_x": "3660860.02175",
    "final_y": "520930.830958",
    "longitude": "-90.13359439605789",
    "latitude": "29.926989364546422",
    "geocoded_column": {
      "latitude": "29.926989364546422",
      "longitude": "-90.13359439605789"
    }
  },
  {
    "service_request": "2026-1257579",
    "request_type": "Trash/Recycling",
    "request_reason": "Request a Large Item Pick Up",
    "date_created": "2026-02-09T16:27:42.000",
    "date_modified": "2026-02-09T16:27:43.000",
    "request_status": "Pending",
    "responsible_agency": "Department of Sanitation",
    "final_address": "7645 Forum Blvd",
    "address_councildis": "E",
    "status": "Assigned to Contractor",
    "contractor": "Waste Pro",
    "rowid": "1257579",
    "final_x": "3720088.98342",
    "final_y": "573216.640233",
    "longitude": "-89.94462609973385",
    "latitude": "30.068916852644676",
    "geocoded_column": {
      "latitude": "30.068916852644676",
      "longitude": "-89.94462609973385"
    }
  },
  {
    "service_request": "2026-1257578",
    "request_type": "Trash/Recycling",
    "request_reason": "Request a Large Item Pick Up",
    "date_created": "2026-02-09T16:23:51.000",
    "date_modified": "2026-02-09T16:23:53.000",
    "request_status": "Pending",
    "responsible_agency": "Department of Sanitation",
    "final_address": "10954 S Hardy St",
    "address_councildis": "E",
    "status": "Assigned to Contractor",
    "contractor": "Waste Pro",
    "rowid": "1257578",
    "final_x": "3713226.20312",
    "final_y": "561713.324575",
    "longitude": "-89.96675441269089",
    "latitude": "30.037514339936024",
    "geocoded_column": {
      "latitude": "30.037514339936024",
      "longitude": "-89.96675441269089"
    }
  },
  {
    "service_request": "2026-1257577",
    "request_type": "Trash/Recycling",
    "request_reason": "Request a Large Item Pick Up",
    "date_created": "2026-02-09T16:22:08.000",
    "date_modified": "2026-02-09T16:22:10.000",
    "request_status": "Pending",
    "responsible_agency": "Department of Sanitation",
    "final_address": "6953 Boston Dr",
    "address_councildis": "E",
    "status": "Assigned to Contractor",
    "contractor": "Waste Pro",
    "rowid": "1257577",
    "final_x": "3706561.13195",
    "final_y": "560469.828702",
    "longitude": "-89.98786358193469",
    "latitude": "30.03431210096067",
    "geocoded_column": {
      "latitude": "30.03431210096067",
      "longitude": "-89.98786358193469"
    }
  },
  {
    "service_request": "2026-1257576",
    "request_type": "Trash/Recycling",
    "request_reason": "Repair Trash Cart",
    "date_created": "2026-02-09T16:17:50.000",
    "date_modified": "2026-02-09T16:17:53.000",
    "request_status": "Pending",
    "responsible_agency": "Department of Sanitation",
    "final_address": "4528 Allen St",
    "address_councildis": "D",
    "status": "Assigned to Contractor",
    "contractor": "IV Waste",
    "rowid": "1257576",
    "final_x": "3681674.38549",
    "final_y": "549267.786835",
    "longitude": "-90.06690028458604",
    "latitude": "30.004290608294944",
    "geocoded_column": {
      "latitude": "30.004290608294944",
      "longitude": "-90.06690028458604"
    }
  },
  {
    "service_request": "2026-1257575",
    "request_type": "Trash/Recycling",
    "request_reason": "Request a Large Item Pick Up",
    "date_created": "2026-02-09T16:12:15.000",
    "date_modified": "2026-02-09T16:12:18.000",
    "request_status": "Pending",
    "responsible_agency": "Department of Sanitation",
    "final_address": "8532 Gervais St",
    "address_councildis": "E",
    "status": "Assigned to Contractor",
    "contractor": "Waste Pro",
    "rowid": "1257575",
    "final_x": "3703832.67882",
    "final_y": "562632.84176",
    "longitude": "-89.99640604467133",
    "latitude": "30.04034734816663",
    "geocoded_column": {
      "latitude": "30.04034734816663",
      "longitude": "-89.99640604467133"
    }
  },
  {
    "service_request": "2026-1257574",
    "request_type": "Trash/Recycling",
    "request_reason": "Request a Large Item Pick Up",
    "date_created": "2026-02-09T16:08:34.000",
    "date_modified": "2026-02-09T16:08:36.000",
    "request_status": "Pending",
    "responsible_agency": "Department of Sanitation",
    "final_address": "10138 Hillwood St",
    "address_councildis": "E",
    "status": "Assigned to Contractor",
    "contractor": "Waste Pro",
    "rowid": "1257574",
    "final_x": "3713090.31346",
    "final_y": "556600.599002",
    "longitude": "-89.96737646372216",
    "latitude": "30.023460833558698",
    "geocoded_column": {
      "latitude": "30.023460833558698",
      "longitude": "-89.96737646372216"
    }
  },
  {
    "service_request": "2026-1257573",
    "request_type": "Parks & Parkways",
    "request_reason": "Request Tree Service (Right of Way/Public Property)",
    "date_created": "2026-02-09T16:07:41.000",
    "date_modified": "2026-02-09T16:07:43.000",
    "request_status": "Pending",
    "responsible_agency": "Department of Parks & Parkway",
    "final_address": "3021 Jena St",
    "address_councildis": "B",
    "status": "Pending",
    "rowid": "1257573",
    "final_x": "3669966.7906",
    "final_y": "526093.56499",
    "longitude": "-90.10467187796287",
    "latitude": "29.940919896787673",
    "geocoded_column": {
      "latitude": "29.940919896787673",
      "longitude": "-90.10467187796287"
    }
  },
  {
    "service_request": "2026-1257572",
    "request_type": "Trash/Recycling",
    "request_reason": "Request a Large Item Pick Up",
    "date_created": "2026-02-09T16:05:11.000",
    "date_modified": "2026-02-09T16:05:13.000",
    "request_status": "Pending",
    "responsible_agency": "Department of Sanitation",
    "final_address": "4514 Flake Ave",
    "address_councildis": "E",
    "status": "Assigned to Contractor",
    "contractor": "Waste Pro",
    "rowid": "1257572",
    "final_x": "3706173.64625",
    "final_y": "553962.063448",
    "longitude": "-89.98932929875818",
    "latitude": "30.01643078452055",
    "geocoded_column": {
      "latitude": "30.01643078452055",
      "longitude": "-89.98932929875818"
    }
  },
  {
    "service_request": "2026-1257571",
    "request_type": "Trash/Recycling",
    "request_reason": "Request a Large Item Pick Up",
    "date_created": "2026-02-09T15:54:29.000",
    "date_modified": "2026-02-09T15:54:31.000",
    "request_status": "Pending",
    "responsible_agency": "Department of Sanitation",
    "final_address": "150 W Greenbrier Dr",
    "address_councildis": "E",
    "status": "Assigned to Contractor",
    "contractor": "Waste Pro",
    "rowid": "1257571",
    "final_x": "3716992.9406",
    "final_y": "564686.89149",
    "longitude": "-89.95473771178996",
    "latitude": "30.045566379923123",
    "geocoded_column": {
      "latitude": "30.045566379923123",
      "longitude": "-89.95473771178996"
    }
  },
  {
    "service_request": "2026-1257570",
    "request_type": "Trash/Recycling",
    "request_reason": "Replace Trash Cart",
    "date_created": "2026-02-09T15:52:13.000",
    "date_modified": "2026-02-09T15:52:14.000",
    "request_status": "Pending",
    "responsible_agency": "Department of Sanitation",
    "final_address": "1806 Fern St",
    "address_councildis": "A",
    "status": "Assigned to Contractor",
    "contractor": "IV Waste",
    "rowid": "1257570",
    "final_x": "3663971.53984",
    "final_y": "529489.905537",
    "longitude": "-90.12348682340811",
    "latitude": "29.95043414630767",
    "geocoded_column": {
      "latitude": "29.95043414630767",
      "longitude": "-90.12348682340811"
    }
  },
  {
    "service_request": "2026-1257569",
    "request_type": "Trash/Recycling",
    "request_reason": "Request a Large Item Pick Up",
    "date_created": "2026-02-09T15:52:10.000",
    "date_modified": "2026-02-09T15:52:12.000",
    "request_status": "Pending",
    "responsible_agency": "Department of Sanitation",
    "final_address": "4026 Laurel St",
    "address_councildis": "B",
    "status": "Assigned to Contractor",
    "contractor": "IV Waste",
    "rowid": "1257569",
    "final_x": "3672377.99879",
    "final_y": "518133.100406",
    "longitude": "-90.0973303491843",
    "latitude": "29.91895986995557",
    "geocoded_column": {
      "latitude": "29.91895986995557",
      "longitude": "-90.0973303491843"
    }
  },
  {
    "service_request": "2026-1257568",
    "request_type": "Trash/Recycling",
    "request_reason": "Request a Large Item Pick Up",
    "date_created": "2026-02-09T15:47:30.000",
    "date_modified": "2026-02-09T15:47:31.000",
    "request_status": "Pending",
    "responsible_agency": "Department of Sanitation",
    "final_address": "6496 Bellaire Dr",
    "address_councildis": "A",
    "status": "Assigned to Contractor",
    "contractor": "IV Waste",
    "rowid": "1257568",
    "final_x": "3664400.44973",
    "final_y": "551275.218773",
    "longitude": "-90.12140500172",
    "latitude": "30.010324000457235",
    "geocoded_column": {
      "latitude": "30.010324000457235",
      "longitude": "-90.12140500172"
    }
  },
  {
    "service_request": "2026-1257567",
    "request_type": "Roads and Streets",
    "request_reason": "Sidewalk Damaged or Missing",
    "date_created": "2026-02-09T15:45:43.000",
    "date_modified": "2026-02-09T15:45:45.000",
    "request_status": "Pending",
    "responsible_agency": "Department of Public Works",
    "final_address": "805 First St",
    "address_councildis": "B",
    "status": "Pending",
    "rowid": "1257567",
    "final_x": "3678677.80027",
    "final_y": "520657.875513",
    "longitude": "-90.07735776753724",
    "latitude": "29.925713824574224",
    "geocoded_column": {
      "latitude": "29.925713824574224",
      "longitude": "-90.07735776753724"
    }
  },
  {
    "service_request": "2026-1257566",
    "request_type": "Trash/Recycling",
    "request_reason": "Request a Large Item Pick Up",
    "date_created": "2026-02-09T15:43:56.000",
    "date_modified": "2026-02-09T15:43:58.000",
    "request_status": "Pending",
    "responsible_agency": "Department of Sanitation",
    "final_address": "13080 Maple Wood Dr",
    "address_councildis": "E",
    "status": "Assigned to Contractor",
    "contractor": "Waste Pro",
    "rowid": "1257566",
    "final_x": "3723820.73247",
    "final_y": "563644.669153",
    "longitude": "-89.93319908453847",
    "latitude": "30.042473058641562",
    "geocoded_column": {
      "latitude": "30.042473058641562",
      "longitude": "-89.93319908453847"
    }
  },
  {
    "service_request": "2026-1257565",
    "request_type": "Trash/Recycling",
    "request_reason": "Request a Large Item Pick Up",
    "date_created": "2026-02-09T15:41:12.000",
    "date_modified": "2026-02-09T15:41:13.000",
    "request_status": "Pending",
    "responsible_agency": "Department of Sanitation",
    "final_address": "508 Passera Ct",
    "address_councildis": "A",
    "status": "Assigned to Contractor",
    "contractor": "IV Waste",
    "rowid": "1257565",
    "final_x": "3670560.30356",
    "final_y": "540737.368715",
    "longitude": "-90.10230134158402",
    "latitude": "29.981167979140604",
    "geocoded_column": {
      "latitude": "29.981167979140604",
      "longitude": "-90.10230134158402"
    }
  },
  {
    "service_request": "2026-1257564",
    "request_type": "Trash/Recycling",
    "request_reason": "Replace Trash Cart",
    "date_created": "2026-02-09T15:40:09.000",
    "date_modified": "2026-02-09T15:40:12.000",
    "request_status": "Pending",
    "responsible_agency": "Department of Sanitation",
    "final_address": "7801 Shelly St",
    "address_councildis": "E",
    "status": "Assigned to Contractor",
    "contractor": "Waste Pro",
    "rowid": "1257564",
    "final_x": "3695912.78013",
    "final_y": "559416.285149",
    "longitude": "-90.0215517604976",
    "latitude": "30.03175476091037",
    "geocoded_column": {
      "latitude": "30.03175476091037",
      "longitude": "-90.0215517604976"
    }
  },
  {
    "service_request": "2026-1257563",
    "request_type": "Trash/Recycling",
    "request_reason": "Request a Large Item Pick Up",
    "date_created": "2026-02-09T15:37:29.000",
    "date_modified": "2026-02-09T15:37:32.000",
    "request_status": "Pending",
    "responsible_agency": "Department of Sanitation",
    "final_address": "7427 Pearl St",
    "address_councildis": "A",
    "status": "Assigned to Contractor",
    "contractor": "IV Waste",
    "rowid": "1257563",
    "final_x": "3662095.27808",
    "final_y": "524978.286909",
    "longitude": "-90.12956076797101",
    "latitude": "29.93808297376625",
    "geocoded_column": {
      "latitude": "29.93808297376625",
      "longitude": "-90.12956076797101"
    }
  },
  {
    "service_request": "2026-1257562",
    "request_type": "Trash/Recycling",
    "request_reason": "Request a Large Item Pick Up",
    "date_created": "2026-02-09T15:35:40.000",
    "date_modified": "2026-02-09T15:35:42.000",
    "request_status": "Pending",
    "responsible_agency": "Department of Sanitation",
    "final_address": "7023 Salem Dr",
    "address_councildis": "E",
    "status": "Assigned to Contractor",
    "contractor": "Waste Pro",
    "rowid": "1257562",
    "final_x": "3706722.31979",
    "final_y": "560824.84611",
    "longitude": "-89.98734103217777",
    "latitude": "30.035283053784646",
    "geocoded_column": {
      "latitude": "30.035283053784646",
      "longitude": "-89.98734103217777"
    }
  },
  {
    "service_request": "2026-1257561",
    "request_type": "Trash/Recycling",
    "request_reason": "Request a Large Item Pick Up",
    "date_created": "2026-02-09T15:31:03.000",
    "date_modified": "2026-02-09T15:31:05.000",
    "request_status": "Pending",
    "responsible_agency": "Department of Sanitation",
    "final_address": "2229 Fats Domino Ave",
    "address_councildis": "E",
    "status": "Assigned to Contractor",
    "contractor": "Waste Pro",
    "rowid": "1257561",
    "final_x": "3699248.21751",
    "final_y": "538106.217545",
    "longitude": "-90.01178833047793",
    "latitude": "29.973054613918663",
    "geocoded_column": {
      "latitude": "29.973054613918663",
      "longitude": "-90.01178833047793"
    }
  },
  {
    "service_request": "2026-1257560",
    "request_type": "Roads and Streets",
    "request_reason": "Pothole",
    "date_created": "2026-02-09T15:27:48.000",
    "date_modified": "2026-02-09T15:27:49.000",
    "request_status": "Pending",
    "responsible_agency": "Department of Public Works",
    "final_address": "3517 General Taylor St",
    "address_councildis": "B",
    "status": "Pending",
    "rowid": "1257560",
    "final_x": "3671090.31259",
    "final_y": "527769.614591",
    "longitude": "-90.10106780247271",
    "latitude": "29.945495313155128",
    "geocoded_column": {
      "latitude": "29.945495313155128",
      "longitude": "-90.10106780247271"
    }
  },
  {
    "service_request": "2026-1257559",
    "request_type": "Roads and Streets",
    "request_reason": "Abandoned Service Cut",
    "date_created": "2026-02-09T15:26:46.000",
    "date_modified": "2026-02-09T15:26:48.000",
    "request_status": "Pending",
    "responsible_agency": "Department of Public Works",
    "final_address": "6560 Argonne Blvd",
    "address_councildis": "A",
    "status": "Pending",
    "rowid": "1257559",
    "final_x": "3670456.51067",
    "final_y": "551112.412501",
    "longitude": "-90.10227710595206",
    "latitude": "30.009698825857654",
    "geocoded_column": {
      "latitude": "30.009698825857654",
      "longitude": "-90.10227710595206"
    }
  },
  {
    "service_request": "2026-1257558",
    "request_type": "Trash/Recycling",
    "request_reason": "Order Recycling Cart",
    "date_created": "2026-02-09T15:20:36.000",
    "date_modified": "2026-02-09T15:20:37.000",
    "request_status": "Pending",
    "responsible_agency": "Department of Sanitation",
    "final_address": "1014 Music St",
    "address_councildis": "C",
    "status": "Pending",
    "rowid": "1257558",
    "final_x": "3686834.91478",
    "final_y": "536227.466311",
    "longitude": "-90.05105827747268",
    "latitude": "29.968276527251867",
    "geocoded_column": {
      "latitude": "29.968276527251867",
      "longitude": "-90.05105827747268"
    }
  },
  {
    "service_request": "2026-1257557",
    "request_type": "Abandoned Vehicles",
    "request_reason": "Abandoned/Junk Vehicles",
    "date_created": "2026-02-09T15:19:26.000",
    "date_modified": "2026-02-09T15:19:28.000",
    "request_status": "Pending",
    "responsible_agency": "Department of Public Works",
    "final_address": "114 Lark St",
    "address_councildis": "D",
    "status": "Pending",
    "rowid": "1257557",
    "final_x": "3674615.85672",
    "final_y": "556343.09705",
    "longitude": "-90.0889567663995",
    "latitude": "30.02395780511709",
    "geocoded_column": {
      "latitude": "30.02395780511709",
      "longitude": "-90.0889567663995"
    }
  },
  {
    "service_request": "2026-1257556",
    "request_type": "Trash/Recycling",
    "request_reason": "Replace Trash Cart",
    "date_created": "2026-02-09T15:18:56.000",
    "date_modified": "2026-02-09T15:19:03.000",
    "request_status": "Pending",
    "responsible_agency": "Department of Sanitation",
    "final_address": "2305 Piety St",
    "address_councildis": "D",
    "status": "Assigned to Contractor",
    "contractor": "IV Waste",
    "rowid": "1257556",
    "final_x": "3691014.24092",
    "final_y": "540363.591243",
    "longitude": "-90.037712133374",
    "latitude": "29.97952014331913",
    "geocoded_column": {
      "latitude": "29.97952014331913",
      "longitude": "-90.037712133374"
    }
  },
  {
    "service_request": "2026-1257555",
    "request_type": "Trash/Recycling",
    "request_reason": "MIssed Recycling Pick-Up",
    "date_created": "2026-02-09T15:18:32.000",
    "date_modified": "2026-02-09T15:18:34.000",
    "request_status": "Pending",
    "responsible_agency": "Department of Sanitation",
    "final_address": "4343 Vixen St",
    "address_councildis": "C",
    "status": "Assigned to Contractor",
    "contractor": "Richards Disposal",
    "rowid": "1257555",
    "final_x": "3699682.9354",
    "final_y": "520645.711545",
    "longitude": "-90.01105176306572",
    "latitude": "29.925030579793187",
    "geocoded_column": {
      "latitude": "29.925030579793187",
      "longitude": "-90.01105176306572"
    }
  },
  {
    "service_request": "2026-1257554",
    "request_type": "Trash/Recycling",
    "request_reason": "Order Trash Cart",
    "date_created": "2026-02-09T15:17:06.000",
    "date_modified": "2026-02-09T15:17:07.000",
    "request_status": "Pending",
    "responsible_agency": "Department of Sanitation",
    "final_address": "1014 Music St",
    "address_councildis": "C",
    "status": "Assigned to Contractor",
    "contractor": "IV Waste",
    "rowid": "1257554",
    "final_x": "3686834.91478",
    "final_y": "536227.466311",
    "longitude": "-90.05105827747268",
    "latitude": "29.968276527251867",
    "geocoded_column": {
      "latitude": "29.968276527251867",
      "longitude": "-90.05105827747268"
    }
  },
  {
    "service_request": "2026-1257553",
    "request_type": "General Services",
    "request_reason": "General Service Request",
    "date_created": "2026-02-09T15:17:02.000",
    "date_modified": "2026-02-09T15:17:13.000",
    "request_status": "Pending",
    "responsible_agency": "Orleans Parish Communication District",
    "final_address": "1000 BLK N Rendon St",
    "address_councildis": "A",
    "status": "Pending",
    "rowid": "1257553",
    "final_x": "3675780.84591",
    "final_y": "539337.341389",
    "longitude": "-90.08586063116232",
    "latitude": "29.977163132844716",
    "geocoded_column": {
      "latitude": "29.977163132844716",
      "longitude": "-90.08586063116232"
    }
  },
  {
    "service_request": "2026-1257552",
    "request_type": "Trash/Recycling",
    "request_reason": "Request a Large Item Pick Up",
    "date_created": "2026-02-09T15:15:50.000",
    "date_modified": "2026-02-09T15:15:52.000",
    "request_status": "Pending",
    "responsible_agency": "Department of Sanitation",
    "final_address": "627 N Hennessey St",
    "address_councildis": "A",
    "status": "Assigned to Contractor",
    "contractor": "IV Waste",
    "rowid": "1257552",
    "final_x": "3671479.93492",
    "final_y": "540590.092235",
    "longitude": "-90.09940173224462",
    "latitude": "29.980735820248103",
    "geocoded_column": {
      "latitude": "29.980735820248103",
      "longitude": "-90.09940173224462"
    }
  },
  {
    "service_request": "2026-1257551",
    "request_type": "Roads and Streets",
    "request_reason": "Pothole",
    "date_created": "2026-02-09T15:13:59.000",
    "date_modified": "2026-02-09T15:14:00.000",
    "request_status": "Pending",
    "responsible_agency": "Department of Public Works",
    "final_address": "MARTIN LUTHER KING JR BLVD & CLARA ST",
    "address_councildis": "B",
    "status": "Pending",
    "rowid": "1257551",
    "final_x": "3675623.5",
    "final_y": "527747.18",
    "longitude": "-90.08675581841345",
    "latitude": "29.945298797785632",
    "geocoded_column": {
      "latitude": "29.945298797785632",
      "longitude": "-90.08675581841345"
    }
  },
  {
    "service_request": "2026-1257550",
    "request_type": "Trash/Recycling",
    "request_reason": "Start Trash Service",
    "date_created": "2026-02-09T15:13:45.000",
    "date_modified": "2026-02-09T15:13:47.000",
    "request_status": "Pending",
    "responsible_agency": "Department of Sanitation",
    "final_address": "1014 Music St",
    "address_councildis": "C",
    "status": "Assigned to Contractor",
    "contractor": "IV Waste",
    "rowid": "1257550",
    "final_x": "3686834.91478",
    "final_y": "536227.466311",
    "longitude": "-90.05105827747268",
    "latitude": "29.968276527251867",
    "geocoded_column": {
      "latitude": "29.968276527251867",
      "longitude": "-90.05105827747268"
    }
  },
  {
    "service_request": "2026-1257549",
    "request_type": "Trash/Recycling",
    "request_reason": "Replace Trash Cart",
    "date_created": "2026-02-09T15:13:35.000",
    "date_modified": "2026-02-09T15:13:37.000",
    "request_status": "Pending",
    "responsible_agency": "Department of Sanitation",
    "final_address": "8208 Apple St",
    "address_councildis": "A",
    "status": "Assigned to Contractor",
    "contractor": "IV Waste",
    "rowid": "1257549",
    "final_x": "3665015.0914",
    "final_y": "532366.334019",
    "longitude": "-90.12009565173653",
    "latitude": "29.958313051085106",
    "geocoded_column": {
      "latitude": "29.958313051085106",
      "longitude": "-90.12009565173653"
    }
  },
  {
    "service_request": "2026-1257548",
    "request_type": "Trash/Recycling",
    "request_reason": "Request a Large Item Pick Up",
    "date_created": "2026-02-09T15:11:21.000",
    "date_modified": "2026-02-09T18:36:47.000",
    "request_status": "Pending",
    "responsible_agency": "Department of Sanitation",
    "final_address": "8616 Jeannette St",
    "address_councildis": "A",
    "status": "Assigned to Contractor",
    "contractor": "IV Waste",
    "rowid": "1257548",
    "final_x": "3661216.76275",
    "final_y": "530423.509378",
    "longitude": "-90.13215412048294",
    "latitude": "29.95308094802106",
    "geocoded_column": {
      "latitude": "29.95308094802106",
      "longitude": "-90.13215412048294"
    }
  },
  {
    "service_request": "2026-1257547",
    "request_type": "General Services",
    "request_reason": "General Service Request",
    "date_created": "2026-02-09T15:10:48.000",
    "date_modified": "2026-02-09T15:14:53.000",
    "request_status": "Pending",
    "responsible_agency": "Orleans Parish Communication District",
    "final_address": "MARTIN LUTHER KING JR BLVD & CLARA ST",
    "address_councildis": "B",
    "status": "Pending",
    "rowid": "1257547",
    "final_x": "3675623.5",
    "final_y": "527747.18",
    "longitude": "-90.08675581841345",
    "latitude": "29.945298797785632",
    "geocoded_column": {
      "latitude": "29.945298797785632",
      "longitude": "-90.08675581841345"
    }
  },
  {
    "service_request": "2026-1257546",
    "request_type": "Trash/Recycling",
    "request_reason": "Request a Large Item Pick Up",
    "date_created": "2026-02-09T15:08:29.000",
    "date_modified": "2026-02-09T15:08:31.000",
    "request_status": "Pending",
    "responsible_agency": "Department of Sanitation",
    "final_address": "717 Port St",
    "address_councildis": "C",
    "status": "Assigned to Contractor",
    "contractor": "IV Waste",
    "rowid": "1257546",
    "final_x": "3687097.79682",
    "final_y": "535030.073734",
    "longitude": "-90.05027042899933",
    "latitude": "29.96497602285105",
    "geocoded_column": {
      "latitude": "29.96497602285105",
      "longitude": "-90.05027042899933"
    }
  },
  {
    "service_request": "2026-1257545",
    "request_type": "Trash/Recycling",
    "request_reason": "Request a Large Item Pick Up",
    "date_created": "2026-02-09T15:04:34.000",
    "date_modified": "2026-02-09T15:04:36.000",
    "request_status": "Pending",
    "responsible_agency": "Department of Sanitation",
    "final_address": "4528 Bienville Ave",
    "address_councildis": "A",
    "status": "Assigned to Contractor",
    "contractor": "IV Waste",
    "rowid": "1257545",
    "final_x": "3669961.84302",
    "final_y": "540134.938379",
    "longitude": "-90.10421196638336",
    "latitude": "29.97952916562871",
    "geocoded_column": {
      "latitude": "29.97952916562871",
      "longitude": "-90.10421196638336"
    }
  },
  {
    "service_request": "2026-1257544",
    "request_type": "Trash/Recycling",
    "request_reason": "Request a Large Item Pick Up",
    "date_created": "2026-02-09T15:03:41.000",
    "date_modified": "2026-02-09T15:03:43.000",
    "request_status": "Pending",
    "responsible_agency": "Department of Sanitation",
    "final_address": "4844 Camelia St",
    "address_councildis": "E",
    "status": "Assigned to Contractor",
    "contractor": "Waste Pro",
    "rowid": "1257544",
    "final_x": "3701431.51837",
    "final_y": "554843.420248",
    "longitude": "-90.00427997638384",
    "latitude": "30.019006267865823",
    "geocoded_column": {
      "latitude": "30.019006267865823",
      "longitude": "-90.00427997638384"
    }
  },
  {
    "service_request": "2026-1257543",
    "request_type": "Abandoned Vehicles",
    "request_reason": "Abandoned/Junk Vehicles",
    "date_created": "2026-02-09T15:01:11.000",
    "date_modified": "2026-02-09T15:01:12.000",
    "request_status": "Pending",
    "responsible_agency": "Department of Public Works",
    "final_address": "4147 St Peter St",
    "address_councildis": "A",
    "status": "Pending",
    "rowid": "1257543",
    "final_x": "3672180.4658",
    "final_y": "540324.545995",
    "longitude": "-90.09719819175957",
    "latitude": "29.97998489704259",
    "geocoded_column": {
      "latitude": "29.97998489704259",
      "longitude": "-90.09719819175957"
    }
  },
  {
    "service_request": "2026-1257542",
    "request_type": "Trash/Recycling",
    "request_reason": "Repair Recycling Cart",
    "date_created": "2026-02-09T15:01:09.000",
    "date_modified": "2026-02-09T15:01:11.000",
    "request_status": "Pending",
    "responsible_agency": "Department of Sanitation",
    "final_address": "3822 Peach Tree Ct",
    "address_councildis": "C",
    "status": "Pending",
    "rowid": "1257542",
    "final_x": "3704000.08023",
    "final_y": "512650.799729",
    "longitude": "-89.99771821037956",
    "latitude": "29.90290962432048",
    "geocoded_column": {
      "latitude": "29.90290962432048",
      "longitude": "-89.99771821037956"
    }
  },
  {
    "service_request": "2026-1257541",
    "request_type": "Trash/Recycling",
    "request_reason": "Repair Trash Cart",
    "date_created": "2026-02-09T14:59:42.000",
    "date_modified": "2026-02-09T14:59:45.000",
    "request_status": "Pending",
    "responsible_agency": "Department of Sanitation",
    "final_address": "3822 Peach Tree Ct",
    "address_councildis": "C",
    "status": "Assigned to Contractor",
    "contractor": "Richards Disposal",
    "rowid": "1257541",
    "final_x": "3704000.08023",
    "final_y": "512650.799729",
    "longitude": "-89.99771821037956",
    "latitude": "29.90290962432048",
    "geocoded_column": {
      "latitude": "29.90290962432048",
      "longitude": "-89.99771821037956"
    }
  },
  {
    "service_request": "2026-1257540",
    "request_type": "Trash/Recycling",
    "request_reason": "Request a Large Item Pick Up",
    "date_created": "2026-02-09T14:57:37.000",
    "date_modified": "2026-02-09T14:57:39.000",
    "request_status": "Pending",
    "responsible_agency": "Department of Sanitation",
    "final_address": "11240 Woodvine Ln",
    "address_councildis": "E",
    "status": "Assigned to Contractor",
    "contractor": "Waste Pro",
    "rowid": "1257540",
    "final_x": "3716513.72869",
    "final_y": "559815.604253",
    "longitude": "-89.95643724039674",
    "latitude": "30.03218815527107",
    "geocoded_column": {
      "latitude": "30.03218815527107",
      "longitude": "-89.95643724039674"
    }
  },
  {
    "service_request": "2026-1257539",
    "request_type": "Streetlights",
    "request_reason": "Streetlight Outage/Malfunction",
    "date_created": "2026-02-09T14:51:43.000",
    "date_modified": "2026-02-09T14:51:44.000",
    "request_status": "Pending",
    "responsible_agency": "Department of Public Works",
    "final_address": "2025 Octavia St",
    "address_councildis": "A",
    "status": "Pending",
    "rowid": "1257539",
    "final_x": "3667455.41972",
    "final_y": "523239.211515",
    "longitude": "-90.11269675229401",
    "latitude": "29.933145146657502",
    "geocoded_column": {
      "latitude": "29.933145146657502",
      "longitude": "-90.11269675229401"
    }
  },
  {
    "service_request": "2026-1257538",
    "request_type": "Trash/Recycling",
    "request_reason": "Request a Large Item Pick Up",
    "date_created": "2026-02-09T14:48:03.000",
    "date_modified": "2026-02-09T14:48:07.000",
    "request_status": "Pending",
    "responsible_agency": "Department of Sanitation",
    "final_address": "330 Belleville St",
    "address_councildis": "C",
    "status": "Assigned to Contractor",
    "contractor": "Richards Disposal",
    "rowid": "1257538",
    "final_x": "3687931.39395",
    "final_y": "530500.401858",
    "longitude": "-90.04779846967858",
    "latitude": "29.952495298992343",
    "geocoded_column": {
      "latitude": "29.952495298992343",
      "longitude": "-90.04779846967858"
    }
  },
  {
    "service_request": "2026-1257537",
    "request_type": "Trash/Recycling",
    "request_reason": "Order Trash Cart",
    "date_created": "2026-02-09T14:39:07.000",
    "date_modified": "2026-02-09T14:39:09.000",
    "request_status": "Pending",
    "responsible_agency": "Department of Sanitation",
    "final_address": "2138 N Rocheblave St",
    "address_councildis": "D",
    "status": "Assigned to Contractor",
    "contractor": "IV Waste",
    "rowid": "1257537",
    "final_x": "3683927.71772",
    "final_y": "541012.817483",
    "longitude": "-90.06007139249537",
    "latitude": "29.98152370997359",
    "geocoded_column": {
      "latitude": "29.98152370997359",
      "longitude": "-90.06007139249537"
    }
  },
  {
    "service_request": "2026-1257536",
    "request_type": "Trash/Recycling",
    "request_reason": "Request a Large Item Pick Up",
    "date_created": "2026-02-09T14:36:30.000",
    "date_modified": "2026-02-09T15:00:47.000",
    "request_status": "Pending",
    "responsible_agency": "Department of Sanitation",
    "final_address": "200 14Th St",
    "address_councildis": "A",
    "status": "Assigned to Contractor",
    "contractor": "IV Waste",
    "rowid": "1257536",
    "final_x": "3665481.8418",
    "final_y": "548072.923602",
    "longitude": "-90.1180957640461",
    "latitude": "30.001487304005668",
    "geocoded_column": {
      "latitude": "30.001487304005668",
      "longitude": "-90.1180957640461"
    }
  },
  {
    "service_request": "2026-1257535",
    "request_type": "Trash/Recycling",
    "request_reason": "Illegal Dumping",
    "date_created": "2026-02-09T14:36:02.000",
    "date_modified": "2026-02-09T14:37:22.000",
    "request_status": "Pending",
    "responsible_agency": "Department of Sanitation",
    "final_address": "7160 Bunker Hill Rd",
    "address_councildis": "E",
    "status": "Pending",
    "rowid": "1257535",
    "final_x": "3705627.15927",
    "final_y": "560901.314078",
    "longitude": "-89.99079906180569",
    "latitude": "30.035528637931108",
    "geocoded_column": {
      "latitude": "30.035528637931108",
      "longitude": "-89.99079906180569"
    }
  },
  {
    "service_request": "2026-1257534",
    "request_type": "Parks & Parkways",
    "request_reason": "Request Tree Service (Right of Way/Public Property)",
    "date_created": "2026-02-09T14:34:33.000",
    "date_modified": "2026-02-09T14:34:34.000",
    "request_status": "Pending",
    "responsible_agency": "Department of Parks & Parkway",
    "final_address": "5438 Elysian Fields Ave",
    "address_councildis": "D",
    "status": "Pending",
    "rowid": "1257534",
    "final_x": "3683566.89026",
    "final_y": "552868.072983",
    "longitude": "-90.0607952046587",
    "latitude": "30.014132440253682",
    "geocoded_column": {
      "latitude": "30.014132440253682",
      "longitude": "-90.0607952046587"
    }
  },
  {
    "service_request": "2026-1257533",
    "request_type": "Trash/Recycling",
    "request_reason": "Return Trash Cart",
    "date_created": "2026-02-09T14:33:37.000",
    "date_modified": "2026-02-09T14:33:39.000",
    "request_status": "Pending",
    "responsible_agency": "Department of Sanitation",
    "final_address": "3522 Banks St",
    "address_councildis": "B",
    "status": "Assigned to Contractor",
    "contractor": "IV Waste",
    "rowid": "1257533",
    "final_x": "3671925.8699",
    "final_y": "536108.284743",
    "longitude": "-90.0981458638684",
    "latitude": "29.968399155432866",
    "geocoded_column": {
      "latitude": "29.968399155432866",
      "longitude": "-90.0981458638684"
    }
  },
  {
    "service_request": "2026-1257532",
    "request_type": "Trash/Recycling",
    "request_reason": "Replace Trash Cart",
    "date_created": "2026-02-09T14:32:29.000",
    "date_modified": "2026-02-09T14:32:31.000",
    "request_status": "Pending",
    "responsible_agency": "Department of Sanitation",
    "final_address": "3001 Annunciation St",
    "address_councildis": "B",
    "status": "Assigned to Contractor",
    "contractor": "IV Waste",
    "rowid": "1257532",
    "final_x": "3676919.08699",
    "final_y": "519465.564215",
    "longitude": "-90.08295056941947",
    "latitude": "29.92248824427282",
    "geocoded_column": {
      "latitude": "29.92248824427282",
      "longitude": "-90.08295056941947"
    }
  },
  {
    "service_request": "2026-1257531",
    "request_type": "Drainage",
    "request_reason": "Ditch and Culvert Maintenance",
    "date_created": "2026-02-09T14:29:23.000",
    "date_modified": "2026-02-09T14:29:24.000",
    "request_status": "Pending",
    "responsible_agency": "Department of Public Works",
    "final_address": "2041 Congress St",
    "address_councildis": "D",
    "status": "Pending",
    "rowid": "1257531",
    "final_x": "3691682.19785",
    "final_y": "539276.897354",
    "longitude": "-90.03564133673268",
    "latitude": "29.97651133839434",
    "geocoded_column": {
      "latitude": "29.97651133839434",
      "longitude": "-90.03564133673268"
    }
  },
  {
    "service_request": "2026-1257530",
    "request_type": "Drainage",
    "request_reason": "Ditch and Culvert Maintenance",
    "date_created": "2026-02-09T14:29:22.000",
    "date_modified": "2026-02-09T14:29:24.000",
    "request_status": "Pending",
    "responsible_agency": "Department of Public Works",
    "final_address": "2041 Congress St",
    "address_councildis": "D",
    "status": "Pending",
    "rowid": "1257530",
    "final_x": "3691682.19785",
    "final_y": "539276.897354",
    "longitude": "-90.03564133673268",
    "latitude": "29.97651133839434",
    "geocoded_column": {
      "latitude": "29.97651133839434",
      "longitude": "-90.03564133673268"
    }
  },
  {
    "service_request": "2026-1257529",
    "request_type": "Trash/Recycling",
    "request_reason": "Request a Large Item Pick Up",
    "date_created": "2026-02-09T14:28:06.000",
    "date_modified": "2026-02-09T14:28:09.000",
    "request_status": "Pending",
    "responsible_agency": "Department of Sanitation",
    "final_address": "4927 Hauck Dr",
    "address_councildis": "E",
    "status": "Assigned to Contractor",
    "contractor": "Waste Pro",
    "rowid": "1257529",
    "final_x": "3714546.72991",
    "final_y": "557566.754843",
    "longitude": "-89.96273802584331",
    "latitude": "30.02606955981231",
    "geocoded_column": {
      "latitude": "30.02606955981231",
      "longitude": "-89.96273802584331"
    }
  },
  {
    "service_request": "2026-1257528",
    "request_type": "Trash/Recycling",
    "request_reason": "Request a Large Item Pick Up",
    "date_created": "2026-02-09T14:27:15.000",
    "date_modified": "2026-02-09T14:27:16.000",
    "request_status": "Pending",
    "responsible_agency": "Department of Sanitation",
    "final_address": "2725 Lafitte Ave",
    "address_councildis": "A",
    "status": "Assigned to Contractor",
    "contractor": "IV Waste",
    "rowid": "1257528",
    "final_x": "3676108.77614",
    "final_y": "536665.671687",
    "longitude": "-90.08491685352178",
    "latitude": "29.969807133085112",
    "geocoded_column": {
      "latitude": "29.969807133085112",
      "longitude": "-90.08491685352178"
    }
  },
  {
    "service_request": "2026-1257527",
    "request_type": "General Services",
    "request_reason": "General Service Request",
    "date_created": "2026-02-09T14:24:54.000",
    "date_modified": "2026-02-09T14:24:56.000",
    "request_status": "Pending",
    "responsible_agency": "Orleans Parish Communication District",
    "final_address": "1300 Perdido St, New Orleans, LA 70112",
    "address_councildis": "B",
    "status": "Pending",
    "rowid": "1257527",
    "final_x": "3678683.48347",
    "final_y": "530227.987073",
    "longitude": "-90.07700859883013",
    "latitude": "29.952028297123956",
    "geocoded_column": {
      "latitude": "29.952028297123956",
      "longitude": "-90.07700859883013"
    }
  },
  {
    "service_request": "2026-1257526",
    "request_type": "Trash/Recycling",
    "request_reason": "Return Recycling Cart",
    "date_created": "2026-02-09T14:23:18.000",
    "date_modified": "2026-02-09T14:23:19.000",
    "request_status": "Pending",
    "responsible_agency": "Department of Sanitation",
    "final_address": "1116 Leonidas St",
    "address_councildis": "A",
    "status": "Pending",
    "rowid": "1257526",
    "final_x": "3660455.45197",
    "final_y": "529429.668673",
    "longitude": "-90.13459085097638",
    "latitude": "29.950370127166547",
    "geocoded_column": {
      "latitude": "29.950370127166547",
      "longitude": "-90.13459085097638"
    }
  },
  {
    "service_request": "2026-1257525",
    "request_type": "Trash/Recycling",
    "request_reason": "Request a Large Item Pick Up",
    "date_created": "2026-02-09T14:17:47.000",
    "date_modified": "2026-02-09T14:17:48.000",
    "request_status": "Pending",
    "responsible_agency": "Department of Sanitation",
    "final_address": "7400 Dartmoor Dr",
    "address_councildis": "E",
    "status": "Assigned to Contractor",
    "contractor": "Waste Pro",
    "rowid": "1257525",
    "final_x": "3704943.01841",
    "final_y": "561888.866847",
    "longitude": "-89.99292454113606",
    "latitude": "30.038266042314778",
    "geocoded_column": {
      "latitude": "30.038266042314778",
      "longitude": "-89.99292454113606"
    }
  },
  {
    "service_request": "2026-1257524",
    "request_type": "Trash/Recycling",
    "request_reason": "Request a Large Item Pick Up",
    "date_created": "2026-02-09T14:16:09.000",
    "date_modified": "2026-02-09T14:16:11.000",
    "request_status": "Pending",
    "responsible_agency": "Department of Sanitation",
    "final_address": "3824 Virgil Blvd",
    "address_councildis": "D",
    "status": "Assigned to Contractor",
    "contractor": "IV Waste",
    "rowid": "1257524",
    "final_x": "3680518.01448",
    "final_y": "546534.130769",
    "longitude": "-90.07064864034221",
    "latitude": "29.996809120084723",
    "geocoded_column": {
      "latitude": "29.996809120084723",
      "longitude": "-90.07064864034221"
    }
  },
  {
    "service_request": "2026-1257523",
    "request_type": "Abandoned Vehicles",
    "request_reason": "Abandoned/Junk Vehicles",
    "date_created": "2026-02-09T14:12:37.000",
    "date_modified": "2026-02-09T14:13:51.000",
    "request_status": "Pending",
    "responsible_agency": "Department of Public Works",
    "final_address": "7816 Lincoln Beach Blvd",
    "address_councildis": "E",
    "status": "Pending",
    "rowid": "1257523",
    "final_x": "3701179.37393",
    "final_y": "562190.348319",
    "longitude": "-90.00480751215733",
    "latitude": "30.039215519750535",
    "geocoded_column": {
      "latitude": "30.039215519750535",
      "longitude": "-90.00480751215733"
    }
  },
  {
    "service_request": "2026-1257522",
    "request_type": "Abandoned Vehicles",
    "request_reason": "Abandoned/Junk Vehicles",
    "date_created": "2026-02-09T14:09:54.000",
    "date_modified": "2026-02-09T14:09:55.000",
    "request_status": "Pending",
    "responsible_agency": "Department of Public Works",
    "final_address": "1217 Baronne St",
    "address_councildis": "B",
    "status": "Pending",
    "rowid": "1257522",
    "final_x": "3678811.50286",
    "final_y": "526751.093438",
    "longitude": "-90.076724770446",
    "latitude": "29.94246413975901",
    "geocoded_column": {
      "latitude": "29.94246413975901",
      "longitude": "-90.076724770446"
    }
  },
  {
    "service_request": "2026-1257521",
    "request_type": "Trash/Recycling",
    "request_reason": "Request a Large Item Pick Up",
    "date_created": "2026-02-09T14:09:39.000",
    "date_modified": "2026-02-09T14:09:44.000",
    "request_status": "Pending",
    "responsible_agency": "Department of Sanitation",
    "final_address": "6566 Harbourview Dr",
    "address_councildis": "E",
    "status": "Assigned to Contractor",
    "contractor": "Waste Pro",
    "rowid": "1257521",
    "final_x": "3698852.53559",
    "final_y": "555906.547353",
    "longitude": "-90.01238988720544",
    "latitude": "30.022011461566066",
    "geocoded_column": {
      "latitude": "30.022011461566066",
      "longitude": "-90.01238988720544"
    }
  },
  {
    "service_request": "2026-1257520",
    "request_type": "Trash/Recycling",
    "request_reason": "Repair Trash Cart",
    "date_created": "2026-02-09T14:09:05.000",
    "date_modified": "2026-02-09T14:09:07.000",
    "request_status": "Pending",
    "responsible_agency": "Department of Sanitation",
    "final_address": "2610 Dublin St",
    "address_councildis": "A",
    "status": "Assigned to Contractor",
    "contractor": "IV Waste",
    "rowid": "1257520",
    "final_x": "3665134.97914",
    "final_y": "532440.893828",
    "longitude": "-90.11971458348759",
    "latitude": "29.958514575240496",
    "geocoded_column": {
      "latitude": "29.958514575240496",
      "longitude": "-90.11971458348759"
    }
  },
  {
    "service_request": "2026-1257519",
    "request_type": "Trash/Recycling",
    "request_reason": "Replace Trash Cart",
    "date_created": "2026-02-09T14:08:31.000",
    "date_modified": "2026-02-09T14:09:26.000",
    "request_status": "Pending",
    "responsible_agency": "Department of Sanitation",
    "final_address": "5733 Wilton Dr",
    "address_councildis": "D",
    "status": "Assigned to Contractor",
    "contractor": "IV Waste",
    "rowid": "1257519",
    "final_x": "3681821.33512",
    "final_y": "554133.817816",
    "longitude": "-90.06626605320638",
    "latitude": "30.01766596575004",
    "geocoded_column": {
      "latitude": "30.01766596575004",
      "longitude": "-90.06626605320638"
    }
  },
  {
    "service_request": "2026-1257518",
    "request_type": "Abandoned Vehicles",
    "request_reason": "Abandoned/Junk Vehicles",
    "date_created": "2026-02-09T14:01:03.000",
    "date_modified": "2026-02-09T14:01:04.000",
    "request_status": "Pending",
    "responsible_agency": "Department of Public Works",
    "final_address": "FELICITY ST & MARKET ST",
    "address_councildis": "B",
    "status": "Pending",
    "rowid": "1257518",
    "final_x": "3680406.5",
    "final_y": "522642.68",
    "longitude": "-90.07183180824093",
    "latitude": "29.93111917012682",
    "geocoded_column": {
      "latitude": "29.93111917012682",
      "longitude": "-90.07183180824093"
    }
  },
  {
    "service_request": "2026-1257517",
    "request_type": "Abandoned Vehicles",
    "request_reason": "Abandoned/Junk Vehicles",
    "date_created": "2026-02-09T13:58:45.000",
    "date_modified": "2026-02-09T13:58:47.000",
    "request_status": "Pending",
    "responsible_agency": "Department of Public Works",
    "final_address": "CADIZ ST & CHESTNUT ST",
    "address_councildis": "B",
    "status": "Pending",
    "rowid": "1257517",
    "final_x": "3670240.9",
    "final_y": "519445.48",
    "longitude": "-90.10403164357125",
    "latitude": "29.922631712057765",
    "geocoded_column": {
      "latitude": "29.922631712057765",
      "longitude": "-90.10403164357125"
    }
  },
  {
    "service_request": "2026-1257516",
    "request_type": "Trash/Recycling",
    "request_reason": "Order Second Trash Cart",
    "date_created": "2026-02-09T13:58:15.000",
    "date_modified": "2026-02-09T13:58:17.000",
    "request_status": "Pending",
    "responsible_agency": "Department of Sanitation",
    "final_address": "2411 Treasure St",
    "address_councildis": "D",
    "status": "Assigned to Contractor",
    "contractor": "IV Waste",
    "rowid": "1257516",
    "final_x": "3686045.62223",
    "final_y": "544220.139662",
    "longitude": "-90.05326891350212",
    "latitude": "29.99027782665711",
    "geocoded_column": {
      "latitude": "29.99027782665711",
      "longitude": "-90.05326891350212"
    }
  },
  {
    "service_request": "2026-1257515",
    "request_type": "Trash/Recycling",
    "request_reason": "Request a Large Item Pick Up",
    "date_created": "2026-02-09T13:57:23.000",
    "date_modified": "2026-02-09T13:57:25.000",
    "request_status": "Pending",
    "responsible_agency": "Department of Sanitation",
    "final_address": "4534 Werner Dr",
    "address_councildis": "E",
    "status": "Assigned to Contractor",
    "contractor": "Waste Pro",
    "rowid": "1257515",
    "final_x": "3704856.50142",
    "final_y": "553970.010456",
    "longitude": "-89.99349058193587",
    "latitude": "30.016495049950112",
    "geocoded_column": {
      "latitude": "30.016495049950112",
      "longitude": "-89.99349058193587"
    }
  },
  {
    "service_request": "2026-1257514",
    "request_type": "Trash/Recycling",
    "request_reason": "Request a Large Item Pick Up",
    "date_created": "2026-02-09T13:57:08.000",
    "date_modified": "2026-02-09T13:57:10.000",
    "request_status": "Pending",
    "responsible_agency": "Department of Sanitation",
    "final_address": "6000 Painters St",
    "address_councildis": "D",
    "status": "Assigned to Contractor",
    "contractor": "IV Waste",
    "rowid": "1257514",
    "final_x": "3686006.67247",
    "final_y": "555206.898777",
    "longitude": "-90.05300416956645",
    "latitude": "30.020488621573765",
    "geocoded_column": {
      "latitude": "30.020488621573765",
      "longitude": "-90.05300416956645"
    }
  },
  {
    "service_request": "2026-1257512",
    "request_type": "Safety & Permits",
    "request_reason": "Zoning Enforcement",
    "date_created": "2026-02-09T13:55:47.000",
    "date_modified": "2026-02-09T13:55:49.000",
    "request_status": "Pending",
    "responsible_agency": "Safety and Permits",
    "final_address": "20200 BLK Old Spanish Trl",
    "address_councildis": "E",
    "status": "Pending",
    "rowid": "1257512",
    "final_x": "3759601.16613",
    "final_y": "572659.861686",
    "longitude": "-89.81974546940621",
    "latitude": "30.066010054242426",
    "geocoded_column": {
      "latitude": "30.066010054242426",
      "longitude": "-89.81974546940621"
    }
  },
  {
    "service_request": "2026-1257511",
    "request_type": "Trash/Recycling",
    "request_reason": "Request a Large Item Pick Up",
    "date_created": "2026-02-09T13:52:27.000",
    "date_modified": "2026-02-09T15:00:17.000",
    "request_status": "Pending",
    "responsible_agency": "Department of Sanitation",
    "final_address": "5821 Marshal Foch St",
    "address_councildis": "A",
    "status": "Assigned to Contractor",
    "contractor": "IV Waste",
    "rowid": "1257511",
    "final_x": "3669807.14868",
    "final_y": "546018.136208",
    "longitude": "-90.10450128098238",
    "latitude": "29.99571050829986",
    "geocoded_column": {
      "latitude": "29.99571050829986",
      "longitude": "-90.10450128098238"
    }
  },
  {
    "service_request": "2026-1257510",
    "request_type": "Trash/Recycling",
    "request_reason": "Order Trash Cart",
    "date_created": "2026-02-09T13:52:25.000",
    "date_modified": "2026-02-09T13:52:55.000",
    "request_status": "Pending",
    "responsible_agency": "Department of Sanitation",
    "final_address": "2411 Treasure St",
    "address_councildis": "D",
    "status": "Assigned to Contractor",
    "contractor": "IV Waste",
    "rowid": "1257510",
    "final_x": "3686045.62223",
    "final_y": "544220.139662",
    "longitude": "-90.05326891350212",
    "latitude": "29.99027782665711",
    "geocoded_column": {
      "latitude": "29.99027782665711",
      "longitude": "-90.05326891350212"
    }
  },
  {
    "service_request": "2026-1257509",
    "request_type": "Abandoned Vehicles",
    "request_reason": "Abandoned/Junk Vehicles",
    "date_created": "2026-02-09T13:50:56.000",
    "date_modified": "2026-02-09T13:53:14.000",
    "request_status": "Pending",
    "responsible_agency": "Department of Public Works",
    "final_address": "2535 Esplanade Ave",
    "address_councildis": "D",
    "status": "Pending",
    "rowid": "1257509",
    "final_x": "3678606.41787",
    "final_y": "538743.581577",
    "longitude": "-90.07695711507003",
    "latitude": "29.975445610914935",
    "geocoded_column": {
      "latitude": "29.975445610914935",
      "longitude": "-90.07695711507003"
    }
  },
  {
    "service_request": "2026-1257508",
    "request_type": "Trash/Recycling",
    "request_reason": "Request a Large Item Pick Up",
    "date_created": "2026-02-09T13:48:06.000",
    "date_modified": "2026-02-09T13:48:08.000",
    "request_status": "Pending",
    "responsible_agency": "Department of Sanitation",
    "final_address": "1900 Evergreen Ave",
    "address_councildis": "C",
    "status": "Assigned to Contractor",
    "contractor": "Richards Disposal",
    "rowid": "1257508",
    "final_x": "3688207.71107",
    "final_y": "524922.722748",
    "longitude": "-90.04712368087218",
    "latitude": "29.937150054821476",
    "geocoded_column": {
      "latitude": "29.937150054821476",
      "longitude": "-90.04712368087218"
    }
  },
  {
    "service_request": "2026-1257507",
    "request_type": "Parks & Parkways",
    "request_reason": "Request Tree Service (Right of Way/Public Property)",
    "date_created": "2026-02-09T13:46:29.000",
    "date_modified": "2026-02-09T13:46:32.000",
    "request_status": "Pending",
    "responsible_agency": "Department of Parks & Parkway",
    "final_address": "PLEASANT ST & PRYTANIA ST",
    "address_councildis": "B",
    "status": "Pending",
    "rowid": "1257507",
    "final_x": "3674858.6",
    "final_y": "521236.68",
    "longitude": "-90.08939400922623",
    "latitude": "29.92741990696334",
    "geocoded_column": {
      "latitude": "29.92741990696334",
      "longitude": "-90.08939400922623"
    }
  },
  {
    "service_request": "2026-1257506",
    "request_type": "Trash/Recycling",
    "request_reason": "Request a Large Item Pick Up",
    "date_created": "2026-02-09T13:44:49.000",
    "date_modified": "2026-02-09T13:44:51.000",
    "request_status": "Pending",
    "responsible_agency": "Department of Sanitation",
    "final_address": "2227 Alvar St",
    "address_councildis": "D",
    "status": "Assigned to Contractor",
    "contractor": "IV Waste",
    "rowid": "1257506",
    "final_x": "3692618.96797",
    "final_y": "539719.834506",
    "longitude": "-90.03266686367725",
    "latitude": "29.977700052730157",
    "geocoded_column": {
      "latitude": "29.977700052730157",
      "longitude": "-90.03266686367725"
    }
  },
  {
    "service_request": "2026-1257505",
    "request_type": "Trash/Recycling",
    "request_reason": "Request a Large Item Pick Up",
    "date_created": "2026-02-09T13:42:04.000",
    "date_modified": "2026-02-09T13:42:06.000",
    "request_status": "Pending",
    "responsible_agency": "Department of Sanitation",
    "final_address": "4740 Sherwood Dr",
    "address_councildis": "E",
    "status": "Assigned to Contractor",
    "contractor": "Waste Pro",
    "rowid": "1257505",
    "final_x": "3717936.25932",
    "final_y": "556904.797082",
    "longitude": "-89.95205288478644",
    "latitude": "30.024137524794895",
    "geocoded_column": {
      "latitude": "30.024137524794895",
      "longitude": "-89.95205288478644"
    }
  },
  {
    "service_request": "2026-1257504",
    "request_type": "Trash/Recycling",
    "request_reason": "Request a Large Item Pick Up",
    "date_created": "2026-02-09T13:41:22.000",
    "date_modified": "2026-02-09T13:41:25.000",
    "request_status": "Pending",
    "responsible_agency": "Department of Sanitation",
    "final_address": "4632 Bonita Dr",
    "address_councildis": "E",
    "status": "Assigned to Contractor",
    "contractor": "Waste Pro",
    "rowid": "1257504",
    "final_x": "3704500.92196",
    "final_y": "554586.873624",
    "longitude": "-89.99459128032271",
    "latitude": "30.018202614343366",
    "geocoded_column": {
      "latitude": "30.018202614343366",
      "longitude": "-89.99459128032271"
    }
  },
  {
    "service_request": "2026-1257503",
    "request_type": "Trash/Recycling",
    "request_reason": "Repair Trash Cart",
    "date_created": "2026-02-09T13:39:37.000",
    "date_modified": "2026-02-09T13:39:39.000",
    "request_status": "Pending",
    "responsible_agency": "Department of Sanitation",
    "final_address": "2077 Hyman Pl",
    "address_councildis": "C",
    "status": "Assigned to Contractor",
    "contractor": "Richards Disposal",
    "rowid": "1257503",
    "final_x": "3701056.74545",
    "final_y": "523037.182715",
    "longitude": "-90.00662771231383",
    "latitude": "29.931562635259212",
    "geocoded_column": {
      "latitude": "29.931562635259212",
      "longitude": "-90.00662771231383"
    }
  },
  {
    "service_request": "2026-1257502",
    "request_type": "Trash/Recycling",
    "request_reason": "Request a Large Item Pick Up",
    "date_created": "2026-02-09T13:38:34.000",
    "date_modified": "2026-02-09T13:38:35.000",
    "request_status": "Pending",
    "responsible_agency": "Department of Sanitation",
    "final_address": "4624 Annunciation St",
    "address_councildis": "B",
    "status": "Assigned to Contractor",
    "contractor": "IV Waste",
    "rowid": "1257502",
    "final_x": "3670197.64558",
    "final_y": "517620.651574",
    "longitude": "-90.10422996916266",
    "latitude": "29.917615287790653",
    "geocoded_column": {
      "latitude": "29.917615287790653",
      "longitude": "-90.10422996916266"
    }
  },
  {
    "service_request": "2026-1257501",
    "request_type": "Trash/Recycling",
    "request_reason": "Request a Large Item Pick Up",
    "date_created": "2026-02-09T13:37:35.000",
    "date_modified": "2026-02-09T13:37:38.000",
    "request_status": "Pending",
    "responsible_agency": "Department of Sanitation",
    "final_address": "2608 Republic St",
    "address_councildis": "D",
    "status": "Assigned to Contractor",
    "contractor": "IV Waste",
    "rowid": "1257501",
    "final_x": "3680742.50165",
    "final_y": "541597.383436",
    "longitude": "-90.07011142233945",
    "latitude": "29.9832279996181",
    "geocoded_column": {
      "latitude": "29.9832279996181",
      "longitude": "-90.07011142233945"
    }
  },
  {
    "service_request": "2026-1257500",
    "request_type": "Trash/Recycling",
    "request_reason": "Order Trash Cart",
    "date_created": "2026-02-09T13:35:51.000",
    "date_modified": "2026-02-09T13:35:53.000",
    "request_status": "Pending",
    "responsible_agency": "Department of Sanitation",
    "final_address": "2608 Republic St",
    "address_councildis": "D",
    "status": "Assigned to Contractor",
    "contractor": "IV Waste",
    "rowid": "1257500",
    "final_x": "3680742.50165",
    "final_y": "541597.383436",
    "longitude": "-90.07011142233945",
    "latitude": "29.9832279996181",
    "geocoded_column": {
      "latitude": "29.9832279996181",
      "longitude": "-90.07011142233945"
    }
  },
  {
    "service_request": "2026-1257499",
    "request_type": "Trash/Recycling",
    "request_reason": "Order Recycling Cart",
    "date_created": "2026-02-09T13:35:17.000",
    "date_modified": "2026-02-09T13:35:19.000",
    "request_status": "Pending",
    "responsible_agency": "Department of Sanitation",
    "final_address": "2618 S Miro St",
    "address_councildis": "B",
    "status": "Pending",
    "rowid": "1257499",
    "final_x": "3672421.30638",
    "final_y": "528628.855488",
    "longitude": "-90.0968361405164",
    "latitude": "29.947818518180135",
    "geocoded_column": {
      "latitude": "29.947818518180135",
      "longitude": "-90.0968361405164"
    }
  },
  {
    "service_request": "2026-1257498",
    "request_type": "Trash/Recycling",
    "request_reason": "Order Trash Cart",
    "date_created": "2026-02-09T13:31:00.000",
    "date_modified": "2026-02-09T13:31:03.000",
    "request_status": "Pending",
    "responsible_agency": "Department of Sanitation",
    "final_address": "2618 S Miro St",
    "address_councildis": "B",
    "status": "Assigned to Contractor",
    "contractor": "IV Waste",
    "rowid": "1257498",
    "final_x": "3672421.30638",
    "final_y": "528628.855488",
    "longitude": "-90.0968361405164",
    "latitude": "29.947818518180135",
    "geocoded_column": {
      "latitude": "29.947818518180135",
      "longitude": "-90.0968361405164"
    }
  },
  {
    "service_request": "2026-1257497",
    "request_type": "Abandoned Vehicles",
    "request_reason": "Abandoned/Junk Vehicles",
    "date_created": "2026-02-09T13:30:29.000",
    "date_modified": "2026-02-09T13:30:31.000",
    "request_status": "Pending",
    "responsible_agency": "Department of Public Works",
    "final_address": "2214 Urquhart St",
    "address_councildis": "C",
    "status": "Pending",
    "rowid": "1257497",
    "final_x": "3685172.86517",
    "final_y": "537025.97908",
    "longitude": "-90.05627898920038",
    "latitude": "29.970523197336906",
    "geocoded_column": {
      "latitude": "29.970523197336906",
      "longitude": "-90.05627898920038"
    }
  },
  {
    "service_request": "2026-1257496",
    "request_type": "Trash/Recycling",
    "request_reason": "Order Trash Cart",
    "date_created": "2026-02-09T13:28:01.000",
    "date_modified": "2026-02-09T13:28:07.000",
    "request_status": "Pending",
    "responsible_agency": "Department of Sanitation",
    "final_address": "1109 Teche St",
    "address_councildis": "C",
    "status": "Assigned to Contractor",
    "contractor": "Richards Disposal",
    "rowid": "1257496",
    "final_x": "3686557.04342",
    "final_y": "527433.150399",
    "longitude": "-90.0522463147883",
    "latitude": "29.94410372779971",
    "geocoded_column": {
      "latitude": "29.94410372779971",
      "longitude": "-90.0522463147883"
    }
  },
  {
    "service_request": "2026-1257495",
    "request_type": "Trash/Recycling",
    "request_reason": "Request a Large Item Pick Up",
    "date_created": "2026-02-09T13:25:50.000",
    "date_modified": "2026-02-09T13:25:52.000",
    "request_status": "Pending",
    "responsible_agency": "Department of Sanitation",
    "final_address": "812 N Rampart St",
    "address_councildis": "C",
    "status": "Assigned to Contractor",
    "contractor": "IV Waste",
    "rowid": "1257495",
    "final_x": "3681726.75983",
    "final_y": "533715.191685",
    "longitude": "-90.06727770770952",
    "latitude": "29.961524825703776",
    "geocoded_column": {
      "latitude": "29.961524825703776",
      "longitude": "-90.06727770770952"
    }
  },
  {
    "service_request": "2026-1257494",
    "request_type": "Roads and Streets",
    "request_reason": "Sidewalk Damaged or Missing",
    "date_created": "2026-02-09T13:24:33.000",
    "date_modified": "2026-02-09T13:24:35.000",
    "request_status": "Pending",
    "responsible_agency": "Department of Public Works",
    "final_address": "6043 Curran Rd",
    "address_councildis": "E",
    "status": "Pending",
    "rowid": "1257494",
    "final_x": "3695489.02902",
    "final_y": "558979.470556",
    "longitude": "-90.0229066167093",
    "latitude": "30.03056701997726",
    "geocoded_column": {
      "latitude": "30.03056701997726",
      "longitude": "-90.0229066167093"
    }
  },
  {
    "service_request": "2026-1257493",
    "request_type": "Trash/Recycling",
    "request_reason": "Request a Large Item Pick Up",
    "date_created": "2026-02-09T13:22:59.000",
    "date_modified": "2026-02-09T13:23:04.000",
    "request_status": "Pending",
    "responsible_agency": "Department of Sanitation",
    "final_address": "11141 Whiteside Rd",
    "address_councildis": "E",
    "status": "Assigned to Contractor",
    "contractor": "Waste Pro",
    "rowid": "1257493",
    "final_x": "3711863.09266",
    "final_y": "565086.99069",
    "longitude": "-89.97093535542096",
    "latitude": "30.046835196134964",
    "geocoded_column": {
      "latitude": "30.046835196134964",
      "longitude": "-89.97093535542096"
    }
  },
  {
    "service_request": "2026-1257492",
    "request_type": "Abandoned Vehicles",
    "request_reason": "Abandoned/Junk Vehicles",
    "date_created": "2026-02-09T13:19:22.000",
    "date_modified": "2026-02-09T13:19:23.000",
    "request_status": "Pending",
    "responsible_agency": "Department of Public Works",
    "final_address": "1600 BLK Marengo St",
    "address_councildis": "B",
    "status": "Pending",
    "rowid": "1257492",
    "final_x": "3671934.00026",
    "final_y": "521177.230071",
    "longitude": "-90.09862828708995",
    "latitude": "29.92734341648123",
    "geocoded_column": {
      "latitude": "29.92734341648123",
      "longitude": "-90.09862828708995"
    }
  },
  {
    "service_request": "2026-1257491",
    "request_type": "Abandoned Vehicles",
    "request_reason": "Abandoned/Junk Vehicles",
    "date_created": "2026-02-09T13:19:05.000",
    "date_modified": "2026-02-09T13:19:06.000",
    "request_status": "Pending",
    "responsible_agency": "Department of Public Works",
    "final_address": "8605 Nelson St",
    "address_councildis": "A",
    "status": "Pending",
    "rowid": "1257491",
    "final_x": "3663779.44301",
    "final_y": "533115.0169",
    "longitude": "-90.12397256041537",
    "latitude": "29.960407601680668",
    "geocoded_column": {
      "latitude": "29.960407601680668",
      "longitude": "-90.12397256041537"
    }
  },
  {
    "service_request": "2026-1257490",
    "request_type": "Trash/Recycling",
    "request_reason": "Request a Large Item Pick Up",
    "date_created": "2026-02-09T13:12:21.000",
    "date_modified": "2026-02-09T13:12:23.000",
    "request_status": "Pending",
    "responsible_agency": "Department of Sanitation",
    "final_address": "6752 Manchester St",
    "address_councildis": "E",
    "status": "Assigned to Contractor",
    "contractor": "Waste Pro",
    "rowid": "1257490",
    "final_x": "3698246.07722",
    "final_y": "559759.400925",
    "longitude": "-90.01416597492097",
    "latitude": "30.032624542499143",
    "geocoded_column": {
      "latitude": "30.032624542499143",
      "longitude": "-90.01416597492097"
    }
  },
  {
    "service_request": "2026-1257489",
    "request_type": "Trash/Recycling",
    "request_reason": "Illegal Dumping",
    "date_created": "2026-02-09T13:11:54.000",
    "date_modified": "2026-02-09T13:11:57.000",
    "request_status": "Pending",
    "responsible_agency": "Department of Sanitation",
    "final_address": "2800 BLK Lafitte Ave",
    "address_councildis": "A",
    "status": "Pending",
    "rowid": "1257489",
    "final_x": "3675718.098",
    "final_y": "536838.419549",
    "longitude": "-90.08614471456204",
    "latitude": "29.97029382916608",
    "geocoded_column": {
      "latitude": "29.97029382916608",
      "longitude": "-90.08614471456204"
    }
  },
  {
    "service_request": "2026-1257488",
    "request_type": "Trash/Recycling",
    "request_reason": "Replace Trash Cart",
    "date_created": "2026-02-09T13:10:34.000",
    "date_modified": "2026-02-09T13:32:34.000",
    "request_status": "Pending",
    "responsible_agency": "Department of Sanitation",
    "final_address": "2718 Chartres St",
    "address_councildis": "C",
    "status": "Assigned to Contractor",
    "contractor": "IV Waste",
    "rowid": "1257488",
    "final_x": "3687106.86626",
    "final_y": "534478.029829",
    "longitude": "-90.05026130940969",
    "latitude": "29.963457814525054",
    "geocoded_column": {
      "latitude": "29.963457814525054",
      "longitude": "-90.05026130940969"
    }
  },
  {
    "service_request": "2026-1257487",
    "request_type": "Trash/Recycling",
    "request_reason": "Request a Large Item Pick Up",
    "date_created": "2026-02-09T13:10:13.000",
    "date_modified": "2026-02-09T13:10:15.000",
    "request_status": "Pending",
    "responsible_agency": "Department of Sanitation",
    "final_address": "7655 Expedition Dr",
    "address_councildis": "E",
    "status": "Assigned to Contractor",
    "contractor": "Waste Pro",
    "rowid": "1257487",
    "final_x": "3725833.49049",
    "final_y": "571518.883624",
    "longitude": "-89.92653254009069",
    "latitude": "30.064056064004713",
    "geocoded_column": {
      "latitude": "30.064056064004713",
      "longitude": "-89.92653254009069"
    }
  },
  {
    "service_request": "2026-1257486",
    "request_type": "Streetlights",
    "request_reason": "Streetlight Outage/Malfunction",
    "date_created": "2026-02-09T13:09:14.000",
    "date_modified": "2026-02-09T13:09:17.000",
    "request_status": "Pending",
    "responsible_agency": "Department of Public Works",
    "final_address": "3000 BLK Lafitte Ave",
    "address_councildis": "A",
    "status": "Pending",
    "rowid": "1257486",
    "final_x": "3675150.17296",
    "final_y": "537200.871908",
    "longitude": "-90.0879258441859",
    "latitude": "29.97130743499138",
    "geocoded_column": {
      "latitude": "29.97130743499138",
      "longitude": "-90.0879258441859"
    }
  },
  {
    "service_request": "2026-1257485",
    "request_type": "Trash/Recycling",
    "request_reason": "Illegal Dumping",
    "date_created": "2026-02-09T13:03:56.000",
    "date_modified": "2026-02-09T13:03:58.000",
    "request_status": "Pending",
    "responsible_agency": "Department of Sanitation",
    "final_address": "2800 BLK Lafitte Ave",
    "address_councildis": "A",
    "status": "Pending",
    "rowid": "1257485",
    "final_x": "3675718.098",
    "final_y": "536838.419549",
    "longitude": "-90.08614471456204",
    "latitude": "29.97029382916608",
    "geocoded_column": {
      "latitude": "29.97029382916608",
      "longitude": "-90.08614471456204"
    }
  },
  {
    "service_request": "2026-1257484",
    "request_type": "Street and Traffic Signs",
    "request_reason": "Additional Signage Request",
    "date_created": "2026-02-09T13:03:54.000",
    "date_modified": "2026-02-09T13:03:56.000",
    "request_status": "Pending",
    "responsible_agency": "Department of Public Works",
    "final_address": "318 Lake Marina Ave",
    "address_councildis": "A",
    "status": "Pending",
    "rowid": "1257484",
    "final_x": "3665352.0505",
    "final_y": "555356.038169",
    "longitude": "-90.11826180662696",
    "latitude": "30.02151711429282",
    "geocoded_column": {
      "latitude": "30.02151711429282",
      "longitude": "-90.11826180662696"
    }
  },
  {
    "service_request": "2026-1257483",
    "request_type": "Abandoned Vehicles",
    "request_reason": "Abandoned/Junk Vehicles",
    "date_created": "2026-02-09T13:03:08.000",
    "date_modified": "2026-02-09T13:03:10.000",
    "request_status": "Pending",
    "responsible_agency": "Department of Public Works",
    "final_address": "1621 Duels St",
    "address_councildis": "D",
    "status": "Pending",
    "rowid": "1257483",
    "final_x": "3680162.42754",
    "final_y": "542256.227149",
    "longitude": "-90.07192068749802",
    "latitude": "29.98505716090705",
    "geocoded_column": {
      "latitude": "29.98505716090705",
      "longitude": "-90.07192068749802"
    }
  },
  {
    "service_request": "2026-1257482",
    "request_type": "Abandoned Vehicles",
    "request_reason": "Abandoned/Junk Vehicles",
    "date_created": "2026-02-09T13:02:35.000",
    "date_modified": "2026-02-09T13:02:37.000",
    "request_status": "Pending",
    "responsible_agency": "Department of Public Works",
    "final_address": "2000 Louisiana Ave",
    "address_councildis": "B",
    "status": "Pending",
    "rowid": "1257482",
    "final_x": "3673370.14516",
    "final_y": "522955.234875",
    "longitude": "-90.09403402452264",
    "latitude": "29.932189725824678",
    "geocoded_column": {
      "latitude": "29.932189725824678",
      "longitude": "-90.09403402452264"
    }
  },
  {
    "service_request": "2026-1257481",
    "request_type": "Trash/Recycling",
    "request_reason": "Damaged Caused By Contractor",
    "date_created": "2026-02-09T13:00:13.000",
    "date_modified": "2026-02-09T13:00:39.000",
    "request_status": "Pending",
    "responsible_agency": "Department of Sanitation",
    "final_address": "6353 Carlson Dr",
    "address_councildis": "D",
    "status": "Assigned to Contractor",
    "contractor": "IV Waste",
    "rowid": "1257481",
    "final_x": "3679191.94907",
    "final_y": "557257.588379",
    "longitude": "-90.07446544835094",
    "latitude": "30.02633488158646",
    "geocoded_column": {
      "latitude": "30.02633488158646",
      "longitude": "-90.07446544835094"
    }
  },
  {
    "service_request": "2026-1257480",
    "request_type": "Trash/Recycling",
    "request_reason": "Request a Large Item Pick Up",
    "date_created": "2026-02-09T12:58:12.000",
    "date_modified": "2026-02-09T12:58:14.000",
    "request_status": "Pending",
    "responsible_agency": "Department of Sanitation",
    "final_address": "4735 Longfellow Dr",
    "address_councildis": "E",
    "status": "Assigned to Contractor",
    "contractor": "Waste Pro",
    "rowid": "1257480",
    "final_x": "3709691.40824",
    "final_y": "555802.437465",
    "longitude": "-89.97814602178008",
    "latitude": "30.021377173837557",
    "geocoded_column": {
      "latitude": "30.021377173837557",
      "longitude": "-89.97814602178008"
    }
  },
  {
    "service_request": "2026-1257479",
    "request_type": "Roads and Streets",
    "request_reason": "Street Subsidence (Sinking)",
    "date_created": "2026-02-09T12:56:19.000",
    "date_modified": "2026-02-09T12:56:22.000",
    "request_status": "Pending",
    "responsible_agency": "Sewerage & Water Board",
    "final_address": "N BROAD ST & DUELS ST",
    "address_councildis": "D",
    "status": "Pending",
    "rowid": "1257479",
    "final_x": "3680662.0",
    "final_y": "542256.08",
    "longitude": "-90.07034275596625",
    "latitude": "29.985041624846367",
    "geocoded_column": {
      "latitude": "29.985041624846367",
      "longitude": "-90.07034275596625"
    }
  },
  {
    "service_request": "2026-1257478",
    "request_type": "Roads and Streets",
    "request_reason": "Pothole",
    "date_created": "2026-02-09T12:54:42.000",
    "date_modified": "2026-02-09T12:54:44.000",
    "request_status": "Pending",
    "responsible_agency": "Department of Public Works",
    "final_address": "318 Lake Marina Ave",
    "address_councildis": "A",
    "status": "Pending",
    "rowid": "1257478",
    "final_x": "3665352.0505",
    "final_y": "555356.038169",
    "longitude": "-90.11826180662696",
    "latitude": "30.02151711429282",
    "geocoded_column": {
      "latitude": "30.02151711429282",
      "longitude": "-90.11826180662696"
    }
  },
  {
    "service_request": "2026-1257477",
    "request_type": "Trash/Recycling",
    "request_reason": "Request a Large Item Pick Up",
    "date_created": "2026-02-09T12:54:13.000",
    "date_modified": "2026-02-09T12:54:15.000",
    "request_status": "Pending",
    "responsible_agency": "Department of Sanitation",
    "final_address": "2816 General Pershing St",
    "address_councildis": "B",
    "status": "Assigned to Contractor",
    "contractor": "IV Waste",
    "rowid": "1257477",
    "final_x": "3670773.90119",
    "final_y": "525265.846653",
    "longitude": "-90.1021517580002",
    "latitude": "29.938620118136434",
    "geocoded_column": {
      "latitude": "29.938620118136434",
      "longitude": "-90.1021517580002"
    }
  },
  {
    "service_request": "2026-1257476",
    "request_type": "Streetlights",
    "request_reason": "New Streetlight Request",
    "date_created": "2026-02-09T12:51:04.000",
    "date_modified": "2026-02-09T12:51:07.000",
    "request_status": "Pending",
    "responsible_agency": "Department of Public Works",
    "final_address": "7915 Sheephead St",
    "address_councildis": "E",
    "status": "Pending",
    "rowid": "1257476",
    "final_x": "3699383.40644",
    "final_y": "561212.337694",
    "longitude": "-90.01051893833699",
    "latitude": "30.036583504045566",
    "geocoded_column": {
      "latitude": "30.036583504045566",
      "longitude": "-90.01051893833699"
    }
  },