[
  {
    "service_request": "2021-830545",
    "request_type": "Traffic Signals/Signs/Striping/Streetlights",
    "request_reason": "Traffic Signal Malfunctioning/Damaged",
    "date_created": "2021-10-07T01:35:13.000",
    "date_modified": "2021-10-07T01:35:13.000",
    "request_status": "Pending",
    "responsible_agency": "Department of Public Works",
    "final_address": "ST CHARLES AVE & WASHINGTON AVE",
    "address_councildis": "B",
    "status": "Pending",
    "rowid": "830545",
    "final_x": "3675940.1",
    "final_y": "522504.88",
    "longitude": "-90.08593639663825",
    "latitude": "29.930874717273824",
    "geocoded_column": {
      "latitude": "29.930874717273824",
      "longitude": "-90.08593639663825"
    }
  },
  {
    "service_request": "2021-830544",
    "request_type": "Property Maintenance",
    "request_reason": "Property Maintenance",
    "date_created": "2021-10-07T00:35:11.000",
    "date_modified": "2021-10-07T00:35:11.000",
    "request_status": "Pending",
    "responsible_agency": "Department of Code Enforcement",
    "final_address": "4216 Hamburg St",
    "address_councildis": "D",
    "status": "Pending",
    "rowid": "830544",
    "final_x": "3679009.90754",
    "final_y": "547808.985234",
    "longitude": "-90.07536845873979",
    "latitude": "30.00036012812996",
    "geocoded_column": {
      "latitude": "30.00036012812996",
      "longitude": "-90.07536845873979"
    }
  },
  {
    "service_request": "2021-830543",
    "request_type": "Property Maintenance",
    "request_reason": "Property Maintenance",
    "date_created": "2021-10-07T00:34:39.000",
    "date_modified": "2021-10-07T00:34:39.000",
    "request_status": "Pending",
    "responsible_agency": "Department of Code Enforcement",
    "final_address": "4210 Hamburg St",
    "address_councildis": "D",
    "status": "Pending",
    "rowid": "830543",
    "final_x": "3679013.05589",
    "final_y": "547769.167378",
    "longitude": "-90.07535989387868",
    "latitude": "30.000250548122356",
    "geocoded_column": {
      "latitude": "30.000250548122356",
      "longitude": "-90.07535989387868"
    }
  },
  {
    "service_request": "2021-830541",
    "request_type": "Trash/Recycling",
    "request_reason": "Repair Trash Cart",
    "date_created": "2021-10-06T22:59:31.000",
    "date_modified": "2021-10-06T22:59:31.000",
    "request_status": "Pending",
    "responsible_agency": "Department of Sanitation",
    "final_address": "2248 General Collins Ave",
    "address_councildis": "C",
    "status": "Assigned to Contractor",
    "contractor": "Richards Disposal",
    "rowid": "830541",
    "final_x": "3698488.05149",
    "final_y": "522633.642746",
    "longitude": "-90.01475138948678",
    "latitude": "29.93053456860562",
    "geocoded_column": {
      "latitude": "29.93053456860562",
      "longitude": "-90.01475138948678"
    }
  },
  {
    "service_request": "2021-830540",
    "request_type": "Trash/Recycling",
    "request_reason": "Order Recycling Cart",
    "date_created": "2021-10-06T22:57:42.000",
    "date_modified": "2021-10-06T22:57:42.000",
    "request_status": "Pending",
    "responsible_agency": "Department of Sanitation",
    "final_address": "2248 General Collins Ave",
    "address_councildis": "C",
    "status": "Pending",
    "rowid": "830540",
    "final_x": "3698488.05149",
    "final_y": "522633.642746",
    "longitude": "-90.01475138948678",
    "latitude": "29.93053456860562",
    "geocoded_column": {
      "latitude": "29.93053456860562",
      "longitude": "-90.01475138948678"
    }
  },
  {
    "service_request": "2021-830538",
    "request_type": "Trash/Recycling",
    "request_reason": "Request a Large Item Pick Up",
    "date_created": "2021-10-06T22:08:32.000",
    "date_modified": "2021-10-06T22:08:32.000",
    "request_status": "Pending",
    "responsible_agency": "Department of Sanitation",
    "final_address": "2518 Willow St",
    "address_councildis": "B",
    "status": "Assigned to Contractor",
    "contractor": "Richards Disposal",
    "rowid": "830538",
    "final_x": "3674063.3611",
    "final_y": "526739.28979",
    "longitude": "-90.09171616179373",
    "latitude": "29.942574008734486",
    "geocoded_column": {
      "latitude": "29.942574008734486",
      "longitude": "-90.09171616179373"
    }
  },
  {
    "service_request": "2021-830537",
    "request_type": "Trash/Recycling",
    "request_reason": "Request a Large Item Pick Up",
    "date_created": "2021-10-06T22:07:35.000",
    "date_modified": "2021-10-06T22:07:36.000",
    "request_status": "Pending",
    "responsible_agency": "Department of Sanitation",
    "final_address": "1700 Alvar St",
    "address_councildis": "D",
    "status": "Assigned to Contractor",
    "contractor": "Metro Disposal",
    "rowid": "830537",
    "final_x": "3692014.50998",
    "final_y": "537670.35636",
    "longitude": "-90.03464930532225",
    "latitude": "29.972083569009335",
    "geocoded_column": {
      "latitude": "29.972083569009335",
      "longitude": "-90.03464930532225"
    }
  },
  {
    "service_request": "2021-830536",
    "request_type": "Health Related Questions",
    "request_reason": "Noise Ordinance Complaint",
    "date_created": "2021-10-06T22:07:28.000",
    "date_modified": "2021-10-06T22:07:28.000",
    "request_status": "Pending",
    "responsible_agency": "Health Department",
    "final_address": "3600 Annunciation St",
    "address_councildis": "B",
    "status": "Pending",
    "rowid": "830536",
    "final_x": "3674445.15412",
    "final_y": "518188.517494",
    "longitude": "-90.09080349967799",
    "latitude": "29.919050774710865",
    "geocoded_column": {
      "latitude": "29.919050774710865",
      "longitude": "-90.09080349967799"
    }
  },
  {
    "service_request": "2021-830535",
    "request_type": "Traffic Signals/Signs/Striping/Streetlights",
    "request_reason": "Street Light Outage/Malfunction",
    "date_created": "2021-10-06T22:01:59.000",
    "date_modified": "2021-10-06T22:02:00.000",
    "request_status": "Pending",
    "responsible_agency": "Department of Public Works",
    "final_address": "6550 Orleans Ave",
    "address_councildis": "A",
    "status": "Pending",
    "contractor": "Royal Engineering",
    "rowid": "830535",
    "final_x": "3671171.91847",
    "final_y": "550882.489237",
    "longitude": "-90.10002469126877",
    "latitude": "30.009045464406956",
    "geocoded_column": {
      "latitude": "30.009045464406956",
      "longitude": "-90.10002469126877"
    }
  },
  {
    "service_request": "2021-830534",
    "request_type": "Traffic Signals/Signs/Striping/Streetlights",
    "request_reason": "Street Light Outage/Malfunction",
    "date_created": "2021-10-06T22:01:08.000",
    "date_modified": "2021-10-06T22:01:09.000",
    "request_status": "Pending",
    "responsible_agency": "Department of Public Works",
    "final_address": "6508 General Haig St",
    "address_councildis": "A",
    "status": "Pending",
    "contractor": "Royal Engineering",
    "rowid": "830534",
    "final_x": "3670748.89262",
    "final_y": "550632.766868",
    "longitude": "-90.10136965767869",
    "latitude": "30.008371328570256",
    "geocoded_column": {
      "latitude": "30.008371328570256",
      "longitude": "-90.10136965767869"
    }
  },
  {
    "service_request": "2021-830533",
    "request_type": "Traffic Signals/Signs/Striping/Streetlights",
    "request_reason": "Street Light Outage/Malfunction",
    "date_created": "2021-10-06T21:59:44.000",
    "date_modified": "2021-10-06T21:59:45.000",
    "request_status": "Pending",
    "responsible_agency": "Department of Public Works",
    "final_address": "969 Lane St",
    "address_councildis": "A",
    "status": "Pending",
    "contractor": "Royal Engineering",
    "rowid": "830533",
    "final_x": "3670963.52999",
    "final_y": "550554.295188",
    "longitude": "-90.10069421615829",
    "latitude": "30.008149211958244",
    "geocoded_column": {
      "latitude": "30.008149211958244",
      "longitude": "-90.10069421615829"
    }
  },
  {
    "service_request": "2021-830532",
    "request_type": "Traffic Signals/Signs/Striping/Streetlights",
    "request_reason": "Traffic Signal Malfunctioning/Damaged",
    "date_created": "2021-10-06T21:37:22.000",
    "date_modified": "2021-10-06T21:37:22.000",
    "request_status": "Pending",
    "responsible_agency": "Department of Public Works",
    "final_address": "PRYTANIA ST & VALENCE ST",
    "address_councildis": "B",
    "status": "Pending",
    "rowid": "830532",
    "final_x": "3669801.5",
    "final_y": "520207.98",
    "longitude": "-90.10539286401604",
    "latitude": "29.92474129963754",
    "geocoded_column": {
      "latitude": "29.92474129963754",
      "longitude": "-90.10539286401604"
    }
  },
  {
    "service_request": "2021-830531",
    "request_type": "Trash/Recycling",
    "request_reason": "Illegal Dumping",
    "date_created": "2021-10-06T21:23:23.000",
    "date_modified": "2021-10-06T21:23:23.000",
    "request_status": "Pending",
    "responsible_agency": "Department of Sanitation",
    "final_address": "2201 Lafayette St",
    "address_councildis": "B",
    "status": "Pending",
    "rowid": "830531",
    "final_x": "3675038.11265",
    "final_y": "531507.672643",
    "longitude": "-90.08847508346591",
    "latitude": "29.955656403104385",
    "geocoded_column": {
      "latitude": "29.955656403104385",
      "longitude": "-90.08847508346591"
    }
  },
  {
    "service_request": "2021-830530",
    "request_type": "Trash/Recycling",
    "request_reason": "Missed Trash Pick-Up",
    "date_created": "2021-10-06T21:12:29.000",
    "date_modified": "2021-10-06T21:12:30.000",
    "request_status": "Pending",
    "responsible_agency": "Department of Sanitation",
    "final_address": "8247 Spruce St",
    "address_councildis": "A",
    "status": "Assigned to Contractor",
    "contractor": "Richards Disposal",
    "rowid": "830530",
    "final_x": "3663367.80666",
    "final_y": "530953.021122",
    "longitude": "-90.12534440431313",
    "latitude": "29.95447475560005",
    "geocoded_column": {
      "latitude": "29.95447475560005",
      "longitude": "-90.12534440431313"
    }
  },
  {
    "service_request": "2021-830529",
    "request_type": "Parks & Parkways",
    "request_reason": "Request Tree Service (Right of Way/Public Property)",
    "date_created": "2021-10-06T20:37:45.000",
    "date_modified": "2021-10-06T20:37:45.000",
    "request_status": "Pending",
    "responsible_agency": "Department of Parks & Parkway",
    "final_address": "7418 Garfield St",
    "address_councildis": "A",
    "status": "Pending",
    "rowid": "830529",
    "final_x": "3661375.6375",
    "final_y": "523680.791611",
    "longitude": "-90.13187570078223",
    "latitude": "29.934536039621662",
    "geocoded_column": {
      "latitude": "29.934536039621662",
      "longitude": "-90.13187570078223"
    }
  },
  {
    "service_request": "2021-830527",
    "request_type": "Trash/Recycling",
    "request_reason": "Missed Trash Pick-Up",
    "date_created": "2021-10-06T20:34:39.000",
    "date_modified": "2021-10-06T20:34:39.000",
    "request_status": "Pending",
    "responsible_agency": "Department of Sanitation",
    "final_address": "4008 Royal St",
    "address_councildis": "C",
    "status": "Assigned to Contractor",
    "contractor": "Metro Disposal",
    "rowid": "830527",
    "final_x": "3691478.01206",
    "final_y": "533654.404037",
    "longitude": "-90.03648719250774",
    "latitude": "29.961057821763145",
    "geocoded_column": {
      "latitude": "29.961057821763145",
      "longitude": "-90.03648719250774"
    }
  },
  {
    "service_request": "2021-830526",
    "request_type": "Health Related Questions",
    "request_reason": "Noise Ordinance Complaint",
    "date_created": "2021-10-06T20:28:51.000",
    "date_modified": "2021-10-06T20:28:51.000",
    "request_status": "Pending",
    "responsible_agency": "Health Department",
    "final_address": "1500 N Claiborne Ave.",
    "address_councildis": "C",
    "status": "Pending",
    "rowid": "830526",
    "final_x": "3681846.67516",
    "final_y": "537148.826504",
    "longitude": "-90.0667791844965",
    "latitude": "29.970962498120493",
    "geocoded_column": {
      "latitude": "29.970962498120493",
      "longitude": "-90.0667791844965"
    }
  },
  {
    "service_request": "2021-830524",
    "request_type": "Traffic Signals/Signs/Striping/Streetlights",
    "request_reason": "Street Light Outage/Malfunction",
    "date_created": "2021-10-06T20:12:28.000",
    "date_modified": "2021-10-06T20:12:29.000",
    "request_status": "Pending",
    "responsible_agency": "Department of Public Works",
    "final_address": "11 Brownlee Ct",
    "address_councildis": "E",
    "status": "Pending",
    "contractor": "Royal Engineering",
    "rowid": "830524",
    "final_x": "3712802.67883",
    "final_y": "567029.718372",
    "longitude": "-89.96789262649388",
    "latitude": "30.052146157198457",
    "geocoded_column": {
      "latitude": "30.052146157198457",
      "longitude": "-89.96789262649388"
    }
  },
  {
    "service_request": "2021-830523",
    "request_type": "Roads/Drainage",
    "request_reason": "Pothole",
    "date_created": "2021-10-06T19:58:54.000",
    "date_modified": "2021-10-06T19:58:54.000",
    "request_status": "Pending",
    "responsible_agency": "Department of Public Works",
    "final_address": "800 Richard St",
    "address_councildis": "B",
    "status": "Pending",
    "rowid": "830523",
    "final_x": "3680934.33077",
    "final_y": "522854.286523",
    "longitude": "-90.07015815244164",
    "latitude": "29.931685029148184",
    "geocoded_column": {
      "latitude": "29.931685029148184",
      "longitude": "-90.07015815244164"
    }
  },
  {
    "service_request": "2021-830522",
    "request_type": "Parks & Parkways",
    "request_reason": "Request Tree Service (Right of Way/Public Property)",
    "date_created": "2021-10-06T19:53:45.000",
    "date_modified": "2021-10-06T19:53:45.000",
    "request_status": "Pending",
    "responsible_agency": "Department of Parks & Parkway",
    "final_address": "1127 Felicity St",
    "address_councildis": "B",
    "status": "Pending",
    "rowid": "830522",
    "final_x": "3679812.0196",
    "final_y": "523269.145851",
    "longitude": "-90.07368676356731",
    "latitude": "29.932859728035382",
    "geocoded_column": {
      "latitude": "29.932859728035382",
      "longitude": "-90.07368676356731"
    }
  },
  {
    "service_request": "2021-830521",
    "request_type": "Trash/Recycling",
    "request_reason": "Missed Trash Pick-Up",
    "date_created": "2021-10-06T19:48:57.000",
    "date_modified": "2021-10-06T19:48:57.000",
    "request_status": "Pending",
    "responsible_agency": "Department of Sanitation",
    "final_address": "1452 Pressburg St",
    "address_councildis": "D",
    "status": "Assigned to Contractor",
    "contractor": "Metro Disposal",
    "rowid": "830521",
    "final_x": "3677904.59355",
    "final_y": "553901.682199",
    "longitude": "-90.07864945846532",
    "latitude": "30.017146185286805",
    "geocoded_column": {
      "latitude": "30.017146185286805",
      "longitude": "-90.07864945846532"
    }
  },
  {
    "service_request": "2021-830520",
    "request_type": "Roads/Drainage",
    "request_reason": "Pothole",
    "date_created": "2021-10-06T19:42:55.000",
    "date_modified": "2021-10-06T19:42:55.000",
    "request_status": "Pending",
    "responsible_agency": "Department of Public Works",
    "final_address": "6201 Pines Blvd",
    "address_councildis": "D",
    "status": "Pending",
    "rowid": "830520",
    "final_x": "3696752.08458",
    "final_y": "556368.26761",
    "longitude": "-90.01901000837296",
    "latitude": "30.023347430147776",
    "geocoded_column": {
      "latitude": "30.023347430147776",
      "longitude": "-90.01901000837296"
    }
  },
  {
    "service_request": "2021-830519",
    "request_type": "Traffic Signals/Signs/Striping/Streetlights",
    "request_reason": "Traffic Signal Malfunctioning/Damaged",
    "date_created": "2021-10-06T19:41:49.000",
    "date_modified": "2021-10-06T19:41:49.000",
    "request_status": "Pending",
    "responsible_agency": "Department of Public Works",
    "final_address": "1233 N Broad St",
    "address_councildis": "A",
    "status": "Pending",
    "rowid": "830519",
    "final_x": "3678011.8148",
    "final_y": "538848.458121",
    "longitude": "-90.0788314071433",
    "latitude": "29.97575189865515",
    "geocoded_column": {
      "latitude": "29.97575189865515",
      "longitude": "-90.0788314071433"
    }
  },
  {
    "service_request": "2021-830518",
    "request_type": "Mosquito, Termite & Rodent Control",
    "request_reason": "Mosquito Complaint",
    "date_created": "2021-10-06T19:25:25.000",
    "date_modified": "2021-10-06T19:25:25.000",
    "request_status": "Pending",
    "responsible_agency": "Mosquito, Termite & Rodent Control Board",
    "final_address": "6055 Milne Blvd",
    "address_councildis": "A",
    "status": "Pending",
    "rowid": "830518",
    "final_x": "3667145.1129",
    "final_y": "548008.742226",
    "longitude": "-90.11284347203514",
    "latitude": "30.00126221859402",
    "geocoded_column": {
      "latitude": "30.00126221859402",
      "longitude": "-90.11284347203514"
    }
  },
  {
    "service_request": "2021-830516",
    "request_type": "Trash/Recycling",
    "request_reason": "Order Recycling Cart",
    "date_created": "2021-10-06T19:09:03.000",
    "date_modified": "2021-10-06T19:09:03.000",
    "request_status": "Pending",
    "responsible_agency": "Department of Sanitation",
    "final_address": "4523 Feliciana Dr",
    "address_councildis": "D",
    "status": "Pending",
    "rowid": "830516",
    "final_x": "3690468.89424",
    "final_y": "550333.940756",
    "longitude": "-90.03907885969865",
    "latitude": "30.006951941489728",
    "geocoded_column": {
      "latitude": "30.006951941489728",
      "longitude": "-90.03907885969865"
    }
  },
  {
    "service_request": "2021-830515",
    "request_type": "Trash/Recycling",
    "request_reason": "Replace Trash Cart",
    "date_created": "2021-10-06T19:07:33.000",
    "date_modified": "2021-10-06T19:07:33.000",
    "request_status": "Pending",
    "responsible_agency": "Department of Sanitation",
    "final_address": "808 Robert E Lee Blvd",
    "address_councildis": "A",
    "status": "Assigned to Contractor",
    "contractor": "Metro Disposal",
    "rowid": "830515",
    "final_x": "3669957.69095",
    "final_y": "554486.036312",
    "longitude": "-90.10373868370628",
    "latitude": "30.018989824901105",
    "geocoded_column": {
      "latitude": "30.018989824901105",
      "longitude": "-90.10373868370628"
    }
  },
  {
    "service_request": "2021-830514",
    "request_type": "Trash/Recycling",
    "request_reason": "Missed Trash Pick-Up",
    "date_created": "2021-10-06T19:07:13.000",
    "date_modified": "2021-10-06T19:07:14.000",
    "request_status": "Pending",
    "responsible_agency": "Department of Sanitation",
    "final_address": "713 Lang St",
    "address_councildis": "C",
    "status": "Assigned to Contractor",
    "contractor": "Richards Disposal",
    "rowid": "830514",
    "final_x": "3701977.28452",
    "final_y": "519921.065656",
    "longitude": "-90.00383583802473",
    "latitude": "29.922965052841292",
    "geocoded_column": {
      "latitude": "29.922965052841292",
      "longitude": "-90.00383583802473"
    }
  },
  {
    "service_request": "2021-830513",
    "request_type": "Trash/Recycling",
    "request_reason": "Order Recycling Cart",
    "date_created": "2021-10-06T19:05:09.000",
    "date_modified": "2021-10-06T19:05:09.000",
    "request_status": "Pending",
    "responsible_agency": "Department of Sanitation",
    "final_address": "808 Robert E Lee Blvd",
    "address_councildis": "A",
    "status": "Pending",
    "rowid": "830513",
    "final_x": "3669957.69095",
    "final_y": "554486.036312",
    "longitude": "-90.10373868370628",
    "latitude": "30.018989824901105",
    "geocoded_column": {
      "latitude": "30.018989824901105",
      "longitude": "-90.10373868370628"
    }
  },
  {
    "service_request": "2021-830511",
    "request_type": "Trash/Recycling",
    "request_reason": "Replace Trash Cart",
    "date_created": "2021-10-06T19:03:36.000",
    "date_modified": "2021-10-06T19:03:36.000",
    "request_status": "Pending",
    "responsible_agency": "Department of Sanitation",
    "final_address": "808 Robert E Lee Blvd",
    "address_councildis": "A",
    "status": "Assigned to Contractor",
    "contractor": "Metro Disposal",
    "rowid": "830511",
    "final_x": "3669957.69095",
    "final_y": "554486.036312",
    "longitude": "-90.10373868370628",
    "latitude": "30.018989824901105",
    "geocoded_column": {
      "latitude": "30.018989824901105",
      "longitude": "-90.10373868370628"
    }
  },
  {
    "service_request": "2021-830510",
    "request_type": "Trash/Recycling",
    "request_reason": "Replace Trash Cart",
    "date_created": "2021-10-06T19:03:09.000",
    "date_modified": "2021-10-06T19:03:09.000",
    "request_status": "Pending",
    "responsible_agency": "Department of Sanitation",
    "final_address": "808 Robert E Lee Blvd",
    "address_councildis": "A",
    "status": "Assigned to Contractor",
    "contractor": "Metro Disposal",
    "rowid": "830510",
    "final_x": "3669957.69095",
    "final_y": "554486.036312",
    "longitude": "-90.10373868370628",
    "latitude": "30.018989824901105",
    "geocoded_column": {
      "latitude": "30.018989824901105",
      "longitude": "-90.10373868370628"
    }
  },
  {
    "service_request": "2021-830509",
    "request_type": "Trash/Recycling",
    "request_reason": "Replace Trash Cart",
    "date_created": "2021-10-06T19:03:04.000",
    "date_modified": "2021-10-06T19:03:04.000",
    "request_status": "Pending",
    "responsible_agency": "Department of Sanitation",
    "final_address": "808 Robert E Lee Blvd",
    "address_councildis": "A",
    "status": "Assigned to Contractor",
    "contractor": "Metro Disposal",
    "rowid": "830509",
    "final_x": "3669957.69095",
    "final_y": "554486.036312",
    "longitude": "-90.10373868370628",
    "latitude": "30.018989824901105",
    "geocoded_column": {
      "latitude": "30.018989824901105",
      "longitude": "-90.10373868370628"
    }
  },
  {
    "service_request": "2021-830508",
    "request_type": "Trash/Recycling",
    "request_reason": "MIssed Recycling Pick-Up",
    "date_created": "2021-10-06T18:54:16.000",
    "date_modified": "2021-10-06T18:54:17.000",
    "request_status": "Pending",
    "responsible_agency": "Department of Sanitation",
    "final_address": "811 Peniston St",
    "address_councildis": "B",
    "status": "Assigned to Contractor",
    "contractor": "Richards Disposal",
    "rowid": "830508",
    "final_x": "3673492.33819",
    "final_y": "518808.867639",
    "longitude": "-90.09378987351101",
    "latitude": "29.92078491525923",
    "geocoded_column": {
      "latitude": "29.92078491525923",
      "longitude": "-90.09378987351101"
    }
  },
  {
    "service_request": "2021-830507",
    "request_type": "Abandoned Vehicles",
    "request_reason": "Abandoned/Junk Vehicles",
    "date_created": "2021-10-06T18:50:55.000",
    "date_modified": "2021-10-06T18:50:55.000",
    "request_status": "Pending",
    "responsible_agency": "Department of Public Works",
    "final_address": "3635 Tchoupitoulas St",
    "address_councildis": "B",
    "status": "Pending",
    "rowid": "830507",
    "final_x": "3674412.92526",
    "final_y": "517882.58911",
    "longitude": "-90.0909157003082",
    "latitude": "29.918210530374967",
    "geocoded_column": {
      "latitude": "29.918210530374967",
      "longitude": "-90.0909157003082"
    }
  },
  {
    "service_request": "2021-830505",
    "request_type": "Abandoned Vehicles",
    "request_reason": "Abandoned/Junk Vehicles",
    "date_created": "2021-10-06T18:41:05.000",
    "date_modified": "2021-10-06T18:41:05.000",
    "request_status": "Pending",
    "responsible_agency": "Department of Public Works",
    "final_address": "4950 Feliciana Dr",
    "address_councildis": "D",
    "status": "Pending",
    "rowid": "830505",
    "final_x": "3689918.5455",
    "final_y": "551780.892054",
    "longitude": "-90.04076598695211",
    "latitude": "30.010947606386218",
    "geocoded_column": {
      "latitude": "30.010947606386218",
      "longitude": "-90.04076598695211"
    }
  },
  {
    "service_request": "2021-830504",
    "request_type": "Trash/Recycling",
    "request_reason": "Missed Trash Pick-Up",
    "date_created": "2021-10-06T18:39:05.000",
    "date_modified": "2021-10-06T18:39:06.000",
    "request_status": "Pending",
    "responsible_agency": "Department of Sanitation",
    "final_address": "2318 Louisa St",
    "address_councildis": "D",
    "status": "Assigned to Contractor",
    "contractor": "Metro Disposal",
    "rowid": "830504",
    "final_x": "3690693.18851",
    "final_y": "540544.562763",
    "longitude": "-90.03871968388307",
    "latitude": "29.980027728354308",
    "geocoded_column": {
      "latitude": "29.980027728354308",
      "longitude": "-90.03871968388307"
    }
  },
  {
    "service_request": "2021-830500",
    "request_type": "COVID-19",
    "request_reason": "COVID-19 Business Non-Compliance",
    "date_created": "2021-10-06T18:22:50.000",
    "date_modified": "2021-10-06T18:22:51.000",
    "request_status": "Pending",
    "responsible_agency": "Safety and Permits",
    "final_address": "6801 Franklin Ave",
    "address_councildis": "D",
    "status": "Pending",
    "rowid": "830500",
    "final_x": "3686785.95247",
    "final_y": "558538.472732",
    "longitude": "-90.05042402606901",
    "latitude": "30.029625244502746",
    "geocoded_column": {
      "latitude": "30.029625244502746",
      "longitude": "-90.05042402606901"
    }
  },
  {
    "service_request": "2021-830499",
    "request_type": "Trash/Recycling",
    "request_reason": "Missed Trash Pick-Up",
    "date_created": "2021-10-06T18:20:52.000",
    "date_modified": "2021-10-06T18:20:53.000",
    "request_status": "Pending",
    "responsible_agency": "Department of Sanitation",
    "final_address": "6300 Laurel St",
    "address_councildis": "A",
    "status": "Assigned to Contractor",
    "contractor": "Richards Disposal",
    "rowid": "830499",
    "final_x": "3662937.88295",
    "final_y": "518747.005495",
    "longitude": "-90.12710767134647",
    "latitude": "29.920924540863524",
    "geocoded_column": {
      "latitude": "29.920924540863524",
      "longitude": "-90.12710767134647"
    }
  },
  {
    "service_request": "2021-830497",
    "request_type": "Property Maintenance",
    "request_reason": "Property Maintenance",
    "date_created": "2021-10-06T18:15:01.000",
    "date_modified": "2021-10-06T18:15:01.000",
    "request_status": "Pending",
    "responsible_agency": "Department of Code Enforcement",
    "final_address": "4816 Dauphine St",
    "address_councildis": "E",
    "status": "Pending",
    "rowid": "830497",
    "final_x": "3694858.3441",
    "final_y": "533303.935044",
    "longitude": "-90.02582540637854",
    "latitude": "29.95998852587759",
    "geocoded_column": {
      "latitude": "29.95998852587759",
      "longitude": "-90.02582540637854"
    }
  },
  {
    "service_request": "2021-830495",
    "request_type": "Trash/Recycling",
    "request_reason": "Request a Large Item Pick Up",
    "date_created": "2021-10-06T18:10:37.000",
    "date_modified": "2021-10-06T18:10:38.000",
    "request_status": "Pending",
    "responsible_agency": "Department of Sanitation",
    "final_address": "4810 Dauphine St",
    "address_councildis": "E",
    "status": "Assigned to Contractor",
    "contractor": "Metro Disposal",
    "rowid": "830495",
    "final_x": "3694811.78538",
    "final_y": "533313.754628",
    "longitude": "-90.02597207417128",
    "latitude": "29.960016987023565",
    "geocoded_column": {
      "latitude": "29.960016987023565",
      "longitude": "-90.02597207417128"
    }
  },
  {
    "service_request": "2021-830493",
    "request_type": "Traffic Signals/Signs/Striping/Streetlights",
    "request_reason": "Request for Stop Sign",
    "date_created": "2021-10-06T18:06:21.000",
    "date_modified": "2021-10-06T18:06:21.000",
    "request_status": "Pending",
    "responsible_agency": "Department of Public Works",
    "final_address": "8801 Olive St",
    "address_councildis": "A",
    "status": "Pending",
    "rowid": "830493",
    "final_x": "3665413.34637",
    "final_y": "535892.072519",
    "longitude": "-90.11872004970425",
    "latitude": "29.96799607172528",
    "geocoded_column": {
      "latitude": "29.96799607172528",
      "longitude": "-90.11872004970425"
    }
  },
  {
    "service_request": "2021-830491",
    "request_type": "Abandoned Vehicles",
    "request_reason": "Abandoned/Junk Vehicles",
    "date_created": "2021-10-06T17:59:04.000",
    "date_modified": "2021-10-06T17:59:04.000",
    "request_status": "Pending",
    "responsible_agency": "Department of Public Works",
    "final_address": "6301 Freret St",
    "address_councildis": "A",
    "status": "Pending",
    "rowid": "830491",
    "final_x": "3665602.03488",
    "final_y": "524819.089852",
    "longitude": "-90.11849490835618",
    "latitude": "29.93754346743004",
    "geocoded_column": {
      "latitude": "29.93754346743004",
      "longitude": "-90.11849490835618"
    }
  },
  {
    "service_request": "2021-830490",
    "request_type": "Mayor's Request",
    "request_reason": "Requests to the Mayor",
    "date_created": "2021-10-06T17:58:25.000",
    "date_modified": "2021-10-06T17:58:25.000",
    "request_status": "Pending",
    "responsible_agency": "Executive Office of the Mayor",
    "status": "Pending",
    "rowid": "830490",
    "longitude": "0.0",
    "latitude": "0.0",
    "geocoded_column": {
      "latitude": "0.0",
      "longitude": "0.0"
    }
  },
  {
    "service_request": "2021-830489",
    "request_type": "Trash/Recycling",
    "request_reason": "Missed Trash Pick-Up",
    "date_created": "2021-10-06T17:53:33.000",
    "date_modified": "2021-10-06T17:53:33.000",
    "request_status": "Pending",
    "responsible_agency": "Department of Sanitation",
    "final_address": "1600 BLK First St",
    "address_councildis": "B",
    "status": "Assigned to Contractor",
    "contractor": "Richards Disposal",
    "rowid": "830489",
    "final_x": "3676836.23553",
    "final_y": "523384.265027",
    "longitude": "-90.0830771285536",
    "latitude": "29.933265883881724",
    "geocoded_column": {
      "latitude": "29.933265883881724",
      "longitude": "-90.0830771285536"
    }
  },
  {
    "service_request": "2021-830488",
    "request_type": "Trash/Recycling",
    "request_reason": "Order Trash Cart",
    "date_created": "2021-10-06T17:53:27.000",
    "date_modified": "2021-10-06T17:53:28.000",
    "request_status": "Pending",
    "responsible_agency": "Department of Sanitation",
    "final_address": "4521 Wilson Ave, New Orleans, Louisiana, 70126",
    "address_councildis": "E",
    "status": "Assigned to Contractor",
    "contractor": "Metro Disposal",
    "rowid": "830488",
    "final_x": "3703195.02193",
    "final_y": "553736.125975",
    "longitude": "-89.99874871232414",
    "latitude": "30.01590527186359",
    "geocoded_column": {
      "latitude": "30.01590527186359",
      "longitude": "-89.99874871232414"
    }
  },
  {
    "service_request": "2021-830487",
    "request_type": "Trash/Recycling",
    "request_reason": "Missed Trash Pick-Up",
    "date_created": "2021-10-06T17:53:15.000",
    "date_modified": "2021-10-06T17:53:16.000",
    "request_status": "Pending",
    "responsible_agency": "Department of Sanitation",
    "final_address": "910 Piety St",
    "address_councildis": "C",
    "status": "Assigned to Contractor",
    "contractor": "Metro Disposal",
    "rowid": "830487",
    "final_x": "3689630.76156",
    "final_y": "535108.50087",
    "longitude": "-90.04226871357393",
    "latitude": "29.96511343830445",
    "geocoded_column": {
      "latitude": "29.96511343830445",
      "longitude": "-90.04226871357393"
    }
  },
  {
    "service_request": "2021-830486",
    "request_type": "Abandoned Vehicles",
    "request_reason": "Abandoned/Junk Vehicles",
    "date_created": "2021-10-06T17:49:38.000",
    "date_modified": "2021-10-06T17:49:38.000",
    "request_status": "Pending",
    "responsible_agency": "Department of Public Works",
    "final_address": "GENERAL COLLINS AVE & GENERAL MEYER AVE",
    "address_councildis": "C",
    "status": "Pending",
    "rowid": "830486",
    "final_x": "3698506.1",
    "final_y": "524993.08",
    "longitude": "-90.01460869153875",
    "latitude": "29.93702163480393",
    "geocoded_column": {
      "latitude": "29.93702163480393",
      "longitude": "-90.01460869153875"
    }
  },
  {
    "service_request": "2021-830485",
    "request_type": "Trash/Recycling",
    "request_reason": "Request a Large Item Pick Up",
    "date_created": "2021-10-06T17:45:21.000",
    "date_modified": "2021-10-06T17:45:22.000",
    "request_status": "Pending",
    "responsible_agency": "Department of Sanitation",
    "final_address": "2355 Holiday Dr",
    "address_councildis": "C",
    "status": "Assigned to Contractor",
    "contractor": "Richards Disposal",
    "rowid": "830485",
    "final_x": "3698780.08496",
    "final_y": "522536.007098",
    "longitude": "-90.01383303846384",
    "latitude": "29.930256860474415",
    "geocoded_column": {
      "latitude": "29.930256860474415",
      "longitude": "-90.01383303846384"
    }
  },
  {
    "service_request": "2021-830483",
    "request_type": "Traffic Signals/Signs/Striping/Streetlights",
    "request_reason": "Traffic Signal Malfunctioning/Damaged",
    "date_created": "2021-10-06T17:41:02.000",
    "date_modified": "2021-10-06T17:41:02.000",
    "request_status": "Pending",
    "responsible_agency": "Department of Public Works",
    "final_address": "ESPLANADE AVE & N BROAD ST",
    "address_councildis": "D",
    "status": "Pending",
    "rowid": "830483",
    "final_x": "3678205.46",
    "final_y": "538920.34",
    "longitude": "-90.07821733427264",
    "latitude": "29.975943718140513",
    "geocoded_column": {
      "latitude": "29.975943718140513",
      "longitude": "-90.07821733427264"
    }
  },
  {
    "service_request": "2021-830482",
    "request_type": "Trash/Recycling",
    "request_reason": "Missed Trash Pick-Up",
    "date_created": "2021-10-06T17:32:21.000",
    "date_modified": "2021-10-06T17:32:21.000",
    "request_status": "Pending",
    "responsible_agency": "Department of Sanitation",
    "final_address": "2729 Edna St",
    "address_councildis": "D",
    "status": "Assigned to Contractor",
    "contractor": "Metro Disposal",
    "rowid": "830482",
    "final_x": "3689619.9638",
    "final_y": "545327.968975",
    "longitude": "-90.04193909236174",
    "latitude": "29.993213679326495",
    "geocoded_column": {
      "latitude": "29.993213679326495",
      "longitude": "-90.04193909236174"
    }
  },
  {
    "service_request": "2021-830481",
    "request_type": "Mayor's Request",
    "request_reason": "Requests to the Mayor",
    "date_created": "2021-10-06T17:20:10.000",
    "date_modified": "2021-10-06T17:20:10.000",
    "request_status": "Pending",
    "responsible_agency": "Executive Office of the Mayor",
    "final_address": "7008 Crowder Blvd",
    "address_councildis": "E",
    "status": "Pending",
    "rowid": "830481",
    "final_x": "3704309.52273",
    "final_y": "559458.005149",
    "longitude": "-89.99501626287896",
    "latitude": "30.03160248645925",
    "geocoded_column": {
      "latitude": "30.03160248645925",
      "longitude": "-89.99501626287896"
    }
  },
  {
    "service_request": "2021-830480",
    "request_type": "Trash/Recycling",
    "request_reason": "Order Recycling Cart",
    "date_created": "2021-10-06T17:18:59.000",
    "date_modified": "2021-10-06T17:18:59.000",
    "request_status": "Pending",
    "responsible_agency": "Department of Sanitation",
    "final_address": "1900 Esplanade Ave",
    "address_councildis": "D",
    "status": "Pending",
    "rowid": "830480",
    "final_x": "3680351.80571",
    "final_y": "537204.224584",
    "longitude": "-90.07149824731196",
    "latitude": "29.97116017312894",
    "geocoded_column": {
      "latitude": "29.97116017312894",
      "longitude": "-90.07149824731196"
    }
  },
  {
    "service_request": "2021-830479",
    "request_type": "Parks & Parkways",
    "request_reason": "Request Tree Service (Right of Way/Public Property)",
    "date_created": "2021-10-06T17:18:51.000",
    "date_modified": "2021-10-06T17:18:51.000",
    "request_status": "Pending",
    "responsible_agency": "Department of Parks & Parkway",
    "final_address": "6505 West End Blvd",
    "address_councildis": "A",
    "status": "Pending",
    "rowid": "830479",
    "final_x": "3666691.25172",
    "final_y": "550891.346197",
    "longitude": "-90.11418037454106",
    "latitude": "30.009201664009527",
    "geocoded_column": {
      "latitude": "30.009201664009527",
      "longitude": "-90.11418037454106"
    }
  },
  {
    "service_request": "2021-830478",
    "request_type": "Roads/Drainage",
    "request_reason": "Debris in Roadway",
    "date_created": "2021-10-06T17:18:12.000",
    "date_modified": "2021-10-06T17:18:12.000",
    "request_status": "Pending",
    "responsible_agency": "Department of Public Works",
    "final_address": "5410 Garfield St",
    "address_councildis": "A",
    "status": "Pending",
    "rowid": "830478",
    "final_x": "3667095.53255",
    "final_y": "521016.120057",
    "longitude": "-90.11390758464746",
    "latitude": "29.92704288839983",
    "geocoded_column": {
      "latitude": "29.92704288839983",
      "longitude": "-90.11390758464746"
    }
  },
  {
    "service_request": "2021-830477",
    "request_type": "Trash/Recycling",
    "request_reason": "Request a Large Item Pick Up",
    "date_created": "2021-10-06T17:18:11.000",
    "date_modified": "2021-10-06T17:18:12.000",
    "request_status": "Pending",
    "responsible_agency": "Department of Sanitation",
    "final_address": "7008 Crowder Blvd",
    "address_councildis": "E",
    "status": "Assigned to Contractor",
    "contractor": "Metro Disposal",
    "rowid": "830477",
    "final_x": "3704309.52273",
    "final_y": "559458.005149",
    "longitude": "-89.99501626287896",
    "latitude": "30.03160248645925",
    "geocoded_column": {
      "latitude": "30.03160248645925",
      "longitude": "-89.99501626287896"
    }
  },
  {
    "service_request": "2021-830475",
    "request_type": "Trash/Recycling",
    "request_reason": "Missed Trash Pick-Up",
    "date_created": "2021-10-06T17:15:27.000",
    "date_modified": "2021-10-06T17:15:28.000",
    "request_status": "Pending",
    "responsible_agency": "Department of Sanitation",
    "final_address": "3000 Burgundy St",
    "address_councildis": "C",
    "status": "Assigned to Contractor",
    "contractor": "Metro Disposal",
    "rowid": "830475",
    "final_x": "3688291.36003",
    "final_y": "535300.28071",
    "longitude": "-90.04649165561362",
    "latitude": "29.96568219467396",
    "geocoded_column": {
      "latitude": "29.96568219467396",
      "longitude": "-90.04649165561362"
    }
  },
  {
    "service_request": "2021-830474",
    "request_type": "Traffic Signals/Signs/Striping/Streetlights",
    "request_reason": "Traffic Signal Malfunctioning/Damaged",
    "date_created": "2021-10-06T17:14:37.000",
    "date_modified": "2021-10-06T17:14:37.000",
    "request_status": "Pending",
    "responsible_agency": "Department of Public Works",
    "final_address": "N ROBERTSON ST & FRANCE ST",
    "address_councildis": "D",
    "status": "Pending",
    "rowid": "830474",
    "final_x": "3692757.8",
    "final_y": "536645.08",
    "longitude": "-90.03233864701068",
    "latitude": "29.9692412374848",
    "geocoded_column": {
      "latitude": "29.9692412374848",
      "longitude": "-90.03233864701068"
    }
  },
  {
    "service_request": "2021-830473",
    "request_type": "Trash/Recycling",
    "request_reason": "Replace Recycling Cart",
    "date_created": "2021-10-06T17:14:19.000",
    "date_modified": "2021-10-06T17:14:19.000",
    "request_status": "Pending",
    "responsible_agency": "Department of Sanitation",
    "final_address": "3569 Roger Williams St",
    "address_councildis": "D",
    "status": "Pending",
    "rowid": "830473",
    "final_x": "3675776.00245",
    "final_y": "544071.524238",
    "longitude": "-90.08571312617877",
    "latitude": "29.990180645191703",
    "geocoded_column": {
      "latitude": "29.990180645191703",
      "longitude": "-90.08571312617877"
    }
  },
  {
    "service_request": "2021-830472",
    "request_type": "Roads/Drainage",
    "request_reason": "Street Subsidence (Sinking)",
    "date_created": "2021-10-06T17:13:21.000",
    "date_modified": "2021-10-06T17:13:21.000",
    "request_status": "Pending",
    "responsible_agency": "Department of Public Works",
    "final_address": "3539 Octavia St",
    "address_councildis": "A",
    "status": "Pending",
    "rowid": "830472",
    "final_x": "3668649.69345",
    "final_y": "528627.87776",
    "longitude": "-90.10874469042615",
    "latitude": "29.94792720276852",
    "geocoded_column": {
      "latitude": "29.94792720276852",
      "longitude": "-90.10874469042615"
    }
  },
  {
    "service_request": "2021-830471",
    "request_type": "Trash/Recycling",
    "request_reason": "Request a Large Item Pick Up",
    "date_created": "2021-10-06T17:12:55.000",
    "date_modified": "2021-10-06T17:12:55.000",
    "request_status": "Pending",
    "responsible_agency": "Department of Sanitation",
    "final_address": "3601 Napoleon Ave",
    "address_councildis": "B",
    "status": "Assigned to Contractor",
    "contractor": "Richards Disposal",
    "rowid": "830471",
    "final_x": "3670250.01978",
    "final_y": "527885.630207",
    "longitude": "-90.10371695501902",
    "latitude": "29.945839139505978",
    "geocoded_column": {
      "latitude": "29.945839139505978",
      "longitude": "-90.10371695501902"
    }
  },
  {
    "service_request": "2021-830469",
    "request_type": "Trash/Recycling",
    "request_reason": "Missed Trash Pick-Up",
    "date_created": "2021-10-06T16:57:48.000",
    "date_modified": "2021-10-06T16:57:48.000",
    "request_status": "Pending",
    "responsible_agency": "Department of Sanitation",
    "final_address": "832 France St",
    "address_councildis": "C",
    "status": "Assigned to Contractor",
    "contractor": "Metro Disposal",
    "rowid": "830469",
    "final_x": "3692139.15638",
    "final_y": "534289.274949",
    "longitude": "-90.03437670176581",
    "latitude": "29.962782902671737",
    "geocoded_column": {
      "latitude": "29.962782902671737",
      "longitude": "-90.03437670176581"
    }
  },
  {
    "service_request": "2021-830468",
    "request_type": "Trash/Recycling",
    "request_reason": "Illegal Dumping",
    "date_created": "2021-10-06T16:57:45.000",
    "date_modified": "2021-10-06T16:57:45.000",
    "request_status": "Pending",
    "responsible_agency": "Department of Sanitation",
    "final_address": "4114 Prytania St",
    "address_councildis": "B",
    "status": "Pending",
    "rowid": "830468",
    "final_x": "3671880.13083",
    "final_y": "520367.562104",
    "longitude": "-90.09882587677305",
    "latitude": "29.92511868489121",
    "geocoded_column": {
      "latitude": "29.92511868489121",
      "longitude": "-90.09882587677305"
    }
  },
  {
    "service_request": "2021-830467",
    "request_type": "Trash/Recycling",
    "request_reason": "Order Trash Cart",
    "date_created": "2021-10-06T16:55:54.000",
    "date_modified": "2021-10-06T16:55:55.000",
    "request_status": "Pending",
    "responsible_agency": "Department of Sanitation",
    "final_address": "4523 Feliciana Dr",
    "address_councildis": "D",
    "status": "Assigned to Contractor",
    "contractor": "Metro Disposal",
    "rowid": "830467",
    "final_x": "3690468.89424",
    "final_y": "550333.940756",
    "longitude": "-90.03907885969865",
    "latitude": "30.006951941489728",
    "geocoded_column": {
      "latitude": "30.006951941489728",
      "longitude": "-90.03907885969865"
    }
  },
  {
    "service_request": "2021-830466",
    "request_type": "Trash/Recycling",
    "request_reason": "Order Trash Cart",
    "date_created": "2021-10-06T16:55:09.000",
    "date_modified": "2021-10-06T16:55:10.000",
    "request_status": "Pending",
    "responsible_agency": "Department of Sanitation",
    "final_address": "1529 Polymnia St",
    "address_councildis": "B",
    "status": "Assigned to Contractor",
    "contractor": "Richards Disposal",
    "rowid": "830466",
    "final_x": "3678969.67426",
    "final_y": "524643.824828",
    "longitude": "-90.07629837487917",
    "latitude": "29.936665077959848",
    "geocoded_column": {
      "latitude": "29.936665077959848",
      "longitude": "-90.07629837487917"
    }
  },
  {
    "service_request": "2021-830462",
    "request_type": "Trash/Recycling",
    "request_reason": "Missed Trash Pick-Up",
    "date_created": "2021-10-06T16:50:19.000",
    "date_modified": "2021-10-06T16:50:20.000",
    "request_status": "Pending",
    "responsible_agency": "Department of Sanitation",
    "final_address": "3032 Orleans Ave",
    "address_councildis": "A",
    "status": "Assigned to Contractor",
    "contractor": "Richards Disposal",
    "rowid": "830462",
    "final_x": "3675511.17934",
    "final_y": "537892.435337",
    "longitude": "-90.08676197357316",
    "latitude": "29.97319820491467",
    "geocoded_column": {
      "latitude": "29.97319820491467",
      "longitude": "-90.08676197357316"
    }
  },
  {
    "service_request": "2021-830461",
    "request_type": "Abandoned Vehicles",
    "request_reason": "Abandoned/Junk Vehicles",
    "date_created": "2021-10-06T16:50:14.000",
    "date_modified": "2021-10-06T16:50:14.000",
    "request_status": "Pending",
    "responsible_agency": "Department of Public Works",
    "final_address": "4114 Prytania St",
    "address_councildis": "B",
    "status": "Pending",
    "rowid": "830461",
    "final_x": "3671880.13083",
    "final_y": "520367.562104",
    "longitude": "-90.09882587677305",
    "latitude": "29.92511868489121",
    "geocoded_column": {
      "latitude": "29.92511868489121",
      "longitude": "-90.09882587677305"
    }
  },
  {
    "service_request": "2021-830458",
    "request_type": "Trash/Recycling",
    "request_reason": "Illegal Dumping",
    "date_created": "2021-10-06T16:48:43.000",
    "date_modified": "2021-10-06T16:48:43.000",
    "request_status": "Pending",
    "responsible_agency": "Department of Sanitation",
    "final_address": "6014 Spain St",
    "address_councildis": "D",
    "status": "Pending",
    "rowid": "830458",
    "final_x": "3684573.13845",
    "final_y": "555190.206553",
    "longitude": "-90.05753428354039",
    "latitude": "30.02048668956091",
    "geocoded_column": {
      "latitude": "30.02048668956091",
      "longitude": "-90.05753428354039"
    }
  },
  {
    "service_request": "2021-830457",
    "request_type": "Trash/Recycling",
    "request_reason": "Missed Trash Pick-Up",
    "date_created": "2021-10-06T16:47:37.000",
    "date_modified": "2021-10-06T16:47:38.000",
    "request_status": "Pending",
    "responsible_agency": "Department of Sanitation",
    "final_address": "4312 Coliseum St",
    "address_councildis": "B",
    "status": "Assigned to Contractor",
    "contractor": "Richards Disposal",
    "rowid": "830457",
    "final_x": "3671244.94766",
    "final_y": "519766.51916",
    "longitude": "-90.10085135858562",
    "latitude": "29.92348481027771",
    "geocoded_column": {
      "latitude": "29.92348481027771",
      "longitude": "-90.10085135858562"
    }
  },
  {
    "service_request": "2021-830456",
    "request_type": "Trash/Recycling",
    "request_reason": "Missed Trash Pick-Up",
    "date_created": "2021-10-06T16:47:25.000",
    "date_modified": "2021-10-06T16:47:26.000",
    "request_status": "Pending",
    "responsible_agency": "Department of Sanitation",
    "final_address": "1020 Pauline St",
    "address_councildis": "C",
    "status": "Assigned to Contractor",
    "contractor": "Metro Disposal",
    "rowid": "830456",
    "final_x": "3691117.51459",
    "final_y": "535195.48679",
    "longitude": "-90.03757054119713",
    "latitude": "29.965306473488177",
    "geocoded_column": {
      "latitude": "29.965306473488177",
      "longitude": "-90.03757054119713"
    }
  },
  {
    "service_request": "2021-830455",
    "request_type": "Trash/Recycling",
    "request_reason": "Missed Trash Pick-Up",
    "date_created": "2021-10-06T16:47:23.000",
    "date_modified": "2021-10-06T16:47:23.000",
    "request_status": "Pending",
    "responsible_agency": "Department of Sanitation",
    "final_address": "4333 Jeanne Marie Pl",
    "address_councildis": "D",
    "status": "Assigned to Contractor",
    "contractor": "Metro Disposal",
    "rowid": "830455",
    "final_x": "3678633.66651",
    "final_y": "548327.975314",
    "longitude": "-90.0765390441831",
    "latitude": "30.001798518839333",
    "geocoded_column": {
      "latitude": "30.001798518839333",
      "longitude": "-90.0765390441831"
    }
  },
  {
    "service_request": "2021-830454",
    "request_type": "Trash/Recycling",
    "request_reason": "MIssed Recycling Pick-Up",
    "date_created": "2021-10-06T16:46:16.000",
    "date_modified": "2021-10-06T16:46:17.000",
    "request_status": "Pending",
    "responsible_agency": "Department of Sanitation",
    "final_address": "1477 Westbrook Dr",
    "address_councildis": "D",
    "status": "Assigned to Contractor",
    "contractor": "Metro Disposal",
    "rowid": "830454",
    "final_x": "3678456.18363",
    "final_y": "549577.745171",
    "longitude": "-90.07705644468082",
    "latitude": "30.00524029263791",
    "geocoded_column": {
      "latitude": "30.00524029263791",
      "longitude": "-90.07705644468082"
    }
  },
  {
    "service_request": "2021-830453",
    "request_type": "Trash/Recycling",
    "request_reason": "Missed Trash Pick-Up",
    "date_created": "2021-10-06T16:45:32.000",
    "date_modified": "2021-10-06T16:45:33.000",
    "request_status": "Pending",
    "responsible_agency": "Department of Sanitation",
    "final_address": "1477 Westbrook Dr",
    "address_councildis": "D",
    "status": "Assigned to Contractor",
    "contractor": "Metro Disposal",
    "rowid": "830453",
    "final_x": "3678456.18363",
    "final_y": "549577.745171",
    "longitude": "-90.07705644468082",
    "latitude": "30.00524029263791",
    "geocoded_column": {
      "latitude": "30.00524029263791",
      "longitude": "-90.07705644468082"
    }
  },
  {
    "service_request": "2021-830452",
    "request_type": "Abandoned Vehicles",
    "request_reason": "Abandoned/Junk Vehicles",
    "date_created": "2021-10-06T16:45:06.000",
    "date_modified": "2021-10-06T16:45:06.000",
    "request_status": "Pending",
    "responsible_agency": "Department of Public Works",
    "final_address": "6753 General Haig St",
    "address_councildis": "A",
    "status": "Pending",
    "rowid": "830452",
    "final_x": "3671103.16155",
    "final_y": "552278.713366",
    "longitude": "-90.10019444578627",
    "latitude": "30.0128866225481",
    "geocoded_column": {
      "latitude": "30.0128866225481",
      "longitude": "-90.10019444578627"
    }
  },
  {
    "service_request": "2021-830451",
    "request_type": "Mosquito, Termite & Rodent Control",
    "request_reason": "Mosquito Complaint",
    "date_created": "2021-10-06T16:43:36.000",
    "date_modified": "2021-10-06T16:43:36.000",
    "request_status": "Pending",
    "responsible_agency": "Mosquito, Termite & Rodent Control Board",
    "final_address": "1733 N Dupre St",
    "address_councildis": "D",
    "status": "Pending",
    "rowid": "830451",
    "final_x": "3679091.45083",
    "final_y": "541428.690316",
    "longitude": "-90.07533214539751",
    "latitude": "29.982814097723026",
    "geocoded_column": {
      "latitude": "29.982814097723026",
      "longitude": "-90.07533214539751"
    }
  },
  {
    "service_request": "2021-830450",
    "request_type": "Roads/Drainage",
    "request_reason": "Catch Basin - Clogged",
    "date_created": "2021-10-06T16:42:20.000",
    "date_modified": "2021-10-06T16:42:20.000",
    "request_status": "Pending",
    "responsible_agency": "Department of Public Works",
    "final_address": "1821 Alvar St",
    "address_councildis": "D",
    "status": "Pending",
    "rowid": "830450",
    "final_x": "3692236.15037",
    "final_y": "538183.720649",
    "longitude": "-90.0339309455743",
    "latitude": "29.973488229464714",
    "geocoded_column": {
      "latitude": "29.973488229464714",
      "longitude": "-90.0339309455743"
    }
  },
  {
    "service_request": "2021-830449",
    "request_type": "Abandoned Vehicles",
    "request_reason": "Abandoned/Junk Vehicles",
    "date_created": "2021-10-06T16:39:32.000",
    "date_modified": "2021-10-06T16:39:32.000",
    "request_status": "Pending",
    "responsible_agency": "Department of Public Works",
    "final_address": "4114 Prytania St",
    "address_councildis": "B",
    "status": "Pending",
    "rowid": "830449",
    "final_x": "3671880.13083",
    "final_y": "520367.562104",
    "longitude": "-90.09882587677305",
    "latitude": "29.92511868489121",
    "geocoded_column": {
      "latitude": "29.92511868489121",
      "longitude": "-90.09882587677305"
    }
  },
  {
    "service_request": "2021-830448",
    "request_type": "Traffic Signals/Signs/Striping/Streetlights",
    "request_reason": "Street Light Outage/Malfunction",
    "date_created": "2021-10-06T16:35:35.000",
    "date_modified": "2021-10-06T16:35:36.000",
    "request_status": "Pending",
    "responsible_agency": "Department of Public Works",
    "final_address": "1640 Robert St",
    "address_councildis": "B",
    "status": "Pending",
    "contractor": "Royal Engineering",
    "rowid": "830448",
    "final_x": "3668638.68238",
    "final_y": "521266.796665",
    "longitude": "-90.10902779157972",
    "latitude": "29.927686922586595",
    "geocoded_column": {
      "latitude": "29.927686922586595",
      "longitude": "-90.10902779157972"
    }
  },
  {
    "service_request": "2021-830447",
    "request_type": "Traffic Signals/Signs/Striping/Streetlights",
    "request_reason": "Street Name Sign Damaged or Missing",
    "date_created": "2021-10-06T16:34:13.000",
    "date_modified": "2021-10-06T16:34:13.000",
    "request_status": "Pending",
    "responsible_agency": "Department of Public Works",
    "final_address": "6525 Wuerpel St",
    "address_councildis": "A",
    "status": "Pending",
    "rowid": "830447",
    "final_x": "3667136.30721",
    "final_y": "551047.491669",
    "longitude": "-90.11276903292497",
    "latitude": "30.009617981618486",
    "geocoded_column": {
      "latitude": "30.009617981618486",
      "longitude": "-90.11276903292497"
    }
  },
  {
    "service_request": "2021-830446",
    "request_type": "Traffic Signals/Signs/Striping/Streetlights",
    "request_reason": "Traffic Signal Malfunctioning/Damaged",
    "date_created": "2021-10-06T16:28:19.000",
    "date_modified": "2021-10-06T16:28:19.000",
    "request_status": "Pending",
    "responsible_agency": "Department of Public Works",
    "final_address": "1800 Tchoupitoulas St",
    "address_councildis": "B",
    "status": "Pending",
    "rowid": "830446",
    "final_x": "3681850.83074",
    "final_y": "520885.926777",
    "longitude": "-90.06733352329503",
    "latitude": "29.926244875299695",
    "geocoded_column": {
      "latitude": "29.926244875299695",
      "longitude": "-90.06733352329503"
    }
  },
  {
    "service_request": "2021-830445",
    "request_type": "Parks & Parkways",
    "request_reason": "Request Tree Service (Right of Way/Public Property)",
    "date_created": "2021-10-06T16:25:51.000",
    "date_modified": "2021-10-06T16:25:51.000",
    "request_status": "Pending",
    "responsible_agency": "Department of Parks & Parkway",
    "final_address": "7903 Plum St",
    "address_councildis": "A",
    "status": "Pending",
    "rowid": "830445",
    "final_x": "3662757.28013",
    "final_y": "528177.268416",
    "longitude": "-90.1273644637923",
    "latitude": "29.946860013110612",
    "geocoded_column": {
      "latitude": "29.946860013110612",
      "longitude": "-90.1273644637923"
    }
  },
  {
    "service_request": "2021-830444",
    "request_type": "Roads/Drainage",
    "request_reason": "Pothole",
    "date_created": "2021-10-06T16:23:28.000",
    "date_modified": "2021-10-06T16:23:28.000",
    "request_status": "Pending",
    "responsible_agency": "Department of Public Works",
    "final_address": "LAKESHORE DR & ROBERT E LEE BLVD",
    "address_councildis": "D",
    "status": "Pending",
    "rowid": "830444",
    "final_x": "3666846.3",
    "final_y": "554911.48",
    "longitude": "-90.11355531707135",
    "latitude": "30.02025108310282",
    "geocoded_column": {
      "latitude": "30.02025108310282",
      "longitude": "-90.11355531707135"
    }
  },
  {
    "service_request": "2021-830443",
    "request_type": "Traffic Signals/Signs/Striping/Streetlights",
    "request_reason": "Street Light Outage/Malfunction",
    "date_created": "2021-10-06T16:21:38.000",
    "date_modified": "2021-10-06T16:21:39.000",
    "request_status": "Pending",
    "responsible_agency": "Department of Public Works",
    "final_address": "2027 Second St",
    "address_councildis": "B",
    "status": "Pending",
    "contractor": "Royal Engineering",
    "rowid": "830443",
    "final_x": "3675798.7275",
    "final_y": "524459.44198",
    "longitude": "-90.08631553926912",
    "latitude": "29.936253356302988",
    "geocoded_column": {
      "latitude": "29.936253356302988",
      "longitude": "-90.08631553926912"
    }
  },
  {
    "service_request": "2021-830442",
    "request_type": "Traffic Signals/Signs/Striping/Streetlights",
    "request_reason": "Traffic Signal Malfunctioning/Damaged",
    "date_created": "2021-10-06T16:18:49.000",
    "date_modified": "2021-10-06T16:18:49.000",
    "request_status": "Pending",
    "responsible_agency": "Department of Public Works",
    "final_address": "2619 Loyola Ave",
    "address_councildis": "B",
    "status": "Pending",
    "rowid": "830442",
    "final_x": "3675093.95656",
    "final_y": "524591.779324",
    "longitude": "-90.08853598709977",
    "latitude": "29.936638311991025",
    "geocoded_column": {
      "latitude": "29.936638311991025",
      "longitude": "-90.08853598709977"
    }
  },
  {
    "service_request": "2021-830441",
    "request_type": "Safety & Permits",
    "request_reason": "Licenses & Permits",
    "date_created": "2021-10-06T16:18:43.000",
    "date_modified": "2021-10-06T16:18:43.000",
    "request_status": "Pending",
    "responsible_agency": "Safety and Permits",
    "final_address": "4028 Palmyra St",
    "address_councildis": "A",
    "status": "Pending",
    "rowid": "830441",
    "final_x": "3670763.11015",
    "final_y": "537522.533896",
    "longitude": "-90.10176992048343",
    "latitude": "29.972322279123205",
    "geocoded_column": {
      "latitude": "29.972322279123205",
      "longitude": "-90.10176992048343"
    }
  },
  {
    "service_request": "2021-830440",
    "request_type": "Trash/Recycling",
    "request_reason": "Dead Animal Pick Up",
    "date_created": "2021-10-06T16:15:45.000",
    "date_modified": "2021-10-06T16:15:46.000",
    "request_status": "Pending",
    "responsible_agency": "Department of Sanitation",
    "final_address": "3025 Dumaine St",
    "address_councildis": "A",
    "status": "Assigned to Contractor",
    "contractor": "Richards Disposal",
    "rowid": "830440",
    "final_x": "3676025.03285",
    "final_y": "538428.481865",
    "longitude": "-90.08512067785429",
    "latitude": "29.974656768368128",
    "geocoded_column": {
      "latitude": "29.974656768368128",
      "longitude": "-90.08512067785429"
    }
  },
  {
    "service_request": "2021-830439",
    "request_type": "Trash/Recycling",
    "request_reason": "MIssed Recycling Pick-Up",
    "date_created": "2021-10-06T16:14:29.000",
    "date_modified": "2021-10-06T16:14:31.000",
    "request_status": "Pending",
    "responsible_agency": "Department of Sanitation",
    "final_address": "4322 DHemecourt St",
    "address_councildis": "A",
    "status": "Assigned to Contractor",
    "contractor": "Richards Disposal",
    "rowid": "830439",
    "final_x": "3668887.61082",
    "final_y": "537473.951112",
    "longitude": "-90.10769473015509",
    "latitude": "29.97224398735593",
    "geocoded_column": {
      "latitude": "29.97224398735593",
      "longitude": "-90.10769473015509"
    }
  },
  {
    "service_request": "2021-830438",
    "request_type": "Trash/Recycling",
    "request_reason": "Illegal Dumping",
    "date_created": "2021-10-06T16:14:05.000",
    "date_modified": "2021-10-06T16:14:05.000",
    "request_status": "Pending",
    "responsible_agency": "Department of Sanitation",
    "final_address": "1619 Opelousas Ave",
    "address_councildis": "C",
    "status": "Pending",
    "rowid": "830438",
    "final_x": "3690381.29475",
    "final_y": "528931.236288",
    "longitude": "-90.04011874383494",
    "latitude": "29.948104830415403",
    "geocoded_column": {
      "latitude": "29.948104830415403",
      "longitude": "-90.04011874383494"
    }
  },
  {
    "service_request": "2021-830435",
    "request_type": "Trash/Recycling",
    "request_reason": "Request a Large Item Pick Up",
    "date_created": "2021-10-06T16:08:03.000",
    "date_modified": "2021-10-06T16:08:04.000",
    "request_status": "Pending",
    "responsible_agency": "Department of Sanitation",
    "final_address": "3121 Dumaine St",
    "address_councildis": "A",
    "status": "Assigned to Contractor",
    "contractor": "Richards Disposal",
    "rowid": "830435",
    "final_x": "3675570.98939",
    "final_y": "538770.871177",
    "longitude": "-90.08654289431423",
    "latitude": "29.975611814161994",
    "geocoded_column": {
      "latitude": "29.975611814161994",
      "longitude": "-90.08654289431423"
    }
  },
  {
    "service_request": "2021-830433",
    "request_type": "Property Maintenance",
    "request_reason": "Property Maintenance",
    "date_created": "2021-10-06T16:05:31.000",
    "date_modified": "2021-10-06T16:05:31.000",
    "request_status": "Pending",
    "responsible_agency": "Department of Code Enforcement",
    "final_address": "2423 Aubry St",
    "address_councildis": "D",
    "status": "Pending",
    "rowid": "830433",
    "final_x": "3680467.48866",
    "final_y": "540538.282123",
    "longitude": "-90.07101690770774",
    "latitude": "29.98032417387519",
    "geocoded_column": {
      "latitude": "29.98032417387519",
      "longitude": "-90.07101690770774"
    }
  },
  {
    "service_request": "2021-830432",
    "request_type": "Trash/Recycling",
    "request_reason": "Missed Trash Pick-Up",
    "date_created": "2021-10-06T16:05:16.000",
    "date_modified": "2021-10-06T16:05:17.000",
    "request_status": "Pending",
    "responsible_agency": "Department of Sanitation",
    "final_address": "4324 Kennon Ave",
    "address_councildis": "D",
    "status": "Assigned to Contractor",
    "contractor": "Metro Disposal",
    "rowid": "830432",
    "final_x": "3677420.25685",
    "final_y": "548237.033874",
    "longitude": "-90.08037547708624",
    "latitude": "30.001585001484504",
    "geocoded_column": {
      "latitude": "30.001585001484504",
      "longitude": "-90.08037547708624"
    }
  },
  {
    "service_request": "2021-830431",
    "request_type": "Trash/Recycling",
    "request_reason": "Illegal Dumping",
    "date_created": "2021-10-06T16:04:38.000",
    "date_modified": "2021-10-06T16:04:38.000",
    "request_status": "Pending",
    "responsible_agency": "Department of Sanitation",
    "final_address": "7408 Edward St",
    "address_councildis": "E",
    "status": "Pending",
    "rowid": "830431",
    "final_x": "3701208.4602",
    "final_y": "560271.627997",
    "longitude": "-90.00478589743425",
    "latitude": "30.033938859569496",
    "geocoded_column": {
      "latitude": "30.033938859569496",
      "longitude": "-90.00478589743425"
    }
  },
  {
    "service_request": "2021-830429",
    "request_type": "Traffic Signals/Signs/Striping/Streetlights",
    "request_reason": "Street Light Outage/Malfunction",
    "date_created": "2021-10-06T15:53:23.000",
    "date_modified": "2021-10-06T15:53:27.000",
    "request_status": "Pending",
    "responsible_agency": "Department of Public Works",
    "final_address": "739 Whitney Ave",
    "address_councildis": "C",
    "status": "Pending",
    "contractor": "Royal Engineering",
    "rowid": "830429",
    "final_x": "3690119.59043",
    "final_y": "528672.773504",
    "longitude": "-90.04095425223969",
    "latitude": "29.947402265437542",
    "geocoded_column": {
      "latitude": "29.947402265437542",
      "longitude": "-90.04095425223969"
    }
  },
  {
    "service_request": "2021-830428",
    "request_type": "Trash/Recycling",
    "request_reason": "Missed Trash Pick-Up",
    "date_created": "2021-10-06T15:50:33.000",
    "date_modified": "2021-10-06T15:50:34.000",
    "request_status": "Pending",
    "responsible_agency": "Department of Sanitation",
    "final_address": "5818 Rhodes Ave",
    "address_councildis": "C",
    "status": "Assigned to Contractor",
    "contractor": "Richards Disposal",
    "rowid": "830428",
    "final_x": "3704874.61137",
    "final_y": "519661.603832",
    "longitude": "-89.99469974588267",
    "latitude": "29.922158868937263",
    "geocoded_column": {
      "latitude": "29.922158868937263",
      "longitude": "-89.99469974588267"
    }
  },
  {
    "service_request": "2021-830426",
    "request_type": "Mosquito, Termite & Rodent Control",
    "request_reason": "Rodent Complaint (Rats)",
    "date_created": "2021-10-06T15:46:27.000",
    "date_modified": "2021-10-06T15:46:27.000",
    "request_status": "Pending",
    "responsible_agency": "Mosquito, Termite & Rodent Control Board",
    "final_address": "1050 Carondelet St",
    "address_councildis": "B",
    "status": "Pending",
    "rowid": "830426",
    "final_x": "3679592.05083",
    "final_y": "526940.231038",
    "longitude": "-90.07425384147878",
    "latitude": "29.942960644914375",
    "geocoded_column": {
      "latitude": "29.942960644914375",
      "longitude": "-90.07425384147878"
    }
  },
  {
    "service_request": "2021-830425",
    "request_type": "Abandoned Vehicles",
    "request_reason": "Vehicle Blocking Your Driveway",
    "date_created": "2021-10-06T15:45:29.000",
    "date_modified": "2021-10-06T15:45:29.000",
    "request_status": "Pending",
    "responsible_agency": "Department of Public Works",
    "final_address": "6543 Bellaire Drive",
    "status": "Pending",
    "rowid": "830425",
    "longitude": "0.0",
    "latitude": "0.0",
    "geocoded_column": {
      "latitude": "0.0",
      "longitude": "0.0"
    }
  },
  {
    "service_request": "2021-830422",
    "request_type": "Trash/Recycling",
    "request_reason": "MIssed Recycling Pick-Up",
    "date_created": "2021-10-06T15:38:18.000",
    "date_modified": "2021-10-06T15:38:19.000",
    "request_status": "Pending",
    "responsible_agency": "Department of Sanitation",
    "final_address": "2610 Lowerline St",
    "address_councildis": "A",
    "status": "Assigned to Contractor",
    "contractor": "Richards Disposal",
    "rowid": "830422",
    "final_x": "3666554.79956",
    "final_y": "531267.441026",
    "longitude": "-90.11527053947395",
    "latitude": "29.955246538159813",
    "geocoded_column": {
      "latitude": "29.955246538159813",
      "longitude": "-90.11527053947395"
    }
  },
  {
    "service_request": "2021-830421",
    "request_type": "Roads/Drainage",
    "request_reason": "Alley Way",
    "date_created": "2021-10-06T15:36:30.000",
    "date_modified": "2021-10-06T15:36:30.000",
    "request_status": "Pending",
    "responsible_agency": "Department of Public Works",
    "final_address": "7056 Orleans Ave",
    "address_councildis": "A",
    "status": "Pending",
    "rowid": "830421",
    "final_x": "3671449.85089",
    "final_y": "554281.213912",
    "longitude": "-90.09903094056394",
    "latitude": "30.018382523947242",
    "geocoded_column": {
      "latitude": "30.018382523947242",
      "longitude": "-90.09903094056394"
    }
  },
  {
    "service_request": "2021-830420",
    "request_type": "Trash/Recycling",
    "request_reason": "Replace Trash Cart",
    "date_created": "2021-10-06T15:34:10.000",
    "date_modified": "2021-10-06T15:34:11.000",
    "request_status": "Pending",
    "responsible_agency": "Department of Sanitation",
    "final_address": "2900 Westchester St",
    "address_councildis": "C",
    "status": "Assigned to Contractor",
    "contractor": "Richards Disposal",
    "rowid": "830420",
    "final_x": "3706109.68727",
    "final_y": "520020.885432",
    "longitude": "-89.9907878681752",
    "latitude": "29.92310703598765",
    "geocoded_column": {
      "latitude": "29.92310703598765",
      "longitude": "-89.9907878681752"
    }
  },
  {
    "service_request": "2021-830418",
    "request_type": "Trash/Recycling",
    "request_reason": "MIssed Recycling Pick-Up",
    "date_created": "2021-10-06T15:32:59.000",
    "date_modified": "2021-10-06T15:33:00.000",
    "request_status": "Pending",
    "responsible_agency": "Department of Sanitation",
    "final_address": "2610 Lowerline St",
    "address_councildis": "A",
    "status": "Assigned to Contractor",
    "contractor": "Richards Disposal",
    "rowid": "830418",
    "final_x": "3666554.79956",
    "final_y": "531267.441026",
    "longitude": "-90.11527053947395",
    "latitude": "29.955246538159813",
    "geocoded_column": {
      "latitude": "29.955246538159813",
      "longitude": "-90.11527053947395"
    }
  },
  {
    "service_request": "2021-830416",
    "request_type": "COVID-19",
    "request_reason": "COVID-19 Business Non-Compliance",
    "date_created": "2021-10-06T15:31:03.000",
    "date_modified": "2021-10-06T15:31:08.000",
    "request_status": "Pending",
    "responsible_agency": "Safety and Permits",
    "final_address": "5041 Freret St",
    "address_councildis": "B",
    "status": "Pending",
    "rowid": "830416",
    "final_x": "3668575.83514",
    "final_y": "523950.05734",
    "longitude": "-90.1091356892695",
    "latitude": "29.935066878558185",
    "geocoded_column": {
      "latitude": "29.935066878558185",
      "longitude": "-90.1091356892695"
    }
  },
  {
    "service_request": "2021-830415",
    "request_type": "COVID-19",
    "request_reason": "COVID-19 Business Non-Compliance",
    "date_created": "2021-10-06T15:30:33.000",
    "date_modified": "2021-10-06T15:30:35.000",
    "request_status": "Pending",
    "responsible_agency": "Safety and Permits",
    "final_address": "2500 Canal St",
    "address_councildis": "B",
    "status": "Pending",
    "rowid": "830415",
    "final_x": "3676025.37813",
    "final_y": "534435.280837",
    "longitude": "-90.08525695497801",
    "latitude": "29.9636768122984",
    "geocoded_column": {
      "latitude": "29.9636768122984",
      "longitude": "-90.08525695497801"
    }
  },
  {
    "service_request": "2021-830413",
    "request_type": "COVID-19",
    "request_reason": "COVID-19 Business Non-Compliance",
    "date_created": "2021-10-06T15:28:01.000",
    "date_modified": "2021-10-06T15:28:02.000",
    "request_status": "Pending",
    "responsible_agency": "Safety and Permits",
    "final_address": "129 Roosevelt Way",
    "address_councildis": "B",
    "status": "Pending",
    "rowid": "830413",
    "final_x": "3680017.06357",
    "final_y": "531091.476802",
    "longitude": "-90.07276778564868",
    "latitude": "29.95436233087349",
    "geocoded_column": {
      "latitude": "29.95436233087349",
      "longitude": "-90.07276778564868"
    }
  },
  {
    "service_request": "2021-830412",
    "request_type": "Property Maintenance",
    "request_reason": "Property Maintenance",
    "date_created": "2021-10-06T15:27:53.000",
    "date_modified": "2021-10-06T15:27:53.000",
    "request_status": "Pending",
    "responsible_agency": "Department of Code Enforcement",
    "final_address": "2861 Abundance St",
    "address_councildis": "D",
    "status": "Pending",
    "rowid": "830412",
    "final_x": "3689711.66761",
    "final_y": "543917.646222",
    "longitude": "-90.04169963427309",
    "latitude": "29.98933295771151",
    "geocoded_column": {
      "latitude": "29.98933295771151",
      "longitude": "-90.04169963427309"
    }
  },
  {
    "service_request": "2021-830410",
    "request_type": "Roads/Drainage",
    "request_reason": "Road Shoulder Repair",
    "date_created": "2021-10-06T15:25:07.000",
    "date_modified": "2021-10-06T15:25:07.000",
    "request_status": "Pending",
    "responsible_agency": "Department of Public Works",
    "final_address": "5035 N Derbigny St",
    "address_councildis": "E",
    "status": "Pending",
    "rowid": "830410",
    "final_x": "3696813.97296",
    "final_y": "536511.105479",
    "longitude": "-90.01953386998943",
    "latitude": "29.96874559935206",
    "geocoded_column": {
      "latitude": "29.96874559935206",
      "longitude": "-90.01953386998943"
    }
  },
  {
    "service_request": "2021-830409",
    "request_type": "Trash/Recycling",
    "request_reason": "Order Trash Cart",
    "date_created": "2021-10-06T15:24:45.000",
    "date_modified": "2021-10-06T15:24:45.000",
    "request_status": "Pending",
    "responsible_agency": "Department of Sanitation",
    "final_address": "1380 Annette St, New Orleans, Louisiana, 70116",
    "address_councildis": "C",
    "status": "Assigned to Contractor",
    "contractor": "Metro Disposal",
    "rowid": "830409",
    "final_x": "3683031.32021",
    "final_y": "537191.259976",
    "longitude": "-90.06303644087019",
    "latitude": "29.971043117010705",
    "geocoded_column": {
      "latitude": "29.971043117010705",
      "longitude": "-90.06303644087019"
    }
  },
  {
    "service_request": "2021-830408",
    "request_type": "Abandoned Vehicles",
    "request_reason": "Abandoned/Junk Vehicles",
    "date_created": "2021-10-06T15:22:17.000",
    "date_modified": "2021-10-06T15:22:17.000",
    "request_status": "Pending",
    "responsible_agency": "Department of Public Works",
    "final_address": "631 S Dupre St",
    "address_councildis": "B",
    "status": "Pending",
    "rowid": "830408",
    "final_x": "3673243.06171",
    "final_y": "534006.393029",
    "longitude": "-90.09405789262209",
    "latitude": "29.962580551523185",
    "geocoded_column": {
      "latitude": "29.962580551523185",
      "longitude": "-90.09405789262209"
    }
  },
  {
    "service_request": "2021-830407",
    "request_type": "Traffic Signals/Signs/Striping/Streetlights",
    "request_reason": "Traffic Sign Missing/Damaged",
    "date_created": "2021-10-06T15:21:07.000",
    "date_modified": "2021-10-06T15:21:07.000",
    "request_status": "Pending",
    "responsible_agency": "Department of Public Works",
    "final_address": "7121 General Diaz St",
    "address_councildis": "A",
    "status": "Pending",
    "rowid": "830407",
    "final_x": "3670241.11969",
    "final_y": "554375.43452",
    "longitude": "-90.1028468984119",
    "latitude": "30.018677343362874",
    "geocoded_column": {
      "latitude": "30.018677343362874",
      "longitude": "-90.1028468984119"
    }
  },
  {
    "service_request": "2021-830406",
    "request_type": "Trash/Recycling",
    "request_reason": "Replace Trash Cart",
    "date_created": "2021-10-06T15:21:01.000",
    "date_modified": "2021-10-06T15:21:02.000",
    "request_status": "Pending",
    "responsible_agency": "Department of Sanitation",
    "final_address": "5722 Danneel St, New Orleans, Louisiana, 70115",
    "address_councildis": "A",
    "status": "Assigned to Contractor",
    "contractor": "Richards Disposal",
    "rowid": "830406",
    "final_x": "3666453.80583",
    "final_y": "522503.607034",
    "longitude": "-90.11588346597303",
    "latitude": "29.931151769172207",
    "geocoded_column": {
      "latitude": "29.931151769172207",
      "longitude": "-90.11588346597303"
    }
  },
  {
    "service_request": "2021-830405",
    "request_type": "Traffic Signals/Signs/Striping/Streetlights",
    "request_reason": "Street Light Outage/Malfunction",
    "date_created": "2021-10-06T15:19:58.000",
    "date_modified": "2021-10-06T15:19:58.000",
    "request_status": "Pending",
    "responsible_agency": "Department of Public Works",
    "final_address": "7121 General Diaz St",
    "address_councildis": "A",
    "status": "Pending",
    "contractor": "Royal Engineering",
    "rowid": "830405",
    "final_x": "3670241.11969",
    "final_y": "554375.43452",
    "longitude": "-90.1028468984119",
    "latitude": "30.018677343362874",
    "geocoded_column": {
      "latitude": "30.018677343362874",
      "longitude": "-90.1028468984119"
    }
  },
  {
    "service_request": "2021-830403",
    "request_type": "Trash/Recycling",
    "request_reason": "Missed Trash Pick-Up",
    "date_created": "2021-10-06T15:19:44.000",
    "date_modified": "2021-10-06T15:19:44.000",
    "request_status": "Pending",
    "responsible_agency": "Department of Sanitation",
    "final_address": "2960 Fortin St",
    "address_councildis": "A",
    "status": "Assigned to Contractor",
    "contractor": "Metro Disposal",
    "rowid": "830403",
    "final_x": "3677277.87854",
    "final_y": "540901.864779",
    "longitude": "-90.08107851018121",
    "latitude": "29.981420133337195",
    "geocoded_column": {
      "latitude": "29.981420133337195",
      "longitude": "-90.08107851018121"
    }
  },
  {
    "service_request": "2021-830402",
    "request_type": "Trash/Recycling",
    "request_reason": "Missed Trash Pick-Up",
    "date_created": "2021-10-06T15:17:45.000",
    "date_modified": "2021-10-06T15:17:47.000",
    "request_status": "Pending",
    "responsible_agency": "Department of Sanitation",
    "final_address": "1700 Leon C Simon Dr",
    "address_councildis": "D",
    "status": "Assigned to Contractor",
    "contractor": "Metro Disposal",
    "rowid": "830402",
    "final_x": "3679618.4324",
    "final_y": "555564.329369",
    "longitude": "-90.07317665411207",
    "latitude": "30.021666148226114",
    "geocoded_column": {
      "latitude": "30.021666148226114",
      "longitude": "-90.07317665411207"
    }
  },
  {
    "service_request": "2021-830401",
    "request_type": "Trash/Recycling",
    "request_reason": "Replace Trash Cart",
    "date_created": "2021-10-06T15:17:12.000",
    "date_modified": "2021-10-06T15:17:13.000",
    "request_status": "Pending",
    "responsible_agency": "Department of Sanitation",
    "final_address": "2429 Gravier St",
    "address_councildis": "B",
    "status": "Assigned to Contractor",
    "contractor": "Richards Disposal",
    "rowid": "830401",
    "final_x": "3675027.47253",
    "final_y": "532862.818436",
    "longitude": "-90.08846219227874",
    "latitude": "29.959382918602326",
    "geocoded_column": {
      "latitude": "29.959382918602326",
      "longitude": "-90.08846219227874"
    }
  },
  {
    "service_request": "2021-830400",
    "request_type": "Roads/Drainage",
    "request_reason": "Pothole",
    "date_created": "2021-10-06T15:15:26.000",
    "date_modified": "2021-10-06T15:15:26.000",
    "request_status": "Pending",
    "responsible_agency": "Department of Public Works",
    "final_address": "N. Dupre between Esplanade and LePage, and LePage And Grand Route St John. ",
    "status": "Pending",
    "rowid": "830400",
    "longitude": "0.0",
    "latitude": "0.0",
    "geocoded_column": {
      "latitude": "0.0",
      "longitude": "0.0"
    }
  },
  {
    "service_request": "2021-830399",
    "request_type": "Roads/Drainage",
    "request_reason": "Street Subsidence (Sinking)",
    "date_created": "2021-10-06T15:15:09.000",
    "date_modified": "2021-10-06T15:15:09.000",
    "request_status": "Pending",
    "responsible_agency": "Department of Public Works",
    "final_address": "5534 S Liberty St",
    "address_councildis": "A",
    "status": "Pending",
    "rowid": "830399",
    "final_x": "3667159.26644",
    "final_y": "523372.620027",
    "longitude": "-90.11362720855008",
    "latitude": "29.933520648995206",
    "geocoded_column": {
      "latitude": "29.933520648995206",
      "longitude": "-90.11362720855008"
    }
  },
  {
    "service_request": "2021-830398",
    "request_type": "Abandoned Vehicles",
    "request_reason": "Abandoned/Junk Vehicles",
    "date_created": "2021-10-06T15:15:04.000",
    "date_modified": "2021-10-06T15:15:04.000",
    "request_status": "Pending",
    "responsible_agency": "Department of Public Works",
    "final_address": "2805 Paris Ave",
    "address_councildis": "D",
    "status": "Pending",
    "rowid": "830398",
    "final_x": "3680032.0573",
    "final_y": "542643.965197",
    "longitude": "-90.07231899364292",
    "latitude": "29.986127250566028",
    "geocoded_column": {
      "latitude": "29.986127250566028",
      "longitude": "-90.07231899364292"
    }
  },
  {
    "service_request": "2021-830396",
    "request_type": "Trash/Recycling",
    "request_reason": "Illegal Dumping",
    "date_created": "2021-10-06T15:05:32.000",
    "date_modified": "2021-10-06T15:10:24.000",
    "case_close_date": "2021-10-06T10:10:24.000",
    "request_status": "Closed",
    "responsible_agency": "Department of Sanitation",
    "final_address": "1800 Tchoupitoulas St",
    "address_councildis": "B",
    "status": "Resolved",
    "rowid": "830396",
    "final_x": "3681850.83074",
    "final_y": "520885.926777",
    "longitude": "-90.06733352329503",
    "latitude": "29.926244875299695",
    "geocoded_column": {
      "latitude": "29.926244875299695",
      "longitude": "-90.06733352329503"
    }
  },
  {
    "service_request": "2021-830394",
    "request_type": "Parks & Parkways",
    "request_reason": "Request Tree Service (Right of Way/Public Property)",
    "date_created": "2021-10-06T15:04:22.000",
    "date_modified": "2021-10-06T15:04:22.000",
    "request_status": "Pending",
    "responsible_agency": "Department of Parks & Parkway",
    "final_address": "219 Warrington Dr",
    "address_councildis": "D",
    "status": "Pending",
    "rowid": "830394",
    "final_x": "3682399.59772",
    "final_y": "547343.338961",
    "longitude": "-90.06467652081943",
    "latitude": "29.998977007064386",
    "geocoded_column": {
      "latitude": "29.998977007064386",
      "longitude": "-90.06467652081943"
    }
  },
  {
    "service_request": "2021-830393",
    "request_type": "Traffic Signals/Signs/Striping/Streetlights",
    "request_reason": "Street Light Outage/Malfunction",
    "date_created": "2021-10-06T15:02:46.000",
    "date_modified": "2021-10-06T15:02:49.000",
    "request_status": "Pending",
    "responsible_agency": "Department of Public Works",
    "final_address": "1000 Poydras St",
    "address_councildis": "B",
    "status": "Pending",
    "contractor": "Royal Engineering",
    "rowid": "830393",
    "final_x": "3679488.08693",
    "final_y": "529561.702977",
    "longitude": "-90.07449115220382",
    "latitude": "29.950171957895243",
    "geocoded_column": {
      "latitude": "29.950171957895243",
      "longitude": "-90.07449115220382"
    }
  },
  {
    "service_request": "2021-830392",
    "request_type": "Trash/Recycling",
    "request_reason": "Illegal Dumping",
    "date_created": "2021-10-06T15:02:39.000",
    "date_modified": "2021-10-06T15:04:25.000",
    "case_close_date": "2021-10-06T10:04:25.000",
    "request_status": "Closed",
    "responsible_agency": "Department of Sanitation",
    "final_address": "1721 Montegut St",
    "address_councildis": "D",
    "status": "Resolved",
    "rowid": "830392",
    "final_x": "3689079.95548",
    "final_y": "538562.882057",
    "longitude": "-90.04388536401115",
    "latitude": "29.97462882706958",
    "geocoded_column": {
      "latitude": "29.97462882706958",
      "longitude": "-90.04388536401115"
    }
  },
  {
    "service_request": "2021-830390",
    "request_type": "Trash/Recycling",
    "request_reason": "Order Trash Cart",
    "date_created": "2021-10-06T14:59:55.000",
    "date_modified": "2021-10-06T14:59:56.000",
    "request_status": "Pending",
    "responsible_agency": "Department of Sanitation",
    "final_address": "2846 Hyman Pl",
    "address_councildis": "C",
    "status": "Assigned to Contractor",
    "contractor": "Richards Disposal",
    "rowid": "830390",
    "final_x": "3701072.39991",
    "final_y": "520530.309432",
    "longitude": "-90.00666992098202",
    "latitude": "29.924669101893393",
    "geocoded_column": {
      "latitude": "29.924669101893393",
      "longitude": "-90.00666992098202"
    }
  },
  {
    "service_request": "2021-830389",
    "request_type": "Trash/Recycling",
    "request_reason": "Illegal Dumping",
    "date_created": "2021-10-06T14:59:52.000",
    "date_modified": "2021-10-06T15:01:44.000",
    "case_close_date": "2021-10-06T10:01:44.000",
    "request_status": "Closed",
    "responsible_agency": "Department of Sanitation",
    "final_address": "5000 BLK Iberville St",
    "address_councildis": "A",
    "status": "Resolved",
    "rowid": "830389",
    "final_x": "3668411.05586",
    "final_y": "540932.592791",
    "longitude": "-90.10908307203718",
    "latitude": "29.981768094874088",
    "geocoded_column": {
      "latitude": "29.981768094874088",
      "longitude": "-90.10908307203718"
    }
  },
  {
    "service_request": "2021-830388",
    "request_type": "Roads/Drainage",
    "request_reason": "Pothole",
    "date_created": "2021-10-06T14:58:14.000",
    "date_modified": "2021-10-06T14:58:14.000",
    "request_status": "Pending",
    "responsible_agency": "Department of Public Works",
    "final_address": "8719 Cohn St, New Orleans, Louisiana, 70118",
    "address_councildis": "A",
    "status": "Pending",
    "rowid": "830388",
    "final_x": "3661948.12243",
    "final_y": "531761.858115",
    "longitude": "-90.1298004070506",
    "latitude": "29.95673987345586",
    "geocoded_column": {
      "latitude": "29.95673987345586",
      "longitude": "-90.1298004070506"
    }
  },
  {
    "service_request": "2021-830386",
    "request_type": "COVID-19",
    "request_reason": "COVID-19 Business Non-Compliance",
    "date_created": "2021-10-06T14:52:16.000",
    "date_modified": "2021-10-06T14:52:45.000",
    "request_status": "Pending",
    "responsible_agency": "Safety and Permits",
    "final_address": "135 Robert E Lee Blvd",
    "address_councildis": "D",
    "status": "Pending",
    "rowid": "830386",
    "final_x": "3667486.31341",
    "final_y": "555056.958681",
    "longitude": "-90.11152816449176",
    "latitude": "30.020632348805663",
    "geocoded_column": {
      "latitude": "30.020632348805663",
      "longitude": "-90.11152816449176"
    }
  },
  {
    "service_request": "2021-830385",
    "request_type": "Trash/Recycling",
    "request_reason": "Request a Large Item Pick Up",
    "date_created": "2021-10-06T14:52:15.000",
    "date_modified": "2021-10-06T15:01:39.000",
    "case_close_date": "2021-10-06T10:01:39.000",
    "request_status": "Closed",
    "responsible_agency": "Department of Sanitation",
    "final_address": "2233 DAbadie St",
    "address_councildis": "D",
    "status": "Resolved",
    "contractor": "Metro Disposal",
    "rowid": "830385",
    "final_x": "3680743.30395",
    "final_y": "539854.914058",
    "longitude": "-90.07016955964667",
    "latitude": "29.978436791635804",
    "geocoded_column": {
      "latitude": "29.978436791635804",
      "longitude": "-90.07016955964667"
    }
  },
  {
    "service_request": "2021-830384",
    "request_type": "Traffic Signals/Signs/Striping/Streetlights",
    "request_reason": "Street Light Outage/Malfunction",
    "date_created": "2021-10-06T14:50:04.000",
    "date_modified": "2021-10-06T14:50:45.000",
    "request_status": "Pending",
    "responsible_agency": "Department of Public Works",
    "final_address": "2500 Ramsey Dr",
    "address_councildis": "C",
    "status": "Pending",
    "contractor": "Royal Engineering",
    "rowid": "830384",
    "final_x": "3703204.18782",
    "final_y": "521854.635898",
    "longitude": "-89.99989198261689",
    "latitude": "29.92824250075802",
    "geocoded_column": {
      "latitude": "29.92824250075802",
      "longitude": "-89.99989198261689"
    }
  },
  {
    "service_request": "2021-830383",
    "request_type": "Trash/Recycling",
    "request_reason": "Illegal Dumping",
    "date_created": "2021-10-06T14:47:34.000",
    "date_modified": "2021-10-06T14:47:34.000",
    "request_status": "Pending",
    "responsible_agency": "Department of Code Enforcement",
    "final_address": "743 Delachaise St",
    "address_councildis": "B",
    "status": "Pending",
    "rowid": "830383",
    "final_x": "3675188.5028",
    "final_y": "518356.414134",
    "longitude": "-90.08845136855876",
    "latitude": "29.919490251279523",
    "geocoded_column": {
      "latitude": "29.919490251279523",
      "longitude": "-90.08845136855876"
    }
  },
  {
    "service_request": "2021-830382",
    "request_type": "Trash/Recycling",
    "request_reason": "Request a Large Item Pick Up",
    "date_created": "2021-10-06T14:46:08.000",
    "date_modified": "2021-10-06T14:51:13.000",
    "case_close_date": "2021-10-06T09:51:13.000",
    "request_status": "Closed",
    "responsible_agency": "Department of Sanitation",
    "final_address": "ST BERNARD AVE & JAY ST",
    "address_councildis": "D",
    "status": "Resolved",
    "contractor": "Metro Disposal",
    "rowid": "830382",
    "final_x": "3676964.9",
    "final_y": "556056.88",
    "longitude": "-90.0815441166584",
    "latitude": "30.02310045847713",
    "geocoded_column": {
      "latitude": "30.02310045847713",
      "longitude": "-90.0815441166584"
    }
  },
  {
    "service_request": "2021-830379",
    "request_type": "Trash/Recycling",
    "request_reason": "Request a Large Item Pick Up",
    "date_created": "2021-10-06T14:41:05.000",
    "date_modified": "2021-10-06T14:41:06.000",
    "request_status": "Pending",
    "responsible_agency": "Department of Sanitation",
    "final_address": "5146 Montegut Dr",
    "address_councildis": "D",
    "status": "Assigned to Contractor",
    "contractor": "Metro Disposal",
    "rowid": "830379",
    "final_x": "3689605.25295",
    "final_y": "552498.23151",
    "longitude": "-90.04173025224179",
    "latitude": "30.012929739032256",
    "geocoded_column": {
      "latitude": "30.012929739032256",
      "longitude": "-90.04173025224179"
    }
  },
  {
    "service_request": "2021-830377",
    "request_type": "Parks & Parkways",
    "request_reason": "Request Tree Service (Right of Way/Public Property)",
    "date_created": "2021-10-06T14:40:06.000",
    "date_modified": "2021-10-06T14:40:06.000",
    "request_status": "Pending",
    "responsible_agency": "Department of Parks & Parkway",
    "final_address": "12931 N Lake Carmel Dr",
    "address_councildis": "E",
    "status": "Pending",
    "rowid": "830377",
    "final_x": "3716398.40108",
    "final_y": "568261.887653",
    "longitude": "-89.9564809609765",
    "latitude": "30.055415809071206",
    "geocoded_column": {
      "latitude": "30.055415809071206",
      "longitude": "-89.9564809609765"
    }
  },
  {
    "service_request": "2021-830376",
    "request_type": "Traffic Signals/Signs/Striping/Streetlights",
    "request_reason": "Traffic Signal Malfunctioning/Damaged",
    "date_created": "2021-10-06T14:36:39.000",
    "date_modified": "2021-10-06T14:36:39.000",
    "request_status": "Pending",
    "responsible_agency": "Department of Public Works",
    "final_address": "HOWARD AVE & LOYOLA AVE",
    "address_councildis": "B",
    "status": "Pending",
    "rowid": "830376",
    "final_x": "3678726.75",
    "final_y": "528082.41",
    "longitude": "-90.07694626669412",
    "latitude": "29.94612737303218",
    "geocoded_column": {
      "latitude": "29.94612737303218",
      "longitude": "-90.07694626669412"
    }
  },
  {
    "service_request": "2021-830374",
    "request_type": "Parks & Parkways",
    "request_reason": "Request Tree Service (Right of Way/Public Property)",
    "date_created": "2021-10-06T14:36:20.000",
    "date_modified": "2021-10-06T14:36:20.000",
    "request_status": "Pending",
    "responsible_agency": "Department of Parks & Parkway",
    "final_address": "5514 Magnolia St",
    "address_councildis": "A",
    "status": "Pending",
    "rowid": "830374",
    "final_x": "3667554.53882",
    "final_y": "524673.739452",
    "longitude": "-90.11233558128258",
    "latitude": "29.93708673572616",
    "geocoded_column": {
      "latitude": "29.93708673572616",
      "longitude": "-90.11233558128258"
    }
  },
  {
    "service_request": "2021-830373",
    "request_type": "Trash/Recycling",
    "request_reason": "Repair Recycling Cart",
    "date_created": "2021-10-06T14:33:39.000",
    "date_modified": "2021-10-06T14:33:39.000",
    "request_status": "Pending",
    "responsible_agency": "Department of Sanitation",
    "final_address": "823 Third St",
    "address_councildis": "B",
    "status": "Pending",
    "rowid": "830373",
    "final_x": "3678094.37608",
    "final_y": "520434.861368",
    "longitude": "-90.0792071672199",
    "latitude": "29.925118179487942",
    "geocoded_column": {
      "latitude": "29.925118179487942",
      "longitude": "-90.0792071672199"
    }
  },
  {
    "service_request": "2021-830371",
    "request_type": "Trash/Recycling",
    "request_reason": "Illegal Dumping",
    "date_created": "2021-10-06T14:21:50.000",
    "date_modified": "2021-10-06T14:21:50.000",
    "request_status": "Pending",
    "responsible_agency": "Department of Sanitation",
    "final_address": "1963 N Johnson St",
    "address_councildis": "D",
    "status": "Pending",
    "rowid": "830371",
    "final_x": "3683422.95689",
    "final_y": "539559.246154",
    "longitude": "-90.0617166091956",
    "latitude": "29.97754231071183",
    "geocoded_column": {
      "latitude": "29.97754231071183",
      "longitude": "-90.0617166091956"
    }
  },
  {
    "service_request": "2021-830370",
    "request_type": "Trash/Recycling",
    "request_reason": "Illegal Dumping",
    "date_created": "2021-10-06T14:21:39.000",
    "date_modified": "2021-10-06T14:21:39.000",
    "request_status": "Pending",
    "responsible_agency": "Department of Sanitation",
    "final_address": "2138 St Ann St",
    "address_councildis": "D",
    "status": "Pending",
    "rowid": "830370",
    "final_x": "3678575.75816",
    "final_y": "535906.712455",
    "longitude": "-90.07715217060505",
    "latitude": "29.967646117930006",
    "geocoded_column": {
      "latitude": "29.967646117930006",
      "longitude": "-90.07715217060505"
    }
  },
  {
    "service_request": "2021-830368",
    "request_type": "Traffic Signals/Signs/Striping/Streetlights",
    "request_reason": "Street Light Outage/Malfunction",
    "date_created": "2021-10-06T14:17:12.000",
    "date_modified": "2021-10-06T14:17:15.000",
    "request_status": "Pending",
    "responsible_agency": "Department of Public Works",
    "final_address": "TREME ST & ESPLANADE AVE",
    "address_councildis": "C",
    "status": "Pending",
    "contractor": "Royal Engineering",
    "rowid": "830368",
    "final_x": "3682281.8",
    "final_y": "535739.28",
    "longitude": "-90.06545426166295",
    "latitude": "29.967073499461097",
    "geocoded_column": {
      "latitude": "29.967073499461097",
      "longitude": "-90.06545426166295"
    }
  },
  {
    "service_request": "2021-830367",
    "request_type": "Mosquito, Termite & Rodent Control",
    "request_reason": "Mosquito Complaint",
    "date_created": "2021-10-06T14:16:06.000",
    "date_modified": "2021-10-06T14:16:06.000",
    "request_status": "Pending",
    "responsible_agency": "Mosquito, Termite & Rodent Control Board",
    "final_address": "5316 Florida Ave",
    "address_councildis": "E",
    "status": "Pending",
    "rowid": "830367",
    "final_x": "3698621.68919",
    "final_y": "539943.136906",
    "longitude": "-90.01370020509088",
    "latitude": "29.978125332062984",
    "geocoded_column": {
      "latitude": "29.978125332062984",
      "longitude": "-90.01370020509088"
    }
  },
  {
    "service_request": "2021-830366",
    "request_type": "Trash/Recycling",
    "request_reason": "Order Trash Cart",
    "date_created": "2021-10-06T14:14:25.000",
    "date_modified": "2021-10-06T14:14:50.000",
    "request_status": "Pending",
    "responsible_agency": "Department of Sanitation",
    "final_address": "5328 Florida Ave",
    "address_councildis": "E",
    "status": "Assigned to Contractor",
    "contractor": "Metro Disposal",
    "rowid": "830366",
    "final_x": "3698651.78429",
    "final_y": "539947.90241",
    "longitude": "-90.0136049812694",
    "latitude": "29.978137482416514",
    "geocoded_column": {
      "latitude": "29.978137482416514",
      "longitude": "-90.0136049812694"
    }
  },
  {
    "service_request": "2021-830365",
    "request_type": "Trash/Recycling",
    "request_reason": "Replace Trash Cart",
    "date_created": "2021-10-06T14:14:06.000",
    "date_modified": "2021-10-06T14:14:06.000",
    "request_status": "Pending",
    "responsible_agency": "Department of Sanitation",
    "final_address": "1817 Magazine St",
    "address_councildis": "B",
    "status": "Assigned to Contractor",
    "contractor": "Richards Disposal",
    "rowid": "830365",
    "final_x": "3679862.27829",
    "final_y": "522955.736827",
    "longitude": "-90.07353897879254",
    "latitude": "29.93199643706055",
    "geocoded_column": {
      "latitude": "29.93199643706055",
      "longitude": "-90.07353897879254"
    }
  },
  {
    "service_request": "2021-830363",
    "request_type": "Trash/Recycling",
    "request_reason": "Missed Trash Pick-Up",
    "date_created": "2021-10-06T14:12:35.000",
    "date_modified": "2021-10-06T14:12:40.000",
    "request_status": "Pending",
    "responsible_agency": "Department of Sanitation",
    "final_address": "2744 Edna St, New Orleans, Louisiana, 70126",
    "address_councildis": "D",
    "status": "Assigned to Contractor",
    "contractor": "Metro Disposal",
    "rowid": "830363",
    "final_x": "3689755.43683",
    "final_y": "545257.359759",
    "longitude": "-90.04151367154127",
    "latitude": "29.993015330572405",
    "geocoded_column": {
      "latitude": "29.993015330572405",
      "longitude": "-90.04151367154127"
    }
  },
  {
    "service_request": "2021-830362",
    "request_type": "Trash/Recycling",
    "request_reason": "Order Trash Cart",
    "date_created": "2021-10-06T14:12:19.000",
    "date_modified": "2021-10-06T14:12:21.000",
    "request_status": "Pending",
    "responsible_agency": "Department of Sanitation",
    "final_address": "5326 Florida Ave",
    "address_councildis": "E",
    "status": "Assigned to Contractor",
    "contractor": "Metro Disposal",
    "rowid": "830362",
    "final_x": "3698641.41226",
    "final_y": "539950.95841",
    "longitude": "-90.01363762847632",
    "latitude": "29.97814621377848",
    "geocoded_column": {
      "latitude": "29.97814621377848",
      "longitude": "-90.01363762847632"
    }
  },