[
  {
    "service_request": "2025-1159638",
    "request_type": "Trash/Recycling",
    "request_reason": "Request a Large Item Pick Up",
    "date_created": "2025-01-04T22:42:58.000",
    "date_modified": "2025-01-04T22:43:00.000",
    "request_status": "Pending",
    "responsible_agency": "Department of Sanitation",
    "final_address": "7521 Sheffield St",
    "address_councildis": "E",
    "status": "Assigned to Contractor",
    "contractor": "Waste Pro",
    "rowid": "1159638",
    "final_x": "3699415.62461",
    "final_y": "559906.141533",
    "longitude": "-90.01046477865819",
    "latitude": "30.032990947968884",
    "geocoded_column": {
      "latitude": "30.032990947968884",
      "longitude": "-90.01046477865819"
    }
  },
  {
    "service_request": "2025-1159637",
    "request_type": "Trash/Recycling",
    "request_reason": "Illegal Dumping",
    "date_created": "2025-01-04T22:18:15.000",
    "date_modified": "2025-01-04T22:18:18.000",
    "request_status": "Pending",
    "responsible_agency": "Department of Sanitation",
    "final_address": "4201 France Rd",
    "address_councildis": "D",
    "status": "Pending",
    "rowid": "1159637",
    "final_x": "3694027.6088",
    "final_y": "549641.235348",
    "longitude": "-90.02786090810422",
    "latitude": "30.004936251992874",
    "geocoded_column": {
      "latitude": "30.004936251992874",
      "longitude": "-90.02786090810422"
    }
  },
  {
    "service_request": "2025-1159636",
    "request_type": "Streetlights",
    "request_reason": "Streetlight Outage/Malfunction",
    "date_created": "2025-01-04T20:58:47.000",
    "date_modified": "2025-01-04T20:58:48.000",
    "request_status": "Pending",
    "responsible_agency": "Department of Public Works",
    "final_address": "CAMP ST & VALMONT ST",
    "address_councildis": "B",
    "status": "Pending",
    "contractor": "Legacy Professional Services",
    "rowid": "1159636",
    "final_x": "3667543.2",
    "final_y": "518997.38",
    "longitude": "-90.11256230377712",
    "latitude": "29.921478883768337",
    "geocoded_column": {
      "latitude": "29.921478883768337",
      "longitude": "-90.11256230377712"
    }
  },
  {
    "service_request": "2025-1159635",
    "request_type": "Trash/Recycling",
    "request_reason": "Request a Large Item Pick Up",
    "date_created": "2025-01-04T20:39:33.000",
    "date_modified": "2025-01-04T20:39:34.000",
    "request_status": "Pending",
    "responsible_agency": "Department of Sanitation",
    "final_address": "6969 Whitmore Pl",
    "address_councildis": "E",
    "status": "Assigned to Contractor",
    "contractor": "Waste Pro",
    "rowid": "1159635",
    "final_x": "3719275.73081",
    "final_y": "568970.86743",
    "longitude": "-89.9473592940678",
    "latitude": "30.057269829452306",
    "geocoded_column": {
      "latitude": "30.057269829452306",
      "longitude": "-89.9473592940678"
    }
  },
  {
    "service_request": "2025-1159634",
    "request_type": "Trash/Recycling",
    "request_reason": "Request a Large Item Pick Up",
    "date_created": "2025-01-04T20:10:56.000",
    "date_modified": "2025-01-04T20:10:57.000",
    "request_status": "Pending",
    "responsible_agency": "Department of Sanitation",
    "final_address": "6300 Essex Ct",
    "address_councildis": "C",
    "status": "Assigned to Contractor",
    "contractor": "Richards Disposal",
    "rowid": "1159634",
    "final_x": "3707141.50033",
    "final_y": "517562.495926",
    "longitude": "-89.98762199746746",
    "latitude": "29.916314038205243",
    "geocoded_column": {
      "latitude": "29.916314038205243",
      "longitude": "-89.98762199746746"
    }
  },
  {
    "service_request": "2025-1159633",
    "request_type": "Trash/Recycling",
    "request_reason": "Order Recycling Cart",
    "date_created": "2025-01-04T20:02:13.000",
    "date_modified": "2025-01-04T20:02:17.000",
    "request_status": "Pending",
    "responsible_agency": "Department of Sanitation",
    "final_address": "1509 Governor Nicholls St",
    "address_councildis": "C",
    "status": "Pending",
    "rowid": "1159633",
    "final_x": "3681425.16636",
    "final_y": "535787.839495",
    "longitude": "-90.06815782103297",
    "latitude": "29.967233056765604",
    "geocoded_column": {
      "latitude": "29.967233056765604",
      "longitude": "-90.06815782103297"
    }
  },
  {
    "service_request": "2025-1159632",
    "request_type": "Trash/Recycling",
    "request_reason": "Order Recycling Cart",
    "date_created": "2025-01-04T19:52:11.000",
    "date_modified": "2025-01-04T19:52:15.000",
    "request_status": "Pending",
    "responsible_agency": "Department of Sanitation",
    "final_address": "7818 Green St",
    "address_councildis": "A",
    "status": "Pending",
    "rowid": "1159632",
    "final_x": "3663825.32339",
    "final_y": "528993.583616",
    "longitude": "-90.1239650411339",
    "latitude": "29.949073665295394",
    "geocoded_column": {
      "latitude": "29.949073665295394",
      "longitude": "-90.1239650411339"
    }
  },
  {
    "service_request": "2025-1159631",
    "request_type": "Trash/Recycling",
    "request_reason": "Order Trash Cart",
    "date_created": "2025-01-04T19:51:07.000",
    "date_modified": "2025-01-04T19:51:08.000",
    "request_status": "Pending",
    "responsible_agency": "Department of Sanitation",
    "final_address": "7818 Green St",
    "address_councildis": "A",
    "status": "Assigned to Contractor",
    "contractor": "IV Waste",
    "rowid": "1159631",
    "final_x": "3663825.32339",
    "final_y": "528993.583616",
    "longitude": "-90.1239650411339",
    "latitude": "29.949073665295394",
    "geocoded_column": {
      "latitude": "29.949073665295394",
      "longitude": "-90.1239650411339"
    }
  },
  {
    "service_request": "2025-1159630",
    "request_type": "Streetlights",
    "request_reason": "Streetlight Outage/Malfunction",
    "date_created": "2025-01-04T19:23:58.000",
    "date_modified": "2025-01-04T19:23:59.000",
    "request_status": "Pending",
    "responsible_agency": "Department of Public Works",
    "final_address": "3120 N Johnson St",
    "address_councildis": "D",
    "status": "Pending",
    "contractor": "Legacy Professional Services",
    "rowid": "1159630",
    "final_x": "3689982.77398",
    "final_y": "539296.37185",
    "longitude": "-90.04100792420098",
    "latitude": "29.97661769776352",
    "geocoded_column": {
      "latitude": "29.97661769776352",
      "longitude": "-90.04100792420098"
    }
  },
  {
    "service_request": "2025-1159629",
    "request_type": "Roads and Streets",
    "request_reason": "Pothole",
    "date_created": "2025-01-04T19:21:14.000",
    "date_modified": "2025-01-04T19:21:23.000",
    "request_status": "Pending",
    "responsible_agency": "Department of Public Works",
    "final_address": "11300 BLK Lake Forest Blvd",
    "address_councildis": "E",
    "status": "Pending",
    "rowid": "1159629",
    "final_x": "3720154.87527",
    "final_y": "562479.576272",
    "longitude": "-89.9448291072418",
    "latitude": "30.03939218659508",
    "geocoded_column": {
      "latitude": "30.03939218659508",
      "longitude": "-89.9448291072418"
    }
  },
  {
    "service_request": "2025-1159628",
    "request_type": "General Services",
    "request_reason": "General Service Request",
    "date_created": "2025-01-04T19:10:51.000",
    "date_modified": "2025-01-04T19:10:54.000",
    "request_status": "Pending",
    "responsible_agency": "Orleans Parish Communication District",
    "final_address": "5465 Marais St",
    "address_councildis": "E",
    "status": "Pending",
    "rowid": "1159628",
    "final_x": "3697780.68912",
    "final_y": "534232.831557",
    "longitude": "-90.01656362267966",
    "latitude": "29.96245064609087",
    "geocoded_column": {
      "latitude": "29.96245064609087",
      "longitude": "-90.01656362267966"
    }
  },
  {
    "service_request": "2025-1159627",
    "request_type": "Roads and Streets",
    "request_reason": "Debris in Driving Lanes",
    "date_created": "2025-01-04T18:10:54.000",
    "date_modified": "2025-01-04T18:10:58.000",
    "request_status": "Pending",
    "responsible_agency": "Department of Public Works",
    "final_address": "2323 St Claude Ave",
    "address_councildis": "C",
    "status": "Pending",
    "rowid": "1159627",
    "final_x": "3685966.22524",
    "final_y": "536496.935175",
    "longitude": "-90.05379212899541",
    "latitude": "29.969044174331167",
    "geocoded_column": {
      "latitude": "29.969044174331167",
      "longitude": "-90.05379212899541"
    }
  },
  {
    "service_request": "2025-1159626",
    "request_type": "Roads and Streets",
    "request_reason": "Pothole",
    "date_created": "2025-01-04T18:08:00.000",
    "date_modified": "2025-01-04T18:08:02.000",
    "request_status": "Pending",
    "responsible_agency": "Department of Public Works",
    "final_address": "2500 BLK Eton St",
    "address_councildis": "C",
    "status": "Pending",
    "rowid": "1159626",
    "final_x": "3704066.99275",
    "final_y": "521853.381606",
    "longitude": "-89.99716836644185",
    "latitude": "29.928211415227466",
    "geocoded_column": {
      "latitude": "29.928211415227466",
      "longitude": "-89.99716836644185"
    }
  },
  {
    "service_request": "2025-1159625",
    "request_type": "Trash/Recycling",
    "request_reason": "Request a Large Item Pick Up",
    "date_created": "2025-01-04T18:05:58.000",
    "date_modified": "2025-01-04T18:05:59.000",
    "request_status": "Pending",
    "responsible_agency": "Department of Sanitation",
    "final_address": "1228 Columbus St",
    "address_councildis": "C",
    "status": "Assigned to Contractor",
    "contractor": "IV Waste",
    "rowid": "1159625",
    "final_x": "3682795.24373",
    "final_y": "536185.642759",
    "longitude": "-90.06381718729136",
    "latitude": "29.96828521152473",
    "geocoded_column": {
      "latitude": "29.96828521152473",
      "longitude": "-90.06381718729136"
    }
  },
  {
    "service_request": "2025-1159624",
    "request_type": "Street and Traffic Signs",
    "request_reason": "Street Name Sign Damaged or Missing",
    "date_created": "2025-01-04T17:19:07.000",
    "date_modified": "2025-01-04T17:19:09.000",
    "request_status": "Pending",
    "responsible_agency": "Department of Public Works",
    "final_address": "WASHINGTON AVE & MAGNOLIA ST",
    "address_councildis": "B",
    "status": "Pending",
    "rowid": "1159624",
    "final_x": "3673748.2",
    "final_y": "525826.18",
    "longitude": "-90.09274241274845",
    "latitude": "29.94007264216128",
    "geocoded_column": {
      "latitude": "29.94007264216128",
      "longitude": "-90.09274241274845"
    }
  },
  {
    "service_request": "2025-1159623",
    "request_type": "Trash/Recycling",
    "request_reason": "Order Recycling Cart",
    "date_created": "2025-01-04T16:48:01.000",
    "date_modified": "2025-01-04T16:48:04.000",
    "request_status": "Pending",
    "responsible_agency": "Department of Sanitation",
    "final_address": "11412 N St Andrews Cir",
    "address_councildis": "E",
    "status": "Pending",
    "rowid": "1159623",
    "final_x": "3718990.30943",
    "final_y": "560141.435549",
    "longitude": "-89.948598731755",
    "latitude": "30.033001999105846",
    "geocoded_column": {
      "latitude": "30.033001999105846",
      "longitude": "-89.948598731755"
    }
  },
  {
    "service_request": "2025-1159622",
    "request_type": "Trash/Recycling",
    "request_reason": "Request a Large Item Pick Up",
    "date_created": "2025-01-04T16:40:10.000",
    "date_modified": "2025-01-04T16:40:11.000",
    "request_status": "Pending",
    "responsible_agency": "Department of Sanitation",
    "final_address": "6517 Center St",
    "address_councildis": "A",
    "status": "Assigned to Contractor",
    "contractor": "IV Waste",
    "rowid": "1159622",
    "final_x": "3664946.45664",
    "final_y": "551364.969109",
    "longitude": "-90.11967695006946",
    "latitude": "30.010554892203977",
    "geocoded_column": {
      "latitude": "30.010554892203977",
      "longitude": "-90.11967695006946"
    }
  },
  {
    "service_request": "2025-1159621",
    "request_type": "Trash/Recycling",
    "request_reason": "Request a Large Item Pick Up",
    "date_created": "2025-01-04T16:37:46.000",
    "date_modified": "2025-01-04T16:37:47.000",
    "request_status": "Pending",
    "responsible_agency": "Department of Sanitation",
    "final_address": "6517 Center St",
    "address_councildis": "A",
    "status": "Assigned to Contractor",
    "contractor": "IV Waste",
    "rowid": "1159621",
    "final_x": "3664946.45664",
    "final_y": "551364.969109",
    "longitude": "-90.11967695006946",
    "latitude": "30.010554892203977",
    "geocoded_column": {
      "latitude": "30.010554892203977",
      "longitude": "-90.11967695006946"
    }
  },
  {
    "service_request": "2025-1159620",
    "request_type": "Trash/Recycling",
    "request_reason": "Return Recycling Cart",
    "date_created": "2025-01-04T16:34:28.000",
    "date_modified": "2025-01-04T16:34:31.000",
    "request_status": "Pending",
    "responsible_agency": "Department of Sanitation",
    "final_address": "4008 Annunciation St",
    "address_councildis": "B",
    "status": "Pending",
    "rowid": "1159620",
    "final_x": "3672519.27323",
    "final_y": "517852.101686",
    "longitude": "-90.09689398873016",
    "latitude": "29.918183021840857",
    "geocoded_column": {
      "latitude": "29.918183021840857",
      "longitude": "-90.09689398873016"
    }
  },
  {
    "service_request": "2025-1159619",
    "request_type": "Trash/Recycling",
    "request_reason": "Replace Trash Cart",
    "date_created": "2025-01-04T16:32:57.000",
    "date_modified": "2025-01-04T16:32:58.000",
    "request_status": "Pending",
    "responsible_agency": "Department of Sanitation",
    "final_address": "4758 Galahad Dr",
    "address_councildis": "E",
    "status": "Assigned to Contractor",
    "contractor": "Waste Pro",
    "rowid": "1159619",
    "final_x": "3707126.61188",
    "final_y": "555581.694425",
    "longitude": "-89.98625820398976",
    "latitude": "30.020853373676747",
    "geocoded_column": {
      "latitude": "30.020853373676747",
      "longitude": "-89.98625820398976"
    }
  },
  {
    "service_request": "2025-1159618",
    "request_type": "Trash/Recycling",
    "request_reason": "Replace Trash Cart",
    "date_created": "2025-01-04T16:28:14.000",
    "date_modified": "2025-01-04T16:28:15.000",
    "request_status": "Pending",
    "responsible_agency": "Department of Sanitation",
    "final_address": "4758 Galahad Dr",
    "address_councildis": "E",
    "status": "Assigned to Contractor",
    "contractor": "Waste Pro",
    "rowid": "1159618",
    "final_x": "3707126.61188",
    "final_y": "555581.694425",
    "longitude": "-89.98625820398976",
    "latitude": "30.020853373676747",
    "geocoded_column": {
      "latitude": "30.020853373676747",
      "longitude": "-89.98625820398976"
    }
  },
  {
    "service_request": "2025-1159617",
    "request_type": "Christmas Tree Recycle Pick Up",
    "request_reason": "Christmas Tree Recycle Pick Up",
    "date_created": "2025-01-04T16:05:36.000",
    "date_modified": "2025-01-04T16:05:39.000",
    "request_status": "Pending",
    "responsible_agency": "Office of Resilience and Sustainability",
    "final_address": "3814 Nashville Ave",
    "address_councildis": "A",
    "status": "Pending",
    "contractor": "R&R Recycling",
    "rowid": "1159617",
    "final_x": "3668432.86298",
    "final_y": "529638.164865",
    "longitude": "-90.10939524025837",
    "latitude": "29.950711533063096",
    "geocoded_column": {
      "latitude": "29.950711533063096",
      "longitude": "-90.10939524025837"
    }
  },
  {
    "service_request": "2025-1159616",
    "request_type": "Trash/Recycling",
    "request_reason": "Request a Large Item Pick Up",
    "date_created": "2025-01-04T15:45:53.000",
    "date_modified": "2025-01-04T16:14:14.000",
    "request_status": "Pending",
    "responsible_agency": "Department of Sanitation",
    "final_address": "717 Soraparu St, New Orleans, Louisiana, 70130",
    "address_councildis": "B",
    "status": "Assigned to Contractor",
    "contractor": "IV Waste",
    "rowid": "1159616",
    "final_x": "3679070.61775",
    "final_y": "520598.305528",
    "longitude": "-90.07611982460998",
    "latitude": "29.925538181307875",
    "geocoded_column": {
      "latitude": "29.925538181307875",
      "longitude": "-90.07611982460998"
    }
  },
  {
    "service_request": "2025-1159615",
    "request_type": "Abandoned Vehicles",
    "request_reason": "Abandoned/Junk Vehicles",
    "date_created": "2025-01-04T15:35:21.000",
    "date_modified": "2025-01-04T15:35:24.000",
    "request_status": "Pending",
    "responsible_agency": "Department of Public Works",
    "final_address": "7700 BLK S Claiborne Ave",
    "address_councildis": "A",
    "status": "Pending",
    "rowid": "1159615",
    "final_x": "3665838.70109",
    "final_y": "530698.813062",
    "longitude": "-90.11755077511442",
    "latitude": "29.953703908516125",
    "geocoded_column": {
      "latitude": "29.953703908516125",
      "longitude": "-90.11755077511442"
    }
  },
  {
    "service_request": "2025-1159614",
    "request_type": "Trash/Recycling",
    "request_reason": "Request a Large Item Pick Up",
    "date_created": "2025-01-04T15:28:23.000",
    "date_modified": "2025-01-04T15:28:24.000",
    "request_status": "Pending",
    "responsible_agency": "Department of Sanitation",
    "final_address": "1412 Port St",
    "address_councildis": "C",
    "status": "Assigned to Contractor",
    "contractor": "IV Waste",
    "rowid": "1159614",
    "final_x": "3687712.68239",
    "final_y": "537628.80084",
    "longitude": "-90.04823662256304",
    "latitude": "29.972102668092834",
    "geocoded_column": {
      "latitude": "29.972102668092834",
      "longitude": "-90.04823662256304"
    }
  },
  {
    "service_request": "2025-1159613",
    "request_type": "Trash/Recycling",
    "request_reason": "Request a Large Item Pick Up",
    "date_created": "2025-01-04T15:12:01.000",
    "date_modified": "2025-01-04T15:12:03.000",
    "request_status": "Pending",
    "responsible_agency": "Department of Sanitation",
    "final_address": "4603 Arts St",
    "address_councildis": "D",
    "status": "Assigned to Contractor",
    "contractor": "IV Waste",
    "rowid": "1159613",
    "final_x": "3686075.61398",
    "final_y": "549639.599188",
    "longitude": "-90.05298289541811",
    "latitude": "30.00517846870325",
    "geocoded_column": {
      "latitude": "30.00517846870325",
      "longitude": "-90.05298289541811"
    }
  },
  {
    "service_request": "2025-1159612",
    "request_type": "Abandoned Vehicles",
    "request_reason": "Abandoned/Junk Vehicles",
    "date_created": "2025-01-04T15:08:52.000",
    "date_modified": "2025-01-04T15:08:55.000",
    "request_status": "Pending",
    "responsible_agency": "Department of Public Works",
    "final_address": "COHN ST & EAGLE ST",
    "address_councildis": "A",
    "status": "Pending",
    "rowid": "1159612",
    "final_x": "3661786.3",
    "final_y": "531862.28",
    "longitude": "-90.13030806375723",
    "latitude": "29.95702067377058",
    "geocoded_column": {
      "latitude": "29.95702067377058",
      "longitude": "-90.13030806375723"
    }
  },
  {
    "service_request": "2025-1159611",
    "request_type": "Christmas Tree Recycle Pick Up",
    "request_reason": "Christmas Tree Recycle Pick Up",
    "date_created": "2025-01-04T14:58:03.000",
    "date_modified": "2025-01-04T14:58:07.000",
    "request_status": "Pending",
    "responsible_agency": "Office of Resilience and Sustainability",
    "final_address": "1443 Filmore Ave",
    "address_councildis": "D",
    "status": "Pending",
    "contractor": "R&R Recycling",
    "rowid": "1159611",
    "final_x": "3677769.9933",
    "final_y": "551897.673302",
    "longitude": "-90.07914404630904",
    "latitude": "30.011639934165597",
    "geocoded_column": {
      "latitude": "30.011639934165597",
      "longitude": "-90.07914404630904"
    }
  },
  {
    "service_request": "2025-1159610",
    "request_type": "Trash/Recycling",
    "request_reason": "Request a Large Item Pick Up",
    "date_created": "2025-01-04T14:49:26.000",
    "date_modified": "2025-01-04T14:49:27.000",
    "request_status": "Pending",
    "responsible_agency": "Department of Sanitation",
    "final_address": "4942 Read Blvd",
    "address_councildis": "E",
    "status": "Assigned to Contractor",
    "contractor": "Waste Pro",
    "rowid": "1159610",
    "final_x": "3712560.90674",
    "final_y": "557240.273755",
    "longitude": "-89.96902519512157",
    "latitude": "30.025237029198802",
    "geocoded_column": {
      "latitude": "30.025237029198802",
      "longitude": "-89.96902519512157"
    }
  },
  {
    "service_request": "2025-1159609",
    "request_type": "Christmas Tree Recycle Pick Up",
    "request_reason": "Christmas Tree Recycle Pick Up",
    "date_created": "2025-01-04T14:45:07.000",
    "date_modified": "2025-01-04T14:45:10.000",
    "request_status": "Pending",
    "responsible_agency": "Office of Resilience and Sustainability",
    "final_address": "305 Mound Ave",
    "address_councildis": "A",
    "status": "Pending",
    "contractor": "R&R Recycling",
    "rowid": "1159609",
    "final_x": "3666810.8217",
    "final_y": "543969.620814",
    "longitude": "-90.11403531124",
    "latitude": "29.990165806982773",
    "geocoded_column": {
      "latitude": "29.990165806982773",
      "longitude": "-90.11403531124"
    }
  },
  {
    "service_request": "2025-1159608",
    "request_type": "Trash/Recycling",
    "request_reason": "Order Recycling Cart",
    "date_created": "2025-01-04T14:37:47.000",
    "date_modified": "2025-01-04T14:37:50.000",
    "request_status": "Pending",
    "responsible_agency": "Department of Sanitation",
    "final_address": "4200 S Saratoga St",
    "address_councildis": "B",
    "status": "Pending",
    "rowid": "1159608",
    "final_x": "3671338.97543",
    "final_y": "522683.111482",
    "longitude": "-90.10045548795478",
    "latitude": "29.931501723712675",
    "geocoded_column": {
      "latitude": "29.931501723712675",
      "longitude": "-90.10045548795478"
    }
  },
  {
    "service_request": "2025-1159607",
    "request_type": "Trash/Recycling",
    "request_reason": "Order Recycling Cart",
    "date_created": "2025-01-04T14:35:59.000",
    "date_modified": "2025-01-04T14:36:01.000",
    "request_status": "Pending",
    "responsible_agency": "Department of Sanitation",
    "final_address": "2040 Milan St",
    "address_councildis": "B",
    "status": "Pending",
    "rowid": "1159607",
    "final_x": "3671382.66804",
    "final_y": "522675.74169",
    "longitude": "-90.10031780562223",
    "latitude": "29.931480166421476",
    "geocoded_column": {
      "latitude": "29.931480166421476",
      "longitude": "-90.10031780562223"
    }
  },
  {
    "service_request": "2025-1159606",
    "request_type": "Abandoned Vehicles",
    "request_reason": "Abandoned/Junk Vehicles",
    "date_created": "2025-01-04T14:34:25.000",
    "date_modified": "2025-01-04T14:34:27.000",
    "request_status": "Pending",
    "responsible_agency": "Department of Public Works",
    "final_address": "715 N Lopez St",
    "address_councildis": "A",
    "status": "Pending",
    "rowid": "1159606",
    "final_x": "3675333.64149",
    "final_y": "538269.813449",
    "longitude": "-90.0873097138799",
    "latitude": "29.974241175641303",
    "geocoded_column": {
      "latitude": "29.974241175641303",
      "longitude": "-90.0873097138799"
    }
  },
  {
    "service_request": "2025-1159605",
    "request_type": "Abandoned Vehicles",
    "request_reason": "Abandoned/Junk Vehicles",
    "date_created": "2025-01-04T14:34:03.000",
    "date_modified": "2025-01-04T14:34:06.000",
    "request_status": "Pending",
    "responsible_agency": "Department of Public Works",
    "final_address": "4200 S Saratoga St",
    "address_councildis": "B",
    "status": "Pending",
    "rowid": "1159605",
    "final_x": "3671338.97543",
    "final_y": "522683.111482",
    "longitude": "-90.10045548795478",
    "latitude": "29.931501723712675",
    "geocoded_column": {
      "latitude": "29.931501723712675",
      "longitude": "-90.10045548795478"
    }
  },
  {
    "service_request": "2025-1159604",
    "request_type": "Abandoned Vehicles",
    "request_reason": "Abandoned/Junk Vehicles",
    "date_created": "2025-01-04T14:32:05.000",
    "date_modified": "2025-01-04T14:32:07.000",
    "request_status": "Pending",
    "responsible_agency": "Department of Public Works",
    "final_address": "715 N Lopez St",
    "address_councildis": "A",
    "status": "Pending",
    "rowid": "1159604",
    "final_x": "3675333.64149",
    "final_y": "538269.813449",
    "longitude": "-90.0873097138799",
    "latitude": "29.974241175641303",
    "geocoded_column": {
      "latitude": "29.974241175641303",
      "longitude": "-90.0873097138799"
    }
  },
  {
    "service_request": "2025-1159603",
    "request_type": "Trash/Recycling",
    "request_reason": "Replace Recycling Cart",
    "date_created": "2025-01-04T14:30:56.000",
    "date_modified": "2025-01-04T14:30:59.000",
    "request_status": "Pending",
    "responsible_agency": "Department of Sanitation",
    "final_address": "802 Eighth St",
    "address_councildis": "B",
    "status": "Pending",
    "rowid": "1159603",
    "final_x": "3676674.23144",
    "final_y": "519305.931959",
    "longitude": "-90.08372897528238",
    "latitude": "29.92205665183123",
    "geocoded_column": {
      "latitude": "29.92205665183123",
      "longitude": "-90.08372897528238"
    }
  },
  {
    "service_request": "2025-1159602",
    "request_type": "Abandoned Vehicles",
    "request_reason": "Abandoned/Junk Vehicles",
    "date_created": "2025-01-04T14:27:40.000",
    "date_modified": "2025-01-04T14:27:43.000",
    "request_status": "Pending",
    "responsible_agency": "Department of Public Works",
    "final_address": "715 N Lopez St",
    "address_councildis": "A",
    "status": "Pending",
    "rowid": "1159602",
    "final_x": "3675333.64149",
    "final_y": "538269.813449",
    "longitude": "-90.0873097138799",
    "latitude": "29.974241175641303",
    "geocoded_column": {
      "latitude": "29.974241175641303",
      "longitude": "-90.0873097138799"
    }
  },
  {
    "service_request": "2025-1159601",
    "request_type": "Trash/Recycling",
    "request_reason": "Request a Large Item Pick Up",
    "date_created": "2025-01-04T14:17:46.000",
    "date_modified": "2025-01-04T14:17:47.000",
    "request_status": "Pending",
    "responsible_agency": "Department of Sanitation",
    "final_address": "1615 Spain St",
    "address_councildis": "D",
    "status": "Assigned to Contractor",
    "contractor": "IV Waste",
    "rowid": "1159601",
    "final_x": "3686008.01154",
    "final_y": "538377.259529",
    "longitude": "-90.05359384420694",
    "latitude": "29.974213126641224",
    "geocoded_column": {
      "latitude": "29.974213126641224",
      "longitude": "-90.05359384420694"
    }
  },
  {
    "service_request": "2025-1159600",
    "request_type": "Christmas Tree Recycle Pick Up",
    "request_reason": "Christmas Tree Recycle Pick Up",
    "date_created": "2025-01-04T14:03:24.000",
    "date_modified": "2025-01-04T14:03:26.000",
    "request_status": "Pending",
    "responsible_agency": "Office of Resilience and Sustainability",
    "final_address": "863 Germain St",
    "address_councildis": "A",
    "status": "Pending",
    "contractor": "R&R Recycling",
    "rowid": "1159600",
    "final_x": "3669696.60801",
    "final_y": "547882.88597",
    "longitude": "-90.10478731267631",
    "latitude": "30.00084118315654",
    "geocoded_column": {
      "latitude": "30.00084118315654",
      "longitude": "-90.10478731267631"
    }
  },
  {
    "service_request": "2025-1159599",
    "request_type": "Streetlights",
    "request_reason": "Streetlight Outage/Malfunction",
    "date_created": "2025-01-04T13:52:50.000",
    "date_modified": "2025-01-04T13:52:51.000",
    "request_status": "Pending",
    "responsible_agency": "Department of Public Works",
    "final_address": "2742 Ursulines Ave",
    "address_councildis": "A",
    "status": "Pending",
    "contractor": "Legacy Professional Services",
    "rowid": "1159599",
    "final_x": "3677164.37685",
    "final_y": "538420.949129",
    "longitude": "-90.08152260657188",
    "latitude": "29.974601879771495",
    "geocoded_column": {
      "latitude": "29.974601879771495",
      "longitude": "-90.08152260657188"
    }
  },
  {
    "service_request": "2025-1159598",
    "request_type": "Streetlights",
    "request_reason": "Streetlight Outage/Malfunction",
    "date_created": "2025-01-04T13:50:36.000",
    "date_modified": "2025-01-04T13:50:37.000",
    "request_status": "Pending",
    "responsible_agency": "Department of Public Works",
    "final_address": "2748 Belle Chasse St",
    "address_councildis": "A",
    "status": "Pending",
    "contractor": "Legacy Professional Services",
    "rowid": "1159598",
    "final_x": "3677183.86382",
    "final_y": "538347.120393",
    "longitude": "-90.08146360937083",
    "latitude": "29.97439829067161",
    "geocoded_column": {
      "latitude": "29.97439829067161",
      "longitude": "-90.08146360937083"
    }
  },
  {
    "service_request": "2025-1159597",
    "request_type": "Abandoned Vehicles",
    "request_reason": "Abandoned/Junk Vehicles",
    "date_created": "2025-01-04T13:26:18.000",
    "date_modified": "2025-01-04T13:26:21.000",
    "request_status": "Pending",
    "responsible_agency": "Department of Public Works",
    "final_address": "3139 Lamarque St",
    "address_councildis": "C",
    "status": "Pending",
    "rowid": "1159597",
    "final_x": "3695717.72515",
    "final_y": "526610.711102",
    "longitude": "-90.02335331566697",
    "latitude": "29.941557506626324",
    "geocoded_column": {
      "latitude": "29.941557506626324",
      "longitude": "-90.02335331566697"
    }
  },
  {
    "service_request": "2025-1159596",
    "request_type": "Property Maintenance",
    "request_reason": "Property Maintenance",
    "date_created": "2025-01-04T13:24:14.000",
    "date_modified": "2025-01-04T13:24:16.000",
    "request_status": "Pending",
    "responsible_agency": "Department of Code Enforcement",
    "final_address": "2103 Jena St",
    "address_councildis": "B",
    "status": "Pending",
    "rowid": "1159596",
    "final_x": "3670315.68238",
    "final_y": "522704.345018",
    "longitude": "-90.10368519147099",
    "latitude": "29.931590343969482",
    "geocoded_column": {
      "latitude": "29.931590343969482",
      "longitude": "-90.10368519147099"
    }
  },
  {
    "service_request": "2025-1159595",
    "request_type": "Abandoned Vehicles",
    "request_reason": "Abandoned/Junk Vehicles",
    "date_created": "2025-01-04T13:22:18.000",
    "date_modified": "2025-01-04T13:22:22.000",
    "request_status": "Pending",
    "responsible_agency": "Department of Public Works",
    "final_address": "3139 Lamarque St",
    "address_councildis": "C",
    "status": "Pending",
    "rowid": "1159595",
    "final_x": "3695717.72515",
    "final_y": "526610.711102",
    "longitude": "-90.02335331566697",
    "latitude": "29.941557506626324",
    "geocoded_column": {
      "latitude": "29.941557506626324",
      "longitude": "-90.02335331566697"
    }
  },
  {
    "service_request": "2025-1159594",
    "request_type": "Abandoned Vehicles",
    "request_reason": "Abandoned/Junk Vehicles",
    "date_created": "2025-01-04T13:19:40.000",
    "date_modified": "2025-01-04T13:19:43.000",
    "request_status": "Pending",
    "responsible_agency": "Department of Public Works",
    "final_address": "3139 Lamarque St",
    "address_councildis": "C",
    "status": "Pending",
    "rowid": "1159594",
    "final_x": "3695717.72515",
    "final_y": "526610.711102",
    "longitude": "-90.02335331566697",
    "latitude": "29.941557506626324",
    "geocoded_column": {
      "latitude": "29.941557506626324",
      "longitude": "-90.02335331566697"
    }
  },
  {
    "service_request": "2025-1159593",
    "request_type": "Abandoned Vehicles",
    "request_reason": "Abandoned/Junk Vehicles",
    "date_created": "2025-01-04T13:18:48.000",
    "date_modified": "2025-01-04T13:18:50.000",
    "request_status": "Pending",
    "responsible_agency": "Department of Public Works",
    "final_address": "3539 Napoleon Ave",
    "address_councildis": "B",
    "status": "Pending",
    "rowid": "1159593",
    "final_x": "3670253.2793",
    "final_y": "527778.369919",
    "longitude": "-90.10371029778794",
    "latitude": "29.945544112510948",
    "geocoded_column": {
      "latitude": "29.945544112510948",
      "longitude": "-90.10371029778794"
    }
  },
  {
    "service_request": "2025-1159592",
    "request_type": "Trash/Recycling",
    "request_reason": "Request a Large Item Pick Up",
    "date_created": "2025-01-04T13:13:34.000",
    "date_modified": "2025-01-04T13:13:35.000",
    "request_status": "Pending",
    "responsible_agency": "Department of Sanitation",
    "final_address": "910 N Dorgenois St",
    "address_councildis": "D",
    "status": "Assigned to Contractor",
    "contractor": "IV Waste",
    "rowid": "1159592",
    "final_x": "3677672.50261",
    "final_y": "537229.082312",
    "longitude": "-90.07995899508245",
    "latitude": "29.971309380855804",
    "geocoded_column": {
      "latitude": "29.971309380855804",
      "longitude": "-90.07995899508245"
    }
  },
  {
    "service_request": "2025-1159591",
    "request_type": "Trash/Recycling",
    "request_reason": "Request a Large Item Pick Up",
    "date_created": "2025-01-04T13:11:43.000",
    "date_modified": "2025-01-04T13:11:44.000",
    "request_status": "Pending",
    "responsible_agency": "Department of Sanitation",
    "final_address": "2544 Dumaine St",
    "address_councildis": "D",
    "status": "Assigned to Contractor",
    "contractor": "IV Waste",
    "rowid": "1159591",
    "final_x": "3677652.67042",
    "final_y": "537080.595336",
    "longitude": "-90.08002675719123",
    "latitude": "29.9709016889274",
    "geocoded_column": {
      "latitude": "29.9709016889274",
      "longitude": "-90.08002675719123"
    }
  },
  {
    "service_request": "2025-1159590",
    "request_type": "Abandoned Vehicles",
    "request_reason": "Vehicle Blocking Your Driveway",
    "date_created": "2025-01-04T13:09:58.000",
    "date_modified": "2025-01-04T13:10:00.000",
    "request_status": "Pending",
    "responsible_agency": "Department of Public Works",
    "final_address": "Palmyra Street & South Cortez Street",
    "address_councildis": "A",
    "status": "Pending",
    "rowid": "1159590",
    "final_x": "3671589.85838",
    "final_y": "536965.395528",
    "longitude": "-90.09917785263224",
    "latitude": "29.970765877103617",
    "geocoded_column": {
      "latitude": "29.970765877103617",
      "longitude": "-90.09917785263224"
    }
  },
  {
    "service_request": "2025-1159589",
    "request_type": "Abandoned Vehicles",
    "request_reason": "Abandoned/Junk Vehicles",
    "date_created": "2025-01-04T13:03:52.000",
    "date_modified": "2025-01-04T13:03:55.000",
    "request_status": "Pending",
    "responsible_agency": "Department of Public Works",
    "final_address": "962 Taft Pl",
    "address_councildis": "A",
    "status": "Pending",
    "rowid": "1159589",
    "final_x": "3673945.51598",
    "final_y": "540562.902283",
    "longitude": "-90.09161526384179",
    "latitude": "29.980587819843628",
    "geocoded_column": {
      "latitude": "29.980587819843628",
      "longitude": "-90.09161526384179"
    }
  },
  {
    "service_request": "2025-1159588",
    "request_type": "Abandoned Vehicles",
    "request_reason": "Abandoned/Junk Vehicles",
    "date_created": "2025-01-04T12:57:04.000",
    "date_modified": "2025-01-04T12:57:08.000",
    "request_status": "Pending",
    "responsible_agency": "Department of Public Works",
    "final_address": "962 Taft Pl",
    "address_councildis": "A",
    "status": "Pending",
    "rowid": "1159588",
    "final_x": "3673945.51598",
    "final_y": "540562.902283",
    "longitude": "-90.09161526384179",
    "latitude": "29.980587819843628",
    "geocoded_column": {
      "latitude": "29.980587819843628",
      "longitude": "-90.09161526384179"
    }
  },
  {
    "service_request": "2025-1159587",
    "request_type": "Christmas Tree Recycle Pick Up",
    "request_reason": "Christmas Tree Recycle Pick Up",
    "date_created": "2025-01-04T12:54:18.000",
    "date_modified": "2025-01-04T12:54:21.000",
    "request_status": "Pending",
    "responsible_agency": "Office of Resilience and Sustainability",
    "final_address": "2000 S Carrollton Ave",
    "address_councildis": "A",
    "status": "Pending",
    "contractor": "R&R Recycling",
    "rowid": "1159587",
    "final_x": "3663869.15655",
    "final_y": "530500.026242",
    "longitude": "-90.12377643009548",
    "latitude": "29.953214623781495",
    "geocoded_column": {
      "latitude": "29.953214623781495",
      "longitude": "-90.12377643009548"
    }
  },
  {
    "service_request": "2025-1159586",
    "request_type": "Christmas Tree Recycle Pick Up",
    "request_reason": "Christmas Tree Recycle Pick Up",
    "date_created": "2025-01-04T12:48:11.000",
    "date_modified": "2025-01-04T12:48:14.000",
    "request_status": "Pending",
    "responsible_agency": "Office of Resilience and Sustainability",
    "final_address": "5230 Marigny St",
    "address_councildis": "D",
    "status": "Pending",
    "contractor": "R&R Recycling",
    "rowid": "1159586",
    "final_x": "3684174.41737",
    "final_y": "552290.557206",
    "longitude": "-90.05889602226841",
    "latitude": "30.0125259167349",
    "geocoded_column": {
      "latitude": "30.0125259167349",
      "longitude": "-90.05889602226841"
    }
  },
  {
    "service_request": "2025-1159585",
    "request_type": "Trash/Recycling",
    "request_reason": "MIssed Recycling Pick-Up",
    "date_created": "2025-01-04T12:46:04.000",
    "date_modified": "2025-01-04T13:34:12.000",
    "case_close_date": "2025-01-04T07:34:12.000",
    "request_status": "Closed",
    "responsible_agency": "Department of Sanitation",
    "final_address": "7001 Neptune Ct",
    "address_councildis": "E",
    "status": "Duplicate Request",
    "contractor": "Waste Pro",
    "contractor_action": "Duplicate",
    "rowid": "1159585",
    "final_x": "3702044.59492",
    "final_y": "558909.556444",
    "longitude": "-90.00219363066573",
    "latitude": "30.030167009052406",
    "geocoded_column": {
      "latitude": "30.030167009052406",
      "longitude": "-90.00219363066573"
    }
  },
  {
    "service_request": "2025-1159584",
    "request_type": "Trash/Recycling",
    "request_reason": "MIssed Recycling Pick-Up",
    "date_created": "2025-01-04T12:41:26.000",
    "date_modified": "2025-01-04T12:41:27.000",
    "request_status": "Pending",
    "responsible_agency": "Department of Sanitation",
    "final_address": "7001 Neptune Ct",
    "address_councildis": "E",
    "status": "Assigned to Contractor",
    "contractor": "Waste Pro",
    "rowid": "1159584",
    "final_x": "3702044.59492",
    "final_y": "558909.556444",
    "longitude": "-90.00219363066573",
    "latitude": "30.030167009052406",
    "geocoded_column": {
      "latitude": "30.030167009052406",
      "longitude": "-90.00219363066573"
    }
  },
  {
    "service_request": "2025-1159583",
    "request_type": "Traffic Signals",
    "request_reason": "Traffic Signal Malfunctioning or Damaged",
    "date_created": "2025-01-04T12:40:03.000",
    "date_modified": "2025-01-04T12:40:06.000",
    "request_status": "Pending",
    "responsible_agency": "Department of Public Works",
    "final_address": "ST CHARLES AVE & CANAL ST & ROYAL ST",
    "address_councildis": "B",
    "status": "Pending",
    "rowid": "1159583",
    "final_x": "3681162.9",
    "final_y": "530640.88",
    "longitude": "-90.06916538739762",
    "latitude": "29.9530886310985",
    "geocoded_column": {
      "latitude": "29.9530886310985",
      "longitude": "-90.06916538739762"
    }
  },
  {
    "service_request": "2025-1159582",
    "request_type": "General Services",
    "request_reason": "General Service Request",
    "date_created": "2025-01-04T12:38:44.000",
    "date_modified": "2025-01-04T12:38:51.000",
    "request_status": "Pending",
    "responsible_agency": "Orleans Parish Communication District",
    "final_address": "2103 Jena St, New Orleans, Louisiana, 70115",
    "address_councildis": "B",
    "status": "Pending",
    "rowid": "1159582",
    "final_x": "3670315.68238",
    "final_y": "522704.345018",
    "longitude": "-90.10368519147099",
    "latitude": "29.931590343969482",
    "geocoded_column": {
      "latitude": "29.931590343969482",
      "longitude": "-90.10368519147099"
    }
  },
  {
    "service_request": "2025-1159581",
    "request_type": "Trash/Recycling",
    "request_reason": "Request a Large Item Pick Up",
    "date_created": "2025-01-04T12:35:02.000",
    "date_modified": "2025-01-04T15:33:37.000",
    "case_close_date": "2025-01-04T09:33:37.000",
    "request_status": "Closed",
    "responsible_agency": "Department of Sanitation",
    "final_address": "8551 Huntington Park Dr",
    "address_councildis": "E",
    "status": "Assigned to Contractor",
    "contractor": "Waste Pro",
    "contractor_action": "Completed",
    "rowid": "1159581",
    "final_x": "3705328.02462",
    "final_y": "560272.266141",
    "longitude": "-89.991767646262",
    "latitude": "30.03380863667343",
    "geocoded_column": {
      "latitude": "30.03380863667343",
      "longitude": "-89.991767646262"
    }
  },
  {
    "service_request": "2025-1159580",
    "request_type": "Trash/Recycling",
    "request_reason": "Order Second Trash Cart",
    "date_created": "2025-01-04T12:23:13.000",
    "date_modified": "2025-01-04T12:23:14.000",
    "request_status": "Pending",
    "responsible_agency": "Department of Sanitation",
    "final_address": "3935 Dauphine St",
    "address_councildis": "C",
    "status": "Assigned to Contractor",
    "contractor": "IV Waste",
    "rowid": "1159580",
    "final_x": "3691472.83068",
    "final_y": "534204.763653",
    "longitude": "-90.03648388456797",
    "latitude": "29.96257127934263",
    "geocoded_column": {
      "latitude": "29.96257127934263",
      "longitude": "-90.03648388456797"
    }
  },
  {
    "service_request": "2025-1159579",
    "request_type": "Trash/Recycling",
    "request_reason": "Order Second Trash Cart",
    "date_created": "2025-01-04T12:14:47.000",
    "date_modified": "2025-01-04T12:14:48.000",
    "request_status": "Pending",
    "responsible_agency": "Department of Sanitation",
    "final_address": "2017 Louisa St",
    "address_councildis": "D",
    "status": "Assigned to Contractor",
    "contractor": "IV Waste",
    "rowid": "1159579",
    "final_x": "3690478.20572",
    "final_y": "539392.123978",
    "longitude": "-90.03943978851515",
    "latitude": "29.9768656086476",
    "geocoded_column": {
      "latitude": "29.9768656086476",
      "longitude": "-90.03943978851515"
    }
  },
  {
    "service_request": "2025-1159578",
    "request_type": "Streetlights",
    "request_reason": "Streetlight Outage/Malfunction",
    "date_created": "2025-01-04T12:13:24.000",
    "date_modified": "2025-01-04T12:13:25.000",
    "request_status": "Pending",
    "responsible_agency": "Department of Public Works",
    "final_address": "1000 BLK Moss St",
    "address_councildis": "A",
    "status": "Pending",
    "contractor": "Legacy Professional Services",
    "rowid": "1159578",
    "final_x": "3674960.34",
    "final_y": "540427.378907",
    "longitude": "-90.08841465554418",
    "latitude": "29.980184899058443",
    "geocoded_column": {
      "latitude": "29.980184899058443",
      "longitude": "-90.08841465554418"
    }
  },
  {
    "service_request": "2025-1159577",
    "request_type": "Trash/Recycling",
    "request_reason": "Request a Large Item Pick Up",
    "date_created": "2025-01-04T12:12:57.000",
    "date_modified": "2025-01-04T12:12:58.000",
    "request_status": "Pending",
    "responsible_agency": "Department of Sanitation",
    "final_address": "2017 Louisa St",
    "address_councildis": "D",
    "status": "Assigned to Contractor",
    "contractor": "IV Waste",
    "rowid": "1159577",
    "final_x": "3690478.20572",
    "final_y": "539392.123978",
    "longitude": "-90.03943978851515",
    "latitude": "29.9768656086476",
    "geocoded_column": {
      "latitude": "29.9768656086476",
      "longitude": "-90.03943978851515"
    }
  },
  {
    "service_request": "2025-1159576",
    "request_type": "Christmas Tree Recycle Pick Up",
    "request_reason": "Christmas Tree Recycle Pick Up",
    "date_created": "2025-01-04T12:09:37.000",
    "date_modified": "2025-01-04T12:09:39.000",
    "request_status": "Pending",
    "responsible_agency": "Office of Resilience and Sustainability",
    "final_address": "2420 Ramsey Dr",
    "address_councildis": "C",
    "status": "Pending",
    "contractor": "R&R Recycling",
    "rowid": "1159576",
    "final_x": "3703210.60305",
    "final_y": "522042.561594",
    "longitude": "-89.99986482752062",
    "latitude": "29.92875902580254",
    "geocoded_column": {
      "latitude": "29.92875902580254",
      "longitude": "-89.99986482752062"
    }
  },
  {
    "service_request": "2025-1159575",
    "request_type": "Trash/Recycling",
    "request_reason": "Order Trash Cart",
    "date_created": "2025-01-04T12:08:44.000",
    "date_modified": "2025-01-04T12:08:45.000",
    "request_status": "Pending",
    "responsible_agency": "Department of Sanitation",
    "final_address": "5840 Albany Ct",
    "address_councildis": "C",
    "status": "Assigned to Contractor",
    "contractor": "Richards Disposal",
    "rowid": "1159575",
    "final_x": "3705149.24708",
    "final_y": "521176.946105",
    "longitude": "-89.99377692223915",
    "latitude": "29.926316708028313",
    "geocoded_column": {
      "latitude": "29.926316708028313",
      "longitude": "-89.99377692223915"
    }
  },
  {
    "service_request": "2025-1159574",
    "request_type": "Trash/Recycling",
    "request_reason": "Missed Trash Pick-Up",
    "date_created": "2025-01-04T12:06:28.000",
    "date_modified": "2025-01-04T12:21:18.000",
    "case_close_date": "2025-01-04T06:21:18.000",
    "request_status": "Closed",
    "responsible_agency": "Department of Sanitation",
    "final_address": "1530 Fourth St",
    "address_councildis": "B",
    "status": "Invalid Request",
    "contractor": "IV Waste",
    "contractor_action": "Invalid Request",
    "rowid": "1159574",
    "final_x": "3676290.45633",
    "final_y": "522451.070842",
    "longitude": "-90.08483222028408",
    "latitude": "29.930716267468316",
    "geocoded_column": {
      "latitude": "29.930716267468316",
      "longitude": "-90.08483222028408"
    }
  },
  {
    "service_request": "2025-1159573",
    "request_type": "Street and Traffic Signs",
    "request_reason": "Street Name Sign Damaged or Missing",
    "date_created": "2025-01-04T11:41:08.000",
    "date_modified": "2025-01-04T11:41:10.000",
    "request_status": "Pending",
    "responsible_agency": "Department of Public Works",
    "final_address": "7500 Founders Ct",
    "address_councildis": "E",
    "status": "Pending",
    "rowid": "1159573",
    "final_x": "3726009.64582",
    "final_y": "570544.959655",
    "longitude": "-89.92601351936207",
    "latitude": "30.06137223857831",
    "geocoded_column": {
      "latitude": "30.06137223857831",
      "longitude": "-89.92601351936207"
    }
  },
  {
    "service_request": "2025-1159572",
    "request_type": "Trash/Recycling",
    "request_reason": "Change Size of Trash Cart",
    "date_created": "2025-01-04T11:40:56.000",
    "date_modified": "2025-01-04T11:40:57.000",
    "request_status": "Pending",
    "responsible_agency": "Department of Sanitation",
    "final_address": "5901 Brighton Pl",
    "address_councildis": "C",
    "status": "Assigned to Contractor",
    "contractor": "Richards Disposal",
    "rowid": "1159572",
    "final_x": "3705646.91364",
    "final_y": "520043.987064",
    "longitude": "-89.9922478010014",
    "latitude": "29.923185458500157",
    "geocoded_column": {
      "latitude": "29.923185458500157",
      "longitude": "-89.9922478010014"
    }
  },
  {
    "service_request": "2025-1159571",
    "request_type": "Trash/Recycling",
    "request_reason": "Replace Trash Cart",
    "date_created": "2025-01-04T11:40:54.000",
    "date_modified": "2025-01-04T11:40:54.000",
    "request_status": "Pending",
    "responsible_agency": "Department of Sanitation",
    "final_address": "14 Curtis Dr",
    "address_councildis": "E",
    "status": "Assigned to Contractor",
    "contractor": "Waste Pro",
    "rowid": "1159571",
    "final_x": "3697957.93315",
    "final_y": "560552.156062",
    "longitude": "-90.01504770672234",
    "latitude": "30.034813431548613",
    "geocoded_column": {
      "latitude": "30.034813431548613",
      "longitude": "-90.01504770672234"
    }
  },
  {
    "service_request": "2025-1159570",
    "request_type": "Trash/Recycling",
    "request_reason": "MIssed Recycling Pick-Up",
    "date_created": "2025-01-04T11:38:55.000",
    "date_modified": "2025-01-04T11:38:56.000",
    "request_status": "Pending",
    "responsible_agency": "Department of Sanitation",
    "final_address": "5901 Brighton Pl",
    "address_councildis": "C",
    "status": "Assigned to Contractor",
    "contractor": "Richards Disposal",
    "rowid": "1159570",
    "final_x": "3705646.91364",
    "final_y": "520043.987064",
    "longitude": "-89.9922478010014",
    "latitude": "29.923185458500157",
    "geocoded_column": {
      "latitude": "29.923185458500157",
      "longitude": "-89.9922478010014"
    }
  },
  {
    "service_request": "2025-1159569",
    "request_type": "Trash/Recycling",
    "request_reason": "Missed Trash Pick-Up",
    "date_created": "2025-01-04T11:37:09.000",
    "date_modified": "2025-01-04T11:37:10.000",
    "request_status": "Pending",
    "responsible_agency": "Department of Sanitation",
    "final_address": "5901 Brighton Pl",
    "address_councildis": "C",
    "status": "Assigned to Contractor",
    "contractor": "Richards Disposal",
    "rowid": "1159569",
    "final_x": "3705646.91364",
    "final_y": "520043.987064",
    "longitude": "-89.9922478010014",
    "latitude": "29.923185458500157",
    "geocoded_column": {
      "latitude": "29.923185458500157",
      "longitude": "-89.9922478010014"
    }
  },
  {
    "service_request": "2025-1159568",
    "request_type": "Trash/Recycling",
    "request_reason": "Request a Large Item Pick Up",
    "date_created": "2025-01-04T11:27:40.000",
    "date_modified": "2025-01-04T12:45:06.000",
    "case_close_date": "2025-01-04T06:45:06.000",
    "request_status": "Closed",
    "responsible_agency": "Department of Sanitation",
    "final_address": "13001 Sevres St",
    "address_councildis": "E",
    "status": "Invalid Request",
    "contractor": "Waste Pro",
    "contractor_action": "Invalid Request",
    "rowid": "1159568",
    "final_x": "3723874.14854",
    "final_y": "560182.019037",
    "longitude": "-89.93316399353245",
    "latitude": "30.032950398591936",
    "geocoded_column": {
      "latitude": "30.032950398591936",
      "longitude": "-89.93316399353245"
    }
  },
  {
    "service_request": "2025-1159567",
    "request_type": "Streetlights",
    "request_reason": "Streetlight Outage/Malfunction",
    "date_created": "2025-01-04T11:24:47.000",
    "date_modified": "2025-01-04T11:24:48.000",
    "request_status": "Pending",
    "responsible_agency": "Department of Public Works",
    "final_address": "4256 Joycelyn Dr",
    "address_councildis": "C",
    "status": "Pending",
    "contractor": "Legacy Professional Services",
    "rowid": "1159567",
    "final_x": "3708253.58347",
    "final_y": "515005.993971",
    "longitude": "-89.98420685859895",
    "latitude": "29.909248584565965",
    "geocoded_column": {
      "latitude": "29.909248584565965",
      "longitude": "-89.98420685859895"
    }
  },
  {
    "service_request": "2025-1159566",
    "request_type": "Trash/Recycling",
    "request_reason": "Order Trash Cart",
    "date_created": "2025-01-04T11:12:13.000",
    "date_modified": "2025-01-04T11:12:14.000",
    "request_status": "Pending",
    "responsible_agency": "Department of Sanitation",
    "final_address": "2111 Joseph St",
    "address_councildis": "A",
    "status": "Assigned to Contractor",
    "contractor": "IV Waste",
    "rowid": "1159566",
    "final_x": "3667294.98305",
    "final_y": "523849.143035",
    "longitude": "-90.11318273799907",
    "latitude": "29.934826962024086",
    "geocoded_column": {
      "latitude": "29.934826962024086",
      "longitude": "-90.11318273799907"
    }
  },
  {
    "service_request": "2025-1159565",
    "request_type": "Roads and Streets",
    "request_reason": "Pothole",
    "date_created": "2025-01-04T11:11:25.000",
    "date_modified": "2025-01-04T11:11:29.000",
    "request_status": "Pending",
    "responsible_agency": "Department of Public Works",
    "final_address": "11300 BLK Lake Forest Blvd",
    "address_councildis": "E",
    "status": "Pending",
    "rowid": "1159565",
    "final_x": "3720154.87527",
    "final_y": "562479.576272",
    "longitude": "-89.9448291072418",
    "latitude": "30.03939218659508",
    "geocoded_column": {
      "latitude": "30.03939218659508",
      "longitude": "-89.9448291072418"
    }
  },
  {
    "service_request": "2025-1159564",
    "request_type": "Roads and Streets",
    "request_reason": "Pothole",
    "date_created": "2025-01-04T10:57:00.000",
    "date_modified": "2025-01-04T10:57:04.000",
    "request_status": "Pending",
    "responsible_agency": "Department of Public Works",
    "final_address": "11300 BLK Lake Forest Blvd",
    "address_councildis": "E",
    "status": "Pending",
    "rowid": "1159564",
    "final_x": "3720154.87527",
    "final_y": "562479.576272",
    "longitude": "-89.9448291072418",
    "latitude": "30.03939218659508",
    "geocoded_column": {
      "latitude": "30.03939218659508",
      "longitude": "-89.9448291072418"
    }
  },
  {
    "service_request": "2025-1159563",
    "request_type": "Trash/Recycling",
    "request_reason": "Request a Large Item Pick Up",
    "date_created": "2025-01-04T10:50:54.000",
    "date_modified": "2025-01-04T10:50:55.000",
    "request_status": "Pending",
    "responsible_agency": "Department of Sanitation",
    "final_address": "14021 Linden St",
    "address_councildis": "E",
    "status": "Assigned to Contractor",
    "contractor": "Waste Pro",
    "rowid": "1159563",
    "final_x": "3718384.33113",
    "final_y": "572516.798633",
    "longitude": "-89.95004154345258",
    "latitude": "30.067049277630513",
    "geocoded_column": {
      "latitude": "30.067049277630513",
      "longitude": "-89.95004154345258"
    }
  },
  {
    "service_request": "2025-1159562",
    "request_type": "Christmas Tree Recycle Pick Up",
    "request_reason": "Christmas Tree Recycle Pick Up",
    "date_created": "2025-01-04T10:41:58.000",
    "date_modified": "2025-01-04T10:42:02.000",
    "request_status": "Pending",
    "responsible_agency": "Office of Resilience and Sustainability",
    "final_address": "318 S White St",
    "address_councildis": "B",
    "status": "Pending",
    "contractor": "R&R Recycling",
    "rowid": "1159562",
    "final_x": "3674338.32897",
    "final_y": "534648.214278",
    "longitude": "-90.09057720029975",
    "latitude": "29.964312726823202",
    "geocoded_column": {
      "latitude": "29.964312726823202",
      "longitude": "-90.09057720029975"
    }
  },
  {
    "service_request": "2025-1159561",
    "request_type": "Trash/Recycling",
    "request_reason": "Order Trash Cart",
    "date_created": "2025-01-04T10:25:28.000",
    "date_modified": "2025-01-04T10:25:28.000",
    "request_status": "Pending",
    "responsible_agency": "Department of Sanitation",
    "final_address": "6910 Deanne St",
    "address_councildis": "D",
    "status": "Assigned to Contractor",
    "contractor": "Waste Pro",
    "rowid": "1159561",
    "final_x": "3695664.98083",
    "final_y": "556086.41737",
    "longitude": "-90.022455197162",
    "latitude": "30.022606690504517",
    "geocoded_column": {
      "latitude": "30.022606690504517",
      "longitude": "-90.022455197162"
    }
  },
  {
    "service_request": "2025-1159560",
    "request_type": "Trash/Recycling",
    "request_reason": "Request a Large Item Pick Up",
    "date_created": "2025-01-04T10:23:26.000",
    "date_modified": "2025-01-04T14:37:15.000",
    "case_close_date": "2025-01-04T08:37:15.000",
    "request_status": "Closed",
    "responsible_agency": "Department of Sanitation",
    "final_address": "6910 Deanne St",
    "address_councildis": "D",
    "status": "Assigned to Contractor",
    "contractor": "Waste Pro",
    "contractor_action": "Completed",
    "rowid": "1159560",
    "final_x": "3695664.98083",
    "final_y": "556086.41737",
    "longitude": "-90.022455197162",
    "latitude": "30.022606690504517",
    "geocoded_column": {
      "latitude": "30.022606690504517",
      "longitude": "-90.022455197162"
    }
  },
  {
    "service_request": "2025-1159559",
    "request_type": "Streetlights",
    "request_reason": "Streetlight Outage/Malfunction",
    "date_created": "2025-01-04T09:45:48.000",
    "date_modified": "2025-01-04T09:45:49.000",
    "request_status": "Pending",
    "responsible_agency": "Department of Public Works",
    "final_address": "2216 Annunciation St",
    "address_councildis": "B",
    "status": "Pending",
    "contractor": "Legacy Professional Services",
    "rowid": "1159559",
    "final_x": "3679397.95816",
    "final_y": "521058.000313",
    "longitude": "-90.07507057683323",
    "latitude": "29.92679231219193",
    "geocoded_column": {
      "latitude": "29.92679231219193",
      "longitude": "-90.07507057683323"
    }
  },
  {
    "service_request": "2025-1159558",
    "request_type": "Christmas Tree Recycle Pick Up",
    "request_reason": "Christmas Tree Recycle Pick Up",
    "date_created": "2025-01-04T09:30:48.000",
    "date_modified": "2025-01-04T09:30:50.000",
    "request_status": "Pending",
    "responsible_agency": "Office of Resilience and Sustainability",
    "final_address": "244 Elmira Ave",
    "address_councildis": "C",
    "status": "Pending",
    "contractor": "R&R Recycling",
    "rowid": "1159558",
    "final_x": "3688291.93059",
    "final_y": "531042.005698",
    "longitude": "-90.04664085864437",
    "latitude": "29.953973396205722",
    "geocoded_column": {
      "latitude": "29.953973396205722",
      "longitude": "-90.04664085864437"
    }
  },
  {
    "service_request": "2025-1159557",
    "request_type": "Trash/Recycling",
    "request_reason": "Missed Trash Pick-Up",
    "date_created": "2025-01-04T09:11:21.000",
    "date_modified": "2025-01-04T11:11:21.000",
    "case_close_date": "2025-01-04T04:39:32.000",
    "request_status": "Closed",
    "responsible_agency": "Department of Sanitation",
    "final_address": "6055 Craigie Rd",
    "address_councildis": "E",
    "status": "Invalid Request",
    "contractor": "Waste Pro",
    "contractor_action": "Invalid Pick-Up",
    "rowid": "1159557",
    "final_x": "3695723.33866",
    "final_y": "558834.538972",
    "longitude": "-90.02217143867114",
    "latitude": "30.030161143391748",
    "geocoded_column": {
      "latitude": "30.030161143391748",
      "longitude": "-90.02217143867114"
    }
  },
  {
    "service_request": "2025-1159556",
    "request_type": "Trash/Recycling",
    "request_reason": "Repair Recycling Cart",
    "date_created": "2025-01-04T09:07:02.000",
    "date_modified": "2025-01-04T09:07:05.000",
    "request_status": "Pending",
    "responsible_agency": "Department of Sanitation",
    "final_address": "4030 Burgundy Street, New Orleans, LA 70117",
    "address_councildis": "C",
    "status": "Pending",
    "rowid": "1159556",
    "final_x": "3691825.26697",
    "final_y": "534386.801989",
    "longitude": "-90.03536443136389",
    "latitude": "29.96306084830146",
    "geocoded_column": {
      "latitude": "29.96306084830146",
      "longitude": "-90.03536443136389"
    }
  },
  {
    "service_request": "2025-1159555",
    "request_type": "Trash/Recycling",
    "request_reason": "Request a Large Item Pick Up",
    "date_created": "2025-01-04T09:02:02.000",
    "date_modified": "2025-01-04T09:02:03.000",
    "request_status": "Pending",
    "responsible_agency": "Department of Sanitation",
    "final_address": "1300 Peniston St",
    "address_councildis": "B",
    "status": "Assigned to Contractor",
    "contractor": "IV Waste",
    "rowid": "1159555",
    "final_x": "3673000.04545",
    "final_y": "520387.726456",
    "longitude": "-90.09528997144666",
    "latitude": "29.925140905973446",
    "geocoded_column": {
      "latitude": "29.925140905973446",
      "longitude": "-90.09528997144666"
    }
  },
  {
    "service_request": "2025-1159554",
    "request_type": "Drainage",
    "request_reason": "Catch Basin Clogged",
    "date_created": "2025-01-04T08:30:44.000",
    "date_modified": "2025-01-04T08:30:47.000",
    "request_status": "Pending",
    "responsible_agency": "Department of Public Works",
    "final_address": "1801 Sophie Wright Pl",
    "address_councildis": "B",
    "status": "Pending",
    "rowid": "1159554",
    "final_x": "3679613.96271",
    "final_y": "523258.884603",
    "longitude": "-90.07431236994424",
    "latitude": "29.932837498300916",
    "geocoded_column": {
      "latitude": "29.932837498300916",
      "longitude": "-90.07431236994424"
    }
  },
  {
    "service_request": "2025-1159553",
    "request_type": "Streetlights",
    "request_reason": "Streetlight Outage/Malfunction",
    "date_created": "2025-01-04T08:12:12.000",
    "date_modified": "2025-01-04T08:12:13.000",
    "request_status": "Pending",
    "responsible_agency": "Department of Public Works",
    "final_address": "6320 Pontchartrain Blvd",
    "address_councildis": "A",
    "status": "Pending",
    "contractor": "Legacy Professional Services",
    "rowid": "1159553",
    "final_x": "3666148.44897",
    "final_y": "549763.467348",
    "longitude": "-90.1159331386901",
    "latitude": "30.006116258144914",
    "geocoded_column": {
      "latitude": "30.006116258144914",
      "longitude": "-90.1159331386901"
    }
  },
  {
    "service_request": "2025-1159552",
    "request_type": "Trash/Recycling",
    "request_reason": "Repair Recycling Cart",
    "date_created": "2025-01-04T08:04:49.000",
    "date_modified": "2025-01-04T08:04:52.000",
    "request_status": "Pending",
    "responsible_agency": "Department of Sanitation",
    "final_address": "2417 Chelsea Dr",
    "address_councildis": "C",
    "status": "Pending",
    "rowid": "1159552",
    "final_x": "3704715.27524",
    "final_y": "522591.334714",
    "longitude": "-89.99509469257933",
    "latitude": "29.930219726167703",
    "geocoded_column": {
      "latitude": "29.930219726167703",
      "longitude": "-89.99509469257933"
    }
  },
  {
    "service_request": "2025-1159551",
    "request_type": "Trash/Recycling",
    "request_reason": "Request a Large Item Pick Up",
    "date_created": "2025-01-04T08:03:25.000",
    "date_modified": "2025-01-04T08:03:26.000",
    "request_status": "Pending",
    "responsible_agency": "Department of Sanitation",
    "final_address": "2417 Chelsea Dr",
    "address_councildis": "C",
    "status": "Assigned to Contractor",
    "contractor": "Richards Disposal",
    "rowid": "1159551",
    "final_x": "3704715.27524",
    "final_y": "522591.334714",
    "longitude": "-89.99509469257933",
    "latitude": "29.930219726167703",
    "geocoded_column": {
      "latitude": "29.930219726167703",
      "longitude": "-89.99509469257933"
    }
  },
  {
    "service_request": "2025-1159550",
    "request_type": "Drainage",
    "request_reason": "Street Flooding",
    "date_created": "2025-01-04T07:53:24.000",
    "date_modified": "2025-01-04T07:54:20.000",
    "case_close_date": "2025-01-04T01:54:20.000",
    "request_status": "Closed",
    "responsible_agency": "Department of Public Works",
    "final_address": "ESPLANADE AVE & DECATUR ST",
    "address_councildis": "C",
    "status": "Referred to External Agency",
    "rowid": "1159550",
    "final_x": "3684641.8",
    "final_y": "533925.08",
    "longitude": "-90.0580651430995",
    "latitude": "29.96201306143117",
    "geocoded_column": {
      "latitude": "29.96201306143117",
      "longitude": "-90.0580651430995"
    }
  },
  {
    "service_request": "2025-1159549",
    "request_type": "Drainage",
    "request_reason": "Street Flooding",
    "date_created": "2025-01-04T07:38:46.000",
    "date_modified": "2025-01-04T07:39:43.000",
    "case_close_date": "2025-01-04T01:39:43.000",
    "request_status": "Closed",
    "responsible_agency": "Department of Public Works",
    "final_address": "1350 Bourbon St",
    "address_councildis": "C",
    "status": "Referred to External Agency",
    "rowid": "1159549",
    "final_x": "3683700.26441",
    "final_y": "534514.026181",
    "longitude": "-90.06101771273805",
    "latitude": "29.963661240674625",
    "geocoded_column": {
      "latitude": "29.963661240674625",
      "longitude": "-90.06101771273805"
    }
  },
  {
    "service_request": "2025-1159548",
    "request_type": "Trash/Recycling",
    "request_reason": "Return Recycling Cart",
    "date_created": "2025-01-04T07:11:48.000",
    "date_modified": "2025-01-04T07:11:51.000",
    "request_status": "Pending",
    "responsible_agency": "Department of Sanitation",
    "final_address": "4216 N Derbigny St",
    "address_councildis": "D",
    "status": "Pending",
    "rowid": "1159548",
    "final_x": "3693076.08144",
    "final_y": "537337.2674",
    "longitude": "-90.03130865531502",
    "latitude": "29.971134566860044",
    "geocoded_column": {
      "latitude": "29.971134566860044",
      "longitude": "-90.03130865531502"
    }
  },
  {
    "service_request": "2025-1159547",
    "request_type": "Christmas Tree Recycle Pick Up",
    "request_reason": "Christmas Tree Recycle Pick Up",
    "date_created": "2025-01-04T07:09:28.000",
    "date_modified": "2025-01-04T07:09:31.000",
    "request_status": "Pending",
    "responsible_agency": "Office of Resilience and Sustainability",
    "final_address": "7210 Cove Dr",
    "address_councildis": "E",
    "status": "Pending",
    "contractor": "R&R Recycling",
    "rowid": "1159547",
    "final_x": "3700053.53424",
    "final_y": "558896.431836",
    "longitude": "-90.0084858298527",
    "latitude": "30.030194371207465",
    "geocoded_column": {
      "latitude": "30.030194371207465",
      "longitude": "-90.0084858298527"
    }
  },
  {
    "service_request": "2025-1159546",
    "request_type": "Parks & Parkways",
    "request_reason": "Request Grass Cutting Service (City Owned Property)",
    "date_created": "2025-01-04T06:56:40.000",
    "date_modified": "2025-01-04T06:56:41.000",
    "request_status": "Pending",
    "responsible_agency": "Department of Parks & Parkway",
    "final_address": "LOUISIANA AVE & TCHOUPITOULAS ST",
    "address_councildis": "B",
    "status": "Pending",
    "rowid": "1159546",
    "final_x": "3675735.2",
    "final_y": "517958.98",
    "longitude": "-90.08673936455811",
    "latitude": "29.918381091862162",
    "geocoded_column": {
      "latitude": "29.918381091862162",
      "longitude": "-90.08673936455811"
    }
  },
  {
    "service_request": "2025-1159545",
    "request_type": "Property Maintenance",
    "request_reason": "Property Maintenance",
    "date_created": "2025-01-04T01:43:38.000",
    "date_modified": "2025-01-04T01:43:41.000",
    "request_status": "Pending",
    "responsible_agency": "Department of Code Enforcement",
    "final_address": "JEANNETTE ST & BROADWAY ST",
    "address_councildis": "A",
    "status": "Pending",
    "rowid": "1159545",
    "final_x": "3664750.6",
    "final_y": "527380.08",
    "longitude": "-90.12109742368361",
    "latitude": "29.944610164972946",
    "geocoded_column": {
      "latitude": "29.944610164972946",
      "longitude": "-90.12109742368361"
    }
  },
  {
    "service_request": "2025-1159544",
    "request_type": "Christmas Tree Recycle Pick Up",
    "request_reason": "Christmas Tree Recycle Pick Up",
    "date_created": "2025-01-04T01:09:02.000",
    "date_modified": "2025-01-04T01:09:08.000",
    "request_status": "Pending",
    "responsible_agency": "Office of Resilience and Sustainability",
    "final_address": "4979 Marigny St",
    "address_councildis": "D",
    "status": "Pending",
    "contractor": "R&R Recycling",
    "rowid": "1159544",
    "final_x": "3684388.95388",
    "final_y": "551349.782421",
    "longitude": "-90.0582512827344",
    "latitude": "30.009932565922508",
    "geocoded_column": {
      "latitude": "30.009932565922508",
      "longitude": "-90.0582512827344"
    }
  },
  {
    "service_request": "2025-1159543",
    "request_type": "Trash/Recycling",
    "request_reason": "Request a Large Item Pick Up",
    "date_created": "2025-01-04T00:16:28.000",
    "date_modified": "2025-01-04T10:24:59.000",
    "request_status": "Pending",
    "responsible_agency": "Department of Sanitation",
    "final_address": "6645 Louis Xiv St, New Orleans, Louisiana, 70124",
    "address_councildis": "A",
    "status": "Assigned to Contractor",
    "contractor": "IV Waste",
    "rowid": "1159543",
    "final_x": "3668588.08417",
    "final_y": "551894.611862",
    "longitude": "-90.10815372532853",
    "latitude": "30.011904663080667",
    "geocoded_column": {
      "latitude": "30.011904663080667",
      "longitude": "-90.10815372532853"
    }
  },
  {
    "service_request": "2025-1159542",
    "request_type": "Streetlights",
    "request_reason": "Streetlight Outage/Malfunction",
    "date_created": "2025-01-03T23:37:44.000",
    "date_modified": "2025-01-03T23:37:45.000",
    "request_status": "Pending",
    "responsible_agency": "Department of Public Works",
    "final_address": "5947 Memphis St",
    "address_councildis": "A",
    "status": "Pending",
    "contractor": "Legacy Professional Services",
    "rowid": "1159542",
    "final_x": "3669251.50516",
    "final_y": "546978.153105",
    "longitude": "-90.10622403865115",
    "latitude": "29.998366596083763",
    "geocoded_column": {
      "latitude": "29.998366596083763",
      "longitude": "-90.10622403865115"
    }
  },
  {
    "service_request": "2025-1159541",
    "request_type": "Streetlights",
    "request_reason": "Streetlight Outage/Malfunction",
    "date_created": "2025-01-03T23:33:32.000",
    "date_modified": "2025-01-03T23:33:33.000",
    "request_status": "Pending",
    "responsible_agency": "Department of Public Works",
    "final_address": "5946 Memphis St",
    "address_councildis": "A",
    "status": "Pending",
    "contractor": "Legacy Professional Services",
    "rowid": "1159541",
    "final_x": "3669070.47572",
    "final_y": "546945.072465",
    "longitude": "-90.10679703044974",
    "latitude": "29.998280965243257",
    "geocoded_column": {
      "latitude": "29.998280965243257",
      "longitude": "-90.10679703044974"
    }
  },
  {
    "service_request": "2025-1159540",
    "request_type": "Trash/Recycling",
    "request_reason": "Request a Large Item Pick Up",
    "date_created": "2025-01-03T23:14:28.000",
    "date_modified": "2025-01-03T23:14:29.000",
    "request_status": "Pending",
    "responsible_agency": "Department of Sanitation",
    "final_address": "8018 Panola St",
    "address_councildis": "A",
    "status": "Assigned to Contractor",
    "contractor": "IV Waste",
    "rowid": "1159540",
    "final_x": "3664276.65453",
    "final_y": "530491.00845",
    "longitude": "-90.12249002281837",
    "latitude": "29.953177993579686",
    "geocoded_column": {
      "latitude": "29.953177993579686",
      "longitude": "-90.12249002281837"
    }
  },
  {
    "service_request": "2025-1159539",
    "request_type": "Abandoned Vehicles",
    "request_reason": "Abandoned/Junk Vehicles",
    "date_created": "2025-01-03T23:08:55.000",
    "date_modified": "2025-01-03T23:09:08.000",
    "request_status": "Pending",
    "responsible_agency": "Department of Public Works",
    "final_address": "1234 Mandeville St",
    "address_councildis": "C",
    "status": "Pending",
    "rowid": "1159539",
    "final_x": "3685690.5814",
    "final_y": "537023.93236",
    "longitude": "-90.05464405693739",
    "latitude": "29.970501693859482",
    "geocoded_column": {
      "latitude": "29.970501693859482",
      "longitude": "-90.05464405693739"
    }
  },
  {
    "service_request": "2025-1159538",
    "request_type": "Abandoned Vehicles",
    "request_reason": "Abandoned/Junk Vehicles",
    "date_created": "2025-01-03T23:05:34.000",
    "date_modified": "2025-01-03T23:05:36.000",
    "request_status": "Pending",
    "responsible_agency": "Department of Public Works",
    "final_address": "1234 Mandeville St",
    "address_councildis": "C",
    "status": "Pending",
    "rowid": "1159538",
    "final_x": "3685690.5814",
    "final_y": "537023.93236",
    "longitude": "-90.05464405693739",
    "latitude": "29.970501693859482",
    "geocoded_column": {
      "latitude": "29.970501693859482",
      "longitude": "-90.05464405693739"
    }
  },
  {
    "service_request": "2025-1159537",
    "request_type": "Abandoned Vehicles",
    "request_reason": "Abandoned/Junk Vehicles",
    "date_created": "2025-01-03T23:02:16.000",
    "date_modified": "2025-01-03T23:02:20.000",
    "request_status": "Pending",
    "responsible_agency": "Department of Public Works",
    "final_address": "1234 Mandeville St",
    "address_councildis": "C",
    "status": "Pending",
    "rowid": "1159537",
    "final_x": "3685690.5814",
    "final_y": "537023.93236",
    "longitude": "-90.05464405693739",
    "latitude": "29.970501693859482",
    "geocoded_column": {
      "latitude": "29.970501693859482",
      "longitude": "-90.05464405693739"
    }
  },
  {
    "service_request": "2025-1159536",
    "request_type": "Abandoned Vehicles",
    "request_reason": "Abandoned/Junk Vehicles",
    "date_created": "2025-01-03T22:57:00.000",
    "date_modified": "2025-01-03T22:57:09.000",
    "request_status": "Pending",
    "responsible_agency": "Department of Public Works",
    "final_address": "1234 Mandeville St",
    "address_councildis": "C",
    "status": "Pending",
    "rowid": "1159536",
    "final_x": "3685690.5814",
    "final_y": "537023.93236",
    "longitude": "-90.05464405693739",
    "latitude": "29.970501693859482",
    "geocoded_column": {
      "latitude": "29.970501693859482",
      "longitude": "-90.05464405693739"
    }
  },
  {
    "service_request": "2025-1159535",
    "request_type": "Trash/Recycling",
    "request_reason": "Replace Recycling Cart",
    "date_created": "2025-01-03T21:56:17.000",
    "date_modified": "2025-01-03T21:56:20.000",
    "request_status": "Pending",
    "responsible_agency": "Department of Sanitation",
    "final_address": "910 St Roch Ave",
    "address_councildis": "C",
    "status": "Pending",
    "rowid": "1159535",
    "final_x": "3686509.7622",
    "final_y": "535806.873799",
    "longitude": "-90.05209997340415",
    "latitude": "29.9671300453487",
    "geocoded_column": {
      "latitude": "29.9671300453487",
      "longitude": "-90.05209997340415"
    }
  },
  {
    "service_request": "2025-1159534",
    "request_type": "Trash/Recycling",
    "request_reason": "Missed Trash Pick-Up",
    "date_created": "2025-01-03T21:53:06.000",
    "date_modified": "2025-01-04T09:33:52.000",
    "case_close_date": "2025-01-04T03:33:52.000",
    "request_status": "Closed",
    "responsible_agency": "Department of Sanitation",
    "final_address": "910 St Roch Ave",
    "address_councildis": "C",
    "status": "Invalid Request",
    "contractor": "IV Waste",
    "contractor_action": "Invalid Request",
    "rowid": "1159534",
    "final_x": "3686509.7622",
    "final_y": "535806.873799",
    "longitude": "-90.05209997340415",
    "latitude": "29.9671300453487",
    "geocoded_column": {
      "latitude": "29.9671300453487",
      "longitude": "-90.05209997340415"
    }
  },
  {
    "service_request": "2025-1159533",
    "request_type": "Trash/Recycling",
    "request_reason": "Replace Recycling Cart",
    "date_created": "2025-01-03T21:50:03.000",
    "date_modified": "2025-01-03T21:50:06.000",
    "request_status": "Pending",
    "responsible_agency": "Department of Sanitation",
    "final_address": "1910 St Roch Ave",
    "address_councildis": "D",
    "status": "Pending",
    "rowid": "1159533",
    "final_x": "3686039.99362",
    "final_y": "539455.68417",
    "longitude": "-90.05345479428249",
    "latitude": "29.97717743387641",
    "geocoded_column": {
      "latitude": "29.97717743387641",
      "longitude": "-90.05345479428249"
    }
  },
  {
    "service_request": "2025-1159532",
    "request_type": "Trash/Recycling",
    "request_reason": "Order Trash Cart",
    "date_created": "2025-01-03T21:36:03.000",
    "date_modified": "2025-01-03T21:36:04.000",
    "request_status": "Pending",
    "responsible_agency": "Department of Sanitation",
    "final_address": "1706 S Dupre St",
    "address_councildis": "B",
    "status": "Assigned to Contractor",
    "contractor": "IV Waste",
    "rowid": "1159532",
    "final_x": "3670748.39022",
    "final_y": "530041.151169",
    "longitude": "-90.1020702981945",
    "latitude": "29.95175140102854",
    "geocoded_column": {
      "latitude": "29.95175140102854",
      "longitude": "-90.1020702981945"
    }
  },
  {
    "service_request": "2025-1159531",
    "request_type": "Christmas Tree Recycle Pick Up",
    "request_reason": "Christmas Tree Recycle Pick Up",
    "date_created": "2025-01-03T21:34:29.000",
    "date_modified": "2025-01-03T21:34:33.000",
    "request_status": "Pending",
    "responsible_agency": "Office of Resilience and Sustainability",
    "final_address": "3800 Urquhart St",
    "address_councildis": "D",
    "status": "Pending",
    "contractor": "R&R Recycling",
    "rowid": "1159531",
    "final_x": "3691434.78505",
    "final_y": "536109.660231",
    "longitude": "-90.03653594818154",
    "latitude": "29.96781025976353",
    "geocoded_column": {
      "latitude": "29.96781025976353",
      "longitude": "-90.03653594818154"
    }
  },
  {
    "service_request": "2025-1159530",
    "request_type": "Trash/Recycling",
    "request_reason": "Illegal Dumping",
    "date_created": "2025-01-03T21:24:35.000",
    "date_modified": "2025-01-03T21:24:39.000",
    "request_status": "Pending",
    "responsible_agency": "Department of Sanitation",
    "final_address": "6414 Urville St",
    "address_councildis": "E",
    "status": "Pending",
    "rowid": "1159530",
    "final_x": "3700945.11345",
    "final_y": "533802.494789",
    "longitude": "-90.0065866161437",
    "latitude": "29.96116700425978",
    "geocoded_column": {
      "latitude": "29.96116700425978",
      "longitude": "-90.0065866161437"
    }
  },
  {
    "service_request": "2025-1159529",
    "request_type": "Trash/Recycling",
    "request_reason": "Order Recycling Cart",
    "date_created": "2025-01-03T21:00:18.000",
    "date_modified": "2025-01-03T21:00:33.000",
    "request_status": "Pending",
    "responsible_agency": "Department of Sanitation",
    "final_address": "2600 Ursulines Ave Apt 202",
    "address_councildis": "D",
    "status": "Pending",
    "rowid": "1159529",
    "final_x": "3677974.97621",
    "final_y": "537792.237768",
    "longitude": "-90.07898427118417",
    "latitude": "29.97284876443625",
    "geocoded_column": {
      "latitude": "29.97284876443625",
      "longitude": "-90.07898427118417"
    }
  },
  {
    "service_request": "2025-1159528",
    "request_type": "Mosquito, Termite & Rodent Control",
    "request_reason": "Non-Rodent Complaint (Mice, Possums, Snakes)",
    "date_created": "2025-01-03T20:59:01.000",
    "date_modified": "2025-01-03T20:59:05.000",
    "request_status": "Pending",
    "responsible_agency": "Mosquito, Termite & Rodent Control Board",
    "final_address": "2606 Annette St",
    "address_councildis": "D",
    "status": "Pending",
    "rowid": "1159528",
    "final_x": "3682654.09685",
    "final_y": "541749.18638",
    "longitude": "-90.06406831034732",
    "latitude": "29.983587319194083",
    "geocoded_column": {
      "latitude": "29.983587319194083",
      "longitude": "-90.06406831034732"
    }
  },
  {
    "service_request": "2025-1159527",
    "request_type": "Mosquito, Termite & Rodent Control",
    "request_reason": "Non-Rodent Complaint (Mice, Possums, Snakes)",
    "date_created": "2025-01-03T20:52:33.000",
    "date_modified": "2025-01-03T20:52:35.000",
    "request_status": "Pending",
    "responsible_agency": "Mosquito, Termite & Rodent Control Board",
    "final_address": "2606 Annette St",
    "address_councildis": "D",
    "status": "Pending",
    "rowid": "1159527",
    "final_x": "3682654.09685",
    "final_y": "541749.18638",
    "longitude": "-90.06406831034732",
    "latitude": "29.983587319194083",
    "geocoded_column": {
      "latitude": "29.983587319194083",
      "longitude": "-90.06406831034732"
    }
  },
  {
    "service_request": "2025-1159526",
    "request_type": "New Orleans Recreation Development Commission (NORDC)",
    "request_reason": "Facilities and Parks Maintenance/Clean Up",
    "date_created": "2025-01-03T20:44:18.000",
    "date_modified": "2025-01-03T20:44:24.000",
    "request_status": "Pending",
    "responsible_agency": "New Orleans Recreation Development Commission",
    "final_address": "2134 Napoleon Ave",
    "address_councildis": "B",
    "status": "Pending",
    "rowid": "1159526",
    "final_x": "3670374.32564",
    "final_y": "522869.161019",
    "longitude": "-90.10349447655561",
    "latitude": "29.932041804487213",
    "geocoded_column": {
      "latitude": "29.932041804487213",
      "longitude": "-90.10349447655561"
    }
  },
  {
    "service_request": "2025-1159525",
    "request_type": "Roads and Streets",
    "request_reason": "Abandoned Service Cut",
    "date_created": "2025-01-03T20:41:53.000",
    "date_modified": "2025-01-03T20:42:02.000",
    "request_status": "Pending",
    "responsible_agency": "Department of Public Works",
    "final_address": "3101 Jena St",
    "address_councildis": "B",
    "status": "Pending",
    "rowid": "1159525",
    "final_x": "3669952.55054",
    "final_y": "526250.123838",
    "longitude": "-90.10471153655884",
    "latitude": "29.941350802720606",
    "geocoded_column": {
      "latitude": "29.941350802720606",
      "longitude": "-90.10471153655884"
    }
  },
  {
    "service_request": "2025-1159524",
    "request_type": "Trash/Recycling",
    "request_reason": "Replace Trash Cart",
    "date_created": "2025-01-03T20:41:49.000",
    "date_modified": "2025-01-03T20:41:50.000",
    "request_status": "Pending",
    "responsible_agency": "Department of Sanitation",
    "final_address": "332 N Norman C Francis Prkwy",
    "address_councildis": "B",
    "status": "Assigned to Contractor",
    "contractor": "IV Waste",
    "rowid": "1159524",
    "final_x": "3673975.0027",
    "final_y": "537509.697416",
    "longitude": "-90.09162663341563",
    "latitude": "29.9721916690501",
    "geocoded_column": {
      "latitude": "29.9721916690501",
      "longitude": "-90.09162663341563"
    }
  },
  {
    "service_request": "2025-1159523",
    "request_type": "Abandoned Vehicles",
    "request_reason": "Abandoned/Junk Vehicles",
    "date_created": "2025-01-03T20:40:50.000",
    "date_modified": "2025-01-03T20:40:53.000",
    "request_status": "Pending",
    "responsible_agency": "Department of Public Works",
    "final_address": "833 Jourdan Ave",
    "address_councildis": "E",
    "status": "Pending",
    "rowid": "1159523",
    "final_x": "3694838.05296",
    "final_y": "533643.372933",
    "longitude": "-90.02587725055288",
    "latitude": "29.960922497115405",
    "geocoded_column": {
      "latitude": "29.960922497115405",
      "longitude": "-90.02587725055288"
    }
  },
  {
    "service_request": "2025-1159522",
    "request_type": "Abandoned Vehicles",
    "request_reason": "Abandoned/Junk Vehicles",
    "date_created": "2025-01-03T20:39:23.000",
    "date_modified": "2025-01-03T20:39:26.000",
    "request_status": "Pending",
    "responsible_agency": "Department of Public Works",
    "final_address": "4401 S Claiborne Ave",
    "address_councildis": "B",
    "status": "Pending",
    "rowid": "1159522",
    "final_x": "3670179.75175",
    "final_y": "525957.600509",
    "longitude": "-90.1040041251433",
    "latitude": "29.940539757842572",
    "geocoded_column": {
      "latitude": "29.940539757842572",
      "longitude": "-90.1040041251433"
    }
  },
  {
    "service_request": "2025-1159521",
    "request_type": "Trash/Recycling",
    "request_reason": "Repair Trash Cart",
    "date_created": "2025-01-03T20:29:50.000",
    "date_modified": "2025-01-03T20:29:51.000",
    "request_status": "Pending",
    "responsible_agency": "Department of Sanitation",
    "final_address": "1544 State St",
    "address_councildis": "A",
    "status": "Assigned to Contractor",
    "contractor": "IV Waste",
    "rowid": "1159521",
    "final_x": "3665606.7177",
    "final_y": "522201.550458",
    "longitude": "-90.11856773287175",
    "latitude": "29.93034592993008",
    "geocoded_column": {
      "latitude": "29.93034592993008",
      "longitude": "-90.11856773287175"
    }
  },
  {
    "service_request": "2025-1159520",
    "request_type": "Roads and Streets",
    "request_reason": "Pothole",
    "date_created": "2025-01-03T20:25:24.000",
    "date_modified": "2025-01-04T10:11:01.000",
    "case_close_date": "2025-01-04T04:11:01.000",
    "request_status": "Closed",
    "responsible_agency": "Department of Public Works",
    "final_address": "11300 BLK Lake Forest Blvd",
    "address_councildis": "E",
    "status": "Duplicate Request",
    "rowid": "1159520",
    "final_x": "3718158.81725",
    "final_y": "562675.487297",
    "longitude": "-89.95112969626499",
    "latitude": "30.039997218349978",
    "geocoded_column": {
      "latitude": "30.039997218349978",
      "longitude": "-89.95112969626499"
    }
  },
  {
    "service_request": "2025-1159519",
    "request_type": "Streetlights",
    "request_reason": "Streetlight Outage/Malfunction",
    "date_created": "2025-01-03T19:03:04.000",
    "date_modified": "2025-01-03T19:03:05.000",
    "request_status": "Pending",
    "responsible_agency": "Department of Public Works",
    "final_address": "705 Pelican Ave",
    "address_councildis": "C",
    "status": "Pending",
    "contractor": "Legacy Professional Services",
    "rowid": "1159519",
    "final_x": "3687622.82543",
    "final_y": "530738.074626",
    "longitude": "-90.04876437293541",
    "latitude": "29.95315833290497",
    "geocoded_column": {
      "latitude": "29.95315833290497",
      "longitude": "-90.04876437293541"
    }
  },
  {
    "service_request": "2025-1159518",
    "request_type": "Streetlights",
    "request_reason": "Streetlight Outage/Malfunction",
    "date_created": "2025-01-03T19:01:02.000",
    "date_modified": "2025-01-03T19:01:03.000",
    "request_status": "Pending",
    "responsible_agency": "Department of Public Works",
    "final_address": "305 Vallette St",
    "address_councildis": "C",
    "status": "Pending",
    "contractor": "Legacy Professional Services",
    "rowid": "1159518",
    "final_x": "3687518.14479",
    "final_y": "530729.834178",
    "longitude": "-90.04909519974422",
    "latitude": "29.95313890093693",
    "geocoded_column": {
      "latitude": "29.95313890093693",
      "longitude": "-90.04909519974422"
    }
  },
  {
    "service_request": "2025-1159517",
    "request_type": "Abandoned Vehicles",
    "request_reason": "Abandoned/Junk Vehicles",
    "date_created": "2025-01-03T18:58:43.000",
    "date_modified": "2025-01-03T18:58:46.000",
    "request_status": "Pending",
    "responsible_agency": "Department of Public Works",
    "final_address": "3809 Tchoupitoulas St",
    "address_councildis": "B",
    "status": "Pending",
    "rowid": "1159517",
    "final_x": "3673600.67803",
    "final_y": "517743.453942",
    "longitude": "-90.09348428306603",
    "latitude": "29.917852144648716",
    "geocoded_column": {
      "latitude": "29.917852144648716",
      "longitude": "-90.09348428306603"
    }
  },
  {
    "service_request": "2025-1159516",
    "request_type": "Trash/Recycling",
    "request_reason": "Order Recycling Cart",
    "date_created": "2025-01-03T18:54:10.000",
    "date_modified": "2025-01-03T18:54:15.000",
    "request_status": "Pending",
    "responsible_agency": "Department of Sanitation",
    "final_address": "1305 Milan St",
    "address_councildis": "B",
    "status": "Pending",
    "rowid": "1159516",
    "final_x": "3671727.29249",
    "final_y": "520209.107256",
    "longitude": "-90.09931372627864",
    "latitude": "29.92468751158915",
    "geocoded_column": {
      "latitude": "29.92468751158915",
      "longitude": "-90.09931372627864"
    }
  },
  {
    "service_request": "2025-1159515",
    "request_type": "Trash/Recycling",
    "request_reason": "Replace Trash Cart",
    "date_created": "2025-01-03T18:39:33.000",
    "date_modified": "2025-01-03T18:39:34.000",
    "request_status": "Pending",
    "responsible_agency": "Department of Sanitation",
    "final_address": "2217 General Pershing St",
    "address_councildis": "B",
    "status": "Assigned to Contractor",
    "contractor": "IV Waste",
    "rowid": "1159515",
    "final_x": "3671053.43886",
    "final_y": "523206.898811",
    "longitude": "-90.10133911647414",
    "latitude": "29.932950414947143",
    "geocoded_column": {
      "latitude": "29.932950414947143",
      "longitude": "-90.10133911647414"
    }
  },
  {
    "service_request": "2025-1159514",
    "request_type": "Trash/Recycling",
    "request_reason": "Missed Trash Pick-Up",
    "date_created": "2025-01-03T18:30:17.000",
    "date_modified": "2025-01-04T09:30:42.000",
    "case_close_date": "2025-01-04T03:30:42.000",
    "request_status": "Closed",
    "responsible_agency": "Department of Sanitation",
    "final_address": "3455 Camp St",
    "address_councildis": "B",
    "status": "Invalid Request",
    "contractor": "IV Waste",
    "contractor_action": "Invalid Request",
    "rowid": "1159514",
    "final_x": "3674372.18715",
    "final_y": "519806.282872",
    "longitude": "-90.09097845355465",
    "latitude": "29.923501286377128",
    "geocoded_column": {
      "latitude": "29.923501286377128",
      "longitude": "-90.09097845355465"
    }
  },
  {
    "service_request": "2025-1159513",
    "request_type": "Trash/Recycling",
    "request_reason": "Replace Trash Cart",
    "date_created": "2025-01-03T18:20:36.000",
    "date_modified": "2025-01-03T18:20:37.000",
    "request_status": "Pending",
    "responsible_agency": "Department of Sanitation",
    "final_address": "2924 Broadway St",
    "address_councildis": "B",
    "status": "Assigned to Contractor",
    "contractor": "IV Waste",
    "rowid": "1159513",
    "final_x": "3667627.94381",
    "final_y": "531817.107651",
    "longitude": "-90.11186343108133",
    "latitude": "29.956726529767614",
    "geocoded_column": {
      "latitude": "29.956726529767614",
      "longitude": "-90.11186343108133"
    }
  },
  {
    "service_request": "2025-1159512",
    "request_type": "Trash/Recycling",
    "request_reason": "Request a Large Item Pick Up",
    "date_created": "2025-01-03T18:07:12.000",
    "date_modified": "2025-01-03T18:07:12.000",
    "request_status": "Pending",
    "responsible_agency": "Department of Sanitation",
    "final_address": "6560 Catina St",
    "address_councildis": "A",
    "status": "Assigned to Contractor",
    "contractor": "IV Waste",
    "rowid": "1159512",
    "final_x": "3666941.50938",
    "final_y": "551387.277333",
    "longitude": "-90.11337304089754",
    "latitude": "30.010557977619083",
    "geocoded_column": {
      "latitude": "30.010557977619083",
      "longitude": "-90.11337304089754"
    }
  },
  {
    "service_request": "2025-1159511",
    "request_type": "Trash/Recycling",
    "request_reason": "Replace Trash Cart",
    "date_created": "2025-01-03T17:57:18.000",
    "date_modified": "2025-01-03T17:57:19.000",
    "request_status": "Pending",
    "responsible_agency": "Department of Sanitation",
    "final_address": "11362 Willow Dr",
    "address_councildis": "C",
    "status": "Assigned to Contractor",
    "contractor": "Richards Disposal",
    "rowid": "1159511",
    "final_x": "3726567.22208",
    "final_y": "514513.702003",
    "longitude": "-89.92642572034099",
    "latitude": "29.907289356083442",
    "geocoded_column": {
      "latitude": "29.907289356083442",
      "longitude": "-89.92642572034099"
    }
  },
  {
    "service_request": "2025-1159510",
    "request_type": "Trash/Recycling",
    "request_reason": "Order Recycling Cart",
    "date_created": "2025-01-03T17:46:00.000",
    "date_modified": "2025-01-03T17:46:03.000",
    "request_status": "Pending",
    "responsible_agency": "Department of Sanitation",
    "final_address": "1219 Governor Nicholls St",
    "address_councildis": "C",
    "status": "Pending",
    "rowid": "1159510",
    "final_x": "3682073.33436",
    "final_y": "535226.579142",
    "longitude": "-90.06613050290339",
    "latitude": "29.965670089303497",
    "geocoded_column": {
      "latitude": "29.965670089303497",
      "longitude": "-90.06613050290339"
    }
  },
  {
    "service_request": "2025-1159509",
    "request_type": "Trash/Recycling",
    "request_reason": "Order Recycling Cart",
    "date_created": "2025-01-03T17:44:52.000",
    "date_modified": "2025-01-03T17:44:55.000",
    "request_status": "Pending",
    "responsible_agency": "Department of Sanitation",
    "final_address": "1219 Governor Nicholls St",
    "address_councildis": "C",
    "status": "Pending",
    "rowid": "1159509",
    "final_x": "3682073.33436",
    "final_y": "535226.579142",
    "longitude": "-90.06613050290339",
    "latitude": "29.965670089303497",
    "geocoded_column": {
      "latitude": "29.965670089303497",
      "longitude": "-90.06613050290339"
    }
  },
  {
    "service_request": "2025-1159508",
    "request_type": "Trash/Recycling",
    "request_reason": "Request a Large Item Pick Up",
    "date_created": "2025-01-03T17:25:55.000",
    "date_modified": "2025-01-03T17:25:56.000",
    "request_status": "Pending",
    "responsible_agency": "Department of Sanitation",
    "final_address": "422 State St",
    "address_councildis": "A",
    "status": "Assigned to Contractor",
    "contractor": "IV Waste",
    "rowid": "1159508",
    "final_x": "3664261.60199",
    "final_y": "518046.46175",
    "longitude": "-90.12295263077425",
    "latitude": "29.918959881492093",
    "geocoded_column": {
      "latitude": "29.918959881492093",
      "longitude": "-90.12295263077425"
    }
  },
  {
    "service_request": "2025-1159507",
    "request_type": "Roads and Streets",
    "request_reason": "Street Subsidence (Sinking)",
    "date_created": "2025-01-03T17:08:14.000",
    "date_modified": "2025-01-03T17:08:16.000",
    "request_status": "Pending",
    "responsible_agency": "Department of Public Works",
    "final_address": "3301 Grand-Route St John St",
    "address_councildis": "A",
    "status": "Pending",
    "rowid": "1159507",
    "final_x": "3675632.59259",
    "final_y": "540373.920331",
    "longitude": "-90.08629323393475",
    "latitude": "29.98001780628698",
    "geocoded_column": {
      "latitude": "29.98001780628698",
      "longitude": "-90.08629323393475"
    }
  },
  {
    "service_request": "2025-1159506",
    "request_type": "Trash/Recycling",
    "request_reason": "Request a Large Item Pick Up",
    "date_created": "2025-01-03T17:03:32.000",
    "date_modified": "2025-01-03T17:03:33.000",
    "request_status": "Pending",
    "responsible_agency": "Department of Sanitation",
    "final_address": "9660 River Rd",
    "address_councildis": "C",
    "status": "Assigned to Contractor",
    "contractor": "Richards Disposal",
    "rowid": "1159506",
    "final_x": "3721065.8533",
    "final_y": "518397.886966",
    "longitude": "-89.94363976561793",
    "latitude": "29.918154061690394",
    "geocoded_column": {
      "latitude": "29.918154061690394",
      "longitude": "-89.94363976561793"
    }
  },
  {
    "service_request": "2025-1159505",
    "request_type": "Christmas Tree Recycle Pick Up",
    "request_reason": "Christmas Tree Recycle Pick Up",
    "date_created": "2025-01-03T16:58:59.000",
    "date_modified": "2025-01-03T16:59:01.000",
    "request_status": "Pending",
    "responsible_agency": "Office of Resilience and Sustainability",
    "final_address": "1538 Dublin St",
    "address_councildis": "A",
    "status": "Pending",
    "contractor": "R&R Recycling",
    "rowid": "1159505",
    "final_x": "3662591.93472",
    "final_y": "529647.607489",
    "longitude": "-90.12783768142836",
    "latitude": "29.95090775740007",
    "geocoded_column": {
      "latitude": "29.95090775740007",
      "longitude": "-90.12783768142836"
    }
  },
  {
    "service_request": "2025-1159504",
    "request_type": "Christmas Tree Recycle Pick Up",
    "request_reason": "Christmas Tree Recycle Pick Up",
    "date_created": "2025-01-03T16:57:03.000",
    "date_modified": "2025-01-03T16:57:04.000",
    "request_status": "Pending",
    "responsible_agency": "Office of Resilience and Sustainability",
    "final_address": "440 Bellaire Dr",
    "address_councildis": "A",
    "status": "Pending",
    "contractor": "R&R Recycling",
    "rowid": "1159504",
    "final_x": "3663953.37715",
    "final_y": "542738.576717",
    "longitude": "-90.12310233949216",
    "latitude": "29.986864148920667",
    "geocoded_column": {
      "latitude": "29.986864148920667",
      "longitude": "-90.12310233949216"
    }
  },
  {
    "service_request": "2025-1159503",
    "request_type": "Trash/Recycling",
    "request_reason": "Request a Large Item Pick Up",
    "date_created": "2025-01-03T16:56:59.000",
    "date_modified": "2025-01-03T16:57:00.000",
    "request_status": "Pending",
    "responsible_agency": "Department of Sanitation",
    "final_address": "10139 Seawood St",
    "address_councildis": "E",
    "status": "Assigned to Contractor",
    "contractor": "Waste Pro",
    "rowid": "1159503",
    "final_x": "3712996.3955",
    "final_y": "557491.502747",
    "longitude": "-89.96763966987905",
    "latitude": "30.02591354504789",
    "geocoded_column": {
      "latitude": "30.02591354504789",
      "longitude": "-89.96763966987905"
    }
  },