[
  {
    "service_request": "2022-872219",
    "request_type": "Trash/Recycling",
    "request_reason": "Request a Large Item Pick Up",
    "date_created": "2022-04-05T00:34:43.000",
    "date_modified": "2022-04-05T00:34:44.000",
    "request_status": "Pending",
    "responsible_agency": "Department of Sanitation",
    "final_address": "6419 Canal Blvd",
    "address_councildis": "A",
    "status": "Assigned to Contractor",
    "contractor": "Metro Disposal",
    "rowid": "872219",
    "final_x": "3668883.66138",
    "final_y": "550183.471956",
    "longitude": "-90.10727771509868",
    "latitude": "30.00719093493055",
    "geocoded_column": {
      "latitude": "30.00719093493055",
      "longitude": "-90.10727771509868"
    }
  },
  {
    "service_request": "2022-872217",
    "request_type": "Health Related Questions",
    "request_reason": "Noise Ordinance Complaint",
    "date_created": "2022-04-04T23:39:03.000",
    "date_modified": "2022-04-04T23:39:03.000",
    "request_status": "Pending",
    "responsible_agency": "Health Department",
    "final_address": "1938 Spain St, New Orleans, Louisiana, 70117",
    "address_councildis": "D",
    "status": "Pending",
    "rowid": "872217",
    "final_x": "3685831.76604",
    "final_y": "539655.321226",
    "longitude": "-90.05410540437705",
    "latitude": "29.977732759291563",
    "geocoded_column": {
      "latitude": "29.977732759291563",
      "longitude": "-90.05410540437705"
    }
  },
  {
    "service_request": "2022-872216",
    "request_type": "Roads/Drainage",
    "request_reason": "Street Subsidence (Sinking)",
    "date_created": "2022-04-04T23:30:54.000",
    "date_modified": "2022-04-04T23:30:54.000",
    "request_status": "Pending",
    "responsible_agency": "Department of Public Works",
    "final_address": "121 Royal St",
    "address_councildis": "C",
    "status": "Pending",
    "rowid": "872216",
    "final_x": "3681305.83714",
    "final_y": "530874.972994",
    "longitude": "-90.06870589664537",
    "latitude": "29.953727970747384",
    "geocoded_column": {
      "latitude": "29.953727970747384",
      "longitude": "-90.06870589664537"
    }
  },
  {
    "service_request": "2022-872215",
    "request_type": "Roads/Drainage",
    "request_reason": "Street Subsidence (Sinking)",
    "date_created": "2022-04-04T23:18:21.000",
    "date_modified": "2022-04-04T23:18:21.000",
    "request_status": "Pending",
    "responsible_agency": "Department of Public Works",
    "final_address": "121 Royal St",
    "address_councildis": "C",
    "status": "Pending",
    "rowid": "872215",
    "final_x": "3681305.83714",
    "final_y": "530874.972994",
    "longitude": "-90.06870589664537",
    "latitude": "29.953727970747384",
    "geocoded_column": {
      "latitude": "29.953727970747384",
      "longitude": "-90.06870589664537"
    }
  },
  {
    "service_request": "2022-872214",
    "request_type": "Trash/Recycling",
    "request_reason": "Missed Trash Pick-Up",
    "date_created": "2022-04-04T22:55:27.000",
    "date_modified": "2022-04-04T22:55:28.000",
    "request_status": "Pending",
    "responsible_agency": "Department of Sanitation",
    "final_address": "3011 Banks St",
    "address_councildis": "B",
    "status": "Assigned to Contractor",
    "contractor": "Richards Disposal",
    "rowid": "872214",
    "final_x": "3673570.03105",
    "final_y": "535018.804998",
    "longitude": "-90.09299075878157",
    "latitude": "29.96535461676896",
    "geocoded_column": {
      "latitude": "29.96535461676896",
      "longitude": "-90.09299075878157"
    }
  },
  {
    "service_request": "2022-872213",
    "request_type": "Roads/Drainage",
    "request_reason": "Street Subsidence (Sinking)",
    "date_created": "2022-04-04T22:17:35.000",
    "date_modified": "2022-04-04T22:17:35.000",
    "request_status": "Pending",
    "responsible_agency": "Department of Public Works",
    "final_address": "100 Royal St",
    "address_councildis": "C",
    "status": "Pending",
    "rowid": "872213",
    "final_x": "3681301.39701",
    "final_y": "530756.489858",
    "longitude": "-90.06872404570724",
    "latitude": "29.95340231693619",
    "geocoded_column": {
      "latitude": "29.95340231693619",
      "longitude": "-90.06872404570724"
    }
  },
  {
    "service_request": "2022-872212",
    "request_type": "Roads/Drainage",
    "request_reason": "Street Subsidence (Sinking)",
    "date_created": "2022-04-04T22:13:43.000",
    "date_modified": "2022-04-04T22:13:43.000",
    "request_status": "Pending",
    "responsible_agency": "Department of Public Works",
    "final_address": "100 Royal St",
    "address_councildis": "C",
    "status": "Pending",
    "rowid": "872212",
    "final_x": "3681301.39701",
    "final_y": "530756.489858",
    "longitude": "-90.06872404570724",
    "latitude": "29.95340231693619",
    "geocoded_column": {
      "latitude": "29.95340231693619",
      "longitude": "-90.06872404570724"
    }
  },
  {
    "service_request": "2022-872211",
    "request_type": "Traffic Signals/Signs/Striping/Streetlights",
    "request_reason": "Traffic Sign Missing/Damaged",
    "date_created": "2022-04-04T22:02:30.000",
    "date_modified": "2022-04-04T22:02:30.000",
    "request_status": "Pending",
    "responsible_agency": "Department of Public Works",
    "final_address": "ST CHARLES AVE & NASHVILLE AVE",
    "address_councildis": "A",
    "status": "Pending",
    "rowid": "872211",
    "final_x": "3666231.1",
    "final_y": "522124.98",
    "longitude": "-90.11659921430268",
    "latitude": "29.93011716947148",
    "geocoded_column": {
      "latitude": "29.93011716947148",
      "longitude": "-90.11659921430268"
    }
  },
  {
    "service_request": "2022-872210",
    "request_type": "Traffic Signals/Signs/Striping/Streetlights",
    "request_reason": "Street Light Outage/Malfunction",
    "date_created": "2022-04-04T21:46:46.000",
    "date_modified": "2022-04-04T21:46:46.000",
    "request_status": "Pending",
    "responsible_agency": "Department of Public Works",
    "final_address": "701 Canal St",
    "address_councildis": "C",
    "status": "Pending",
    "contractor": "Royal Engineering",
    "rowid": "872210",
    "final_x": "3681221.29013",
    "final_y": "530758.078594",
    "longitude": "-90.06897693357314",
    "latitude": "29.953409116160664",
    "geocoded_column": {
      "latitude": "29.953409116160664",
      "longitude": "-90.06897693357314"
    }
  },
  {
    "service_request": "2022-872209",
    "request_type": "Traffic Signals/Signs/Striping/Streetlights",
    "request_reason": "Street Light Outage/Malfunction",
    "date_created": "2022-04-04T21:43:11.000",
    "date_modified": "2022-04-04T21:43:12.000",
    "request_status": "Pending",
    "responsible_agency": "Department of Public Works",
    "final_address": "637 Canal St",
    "address_councildis": "C",
    "status": "Pending",
    "contractor": "Royal Engineering",
    "rowid": "872209",
    "final_x": "3681272.61999",
    "final_y": "530728.234434",
    "longitude": "-90.06881589580188",
    "latitude": "29.953325497329327",
    "geocoded_column": {
      "latitude": "29.953325497329327",
      "longitude": "-90.06881589580188"
    }
  },
  {
    "service_request": "2022-872208",
    "request_type": "Roads/Drainage",
    "request_reason": "Ditch Issue",
    "date_created": "2022-04-04T21:31:16.000",
    "date_modified": "2022-04-04T21:31:16.000",
    "request_status": "Pending",
    "responsible_agency": "Department of Public Works",
    "final_address": "1034 Tricou St",
    "address_councildis": "E",
    "status": "Pending",
    "rowid": "872208",
    "final_x": "3700036.54199",
    "final_y": "532901.775428",
    "longitude": "-90.00948856374288",
    "latitude": "29.958719242847327",
    "geocoded_column": {
      "latitude": "29.958719242847327",
      "longitude": "-90.00948856374288"
    }
  },
  {
    "service_request": "2022-872207",
    "request_type": "Traffic Signals/Signs/Striping/Streetlights",
    "request_reason": "Street Light Outage/Malfunction",
    "date_created": "2022-04-04T21:30:41.000",
    "date_modified": "2022-04-04T21:30:42.000",
    "request_status": "Pending",
    "responsible_agency": "Department of Public Works",
    "final_address": "201 St Charles Ave",
    "address_councildis": "B",
    "status": "Pending",
    "contractor": "Royal Engineering",
    "rowid": "872207",
    "final_x": "3680907.66773",
    "final_y": "530296.154625",
    "longitude": "-90.06998330034857",
    "latitude": "29.952148492948435",
    "geocoded_column": {
      "latitude": "29.952148492948435",
      "longitude": "-90.06998330034857"
    }
  },
  {
    "service_request": "2022-872206",
    "request_type": "Traffic Signals/Signs/Striping/Streetlights",
    "request_reason": "Street Light Outage/Malfunction",
    "date_created": "2022-04-04T21:27:37.000",
    "date_modified": "2022-04-04T21:27:37.000",
    "request_status": "Pending",
    "responsible_agency": "Department of Public Works",
    "final_address": "300 Camp St",
    "address_councildis": "B",
    "status": "Pending",
    "contractor": "Royal Engineering",
    "rowid": "872206",
    "final_x": "3681302.36892",
    "final_y": "529849.866369",
    "longitude": "-90.0687525706983",
    "latitude": "29.95090937896033",
    "geocoded_column": {
      "latitude": "29.95090937896033",
      "longitude": "-90.0687525706983"
    }
  },
  {
    "service_request": "2022-872205",
    "request_type": "Traffic Signals/Signs/Striping/Streetlights",
    "request_reason": "Street Light Knocked Down/Leaning",
    "date_created": "2022-04-04T21:16:50.000",
    "date_modified": "2022-04-04T21:16:50.000",
    "request_status": "Pending",
    "responsible_agency": "Department of Public Works",
    "final_address": "1500 Desire St",
    "address_councildis": "D",
    "status": "Pending",
    "contractor": "Royal Engineering",
    "rowid": "872205",
    "final_x": "3690522.84592",
    "final_y": "537235.314568",
    "longitude": "-90.0393757252989",
    "latitude": "29.97093375997609",
    "geocoded_column": {
      "latitude": "29.97093375997609",
      "longitude": "-90.0393757252989"
    }
  },
  {
    "service_request": "2022-872203",
    "request_type": "Property Maintenance",
    "request_reason": "Property Maintenance",
    "date_created": "2022-04-04T20:40:30.000",
    "date_modified": "2022-04-04T20:40:30.000",
    "request_status": "Pending",
    "responsible_agency": "Department of Code Enforcement",
    "final_address": "2632 Desire St",
    "address_councildis": "D",
    "status": "Pending",
    "rowid": "872203",
    "final_x": "3691605.34646",
    "final_y": "541639.03918",
    "longitude": "-90.03579957591631",
    "latitude": "29.983008777630307",
    "geocoded_column": {
      "latitude": "29.983008777630307",
      "longitude": "-90.03579957591631"
    }
  },
  {
    "service_request": "2022-872202",
    "request_type": "Property Maintenance",
    "request_reason": "Property Maintenance",
    "date_created": "2022-04-04T20:38:48.000",
    "date_modified": "2022-04-04T20:38:48.000",
    "request_status": "Pending",
    "responsible_agency": "Department of Code Enforcement",
    "final_address": "2632 Desire St",
    "address_councildis": "D",
    "status": "Pending",
    "rowid": "872202",
    "final_x": "3691605.34646",
    "final_y": "541639.03918",
    "longitude": "-90.03579957591631",
    "latitude": "29.983008777630307",
    "geocoded_column": {
      "latitude": "29.983008777630307",
      "longitude": "-90.03579957591631"
    }
  },
  {
    "service_request": "2022-872201",
    "request_type": "Trash/Recycling",
    "request_reason": "Request a Large Item Pick Up",
    "date_created": "2022-04-04T20:29:35.000",
    "date_modified": "2022-04-04T20:29:36.000",
    "request_status": "Pending",
    "responsible_agency": "Department of Sanitation",
    "final_address": "4917 De Montluzin St Apt A",
    "address_councildis": "D",
    "status": "Assigned to Contractor",
    "contractor": "Metro Disposal",
    "rowid": "872201",
    "final_x": "3687152.0429",
    "final_y": "551123.923349",
    "longitude": "-90.049529696786",
    "latitude": "30.00922670234433",
    "geocoded_column": {
      "latitude": "30.00922670234433",
      "longitude": "-90.049529696786"
    }
  },
  {
    "service_request": "2022-872200",
    "request_type": "Trash/Recycling",
    "request_reason": "Illegal Dumping",
    "date_created": "2022-04-04T20:24:38.000",
    "date_modified": "2022-04-04T20:24:38.000",
    "request_status": "Pending",
    "responsible_agency": "Department of Sanitation",
    "final_address": "2700 OReilly St",
    "address_councildis": "D",
    "status": "Pending",
    "rowid": "872200",
    "final_x": "3679637.73045",
    "final_y": "541553.084876",
    "longitude": "-90.07360239944236",
    "latitude": "29.98313963701774",
    "geocoded_column": {
      "latitude": "29.98313963701774",
      "longitude": "-90.07360239944236"
    }
  },
  {
    "service_request": "2022-872199",
    "request_type": "Roads/Drainage",
    "request_reason": "Catch Basin - Broken/Damage",
    "date_created": "2022-04-04T20:20:46.000",
    "date_modified": "2022-04-04T20:20:46.000",
    "request_status": "Pending",
    "responsible_agency": "Department of Public Works",
    "final_address": "1714 Paul Morphy St",
    "address_councildis": "D",
    "status": "Pending",
    "rowid": "872199",
    "final_x": "3679345.67407",
    "final_y": "541060.045196",
    "longitude": "-90.07454197162137",
    "latitude": "29.981792774933133",
    "geocoded_column": {
      "latitude": "29.981792774933133",
      "longitude": "-90.07454197162137"
    }
  },
  {
    "service_request": "2022-872198",
    "request_type": "Property Maintenance",
    "request_reason": "Property Maintenance",
    "date_created": "2022-04-04T20:15:32.000",
    "date_modified": "2022-04-04T20:15:32.000",
    "request_status": "Pending",
    "responsible_agency": "Department of Code Enforcement",
    "final_address": "2616 Desire St",
    "address_councildis": "D",
    "status": "Pending",
    "rowid": "872198",
    "final_x": "3691590.61897",
    "final_y": "541526.57198",
    "longitude": "-90.03585011507404",
    "latitude": "29.9826999916989",
    "geocoded_column": {
      "latitude": "29.9826999916989",
      "longitude": "-90.03585011507404"
    }
  },
  {
    "service_request": "2022-872196",
    "request_type": "Roads/Drainage",
    "request_reason": "Pothole",
    "date_created": "2022-04-04T20:01:44.000",
    "date_modified": "2022-04-04T20:01:44.000",
    "request_status": "Pending",
    "responsible_agency": "Department of Public Works",
    "final_address": "1619 Farragut St",
    "address_councildis": "C",
    "status": "Pending",
    "rowid": "872196",
    "final_x": "3692226.0015",
    "final_y": "525237.085245",
    "longitude": "-90.03442649916113",
    "latitude": "29.937889807810247",
    "geocoded_column": {
      "latitude": "29.937889807810247",
      "longitude": "-90.03442649916113"
    }
  },
  {
    "service_request": "2022-872195",
    "request_type": "Property Maintenance",
    "request_reason": "Property Maintenance",
    "date_created": "2022-04-04T20:00:21.000",
    "date_modified": "2022-04-04T20:00:21.000",
    "request_status": "Pending",
    "responsible_agency": "Department of Code Enforcement",
    "final_address": "2533 Desire St",
    "address_councildis": "D",
    "status": "Pending",
    "rowid": "872195",
    "final_x": "3691588.49654",
    "final_y": "541234.156236",
    "longitude": "-90.03586727685223",
    "latitude": "29.981896019231158",
    "geocoded_column": {
      "latitude": "29.981896019231158",
      "longitude": "-90.03586727685223"
    }
  },
  {
    "service_request": "2022-872194",
    "request_type": "Roads/Drainage",
    "request_reason": "Street Flooding / Drainage",
    "date_created": "2022-04-04T19:58:36.000",
    "date_modified": "2022-04-04T19:58:36.000",
    "request_status": "Pending",
    "responsible_agency": "Department of Public Works",
    "final_address": "3318 Law St Apt A",
    "address_councildis": "D",
    "status": "Pending",
    "rowid": "872194",
    "final_x": "3691352.1014",
    "final_y": "541337.519052",
    "longitude": "-90.03661022773872",
    "latitude": "29.982187588030314",
    "geocoded_column": {
      "latitude": "29.982187588030314",
      "longitude": "-90.03661022773872"
    }
  },
  {
    "service_request": "2022-872192",
    "request_type": "Property Maintenance",
    "request_reason": "Property Maintenance",
    "date_created": "2022-04-04T19:53:41.000",
    "date_modified": "2022-04-04T19:53:42.000",
    "request_status": "Pending",
    "responsible_agency": "Department of Code Enforcement",
    "final_address": "2533 Desire St",
    "address_councildis": "D",
    "status": "Pending",
    "rowid": "872192",
    "final_x": "3691588.49654",
    "final_y": "541234.156236",
    "longitude": "-90.03586727685223",
    "latitude": "29.981896019231158",
    "geocoded_column": {
      "latitude": "29.981896019231158",
      "longitude": "-90.03586727685223"
    }
  },
  {
    "service_request": "2022-872191",
    "request_type": "Traffic Signals/Signs/Striping/Streetlights",
    "request_reason": "Street Light Outage/Malfunction",
    "date_created": "2022-04-04T19:42:31.000",
    "date_modified": "2022-04-04T19:42:32.000",
    "request_status": "Pending",
    "responsible_agency": "Department of Public Works",
    "final_address": "7 Park Timbers Dr",
    "address_councildis": "C",
    "status": "Pending",
    "contractor": "Royal Engineering",
    "rowid": "872191",
    "final_x": "3699197.85271",
    "final_y": "518309.875062",
    "longitude": "-90.01266798718764",
    "latitude": "29.918623210936165",
    "geocoded_column": {
      "latitude": "29.918623210936165",
      "longitude": "-90.01266798718764"
    }
  },
  {
    "service_request": "2022-872189",
    "request_type": "Traffic Signals/Signs/Striping/Streetlights",
    "request_reason": "Street Light Outage/Malfunction",
    "date_created": "2022-04-04T19:37:30.000",
    "date_modified": "2022-04-04T19:37:31.000",
    "request_status": "Pending",
    "responsible_agency": "Department of Public Works",
    "final_address": "2 Park Timbers Dr",
    "address_councildis": "C",
    "status": "Pending",
    "contractor": "Royal Engineering",
    "rowid": "872189",
    "final_x": "3699406.97348",
    "final_y": "518414.406966",
    "longitude": "-90.0120041022768",
    "latitude": "29.9189040089332",
    "geocoded_column": {
      "latitude": "29.9189040089332",
      "longitude": "-90.0120041022768"
    }
  },
  {
    "service_request": "2022-872188",
    "request_type": "Roads/Drainage",
    "request_reason": "Street Flooding / Drainage",
    "date_created": "2022-04-04T19:32:29.000",
    "date_modified": "2022-04-04T19:32:29.000",
    "request_status": "Pending",
    "responsible_agency": "Department of Public Works",
    "final_address": "3318 Law St Apt A",
    "address_councildis": "D",
    "status": "Pending",
    "rowid": "872188",
    "final_x": "3691352.1014",
    "final_y": "541337.519052",
    "longitude": "-90.03661022773872",
    "latitude": "29.982187588030314",
    "geocoded_column": {
      "latitude": "29.982187588030314",
      "longitude": "-90.03661022773872"
    }
  },
  {
    "service_request": "2022-872187",
    "request_type": "Traffic Signals/Signs/Striping/Streetlights",
    "request_reason": "Road Surface Marking Maintenance-Parking Lane",
    "date_created": "2022-04-04T19:27:13.000",
    "date_modified": "2022-04-04T19:27:13.000",
    "request_status": "Pending",
    "responsible_agency": "Department of Public Works",
    "final_address": "600 Canal St",
    "address_councildis": "B",
    "status": "Pending",
    "rowid": "872187",
    "final_x": "3681390.76431",
    "final_y": "530409.599746",
    "longitude": "-90.06845395328503",
    "latitude": "29.952445774072807",
    "geocoded_column": {
      "latitude": "29.952445774072807",
      "longitude": "-90.06845395328503"
    }
  },
  {
    "service_request": "2022-872186",
    "request_type": "Trash/Recycling",
    "request_reason": "Request a Large Item Pick Up",
    "date_created": "2022-04-04T18:58:00.000",
    "date_modified": "2022-04-04T18:58:01.000",
    "request_status": "Pending",
    "responsible_agency": "Department of Sanitation",
    "final_address": "2320 St Ann St",
    "address_councildis": "D",
    "status": "Assigned to Contractor",
    "contractor": "Richards Disposal",
    "rowid": "872186",
    "final_x": "3678125.93147",
    "final_y": "536271.352583",
    "longitude": "-90.07856012455652",
    "latitude": "29.968662305965513",
    "geocoded_column": {
      "latitude": "29.968662305965513",
      "longitude": "-90.07856012455652"
    }
  },
  {
    "service_request": "2022-872185",
    "request_type": "Traffic Signals/Signs/Striping/Streetlights",
    "request_reason": "Street Light Outage/Malfunction",
    "date_created": "2022-04-04T18:57:32.000",
    "date_modified": "2022-04-04T18:57:32.000",
    "request_status": "Pending",
    "responsible_agency": "Department of Public Works",
    "final_address": "952 Florida Blvd",
    "address_councildis": "A",
    "status": "Pending",
    "contractor": "Royal Engineering",
    "rowid": "872185",
    "final_x": "3670225.21434",
    "final_y": "545118.073359",
    "longitude": "-90.10321116798325",
    "latitude": "29.993223311741726",
    "geocoded_column": {
      "latitude": "29.993223311741726",
      "longitude": "-90.10321116798325"
    }
  },
  {
    "service_request": "2022-872184",
    "request_type": "Trash/Recycling",
    "request_reason": "Order Recycling Cart",
    "date_created": "2022-04-04T18:54:58.000",
    "date_modified": "2022-04-04T18:54:58.000",
    "request_status": "Pending",
    "responsible_agency": "Department of Sanitation",
    "final_address": "2131 Peniston St",
    "address_councildis": "B",
    "status": "Pending",
    "rowid": "872184",
    "final_x": "3672437.17255",
    "final_y": "523124.028411",
    "longitude": "-90.09697358459724",
    "latitude": "29.932681566666528",
    "geocoded_column": {
      "latitude": "29.932681566666528",
      "longitude": "-90.09697358459724"
    }
  },
  {
    "service_request": "2022-872183",
    "request_type": "Trash/Recycling",
    "request_reason": "Request a Large Item Pick Up",
    "date_created": "2022-04-04T18:41:26.000",
    "date_modified": "2022-04-04T18:41:26.000",
    "request_status": "Pending",
    "responsible_agency": "Department of Sanitation",
    "final_address": "1614 Broadway St, New Orleans, Louisiana, 70118",
    "address_councildis": "A",
    "status": "Assigned to Contractor",
    "contractor": "Richards Disposal",
    "rowid": "872183",
    "final_x": "3664979.81588",
    "final_y": "527819.382335",
    "longitude": "-90.12035903562797",
    "latitude": "29.945811435213955",
    "geocoded_column": {
      "latitude": "29.945811435213955",
      "longitude": "-90.12035903562797"
    }
  },
  {
    "service_request": "2022-872182",
    "request_type": "Traffic Signals/Signs/Striping/Streetlights",
    "request_reason": "Street Light Outage/Malfunction",
    "date_created": "2022-04-04T18:35:26.000",
    "date_modified": "2022-04-04T18:35:27.000",
    "request_status": "Pending",
    "responsible_agency": "Department of Public Works",
    "final_address": "4743 Schindler Dr",
    "address_councildis": "E",
    "status": "Pending",
    "contractor": "Royal Engineering",
    "rowid": "872182",
    "final_x": "3714404.10392",
    "final_y": "556700.368346",
    "longitude": "-89.96322143601815",
    "latitude": "30.023692030522025",
    "geocoded_column": {
      "latitude": "30.023692030522025",
      "longitude": "-89.96322143601815"
    }
  },
  {
    "service_request": "2022-872181",
    "request_type": "Trash/Recycling",
    "request_reason": "Missed Trash Pick-Up",
    "date_created": "2022-04-04T18:31:20.000",
    "date_modified": "2022-04-04T18:31:21.000",
    "request_status": "Pending",
    "responsible_agency": "Department of Sanitation",
    "final_address": "4008 America St",
    "address_councildis": "E",
    "status": "Assigned to Contractor",
    "contractor": "Metro Disposal",
    "rowid": "872181",
    "final_x": "3700013.9297",
    "final_y": "551616.106453",
    "longitude": "-90.00887689972433",
    "latitude": "30.01017751302915",
    "geocoded_column": {
      "latitude": "30.01017751302915",
      "longitude": "-90.00887689972433"
    }
  },
  {
    "service_request": "2022-872180",
    "request_type": "Trash/Recycling",
    "request_reason": "Repair Trash Cart",
    "date_created": "2022-04-04T18:15:20.000",
    "date_modified": "2022-04-04T18:15:20.000",
    "request_status": "Pending",
    "responsible_agency": "Department of Sanitation",
    "final_address": "141 W Greenbrier Dr",
    "address_councildis": "E",
    "status": "Assigned to Contractor",
    "contractor": "Metro Disposal",
    "rowid": "872180",
    "final_x": "3717044.46808",
    "final_y": "564872.269218",
    "longitude": "-89.95456781173512",
    "latitude": "30.046074388290638",
    "geocoded_column": {
      "latitude": "30.046074388290638",
      "longitude": "-89.95456781173512"
    }
  },
  {
    "service_request": "2022-872179",
    "request_type": "Trash/Recycling",
    "request_reason": "Request a Large Item Pick Up",
    "date_created": "2022-04-04T18:15:01.000",
    "date_modified": "2022-04-04T18:15:03.000",
    "request_status": "Pending",
    "responsible_agency": "Department of Sanitation",
    "final_address": "7210 Cove Dr",
    "address_councildis": "E",
    "status": "Assigned to Contractor",
    "contractor": "Metro Disposal",
    "rowid": "872179",
    "final_x": "3700053.53424",
    "final_y": "558896.431836",
    "longitude": "-90.0084858298527",
    "latitude": "30.030194371207465",
    "geocoded_column": {
      "latitude": "30.030194371207465",
      "longitude": "-90.0084858298527"
    }
  },
  {
    "service_request": "2022-872178",
    "request_type": "Trash/Recycling",
    "request_reason": "Replace Trash Cart",
    "date_created": "2022-04-04T18:09:17.000",
    "date_modified": "2022-04-04T18:09:17.000",
    "request_status": "Pending",
    "responsible_agency": "Department of Sanitation",
    "final_address": "320 Alix St",
    "address_councildis": "C",
    "status": "Assigned to Contractor",
    "contractor": "Richards Disposal",
    "rowid": "872178",
    "final_x": "3686532.61436",
    "final_y": "530078.590081",
    "longitude": "-90.05223006039935",
    "latitude": "29.95137853746635",
    "geocoded_column": {
      "latitude": "29.95137853746635",
      "longitude": "-90.05223006039935"
    }
  },
  {
    "service_request": "2022-872177",
    "request_type": "Trash/Recycling",
    "request_reason": "Request a Large Item Pick Up",
    "date_created": "2022-04-04T18:01:39.000",
    "date_modified": "2022-04-04T18:01:39.000",
    "request_status": "Pending",
    "responsible_agency": "Department of Sanitation",
    "final_address": "320 Alix St",
    "address_councildis": "C",
    "status": "Assigned to Contractor",
    "contractor": "Richards Disposal",
    "rowid": "872177",
    "final_x": "3686532.61436",
    "final_y": "530078.590081",
    "longitude": "-90.05223006039935",
    "latitude": "29.95137853746635",
    "geocoded_column": {
      "latitude": "29.95137853746635",
      "longitude": "-90.05223006039935"
    }
  },
  {
    "service_request": "2022-872176",
    "request_type": "Traffic Signals/Signs/Striping/Streetlights",
    "request_reason": "Request for Stop Sign",
    "date_created": "2022-04-04T17:58:37.000",
    "date_modified": "2022-04-04T17:58:37.000",
    "request_status": "Pending",
    "responsible_agency": "Department of Public Works",
    "final_address": "LOWERLINE ST & HURST ST",
    "address_councildis": "A",
    "status": "Pending",
    "rowid": "872176",
    "final_x": "3661696.6",
    "final_y": "523871.28",
    "longitude": "-90.13085611342136",
    "latitude": "29.935050564954462",
    "geocoded_column": {
      "latitude": "29.935050564954462",
      "longitude": "-90.13085611342136"
    }
  },
  {
    "service_request": "2022-872175",
    "request_type": "Traffic Signals/Signs/Striping/Streetlights",
    "request_reason": "Request for Stop Sign",
    "date_created": "2022-04-04T17:56:36.000",
    "date_modified": "2022-04-04T17:56:36.000",
    "request_status": "Pending",
    "responsible_agency": "Department of Public Works",
    "final_address": "CURRAN BLVD & ROCHON AVE",
    "address_councildis": "E",
    "status": "Pending",
    "rowid": "872175",
    "final_x": "3718345.8",
    "final_y": "572069.48",
    "longitude": "-89.9501804145855",
    "latitude": "30.065820617807173",
    "geocoded_column": {
      "latitude": "30.065820617807173",
      "longitude": "-89.9501804145855"
    }
  },
  {
    "service_request": "2022-872174",
    "request_type": "Roads/Drainage",
    "request_reason": "Street Subsidence (Sinking)",
    "date_created": "2022-04-04T17:56:32.000",
    "date_modified": "2022-04-04T17:56:32.000",
    "request_status": "Pending",
    "responsible_agency": "Department of Public Works",
    "final_address": "526 Vallette St",
    "address_councildis": "C",
    "status": "Pending",
    "rowid": "872174",
    "final_x": "3687567.99535",
    "final_y": "529711.365121",
    "longitude": "-90.04897384017586",
    "latitude": "29.950336923748267",
    "geocoded_column": {
      "latitude": "29.950336923748267",
      "longitude": "-90.04897384017586"
    }
  },
  {
    "service_request": "2022-872173",
    "request_type": "Traffic Signals/Signs/Striping/Streetlights",
    "request_reason": "Street Name Sign Damaged or Missing",
    "date_created": "2022-04-04T17:56:04.000",
    "date_modified": "2022-04-04T17:56:04.000",
    "request_status": "Pending",
    "responsible_agency": "Department of Public Works",
    "final_address": "CURRAN BLVD & ROCHON AVE",
    "address_councildis": "E",
    "status": "Pending",
    "rowid": "872173",
    "final_x": "3718345.8",
    "final_y": "572069.48",
    "longitude": "-89.9501804145855",
    "latitude": "30.065820617807173",
    "geocoded_column": {
      "latitude": "30.065820617807173",
      "longitude": "-89.9501804145855"
    }
  },
  {
    "service_request": "2022-872172",
    "request_type": "Abandoned Vehicles",
    "request_reason": "Abandoned/Junk Vehicles",
    "date_created": "2022-04-04T17:52:12.000",
    "date_modified": "2022-04-04T17:52:12.000",
    "request_status": "Pending",
    "responsible_agency": "Department of Public Works",
    "final_address": "110 Ringold St",
    "address_councildis": "A",
    "status": "Pending",
    "rowid": "872172",
    "final_x": "3666700.19706",
    "final_y": "548424.351442",
    "longitude": "-90.11423503696736",
    "latitude": "30.002418023424237",
    "geocoded_column": {
      "latitude": "30.002418023424237",
      "longitude": "-90.11423503696736"
    }
  },
  {
    "service_request": "2022-872171",
    "request_type": "Trash/Recycling",
    "request_reason": "Replace Trash Cart",
    "date_created": "2022-04-04T17:51:00.000",
    "date_modified": "2022-04-04T17:51:01.000",
    "request_status": "Pending",
    "responsible_agency": "Department of Sanitation",
    "final_address": "844 Roosevelt Pl",
    "address_councildis": "A",
    "status": "Assigned to Contractor",
    "contractor": "Richards Disposal",
    "rowid": "872171",
    "final_x": "3673619.66849",
    "final_y": "539962.345867",
    "longitude": "-90.09266497134368",
    "latitude": "29.978946200503373",
    "geocoded_column": {
      "latitude": "29.978946200503373",
      "longitude": "-90.09266497134368"
    }
  },
  {
    "service_request": "2022-872170",
    "request_type": "Trash/Recycling",
    "request_reason": "Illegal Dumping",
    "date_created": "2022-04-04T17:45:15.000",
    "date_modified": "2022-04-04T17:45:15.000",
    "request_status": "Pending",
    "responsible_agency": "Department of Sanitation",
    "final_address": "6865 Mayo Rd Apt A",
    "address_councildis": "E",
    "status": "Pending",
    "rowid": "872170",
    "final_x": "3702024.98468",
    "final_y": "557685.260699",
    "longitude": "-90.00230053914015",
    "latitude": "30.026801295869802",
    "geocoded_column": {
      "latitude": "30.026801295869802",
      "longitude": "-90.00230053914015"
    }
  },
  {
    "service_request": "2022-872169",
    "request_type": "Trash/Recycling",
    "request_reason": "Request a Large Item Pick Up",
    "date_created": "2022-04-04T17:41:29.000",
    "date_modified": "2022-04-04T17:41:29.000",
    "request_status": "Pending",
    "responsible_agency": "Department of Sanitation",
    "final_address": "7933 Maple St",
    "address_councildis": "A",
    "status": "Assigned to Contractor",
    "contractor": "Richards Disposal",
    "rowid": "872169",
    "final_x": "3661420.33805",
    "final_y": "527026.15155",
    "longitude": "-90.1316238195532",
    "latitude": "29.943733431622743",
    "geocoded_column": {
      "latitude": "29.943733431622743",
      "longitude": "-90.1316238195532"
    }
  },
  {
    "service_request": "2022-872168",
    "request_type": "Trash/Recycling",
    "request_reason": "Request a Large Item Pick Up",
    "date_created": "2022-04-04T17:38:27.000",
    "date_modified": "2022-04-04T17:38:28.000",
    "request_status": "Pending",
    "responsible_agency": "Department of Sanitation",
    "final_address": "1340 Poland Ave A",
    "address_councildis": "D",
    "status": "Assigned to Contractor",
    "contractor": "Metro Disposal",
    "rowid": "872168",
    "final_x": "3693177.06685",
    "final_y": "536106.168263",
    "longitude": "-90.03103391969842",
    "latitude": "29.967746324943278",
    "geocoded_column": {
      "latitude": "29.967746324943278",
      "longitude": "-90.03103391969842"
    }
  },
  {
    "service_request": "2022-872167",
    "request_type": "Abandoned Vehicles",
    "request_reason": "Abandoned/Junk Vehicles",
    "date_created": "2022-04-04T17:30:17.000",
    "date_modified": "2022-04-04T17:30:17.000",
    "request_status": "Pending",
    "responsible_agency": "Department of Public Works",
    "final_address": "1309 S Gayoso St",
    "address_councildis": "B",
    "status": "Pending",
    "rowid": "872167",
    "final_x": "3671013.52724",
    "final_y": "531219.661698",
    "longitude": "-90.10119310593954",
    "latitude": "29.95498407999172",
    "geocoded_column": {
      "latitude": "29.95498407999172",
      "longitude": "-90.10119310593954"
    }
  },
  {
    "service_request": "2022-872166",
    "request_type": "Trash/Recycling",
    "request_reason": "Missed Trash Pick-Up",
    "date_created": "2022-04-04T17:24:08.000",
    "date_modified": "2022-04-04T17:24:09.000",
    "request_status": "Pending",
    "responsible_agency": "Department of Sanitation",
    "final_address": "2617 Banks St B",
    "address_councildis": "B",
    "status": "Assigned to Contractor",
    "contractor": "Richards Disposal",
    "rowid": "872166",
    "final_x": "3674975.37857",
    "final_y": "533958.265093",
    "longitude": "-90.08858911544719",
    "latitude": "29.962396585220525",
    "geocoded_column": {
      "latitude": "29.962396585220525",
      "longitude": "-90.08858911544719"
    }
  },
  {
    "service_request": "2022-872165",
    "request_type": "Mosquito, Termite & Rodent Control",
    "request_reason": "Rodent Complaint (Rats)",
    "date_created": "2022-04-04T17:16:44.000",
    "date_modified": "2022-04-04T17:16:45.000",
    "request_status": "Pending",
    "responsible_agency": "Mosquito, Termite & Rodent Control Board",
    "final_address": "2524 St Thomas St",
    "address_councildis": "B",
    "status": "Pending",
    "rowid": "872165",
    "final_x": "3678671.40603",
    "final_y": "519663.211",
    "longitude": "-90.07741236722671",
    "latitude": "29.922979013342065",
    "geocoded_column": {
      "latitude": "29.922979013342065",
      "longitude": "-90.07741236722671"
    }
  },
  {
    "service_request": "2022-872164",
    "request_type": "Parks & Parkways",
    "request_reason": "Request Tree Service (Right of Way/Public Property)",
    "date_created": "2022-04-04T17:16:08.000",
    "date_modified": "2022-04-04T17:16:08.000",
    "request_status": "Pending",
    "responsible_agency": "Department of Parks & Parkway",
    "final_address": "4642 Owens Blvd",
    "address_councildis": "D",
    "status": "Pending",
    "rowid": "872164",
    "final_x": "3676426.00769",
    "final_y": "549473.064467",
    "longitude": "-90.08347381897758",
    "latitude": "30.00501350441865",
    "geocoded_column": {
      "latitude": "30.00501350441865",
      "longitude": "-90.08347381897758"
    }
  },
  {
    "service_request": "2022-872163",
    "request_type": "Abandoned Vehicles",
    "request_reason": "Abandoned/Junk Vehicles",
    "date_created": "2022-04-04T17:11:38.000",
    "date_modified": "2022-04-04T17:12:45.000",
    "request_status": "Pending",
    "responsible_agency": "Department of Public Works",
    "final_address": "ANTONINE ST & LAUREL ST",
    "address_councildis": "B",
    "status": "Pending",
    "rowid": "872163",
    "final_x": "3674114.2",
    "final_y": "518501.38",
    "longitude": "-90.09183745382812",
    "latitude": "29.91992091049904",
    "geocoded_column": {
      "latitude": "29.91992091049904",
      "longitude": "-90.09183745382812"
    }
  },
  {
    "service_request": "2022-872162",
    "request_type": "Traffic Signals/Signs/Striping/Streetlights",
    "request_reason": "Street Light Outage/Malfunction",
    "date_created": "2022-04-04T17:11:32.000",
    "date_modified": "2022-04-04T17:11:33.000",
    "request_status": "Pending",
    "responsible_agency": "Department of Public Works",
    "final_address": "1209 Patterson St",
    "address_councildis": "C",
    "status": "Pending",
    "contractor": "Royal Engineering",
    "rowid": "872162",
    "final_x": "3689388.983",
    "final_y": "531216.204994",
    "longitude": "-90.04317063253121",
    "latitude": "29.954418465264524",
    "geocoded_column": {
      "latitude": "29.954418465264524",
      "longitude": "-90.04317063253121"
    }
  },
  {
    "service_request": "2022-872161",
    "request_type": "Traffic Signals/Signs/Striping/Streetlights",
    "request_reason": "Additional signage",
    "date_created": "2022-04-04T17:10:19.000",
    "date_modified": "2022-04-04T17:10:19.000",
    "request_status": "Pending",
    "responsible_agency": "Department of Public Works",
    "final_address": "CAMP ST & HARMONY ST",
    "address_councildis": "B",
    "status": "Pending",
    "rowid": "872161",
    "final_x": "3675622.6",
    "final_y": "520327.51",
    "longitude": "-90.08701346523067",
    "latitude": "29.924897155277435",
    "geocoded_column": {
      "latitude": "29.924897155277435",
      "longitude": "-90.08701346523067"
    }
  },
  {
    "service_request": "2022-872160",
    "request_type": "Trash/Recycling",
    "request_reason": "Request a Large Item Pick Up",
    "date_created": "2022-04-04T17:08:33.000",
    "date_modified": "2022-04-04T17:08:34.000",
    "request_status": "Pending",
    "responsible_agency": "Department of Sanitation",
    "final_address": "3030 Palmyra St",
    "address_councildis": "B",
    "status": "Assigned to Contractor",
    "contractor": "Richards Disposal",
    "rowid": "872160",
    "final_x": "3673605.54907",
    "final_y": "535317.30087",
    "longitude": "-90.09286838959667",
    "latitude": "29.966174322748483",
    "geocoded_column": {
      "latitude": "29.966174322748483",
      "longitude": "-90.09286838959667"
    }
  },
  {
    "service_request": "2022-872159",
    "request_type": "Abandoned Vehicles",
    "request_reason": "Abandoned/Junk Vehicles",
    "date_created": "2022-04-04T17:01:07.000",
    "date_modified": "2022-04-04T17:01:07.000",
    "request_status": "Pending",
    "responsible_agency": "Department of Public Works",
    "final_address": "7451 Restgate Rd",
    "address_councildis": "E",
    "status": "Pending",
    "rowid": "872159",
    "final_x": "3710235.8035",
    "final_y": "564089.455841",
    "longitude": "-89.97611574897103",
    "latitude": "30.04414547643445",
    "geocoded_column": {
      "latitude": "30.04414547643445",
      "longitude": "-89.97611574897103"
    }
  },
  {
    "service_request": "2022-872158",
    "request_type": "Abandoned Vehicles",
    "request_reason": "Abandoned/Junk Vehicles",
    "date_created": "2022-04-04T16:59:04.000",
    "date_modified": "2022-04-04T16:59:04.000",
    "request_status": "Pending",
    "responsible_agency": "Department of Public Works",
    "final_address": "4125 Pressburg St",
    "address_councildis": "D",
    "status": "Pending",
    "rowid": "872158",
    "final_x": "3688827.32886",
    "final_y": "555101.757721",
    "longitude": "-90.04409551222865",
    "latitude": "30.020112560371537",
    "geocoded_column": {
      "latitude": "30.020112560371537",
      "longitude": "-90.04409551222865"
    }
  },
  {
    "service_request": "2022-872157",
    "request_type": "Trash/Recycling",
    "request_reason": "Order Recycling Cart",
    "date_created": "2022-04-04T16:57:38.000",
    "date_modified": "2022-04-04T16:57:39.000",
    "request_status": "Pending",
    "responsible_agency": "Department of Sanitation",
    "final_address": "2307 General Pershing St",
    "address_councildis": "B",
    "status": "Pending",
    "rowid": "872157",
    "final_x": "3671030.26145",
    "final_y": "523467.948731",
    "longitude": "-90.10140342570051",
    "latitude": "29.933668903332077",
    "geocoded_column": {
      "latitude": "29.933668903332077",
      "longitude": "-90.10140342570051"
    }
  },
  {
    "service_request": "2022-872156",
    "request_type": "Abandoned Vehicles",
    "request_reason": "Abandoned/Junk Vehicles",
    "date_created": "2022-04-04T16:52:34.000",
    "date_modified": "2022-04-04T16:52:34.000",
    "request_status": "Pending",
    "responsible_agency": "Department of Public Works",
    "final_address": "4125 Pressburg St",
    "address_councildis": "D",
    "status": "Pending",
    "rowid": "872156",
    "final_x": "3688827.32886",
    "final_y": "555101.757721",
    "longitude": "-90.04409551222865",
    "latitude": "30.020112560371537",
    "geocoded_column": {
      "latitude": "30.020112560371537",
      "longitude": "-90.04409551222865"
    }
  },
  {
    "service_request": "2022-872155",
    "request_type": "Abandoned Vehicles",
    "request_reason": "Abandoned/Junk Vehicles",
    "date_created": "2022-04-04T16:46:48.000",
    "date_modified": "2022-04-04T16:46:48.000",
    "request_status": "Pending",
    "responsible_agency": "Department of Public Works",
    "final_address": "4429 Banks St",
    "address_councildis": "A",
    "status": "Pending",
    "rowid": "872155",
    "final_x": "3669124.90759",
    "final_y": "538409.676169",
    "longitude": "-90.10691367438089",
    "latitude": "29.974809935539053",
    "geocoded_column": {
      "latitude": "29.974809935539053",
      "longitude": "-90.10691367438089"
    }
  },
  {
    "service_request": "2022-872154",
    "request_type": "Trash/Recycling",
    "request_reason": "Missed Trash Pick-Up",
    "date_created": "2022-04-04T16:45:38.000",
    "date_modified": "2022-04-04T16:45:39.000",
    "request_status": "Pending",
    "responsible_agency": "Department of Sanitation",
    "final_address": "2400 Filmore Ave",
    "address_councildis": "D",
    "status": "Assigned to Contractor",
    "contractor": "Metro Disposal",
    "rowid": "872154",
    "final_x": "3685234.46364",
    "final_y": "552467.72591",
    "longitude": "-90.05554062793307",
    "latitude": "30.012980604678486",
    "geocoded_column": {
      "latitude": "30.012980604678486",
      "longitude": "-90.05554062793307"
    }
  },
  {
    "service_request": "2022-872153",
    "request_type": "Traffic Signals/Signs/Striping/Streetlights",
    "request_reason": "Street Light Outage/Malfunction",
    "date_created": "2022-04-04T16:43:44.000",
    "date_modified": "2022-04-04T16:43:44.000",
    "request_status": "Pending",
    "responsible_agency": "Department of Public Works",
    "final_address": "5456 Bellaire Dr",
    "address_councildis": "A",
    "status": "Pending",
    "contractor": "Royal Engineering",
    "rowid": "872153",
    "final_x": "3663963.74682",
    "final_y": "543940.44187",
    "longitude": "-90.1230294870797",
    "latitude": "29.990168570904473",
    "geocoded_column": {
      "latitude": "29.990168570904473",
      "longitude": "-90.1230294870797"
    }
  },
  {
    "service_request": "2022-872152",
    "request_type": "Trash/Recycling",
    "request_reason": "Illegal Dumping",
    "date_created": "2022-04-04T16:43:22.000",
    "date_modified": "2022-04-04T16:44:48.000",
    "request_status": "Pending",
    "responsible_agency": "Department of Sanitation",
    "final_address": "900 Poland Ave",
    "address_councildis": "C",
    "status": "Pending",
    "rowid": "872152",
    "final_x": "3692788.9535",
    "final_y": "534281.309253",
    "longitude": "-90.03232502080215",
    "latitude": "29.96274072906845",
    "geocoded_column": {
      "latitude": "29.96274072906845",
      "longitude": "-90.03232502080215"
    }
  },
  {
    "service_request": "2022-872151",
    "request_type": "Property Maintenance",
    "request_reason": "Property Maintenance",
    "date_created": "2022-04-04T16:40:14.000",
    "date_modified": "2022-04-04T16:40:14.000",
    "request_status": "Pending",
    "responsible_agency": "Department of Code Enforcement",
    "final_address": "6940 Whitmore Pl",
    "address_councildis": "E",
    "status": "Pending",
    "rowid": "872151",
    "final_x": "3719279.06418",
    "final_y": "568768.289573",
    "longitude": "-89.94735650298695",
    "latitude": "30.056712713650455",
    "geocoded_column": {
      "latitude": "30.056712713650455",
      "longitude": "-89.94735650298695"
    }
  },
  {
    "service_request": "2022-872150",
    "request_type": "Trash/Recycling",
    "request_reason": "Request a Large Item Pick Up",
    "date_created": "2022-04-04T16:38:42.000",
    "date_modified": "2022-04-04T16:38:43.000",
    "request_status": "Pending",
    "responsible_agency": "Department of Sanitation",
    "final_address": "1035 Valence St",
    "address_councildis": "B",
    "status": "Assigned to Contractor",
    "contractor": "Richards Disposal",
    "rowid": "872150",
    "final_x": "3669932.99617",
    "final_y": "519349.235255",
    "longitude": "-90.10500683238266",
    "latitude": "29.922376149001458",
    "geocoded_column": {
      "latitude": "29.922376149001458",
      "longitude": "-90.10500683238266"
    }
  },
  {
    "service_request": "2022-872149",
    "request_type": "Property Maintenance",
    "request_reason": "Property Maintenance",
    "date_created": "2022-04-04T16:37:58.000",
    "date_modified": "2022-04-04T16:37:58.000",
    "request_status": "Pending",
    "responsible_agency": "Department of Code Enforcement",
    "final_address": "5531 Oak Ridge Dr",
    "address_councildis": "E",
    "status": "Pending",
    "rowid": "872149",
    "final_x": "3724030.45151",
    "final_y": "563795.277025",
    "longitude": "-89.93253048029037",
    "latitude": "30.042880120184908",
    "geocoded_column": {
      "latitude": "30.042880120184908",
      "longitude": "-89.93253048029037"
    }
  },
  {
    "service_request": "2022-872148",
    "request_type": "Trash/Recycling",
    "request_reason": "Start Trash Service",
    "date_created": "2022-04-04T16:35:58.000",
    "date_modified": "2022-04-04T16:35:59.000",
    "request_status": "Pending",
    "responsible_agency": "Department of Sanitation",
    "final_address": "4749 Laine Ave",
    "address_councildis": "E",
    "status": "Assigned to Contractor",
    "contractor": "Metro Disposal",
    "rowid": "872148",
    "final_x": "3705744.33982",
    "final_y": "555466.449689",
    "longitude": "-89.99063001253046",
    "latitude": "30.020581105059698",
    "geocoded_column": {
      "latitude": "30.020581105059698",
      "longitude": "-89.99063001253046"
    }
  },
  {
    "service_request": "2022-872147",
    "request_type": "Trash/Recycling",
    "request_reason": "Order Trash Cart",
    "date_created": "2022-04-04T16:35:38.000",
    "date_modified": "2022-04-04T16:35:39.000",
    "request_status": "Pending",
    "responsible_agency": "Department of Sanitation",
    "final_address": "4749 Laine Ave",
    "address_councildis": "E",
    "status": "Assigned to Contractor",
    "contractor": "Metro Disposal",
    "rowid": "872147",
    "final_x": "3705744.33982",
    "final_y": "555466.449689",
    "longitude": "-89.99063001253046",
    "latitude": "30.020581105059698",
    "geocoded_column": {
      "latitude": "30.020581105059698",
      "longitude": "-89.99063001253046"
    }
  },
  {
    "service_request": "2022-872146",
    "request_type": "Roads/Drainage",
    "request_reason": "Pothole",
    "date_created": "2022-04-04T16:27:42.000",
    "date_modified": "2022-04-04T16:27:42.000",
    "request_status": "Pending",
    "responsible_agency": "Department of Public Works",
    "final_address": "1010 Common St",
    "address_councildis": "B",
    "status": "Pending",
    "rowid": "872146",
    "final_x": "3679760.32309",
    "final_y": "530892.25517",
    "longitude": "-90.07358538626872",
    "latitude": "29.95382230236132",
    "geocoded_column": {
      "latitude": "29.95382230236132",
      "longitude": "-90.07358538626872"
    }
  },
  {
    "service_request": "2022-872145",
    "request_type": "Abandoned Vehicles",
    "request_reason": "Abandoned/Junk Vehicles",
    "date_created": "2022-04-04T16:18:33.000",
    "date_modified": "2022-04-04T16:18:33.000",
    "request_status": "Pending",
    "responsible_agency": "Department of Public Works",
    "final_address": "2100 BLK Joliet St",
    "address_councildis": "A",
    "status": "Pending",
    "rowid": "872145",
    "final_x": "3663153.34065",
    "final_y": "531802.059871",
    "longitude": "-90.12599335877177",
    "latitude": "29.956815552161437",
    "geocoded_column": {
      "latitude": "29.956815552161437",
      "longitude": "-90.12599335877177"
    }
  },
  {
    "service_request": "2022-872144",
    "request_type": "Safety & Permits",
    "request_reason": "Licenses & Permits",
    "date_created": "2022-04-04T16:18:12.000",
    "date_modified": "2022-04-04T16:18:12.000",
    "request_status": "Pending",
    "responsible_agency": "Safety and Permits",
    "final_address": "3639 Tchoupitoulas St",
    "address_councildis": "B",
    "status": "Pending",
    "rowid": "872144",
    "final_x": "3674271.12232",
    "final_y": "517824.574454",
    "longitude": "-90.0913652812008",
    "latitude": "29.918055235598636",
    "geocoded_column": {
      "latitude": "29.918055235598636",
      "longitude": "-90.0913652812008"
    }
  },
  {
    "service_request": "2022-872143",
    "request_type": "Trash/Recycling",
    "request_reason": "Replace Trash Cart",
    "date_created": "2022-04-04T16:16:19.000",
    "date_modified": "2022-04-04T16:16:20.000",
    "request_status": "Pending",
    "responsible_agency": "Department of Sanitation",
    "final_address": "1014 N Robertson St",
    "address_councildis": "C",
    "status": "Assigned to Contractor",
    "contractor": "Richards Disposal",
    "rowid": "872143",
    "final_x": "3680855.82203",
    "final_y": "535335.723014",
    "longitude": "-90.06997155825611",
    "latitude": "29.966007164606612",
    "geocoded_column": {
      "latitude": "29.966007164606612",
      "longitude": "-90.06997155825611"
    }
  },
  {
    "service_request": "2022-872142",
    "request_type": "Trash/Recycling",
    "request_reason": "Order Recycling Cart",
    "date_created": "2022-04-04T16:15:31.000",
    "date_modified": "2022-04-04T16:15:31.000",
    "request_status": "Pending",
    "responsible_agency": "Department of Sanitation",
    "final_address": "8132 Hampson St",
    "address_councildis": "A",
    "status": "Pending",
    "rowid": "872142",
    "final_x": "3660591.63891",
    "final_y": "527239.374143",
    "longitude": "-90.13423321409884",
    "latitude": "29.944343597531283",
    "geocoded_column": {
      "latitude": "29.944343597531283",
      "longitude": "-90.13423321409884"
    }
  },
  {
    "service_request": "2022-872141",
    "request_type": "Property Maintenance",
    "request_reason": "Property Maintenance",
    "date_created": "2022-04-04T16:14:54.000",
    "date_modified": "2022-04-04T16:14:54.000",
    "request_status": "Pending",
    "responsible_agency": "Department of Code Enforcement",
    "final_address": "3635 Tchoupitoulas St",
    "address_councildis": "B",
    "status": "Pending",
    "rowid": "872141",
    "final_x": "3674412.92526",
    "final_y": "517882.58911",
    "longitude": "-90.0909157003082",
    "latitude": "29.918210530374967",
    "geocoded_column": {
      "latitude": "29.918210530374967",
      "longitude": "-90.0909157003082"
    }
  },
  {
    "service_request": "2022-872140",
    "request_type": "Trash/Recycling",
    "request_reason": "Order Recycling Cart",
    "date_created": "2022-04-04T16:14:33.000",
    "date_modified": "2022-04-04T16:14:33.000",
    "request_status": "Pending",
    "responsible_agency": "Department of Sanitation",
    "final_address": "8132 Hampson St",
    "address_councildis": "A",
    "status": "Pending",
    "rowid": "872140",
    "final_x": "3660591.63891",
    "final_y": "527239.374143",
    "longitude": "-90.13423321409884",
    "latitude": "29.944343597531283",
    "geocoded_column": {
      "latitude": "29.944343597531283",
      "longitude": "-90.13423321409884"
    }
  },
  {
    "service_request": "2022-872139",
    "request_type": "Trash/Recycling",
    "request_reason": "Start Trash Service",
    "date_created": "2022-04-04T16:12:34.000",
    "date_modified": "2022-04-04T16:12:35.000",
    "request_status": "Pending",
    "responsible_agency": "Department of Sanitation",
    "final_address": "8132 Hampson St",
    "address_councildis": "A",
    "status": "Assigned to Contractor",
    "contractor": "Richards Disposal",
    "rowid": "872139",
    "final_x": "3660591.63891",
    "final_y": "527239.374143",
    "longitude": "-90.13423321409884",
    "latitude": "29.944343597531283",
    "geocoded_column": {
      "latitude": "29.944343597531283",
      "longitude": "-90.13423321409884"
    }
  },
  {
    "service_request": "2022-872138",
    "request_type": "Trash/Recycling",
    "request_reason": "Replace Trash Cart",
    "date_created": "2022-04-04T16:08:10.000",
    "date_modified": "2022-04-04T16:08:11.000",
    "request_status": "Pending",
    "responsible_agency": "Department of Sanitation",
    "final_address": "2600 Dreux Ave",
    "address_councildis": "D",
    "status": "Assigned to Contractor",
    "contractor": "Metro Disposal",
    "rowid": "872138",
    "final_x": "3686753.68342",
    "final_y": "552198.446358",
    "longitude": "-90.05075024819311",
    "latitude": "30.012193513654413",
    "geocoded_column": {
      "latitude": "30.012193513654413",
      "longitude": "-90.05075024819311"
    }
  },
  {
    "service_request": "2022-872137",
    "request_type": "Trash/Recycling",
    "request_reason": "Repair Trash Cart",
    "date_created": "2022-04-04T16:06:48.000",
    "date_modified": "2022-04-04T16:06:48.000",
    "request_status": "Pending",
    "responsible_agency": "Department of Sanitation",
    "final_address": "5324 Florida Ave",
    "address_councildis": "E",
    "status": "Assigned to Contractor",
    "contractor": "Metro Disposal",
    "rowid": "872137",
    "final_x": "3698626.324",
    "final_y": "539955.894282",
    "longitude": "-90.01368510275843",
    "latitude": "29.978160263449805",
    "geocoded_column": {
      "latitude": "29.978160263449805",
      "longitude": "-90.01368510275843"
    }
  },
  {
    "service_request": "2022-872136",
    "request_type": "Trash/Recycling",
    "request_reason": "Repair Trash Cart",
    "date_created": "2022-04-04T16:02:22.000",
    "date_modified": "2022-04-04T16:02:23.000",
    "request_status": "Pending",
    "responsible_agency": "Department of Sanitation",
    "final_address": "5316 Florida Ave",
    "address_councildis": "E",
    "status": "Assigned to Contractor",
    "contractor": "Metro Disposal",
    "rowid": "872136",
    "final_x": "3698621.68919",
    "final_y": "539943.136906",
    "longitude": "-90.01370020509088",
    "latitude": "29.978125332062984",
    "geocoded_column": {
      "latitude": "29.978125332062984",
      "longitude": "-90.01370020509088"
    }
  },
  {
    "service_request": "2022-872135",
    "request_type": "Trash/Recycling",
    "request_reason": "Order Trash Cart",
    "date_created": "2022-04-04T16:01:01.000",
    "date_modified": "2022-04-04T16:01:02.000",
    "request_status": "Pending",
    "responsible_agency": "Department of Sanitation",
    "final_address": "5318 Florida Ave",
    "address_councildis": "E",
    "status": "Assigned to Contractor",
    "contractor": "Metro Disposal",
    "rowid": "872135",
    "final_x": "3698636.00804",
    "final_y": "539940.315914",
    "longitude": "-90.01365508395008",
    "latitude": "29.97811712191588",
    "geocoded_column": {
      "latitude": "29.97811712191588",
      "longitude": "-90.01365508395008"
    }
  },
  {
    "service_request": "2022-872134",
    "request_type": "Property Maintenance",
    "request_reason": "Property Maintenance",
    "date_created": "2022-04-04T15:59:38.000",
    "date_modified": "2022-04-04T15:59:38.000",
    "request_status": "Pending",
    "responsible_agency": "Department of Code Enforcement",
    "final_address": "6800 S Interstate 10 Service Rd",
    "address_councildis": "E",
    "status": "Pending",
    "rowid": "872134",
    "final_x": "3699572.72151",
    "final_y": "556889.258906",
    "longitude": "-90.01007843819505",
    "latitude": "30.02469069419991",
    "geocoded_column": {
      "latitude": "30.02469069419991",
      "longitude": "-90.01007843819505"
    }
  },
  {
    "service_request": "2022-872133",
    "request_type": "Trash/Recycling",
    "request_reason": "Order Trash Cart",
    "date_created": "2022-04-04T15:59:33.000",
    "date_modified": "2022-04-04T15:59:34.000",
    "request_status": "Pending",
    "responsible_agency": "Department of Sanitation",
    "final_address": "5326 Florida Ave",
    "address_councildis": "E",
    "status": "Assigned to Contractor",
    "contractor": "Metro Disposal",
    "rowid": "872133",
    "final_x": "3698641.41226",
    "final_y": "539950.95841",
    "longitude": "-90.01363762847632",
    "latitude": "29.97814621377848",
    "geocoded_column": {
      "latitude": "29.97814621377848",
      "longitude": "-90.01363762847632"
    }
  },
  {
    "service_request": "2022-872132",
    "request_type": "Roads/Drainage",
    "request_reason": "Pothole",
    "date_created": "2022-04-04T15:56:23.000",
    "date_modified": "2022-04-04T15:56:23.000",
    "request_status": "Pending",
    "responsible_agency": "Department of Public Works",
    "final_address": "13339 Curran Rd",
    "address_councildis": "E",
    "status": "Pending",
    "rowid": "872132",
    "final_x": "3716494.96543",
    "final_y": "570537.688487",
    "longitude": "-89.95608928319429",
    "latitude": "30.061670129141323",
    "geocoded_column": {
      "latitude": "30.061670129141323",
      "longitude": "-89.95608928319429"
    }
  },
  {
    "service_request": "2022-872131",
    "request_type": "Abandoned Vehicles",
    "request_reason": "Abandoned/Junk Vehicles",
    "date_created": "2022-04-04T15:55:37.000",
    "date_modified": "2022-04-04T15:55:37.000",
    "request_status": "Pending",
    "responsible_agency": "Department of Public Works",
    "final_address": "2700 Dauphine St",
    "address_councildis": "C",
    "status": "Pending",
    "rowid": "872131",
    "final_x": "3687145.17705",
    "final_y": "535218.97799",
    "longitude": "-90.05011412474414",
    "latitude": "29.965493984992246",
    "geocoded_column": {
      "latitude": "29.965493984992246",
      "longitude": "-90.05011412474414"
    }
  },
  {
    "service_request": "2022-872130",
    "request_type": "Traffic Signals/Signs/Striping/Streetlights",
    "request_reason": "Street Light Outage/Malfunction",
    "date_created": "2022-04-04T15:54:35.000",
    "date_modified": "2022-04-04T15:54:36.000",
    "request_status": "Pending",
    "responsible_agency": "Department of Public Works",
    "final_address": "2150 Decatur St",
    "address_councildis": "C",
    "status": "Pending",
    "contractor": "Royal Engineering",
    "rowid": "872130",
    "final_x": "3685076.80495",
    "final_y": "534104.288773",
    "longitude": "-90.05668516168677",
    "latitude": "29.962492504398558",
    "geocoded_column": {
      "latitude": "29.962492504398558",
      "longitude": "-90.05668516168677"
    }
  },
  {
    "service_request": "2022-872129",
    "request_type": "Traffic Signals/Signs/Striping/Streetlights",
    "request_reason": "Street Light Outage/Malfunction",
    "date_created": "2022-04-04T15:54:17.000",
    "date_modified": "2022-04-04T15:54:17.000",
    "request_status": "Pending",
    "responsible_agency": "Department of Public Works",
    "final_address": "2150 Decatur St",
    "address_councildis": "C",
    "status": "Pending",
    "contractor": "Royal Engineering",
    "rowid": "872129",
    "final_x": "3685076.80495",
    "final_y": "534104.288773",
    "longitude": "-90.05668516168677",
    "latitude": "29.962492504398558",
    "geocoded_column": {
      "latitude": "29.962492504398558",
      "longitude": "-90.05668516168677"
    }
  },
  {
    "service_request": "2022-872128",
    "request_type": "Trash/Recycling",
    "request_reason": "Missed Trash Pick-Up",
    "date_created": "2022-04-04T15:54:05.000",
    "date_modified": "2022-04-04T15:54:06.000",
    "request_status": "Pending",
    "responsible_agency": "Department of Sanitation",
    "final_address": "5320 Florida Ave",
    "address_councildis": "E",
    "status": "Assigned to Contractor",
    "contractor": "Metro Disposal",
    "rowid": "872128",
    "final_x": "3698649.57284",
    "final_y": "539937.185866",
    "longitude": "-90.01361235560269",
    "latitude": "29.978108085841434",
    "geocoded_column": {
      "latitude": "29.978108085841434",
      "longitude": "-90.01361235560269"
    }
  },
  {
    "service_request": "2022-872127",
    "request_type": "Traffic Signals/Signs/Striping/Streetlights",
    "request_reason": "Street Light Outage/Malfunction",
    "date_created": "2022-04-04T15:53:58.000",
    "date_modified": "2022-04-04T15:53:59.000",
    "request_status": "Pending",
    "responsible_agency": "Department of Public Works",
    "final_address": "2150 Decatur St",
    "address_councildis": "C",
    "status": "Pending",
    "contractor": "Royal Engineering",
    "rowid": "872127",
    "final_x": "3685076.80495",
    "final_y": "534104.288773",
    "longitude": "-90.05668516168677",
    "latitude": "29.962492504398558",
    "geocoded_column": {
      "latitude": "29.962492504398558",
      "longitude": "-90.05668516168677"
    }
  },
  {
    "service_request": "2022-872126",
    "request_type": "Trash/Recycling",
    "request_reason": "Illegal Dumping",
    "date_created": "2022-04-04T15:50:50.000",
    "date_modified": "2022-04-04T15:50:50.000",
    "request_status": "Pending",
    "responsible_agency": "Department of Sanitation",
    "final_address": "10400 Dwyer Rd",
    "address_councildis": "E",
    "status": "Pending",
    "rowid": "872126",
    "final_x": "3713831.71243",
    "final_y": "558044.032795",
    "longitude": "-89.9649793566166",
    "latitude": "30.02740538208144",
    "geocoded_column": {
      "latitude": "30.02740538208144",
      "longitude": "-89.9649793566166"
    }
  },
  {
    "service_request": "2022-872125",
    "request_type": "Trash/Recycling",
    "request_reason": "Dead Animal Pick Up",
    "date_created": "2022-04-04T15:49:19.000",
    "date_modified": "2022-04-04T15:49:20.000",
    "request_status": "Pending",
    "responsible_agency": "Department of Sanitation",
    "final_address": "PIETY ST & ST CLAUDE AVE",
    "address_councildis": "C",
    "status": "Assigned to Contractor",
    "contractor": "Metro Disposal",
    "rowid": "872125",
    "final_x": "3689833.3",
    "final_y": "535793.88",
    "longitude": "-90.0416047109989",
    "latitude": "29.966991714382697",
    "geocoded_column": {
      "latitude": "29.966991714382697",
      "longitude": "-90.0416047109989"
    }
  },
  {
    "service_request": "2022-872124",
    "request_type": "Abandoned Vehicles",
    "request_reason": "Abandoned/Junk Vehicles",
    "date_created": "2022-04-04T15:46:33.000",
    "date_modified": "2022-04-04T15:46:33.000",
    "request_status": "Pending",
    "responsible_agency": "Department of Public Works",
    "final_address": "AMELIA ST & CLARA ST",
    "address_councildis": "B",
    "status": "Pending",
    "rowid": "872124",
    "final_x": "3672097.8",
    "final_y": "525354.68",
    "longitude": "-90.09796903649423",
    "latitude": "29.9388252004609",
    "geocoded_column": {
      "latitude": "29.9388252004609",
      "longitude": "-90.09796903649423"
    }
  },
  {
    "service_request": "2022-872123",
    "request_type": "Traffic Signals/Signs/Striping/Streetlights",
    "request_reason": "Traffic Signal Malfunctioning/Damaged",
    "date_created": "2022-04-04T15:45:58.000",
    "date_modified": "2022-04-04T15:45:58.000",
    "request_status": "Pending",
    "responsible_agency": "Department of Public Works",
    "final_address": "2143 Simon Bolivar Ave",
    "address_councildis": "B",
    "status": "Pending",
    "rowid": "872123",
    "final_x": "3676213.01269",
    "final_y": "525599.185469",
    "longitude": "-90.08496842526203",
    "latitude": "29.939374873170387",
    "geocoded_column": {
      "latitude": "29.939374873170387",
      "longitude": "-90.08496842526203"
    }
  },
  {
    "service_request": "2022-872122",
    "request_type": "Abandoned Vehicles",
    "request_reason": "Abandoned/Junk Vehicles",
    "date_created": "2022-04-04T15:45:26.000",
    "date_modified": "2022-04-04T15:46:00.000",
    "request_status": "Pending",
    "responsible_agency": "Department of Public Works",
    "final_address": "GENERAL TAYLOR & WILLOW ST",
    "address_councildis": "B",
    "status": "Pending",
    "rowid": "872122",
    "final_x": "3671575.6",
    "final_y": "525553.58",
    "longitude": "-90.0996109233008",
    "latitude": "29.939387581170305",
    "geocoded_column": {
      "latitude": "29.939387581170305",
      "longitude": "-90.0996109233008"
    }
  },
  {
    "service_request": "2022-872121",
    "request_type": "Abandoned Vehicles",
    "request_reason": "Abandoned/Junk Vehicles",
    "date_created": "2022-04-04T15:45:13.000",
    "date_modified": "2022-04-04T15:45:13.000",
    "request_status": "Pending",
    "responsible_agency": "Department of Public Works",
    "final_address": "2535 Esplanade Ave",
    "address_councildis": "D",
    "status": "Pending",
    "rowid": "872121",
    "final_x": "3678606.41787",
    "final_y": "538743.581577",
    "longitude": "-90.07695711507003",
    "latitude": "29.975445610914935",
    "geocoded_column": {
      "latitude": "29.975445610914935",
      "longitude": "-90.07695711507003"
    }
  },
  {
    "service_request": "2022-872120",
    "request_type": "Trash/Recycling",
    "request_reason": "Start Trash Service",
    "date_created": "2022-04-04T15:44:47.000",
    "date_modified": "2022-04-04T15:44:48.000",
    "request_status": "Pending",
    "responsible_agency": "Department of Sanitation",
    "final_address": "6636 Foch Rd, New Orleans, Louisiana, 70126",
    "address_councildis": "D",
    "status": "Assigned to Contractor",
    "contractor": "Metro Disposal",
    "rowid": "872120",
    "final_x": "3696769.68586",
    "final_y": "555700.436377",
    "longitude": "-90.01897859776376",
    "latitude": "30.02151059265939",
    "geocoded_column": {
      "latitude": "30.02151059265939",
      "longitude": "-90.01897859776376"
    }
  },
  {
    "service_request": "2022-872119",
    "request_type": "Abandoned Vehicles",
    "request_reason": "Abandoned/Junk Vehicles",
    "date_created": "2022-04-04T15:44:04.000",
    "date_modified": "2022-04-04T15:44:54.000",
    "request_status": "Pending",
    "responsible_agency": "Department of Public Works",
    "final_address": "GENERAL PERSHING ST & MAGNOLIA ST",
    "address_councildis": "B",
    "status": "Pending",
    "rowid": "872119",
    "final_x": "3670859.5",
    "final_y": "524778.48",
    "longitude": "-90.1018980488933",
    "latitude": "29.937277488339",
    "geocoded_column": {
      "latitude": "29.937277488339",
      "longitude": "-90.1018980488933"
    }
  },
  {
    "service_request": "2022-872118",
    "request_type": "Trash/Recycling",
    "request_reason": "Illegal Dumping",
    "date_created": "2022-04-04T15:43:34.000",
    "date_modified": "2022-04-04T15:43:34.000",
    "request_status": "Pending",
    "responsible_agency": "Department of Sanitation",
    "final_address": "1616 St Ferdinand St",
    "address_councildis": "D",
    "status": "Pending",
    "rowid": "872118",
    "final_x": "3688155.47855",
    "final_y": "538384.842313",
    "longitude": "-90.04681139432343",
    "latitude": "29.974167853841717",
    "geocoded_column": {
      "latitude": "29.974167853841717",
      "longitude": "-90.04681139432343"
    }
  },
  {
    "service_request": "2022-872117",
    "request_type": "Traffic Signals/Signs/Striping/Streetlights",
    "request_reason": "Street Light Outage/Malfunction",
    "date_created": "2022-04-04T15:43:04.000",
    "date_modified": "2022-04-04T15:43:04.000",
    "request_status": "Pending",
    "responsible_agency": "Department of Public Works",
    "final_address": "337 Exchange Pl",
    "address_councildis": "C",
    "status": "Pending",
    "contractor": "Royal Engineering",
    "rowid": "872117",
    "final_x": "3681965.99004",
    "final_y": "531423.180547",
    "longitude": "-90.06660227378936",
    "latitude": "29.955215305365556",
    "geocoded_column": {
      "latitude": "29.955215305365556",
      "longitude": "-90.06660227378936"
    }
  },
  {
    "service_request": "2022-872116",
    "request_type": "Roads/Drainage",
    "request_reason": "Street Flooding / Drainage",
    "date_created": "2022-04-04T15:42:45.000",
    "date_modified": "2022-04-04T15:42:45.000",
    "request_status": "Pending",
    "responsible_agency": "Department of Public Works",
    "final_address": "6142 Memphis St",
    "address_councildis": "A",
    "status": "Pending",
    "rowid": "872116",
    "final_x": "3669185.34548",
    "final_y": "548205.672786",
    "longitude": "-90.10639151553698",
    "latitude": "30.001743797470894",
    "geocoded_column": {
      "latitude": "30.001743797470894",
      "longitude": "-90.10639151553698"
    }
  },
  {
    "service_request": "2022-872115",
    "request_type": "Abandoned Vehicles",
    "request_reason": "Abandoned/Junk Vehicles",
    "date_created": "2022-04-04T15:41:27.000",
    "date_modified": "2022-04-04T15:43:08.000",
    "request_status": "Pending",
    "responsible_agency": "Department of Public Works",
    "final_address": "MILAN ST & FRERET ST",
    "address_councildis": "B",
    "status": "Pending",
    "rowid": "872115",
    "final_x": "3671281.8",
    "final_y": "524119.28",
    "longitude": "-90.10058720759136",
    "latitude": "29.935452415534673",
    "geocoded_column": {
      "latitude": "29.935452415534673",
      "longitude": "-90.10058720759136"
    }
  },
  {
    "service_request": "2022-872114",
    "request_type": "Trash/Recycling",
    "request_reason": "Missed Trash Pick-Up",
    "date_created": "2022-04-04T15:41:04.000",
    "date_modified": "2022-04-04T15:41:05.000",
    "request_status": "Pending",
    "responsible_agency": "Department of Sanitation",
    "final_address": "416 S Hennessey St",
    "address_councildis": "A",
    "status": "Assigned to Contractor",
    "contractor": "Richards Disposal",
    "rowid": "872114",
    "final_x": "3669487.25486",
    "final_y": "537821.760072",
    "longitude": "-90.10578917923372",
    "latitude": "29.97318269511411",
    "geocoded_column": {
      "latitude": "29.97318269511411",
      "longitude": "-90.10578917923372"
    }
  },
  {
    "service_request": "2022-872113",
    "request_type": "Roads/Drainage",
    "request_reason": "Street Subsidence (Sinking)",
    "date_created": "2022-04-04T15:40:58.000",
    "date_modified": "2022-04-04T15:40:58.000",
    "request_status": "Pending",
    "responsible_agency": "Department of Public Works",
    "final_address": "5641 Milne St",
    "address_councildis": "A",
    "status": "Pending",
    "rowid": "872113",
    "final_x": "3666872.10721",
    "final_y": "545057.395535",
    "longitude": "-90.11380515606258",
    "latitude": "29.993155022715687",
    "geocoded_column": {
      "latitude": "29.993155022715687",
      "longitude": "-90.11380515606258"
    }
  },
  {
    "service_request": "2022-872112",
    "request_type": "Traffic Signals/Signs/Striping/Streetlights",
    "request_reason": "Traffic Signal Malfunctioning/Damaged",
    "date_created": "2022-04-04T15:37:54.000",
    "date_modified": "2022-04-04T15:37:54.000",
    "request_status": "Pending",
    "responsible_agency": "Department of Public Works",
    "final_address": "FRERET ST & STATE ST",
    "address_councildis": "A",
    "status": "Pending",
    "rowid": "872112",
    "final_x": "3666387.4",
    "final_y": "524406.68",
    "longitude": "-90.1160292768105",
    "latitude": "29.93638655348985",
    "geocoded_column": {
      "latitude": "29.93638655348985",
      "longitude": "-90.1160292768105"
    }
  },
  {
    "service_request": "2022-872111",
    "request_type": "Trash/Recycling",
    "request_reason": "Order Recycling Cart",
    "date_created": "2022-04-04T15:37:11.000",
    "date_modified": "2022-04-04T15:37:11.000",
    "request_status": "Pending",
    "responsible_agency": "Department of Sanitation",
    "final_address": "937 France St",
    "address_councildis": "C",
    "status": "Pending",
    "rowid": "872111",
    "final_x": "3692288.57814",
    "final_y": "534642.14119",
    "longitude": "-90.033892212322",
    "latitude": "29.963748502443654",
    "geocoded_column": {
      "latitude": "29.963748502443654",
      "longitude": "-90.033892212322"
    }
  },
  {
    "service_request": "2022-872110",
    "request_type": "Abandoned Vehicles",
    "request_reason": "Abandoned/Junk Vehicles",
    "date_created": "2022-04-04T15:36:04.000",
    "date_modified": "2022-04-04T15:36:04.000",
    "request_status": "Pending",
    "responsible_agency": "Department of Public Works",
    "final_address": "4122 Freret St",
    "address_councildis": "B",
    "status": "Pending",
    "rowid": "872110",
    "final_x": "3671450.05307",
    "final_y": "524099.037948",
    "longitude": "-90.10005671824025",
    "latitude": "29.93539177806693",
    "geocoded_column": {
      "latitude": "29.93539177806693",
      "longitude": "-90.10005671824025"
    }
  },
  {
    "service_request": "2022-872108",
    "request_type": "Trash/Recycling",
    "request_reason": "Request a Large Item Pick Up",
    "date_created": "2022-04-04T15:34:48.000",
    "date_modified": "2022-04-04T15:34:49.000",
    "request_status": "Pending",
    "responsible_agency": "Department of Sanitation",
    "final_address": "1422 Louisa St",
    "address_councildis": "C",
    "status": "Assigned to Contractor",
    "contractor": "Metro Disposal",
    "rowid": "872108",
    "final_x": "3689858.9574",
    "final_y": "537169.027784",
    "longitude": "-90.04147472386519",
    "latitude": "29.970772092283518",
    "geocoded_column": {
      "latitude": "29.970772092283518",
      "longitude": "-90.04147472386519"
    }
  },
  {
    "service_request": "2022-872106",
    "request_type": "Traffic Signals/Signs/Striping/Streetlights",
    "request_reason": "Street Light Outage/Malfunction",
    "date_created": "2022-04-04T15:28:32.000",
    "date_modified": "2022-04-04T15:28:33.000",
    "request_status": "Pending",
    "responsible_agency": "Department of Public Works",
    "final_address": "956 Filmore Ave",
    "address_councildis": "A",
    "status": "Pending",
    "contractor": "Royal Engineering",
    "rowid": "872106",
    "final_x": "3670739.1691",
    "final_y": "551756.985045",
    "longitude": "-90.10136219000378",
    "latitude": "30.011462819958457",
    "geocoded_column": {
      "latitude": "30.011462819958457",
      "longitude": "-90.10136219000378"
    }
  },
  {
    "service_request": "2022-872105",
    "request_type": "Trash/Recycling",
    "request_reason": "Order Recycling Cart",
    "date_created": "2022-04-04T15:28:28.000",
    "date_modified": "2022-04-04T15:28:28.000",
    "request_status": "Pending",
    "responsible_agency": "Department of Sanitation",
    "final_address": "3116 St Philip St",
    "address_councildis": "A",
    "status": "Pending",
    "rowid": "872105",
    "final_x": "3675824.29217",
    "final_y": "539022.55329",
    "longitude": "-90.08573423854467",
    "latitude": "29.97629627279455",
    "geocoded_column": {
      "latitude": "29.97629627279455",
      "longitude": "-90.08573423854467"
    }
  },
  {
    "service_request": "2022-872104",
    "request_type": "Property Maintenance",
    "request_reason": "Property Maintenance",
    "date_created": "2022-04-04T15:26:24.000",
    "date_modified": "2022-04-04T15:26:24.000",
    "request_status": "Pending",
    "responsible_agency": "Department of Code Enforcement",
    "final_address": "7527 Vanderkloot Ave",
    "address_councildis": "E",
    "status": "Pending",
    "rowid": "872104",
    "final_x": "3706108.98635",
    "final_y": "563016.9752",
    "longitude": "-89.98919798844709",
    "latitude": "30.0413303388575",
    "geocoded_column": {
      "latitude": "30.0413303388575",
      "longitude": "-89.98919798844709"
    }
  },
  {
    "service_request": "2022-872103",
    "request_type": "Trash/Recycling",
    "request_reason": "Start Trash Service",
    "date_created": "2022-04-04T15:25:57.000",
    "date_modified": "2022-04-04T15:25:58.000",
    "request_status": "Pending",
    "responsible_agency": "Department of Sanitation",
    "final_address": "2511 Mazant St",
    "address_councildis": "D",
    "status": "Assigned to Contractor",
    "contractor": "Metro Disposal",
    "rowid": "872103",
    "final_x": "3693483.38397",
    "final_y": "540590.083595",
    "longitude": "-90.0299054883195",
    "latitude": "29.980065917461296",
    "geocoded_column": {
      "latitude": "29.980065917461296",
      "longitude": "-90.0299054883195"
    }
  },
  {
    "service_request": "2022-872102",
    "request_type": "Trash/Recycling",
    "request_reason": "Order Trash Cart",
    "date_created": "2022-04-04T15:25:47.000",
    "date_modified": "2022-04-04T15:25:48.000",
    "request_status": "Pending",
    "responsible_agency": "Department of Sanitation",
    "final_address": "2511 Mazant St",
    "address_councildis": "D",
    "status": "Assigned to Contractor",
    "contractor": "Metro Disposal",
    "rowid": "872102",
    "final_x": "3693483.38397",
    "final_y": "540590.083595",
    "longitude": "-90.0299054883195",
    "latitude": "29.980065917461296",
    "geocoded_column": {
      "latitude": "29.980065917461296",
      "longitude": "-90.0299054883195"
    }
  },
  {
    "service_request": "2022-872101",
    "request_type": "Trash/Recycling",
    "request_reason": "Illegal Dumping",
    "date_created": "2022-04-04T15:24:19.000",
    "date_modified": "2022-04-04T15:24:19.000",
    "request_status": "Pending",
    "responsible_agency": "Department of Sanitation",
    "final_address": "6128 Old Gentilly Rd",
    "address_councildis": "E",
    "status": "Pending",
    "rowid": "872101",
    "final_x": "3697481.07427",
    "final_y": "550723.020117",
    "longitude": "-90.01691150091783",
    "latitude": "30.00780211741916",
    "geocoded_column": {
      "latitude": "30.00780211741916",
      "longitude": "-90.01691150091783"
    }
  },
  {
    "service_request": "2022-872100",
    "request_type": "Trash/Recycling",
    "request_reason": "Illegal Dumping",
    "date_created": "2022-04-04T15:23:17.000",
    "date_modified": "2022-04-04T15:23:17.000",
    "request_status": "Pending",
    "responsible_agency": "Department of Sanitation",
    "final_address": "6128 Old Gentilly Rd",
    "address_councildis": "E",
    "status": "Pending",
    "rowid": "872100",
    "final_x": "3697481.07427",
    "final_y": "550723.020117",
    "longitude": "-90.01691150091783",
    "latitude": "30.00780211741916",
    "geocoded_column": {
      "latitude": "30.00780211741916",
      "longitude": "-90.01691150091783"
    }
  },
  {
    "service_request": "2022-872099",
    "request_type": "Trash/Recycling",
    "request_reason": "Illegal Dumping",
    "date_created": "2022-04-04T15:22:15.000",
    "date_modified": "2022-04-04T15:22:15.000",
    "request_status": "Pending",
    "responsible_agency": "Department of Code Enforcement",
    "final_address": "ELYSIAN FIELDS AVE & I 610 W ONRAMP & HUMANITY ST",
    "address_councildis": "D",
    "status": "Pending",
    "rowid": "872099",
    "final_x": "3684284.9",
    "final_y": "544769.68",
    "longitude": "-90.05881126212158",
    "latitude": "29.991842834514927",
    "geocoded_column": {
      "latitude": "29.991842834514927",
      "longitude": "-90.05881126212158"
    }
  },
  {
    "service_request": "2022-872098",
    "request_type": "Traffic Signals/Signs/Striping/Streetlights",
    "request_reason": "Street Name Sign Damaged or Missing",
    "date_created": "2022-04-04T15:21:28.000",
    "date_modified": "2022-04-04T15:21:28.000",
    "request_status": "Pending",
    "responsible_agency": "Department of Public Works",
    "final_address": "5696 Bullard Ave",
    "address_councildis": "E",
    "status": "Pending",
    "rowid": "872098",
    "final_x": "3716827.01983",
    "final_y": "561993.640671",
    "longitude": "-89.95536446036684",
    "latitude": "30.03816652213847",
    "geocoded_column": {
      "latitude": "30.03816652213847",
      "longitude": "-89.95536446036684"
    }
  },
  {
    "service_request": "2022-872097",
    "request_type": "Trash/Recycling",
    "request_reason": "Missed Trash Pick-Up",
    "date_created": "2022-04-04T15:20:23.000",
    "date_modified": "2022-04-04T15:20:24.000",
    "request_status": "Pending",
    "responsible_agency": "Department of Sanitation",
    "final_address": "6128 Old Gentilly Rd",
    "address_councildis": "E",
    "status": "Assigned to Contractor",
    "contractor": "Metro Disposal",
    "rowid": "872097",
    "final_x": "3697481.07427",
    "final_y": "550723.020117",
    "longitude": "-90.01691150091783",
    "latitude": "30.00780211741916",
    "geocoded_column": {
      "latitude": "30.00780211741916",
      "longitude": "-90.01691150091783"
    }
  },
  {
    "service_request": "2022-872096",
    "request_type": "Trash/Recycling",
    "request_reason": "Return Recycling Cart",
    "date_created": "2022-04-04T15:19:56.000",
    "date_modified": "2022-04-04T15:19:56.000",
    "request_status": "Pending",
    "responsible_agency": "Department of Sanitation",
    "final_address": "4723 Erato St",
    "address_councildis": "B",
    "status": "Pending",
    "rowid": "872096",
    "final_x": "3669426.32705",
    "final_y": "532447.810628",
    "longitude": "-90.1061633686138",
    "latitude": "29.958407918981614",
    "geocoded_column": {
      "latitude": "29.958407918981614",
      "longitude": "-90.1061633686138"
    }
  },
  {
    "service_request": "2022-872095",
    "request_type": "Property Maintenance",
    "request_reason": "Property Maintenance",
    "date_created": "2022-04-04T15:18:41.000",
    "date_modified": "2022-04-04T15:18:41.000",
    "request_status": "Pending",
    "responsible_agency": "Department of Code Enforcement",
    "final_address": "2701 Valence St",
    "address_councildis": "B",
    "status": "Pending",
    "rowid": "872095",
    "final_x": "3669399.17998",
    "final_y": "524671.177148",
    "longitude": "-90.10651201256601",
    "latitude": "29.937025512827383",
    "geocoded_column": {
      "latitude": "29.937025512827383",
      "longitude": "-90.10651201256601"
    }
  },
  {
    "service_request": "2022-872094",
    "request_type": "Property Maintenance",
    "request_reason": "Property Maintenance",
    "date_created": "2022-04-04T15:16:49.000",
    "date_modified": "2022-04-04T15:16:49.000",
    "request_status": "Pending",
    "responsible_agency": "Department of Code Enforcement",
    "final_address": "2700 Cadiz St",
    "address_councildis": "B",
    "status": "Pending",
    "rowid": "872094",
    "final_x": "3669544.81575",
    "final_y": "524702.231868",
    "longitude": "-90.10605118091698",
    "latitude": "29.937106614974653",
    "geocoded_column": {
      "latitude": "29.937106614974653",
      "longitude": "-90.10605118091698"
    }
  },
  {
    "service_request": "2022-872093",
    "request_type": "Traffic Signals/Signs/Striping/Streetlights",
    "request_reason": "Traffic Sign Missing/Damaged",
    "date_created": "2022-04-04T15:15:20.000",
    "date_modified": "2022-04-04T15:15:20.000",
    "request_status": "Pending",
    "responsible_agency": "Department of Public Works",
    "final_address": "5710 Louis Prima Ct",
    "address_councildis": "E",
    "status": "Pending",
    "rowid": "872093",
    "final_x": "3716075.7582",
    "final_y": "561779.090975",
    "longitude": "-89.95774675287663",
    "latitude": "30.037601417252446",
    "geocoded_column": {
      "latitude": "30.037601417252446",
      "longitude": "-89.95774675287663"
    }
  },
  {
    "service_request": "2022-872092",
    "request_type": "Trash/Recycling",
    "request_reason": "Request a Large Item Pick Up",
    "date_created": "2022-04-04T15:07:47.000",
    "date_modified": "2022-04-04T15:07:48.000",
    "request_status": "Pending",
    "responsible_agency": "Department of Sanitation",
    "final_address": "4740 Pontchartrain Blvd",
    "address_councildis": "A",
    "status": "Assigned to Contractor",
    "contractor": "Richards Disposal",
    "rowid": "872092",
    "final_x": "3667471.54644",
    "final_y": "538561.125193",
    "longitude": "-90.11213032466156",
    "latitude": "29.97527492480157",
    "geocoded_column": {
      "latitude": "29.97527492480157",
      "longitude": "-90.11213032466156"
    }
  },
  {
    "service_request": "2022-872091",
    "request_type": "Traffic Signals/Signs/Striping/Streetlights",
    "request_reason": "Additional signage",
    "date_created": "2022-04-04T15:07:38.000",
    "date_modified": "2022-04-04T15:07:38.000",
    "request_status": "Pending",
    "responsible_agency": "Department of Public Works",
    "final_address": "6101 Chatham Dr",
    "address_councildis": "D",
    "status": "Pending",
    "rowid": "872091",
    "final_x": "3679634.71887",
    "final_y": "555106.195865",
    "longitude": "-90.07314111363992",
    "latitude": "30.020405955549922",
    "geocoded_column": {
      "latitude": "30.020405955549922",
      "longitude": "-90.07314111363992"
    }
  },
  {
    "service_request": "2022-872090",
    "request_type": "Trash/Recycling",
    "request_reason": "Illegal Dumping",
    "date_created": "2022-04-04T15:06:16.000",
    "date_modified": "2022-04-04T15:06:16.000",
    "request_status": "Pending",
    "responsible_agency": "Department of Code Enforcement",
    "final_address": "7826 Townsend Pl",
    "address_councildis": "D",
    "status": "Pending",
    "rowid": "872090",
    "final_x": "3693609.37801",
    "final_y": "558744.842204",
    "longitude": "-90.02885476031885",
    "latitude": "30.02998085440982",
    "geocoded_column": {
      "latitude": "30.02998085440982",
      "longitude": "-90.02885476031885"
    }
  },
  {
    "service_request": "2022-872088",
    "request_type": "Property Maintenance",
    "request_reason": "Property Maintenance",
    "date_created": "2022-04-04T15:05:20.000",
    "date_modified": "2022-04-04T15:05:20.000",
    "request_status": "Pending",
    "responsible_agency": "Department of Code Enforcement",
    "final_address": "8513 Oak St",
    "address_councildis": "A",
    "status": "Pending",
    "rowid": "872088",
    "final_x": "3660831.10944",
    "final_y": "529457.776705",
    "longitude": "-90.13340378503773",
    "latitude": "29.95043660367284",
    "geocoded_column": {
      "latitude": "29.95043660367284",
      "longitude": "-90.13340378503773"
    }
  },
  {
    "service_request": "2022-872087",
    "request_type": "Abandoned Vehicles",
    "request_reason": "Abandoned/Junk Vehicles",
    "date_created": "2022-04-04T15:00:49.000",
    "date_modified": "2022-04-04T15:00:49.000",
    "request_status": "Pending",
    "responsible_agency": "Department of Public Works",
    "final_address": "1809 Aubry St",
    "address_councildis": "D",
    "status": "Pending",
    "rowid": "872087",
    "final_x": "3682224.68725",
    "final_y": "539178.27873",
    "longitude": "-90.06551445893541",
    "latitude": "29.97653129343056",
    "geocoded_column": {
      "latitude": "29.97653129343056",
      "longitude": "-90.06551445893541"
    }
  },
  {
    "service_request": "2022-872086",
    "request_type": "Abandoned Vehicles",
    "request_reason": "Abandoned/Junk Vehicles",
    "date_created": "2022-04-04T14:58:43.000",
    "date_modified": "2022-04-04T14:58:43.000",
    "request_status": "Pending",
    "responsible_agency": "Department of Public Works",
    "final_address": "316 Leboeuf St",
    "address_councildis": "C",
    "status": "Pending",
    "rowid": "872086",
    "final_x": "3689929.06582",
    "final_y": "530520.502466",
    "longitude": "-90.04149003609817",
    "latitude": "29.952488791671087",
    "geocoded_column": {
      "latitude": "29.952488791671087",
      "longitude": "-90.04149003609817"
    }
  },
  {
    "service_request": "2022-872085",
    "request_type": "Traffic Signals/Signs/Striping/Streetlights",
    "request_reason": "Traffic Signal Malfunctioning/Damaged",
    "date_created": "2022-04-04T14:55:56.000",
    "date_modified": "2022-04-04T14:55:56.000",
    "request_status": "Pending",
    "responsible_agency": "Department of Public Works",
    "final_address": "ORETHA CASTLE HALEY BLVD & DRYADES ST & CALLIOPE ST",
    "address_councildis": "B",
    "status": "Pending",
    "rowid": "872085",
    "final_x": "3678705.21",
    "final_y": "527297.49",
    "longitude": "-90.07704144738564",
    "latitude": "29.943969753650155",
    "geocoded_column": {
      "latitude": "29.943969753650155",
      "longitude": "-90.07704144738564"
    }
  },
  {
    "service_request": "2022-872084",
    "request_type": "Abandoned Vehicles",
    "request_reason": "Abandoned/Junk Vehicles",
    "date_created": "2022-04-04T14:55:37.000",
    "date_modified": "2022-04-04T14:55:37.000",
    "request_status": "Pending",
    "responsible_agency": "Department of Public Works",
    "final_address": "1453 N Miro St",
    "address_councildis": "D",
    "status": "Pending",
    "rowid": "872084",
    "final_x": "3679863.43925",
    "final_y": "538319.391945",
    "longitude": "-90.07300183702625",
    "latitude": "29.97424127800173",
    "geocoded_column": {
      "latitude": "29.97424127800173",
      "longitude": "-90.07300183702625"
    }
  },
  {
    "service_request": "2022-872082",
    "request_type": "Trash/Recycling",
    "request_reason": "Replace Trash Cart",
    "date_created": "2022-04-04T14:53:11.000",
    "date_modified": "2022-04-04T14:53:13.000",
    "request_status": "Pending",
    "responsible_agency": "Department of Sanitation",
    "final_address": "4205 Vincennes Pl",
    "address_councildis": "B",
    "status": "Assigned to Contractor",
    "contractor": "Richards Disposal",
    "rowid": "872082",
    "final_x": "3668767.04289",
    "final_y": "531193.027778",
    "longitude": "-90.10828757944354",
    "latitude": "29.954977077372938",
    "geocoded_column": {
      "latitude": "29.954977077372938",
      "longitude": "-90.10828757944354"
    }
  },
  {
    "service_request": "2022-872081",
    "request_type": "Trash/Recycling",
    "request_reason": "Repair Trash Cart",
    "date_created": "2022-04-04T14:49:50.000",
    "date_modified": "2022-04-04T14:49:51.000",
    "request_status": "Pending",
    "responsible_agency": "Department of Sanitation",
    "final_address": "5531 Coliseum St",
    "address_councildis": "A",
    "status": "Assigned to Contractor",
    "contractor": "Richards Disposal",
    "rowid": "872081",
    "final_x": "3666424.61319",
    "final_y": "519978.471928",
    "longitude": "-90.1160603085296",
    "latitude": "29.924209299363984",
    "geocoded_column": {
      "latitude": "29.924209299363984",
      "longitude": "-90.1160603085296"
    }
  },
  {
    "service_request": "2022-872080",
    "request_type": "Roads/Drainage",
    "request_reason": "Pothole",
    "date_created": "2022-04-04T14:47:31.000",
    "date_modified": "2022-04-04T14:47:31.000",
    "request_status": "Pending",
    "responsible_agency": "Department of Public Works",
    "final_address": "2 Gannon Rd",
    "address_councildis": "E",
    "status": "Pending",
    "rowid": "872080",
    "final_x": "3716058.77957",
    "final_y": "570534.616167",
    "longitude": "-89.95746816849034",
    "latitude": "30.061676089794005",
    "geocoded_column": {
      "latitude": "30.061676089794005",
      "longitude": "-89.95746816849034"
    }
  },
  {
    "service_request": "2022-872079",
    "request_type": "Roads/Drainage",
    "request_reason": "Pothole",
    "date_created": "2022-04-04T14:44:18.000",
    "date_modified": "2022-04-04T14:44:18.000",
    "request_status": "Pending",
    "responsible_agency": "Department of Public Works",
    "final_address": "7606 Briarwood Dr",
    "address_councildis": "E",
    "status": "Pending",
    "rowid": "872079",
    "final_x": "3717569.42399",
    "final_y": "570666.208999",
    "longitude": "-89.95268806288345",
    "latitude": "30.06198795357779",
    "geocoded_column": {
      "latitude": "30.06198795357779",
      "longitude": "-89.95268806288345"
    }
  },
  {
    "service_request": "2022-872078",
    "request_type": "Trash/Recycling",
    "request_reason": "Illegal Dumping",
    "date_created": "2022-04-04T14:43:07.000",
    "date_modified": "2022-04-04T14:43:07.000",
    "request_status": "Pending",
    "responsible_agency": "Department of Code Enforcement",
    "final_address": "WASHINGTON AVE & S JOHNSON ST",
    "address_councildis": "B",
    "status": "Pending",
    "rowid": "872078",
    "final_x": "3672395.6",
    "final_y": "527860.58",
    "longitude": "-90.09694348039008",
    "latitude": "29.945706775502906",
    "geocoded_column": {
      "latitude": "29.945706775502906",
      "longitude": "-90.09694348039008"
    }
  },
  {
    "service_request": "2022-872077",
    "request_type": "Trash/Recycling",
    "request_reason": "Illegal Dumping",
    "date_created": "2022-04-04T14:41:37.000",
    "date_modified": "2022-04-04T14:41:37.000",
    "request_status": "Pending",
    "responsible_agency": "Department of Sanitation",
    "final_address": "3RD ST & S JOHNSON ST",
    "address_councildis": "B",
    "status": "Pending",
    "rowid": "872077",
    "final_x": "3672912.2",
    "final_y": "528205.78",
    "longitude": "-90.09530062449667",
    "latitude": "29.946640624705495",
    "geocoded_column": {
      "latitude": "29.946640624705495",
      "longitude": "-90.09530062449667"
    }
  },
  {
    "service_request": "2022-872075",
    "request_type": "Property Maintenance",
    "request_reason": "Property Maintenance",
    "date_created": "2022-04-04T14:33:47.000",
    "date_modified": "2022-04-04T14:33:47.000",
    "request_status": "Pending",
    "responsible_agency": "Department of Code Enforcement",
    "final_address": "3947 Louisiana Avenue Prkwy",
    "address_councildis": "B",
    "status": "Pending",
    "rowid": "872075",
    "final_x": "3671117.00091",
    "final_y": "529386.701697",
    "longitude": "-90.10092862474085",
    "latitude": "29.94994098379869",
    "geocoded_column": {
      "latitude": "29.94994098379869",
      "longitude": "-90.10092862474085"
    }
  },
  {
    "service_request": "2022-872074",
    "request_type": "Trash/Recycling",
    "request_reason": "Replace Recycling Cart",
    "date_created": "2022-04-04T14:33:01.000",
    "date_modified": "2022-04-04T14:33:01.000",
    "request_status": "Pending",
    "responsible_agency": "Department of Sanitation",
    "final_address": "1816 Bartholomew St, New Orleans, Louisiana, 70117",
    "address_councildis": "D",
    "status": "Pending",
    "rowid": "872074",
    "final_x": "3692447.57097",
    "final_y": "538099.083337",
    "longitude": "-90.03326627058803",
    "latitude": "29.97324891282376",
    "geocoded_column": {
      "latitude": "29.97324891282376",
      "longitude": "-90.03326627058803"
    }
  },
  {
    "service_request": "2022-872073",
    "request_type": "Trash/Recycling",
    "request_reason": "Illegal Dumping",
    "date_created": "2022-04-04T14:25:54.000",
    "date_modified": "2022-04-04T14:25:54.000",
    "request_status": "Pending",
    "responsible_agency": "Department of Sanitation",
    "final_address": "3820 Fourth St",
    "address_councildis": "B",
    "status": "Pending",
    "rowid": "872073",
    "final_x": "3671822.7906",
    "final_y": "529252.082945",
    "longitude": "-90.09870469406711",
    "latitude": "29.949549934645844",
    "geocoded_column": {
      "latitude": "29.949549934645844",
      "longitude": "-90.09870469406711"
    }
  },
  {
    "service_request": "2022-872072",
    "request_type": "Trash/Recycling",
    "request_reason": "Request a Large Item Pick Up",
    "date_created": "2022-04-04T14:24:35.000",
    "date_modified": "2022-04-04T14:24:36.000",
    "request_status": "Pending",
    "responsible_agency": "Department of Sanitation",
    "final_address": "8841 Bunker Hill Rd",
    "address_councildis": "E",
    "status": "Assigned to Contractor",
    "contractor": "Metro Disposal",
    "rowid": "872072",
    "final_x": "3705661.96183",
    "final_y": "561524.656991",
    "longitude": "-89.99066599815187",
    "latitude": "30.037241464281987",
    "geocoded_column": {
      "latitude": "30.037241464281987",
      "longitude": "-89.99066599815187"
    }
  },
  {
    "service_request": "2022-872071",
    "request_type": "Trash/Recycling",
    "request_reason": "Illegal Dumping",
    "date_created": "2022-04-04T14:23:51.000",
    "date_modified": "2022-04-04T14:23:51.000",
    "request_status": "Pending",
    "responsible_agency": "Department of Sanitation",
    "final_address": "2701 S Rocheblave St",
    "address_councildis": "B",
    "status": "Pending",
    "rowid": "872071",
    "final_x": "3671896.4539",
    "final_y": "529126.347072",
    "longitude": "-90.09847638371197",
    "latitude": "29.949202019687196",
    "geocoded_column": {
      "latitude": "29.949202019687196",
      "longitude": "-90.09847638371197"
    }
  },