[
  {
    "service_request": "2022-917284",
    "request_type": "Trash/Recycling",
    "request_reason": "Order Recycling Cart",
    "date_created": "2022-09-08T00:57:28.000",
    "date_modified": "2022-09-08T00:57:28.000",
    "request_status": "Pending",
    "responsible_agency": "Department of Sanitation",
    "final_address": "5130 Timber Crest Dr",
    "address_councildis": "C",
    "status": "Pending",
    "rowid": "917284",
    "final_x": "3703163.9402",
    "final_y": "511260.11064",
    "longitude": "-90.00040808504998",
    "latitude": "29.899112471911085",
    "geocoded_column": {
      "latitude": "29.899112471911085",
      "longitude": "-90.00040808504998"
    }
  },
  {
    "service_request": "2022-917283",
    "request_type": "Trash/Recycling",
    "request_reason": "Missed Trash Pick-Up",
    "date_created": "2022-09-07T22:35:22.000",
    "date_modified": "2022-09-07T22:35:22.000",
    "request_status": "Pending",
    "responsible_agency": "Department of Sanitation",
    "final_address": "2200 Soniat St",
    "address_councildis": "B",
    "status": "Assigned to Contractor",
    "contractor": "Richards Disposal",
    "rowid": "917283",
    "final_x": "3668445.44948",
    "final_y": "523611.371195",
    "longitude": "-90.10955873683822",
    "latitude": "29.934139429919075",
    "geocoded_column": {
      "latitude": "29.934139429919075",
      "longitude": "-90.10955873683822"
    }
  },
  {
    "service_request": "2022-917281",
    "request_type": "Roads/Drainage",
    "request_reason": "Catch Basin - Clogged",
    "date_created": "2022-09-07T22:23:30.000",
    "date_modified": "2022-09-07T22:23:30.000",
    "request_status": "Pending",
    "responsible_agency": "Department of Public Works",
    "final_address": "2308 Gravier St",
    "address_councildis": "B",
    "status": "Pending",
    "rowid": "917281",
    "final_x": "3675419.42465",
    "final_y": "532550.951812",
    "longitude": "-90.08723520868648",
    "latitude": "29.958513675345614",
    "geocoded_column": {
      "latitude": "29.958513675345614",
      "longitude": "-90.08723520868648"
    }
  },
  {
    "service_request": "2022-917280",
    "request_type": "Roads/Drainage",
    "request_reason": "Catch Basin - Clogged",
    "date_created": "2022-09-07T22:22:01.000",
    "date_modified": "2022-09-07T22:22:02.000",
    "request_status": "Pending",
    "responsible_agency": "Department of Public Works",
    "final_address": "3011 Iberville St",
    "address_councildis": "B",
    "status": "Pending",
    "rowid": "917280",
    "final_x": "3674570.74689",
    "final_y": "536345.087559",
    "longitude": "-90.08978508706714",
    "latitude": "29.96897162210797",
    "geocoded_column": {
      "latitude": "29.96897162210797",
      "longitude": "-90.08978508706714"
    }
  },
  {
    "service_request": "2022-917279",
    "request_type": "Trash/Recycling",
    "request_reason": "Order Trash Cart",
    "date_created": "2022-09-07T22:11:32.000",
    "date_modified": "2022-09-07T22:11:32.000",
    "request_status": "Pending",
    "responsible_agency": "Department of Sanitation",
    "final_address": "2710 Potomac St",
    "address_councildis": "C",
    "status": "Assigned to Contractor",
    "contractor": "Richards Disposal",
    "rowid": "917279",
    "final_x": "3692480.41456",
    "final_y": "519873.31436",
    "longitude": "-90.03381534904787",
    "latitude": "29.92313332419775",
    "geocoded_column": {
      "latitude": "29.92313332419775",
      "longitude": "-90.03381534904787"
    }
  },
  {
    "service_request": "2022-917277",
    "request_type": "Property Maintenance",
    "request_reason": "Property Maintenance",
    "date_created": "2022-09-07T21:57:31.000",
    "date_modified": "2022-09-07T21:57:31.000",
    "request_status": "Pending",
    "responsible_agency": "Department of Code Enforcement",
    "final_address": "4836 Deanne St",
    "address_councildis": "D",
    "status": "Pending",
    "rowid": "917277",
    "final_x": "3696446.03203",
    "final_y": "554610.30812",
    "longitude": "-90.02004072987313",
    "latitude": "30.018523356466634",
    "geocoded_column": {
      "latitude": "30.018523356466634",
      "longitude": "-90.02004072987313"
    }
  },
  {
    "service_request": "2022-917276",
    "request_type": "Traffic Signals/Signs/Striping/Streetlights",
    "request_reason": "Street Light Outage/Malfunction",
    "date_created": "2022-09-07T21:47:05.000",
    "date_modified": "2022-09-07T21:47:06.000",
    "request_status": "Pending",
    "responsible_agency": "Department of Public Works",
    "final_address": "6515 Wuerpel St",
    "address_councildis": "A",
    "status": "Pending",
    "contractor": "Legacy Professional Services",
    "rowid": "917276",
    "final_x": "3667132.16513",
    "final_y": "551004.183445",
    "longitude": "-90.11278357673909",
    "latitude": "30.009499020445286",
    "geocoded_column": {
      "latitude": "30.009499020445286",
      "longitude": "-90.11278357673909"
    }
  },
  {
    "service_request": "2022-917275",
    "request_type": "Trash/Recycling",
    "request_reason": "Request a Large Item Pick Up",
    "date_created": "2022-09-07T21:40:34.000",
    "date_modified": "2022-09-07T21:40:35.000",
    "request_status": "Pending",
    "responsible_agency": "Department of Sanitation",
    "final_address": "4919 S Robertson St",
    "address_councildis": "B",
    "status": "Assigned to Contractor",
    "contractor": "Richards Disposal",
    "rowid": "917275",
    "final_x": "3669010.70305",
    "final_y": "524294.154044",
    "longitude": "-90.10775119075251",
    "latitude": "29.936000251623216",
    "geocoded_column": {
      "latitude": "29.936000251623216",
      "longitude": "-90.10775119075251"
    }
  },
  {
    "service_request": "2022-917274",
    "request_type": "Trash/Recycling",
    "request_reason": "Missed Trash Pick-Up",
    "date_created": "2022-09-07T21:27:55.000",
    "date_modified": "2022-09-07T21:27:55.000",
    "request_status": "Pending",
    "responsible_agency": "Department of Sanitation",
    "final_address": "329 Lowerline St",
    "address_councildis": "A",
    "status": "Assigned to Contractor",
    "contractor": "Richards Disposal",
    "rowid": "917274",
    "final_x": "3661536.41658",
    "final_y": "523552.803195",
    "longitude": "-90.13137236076453",
    "latitude": "29.93417947531416",
    "geocoded_column": {
      "latitude": "29.93417947531416",
      "longitude": "-90.13137236076453"
    }
  },
  {
    "service_request": "2022-917273",
    "request_type": "Traffic Signals/Signs/Striping/Streetlights",
    "request_reason": "Street Light Outage/Malfunction",
    "date_created": "2022-09-07T21:21:28.000",
    "date_modified": "2022-09-07T21:21:29.000",
    "request_status": "Pending",
    "responsible_agency": "Department of Public Works",
    "final_address": "136 14Th St",
    "address_councildis": "A",
    "status": "Pending",
    "contractor": "Legacy Professional Services",
    "rowid": "917273",
    "final_x": "3665771.53312",
    "final_y": "548051.551698",
    "longitude": "-90.11718131434154",
    "latitude": "30.001420087537984",
    "geocoded_column": {
      "latitude": "30.001420087537984",
      "longitude": "-90.11718131434154"
    }
  },
  {
    "service_request": "2022-917272",
    "request_type": "Trash/Recycling",
    "request_reason": "Missed Trash Pick-Up",
    "date_created": "2022-09-07T21:19:39.000",
    "date_modified": "2022-09-07T21:19:39.000",
    "request_status": "Pending",
    "responsible_agency": "Department of Sanitation",
    "final_address": "6325 S Robertson St",
    "address_councildis": "A",
    "status": "Assigned to Contractor",
    "contractor": "Richards Disposal",
    "rowid": "917272",
    "final_x": "3665587.74471",
    "final_y": "525193.649533",
    "longitude": "-90.11852748677317",
    "latitude": "29.93857380347427",
    "geocoded_column": {
      "latitude": "29.93857380347427",
      "longitude": "-90.11852748677317"
    }
  },
  {
    "service_request": "2022-917271",
    "request_type": "Mosquito, Termite & Rodent Control",
    "request_reason": "Rodent Complaint (Rats)",
    "date_created": "2022-09-07T21:17:10.000",
    "date_modified": "2022-09-07T21:17:10.000",
    "request_status": "Pending",
    "responsible_agency": "Mosquito, Termite & Rodent Control Board",
    "final_address": "6325 S Robertson St",
    "address_councildis": "A",
    "status": "Pending",
    "rowid": "917271",
    "final_x": "3665587.74471",
    "final_y": "525193.649533",
    "longitude": "-90.11852748677317",
    "latitude": "29.93857380347427",
    "geocoded_column": {
      "latitude": "29.93857380347427",
      "longitude": "-90.11852748677317"
    }
  },
  {
    "service_request": "2022-917269",
    "request_type": "Trash/Recycling",
    "request_reason": "Missed Trash Pick-Up",
    "date_created": "2022-09-07T20:14:28.000",
    "date_modified": "2022-09-07T20:14:29.000",
    "request_status": "Pending",
    "responsible_agency": "Department of Sanitation",
    "final_address": "2124 Burgundy St",
    "address_councildis": "C",
    "status": "Assigned to Contractor",
    "contractor": "Metro Disposal",
    "rowid": "917269",
    "final_x": "3684875.93609",
    "final_y": "535540.749062",
    "longitude": "-90.05726895990139",
    "latitude": "29.96644842625025",
    "geocoded_column": {
      "latitude": "29.96644842625025",
      "longitude": "-90.05726895990139"
    }
  },
  {
    "service_request": "2022-917268",
    "request_type": "Trash/Recycling",
    "request_reason": "MIssed Recycling Pick-Up",
    "date_created": "2022-09-07T20:01:44.000",
    "date_modified": "2022-09-07T20:01:45.000",
    "request_status": "Pending",
    "responsible_agency": "Department of Sanitation",
    "final_address": "318 S Salcedo St",
    "address_councildis": "B",
    "status": "Assigned to Contractor",
    "contractor": "Richards Disposal",
    "rowid": "917268",
    "final_x": "3673519.22542",
    "final_y": "535241.672774",
    "longitude": "-90.09314358321045",
    "latitude": "29.96596894027778",
    "geocoded_column": {
      "latitude": "29.96596894027778",
      "longitude": "-90.09314358321045"
    }
  },
  {
    "service_request": "2022-917267",
    "request_type": "Property Maintenance",
    "request_reason": "Property Maintenance",
    "date_created": "2022-09-07T20:00:40.000",
    "date_modified": "2022-09-07T20:00:40.000",
    "request_status": "Pending",
    "responsible_agency": "Department of Code Enforcement",
    "final_address": "3628 Louisa St",
    "address_councildis": "D",
    "status": "Pending",
    "rowid": "917267",
    "final_x": "3691839.63452",
    "final_y": "545801.448592",
    "longitude": "-90.03491060069447",
    "latitude": "29.994446603634767",
    "geocoded_column": {
      "latitude": "29.994446603634767",
      "longitude": "-90.03491060069447"
    }
  },
  {
    "service_request": "2022-917266",
    "request_type": "Trash/Recycling",
    "request_reason": "Return Trash Cart",
    "date_created": "2022-09-07T19:53:28.000",
    "date_modified": "2022-09-07T19:53:29.000",
    "request_status": "Pending",
    "responsible_agency": "Department of Sanitation",
    "final_address": "734 Dumaine St",
    "address_councildis": "C",
    "status": "Assigned to Contractor",
    "contractor": "Empire Services",
    "rowid": "917266",
    "final_x": "3682752.65698",
    "final_y": "533195.813636",
    "longitude": "-90.06405626959247",
    "latitude": "29.960065505729947",
    "geocoded_column": {
      "latitude": "29.960065505729947",
      "longitude": "-90.06405626959247"
    }
  },
  {
    "service_request": "2022-917265",
    "request_type": "Traffic Signals/Signs/Striping/Streetlights",
    "request_reason": "Street Light Outage/Malfunction",
    "date_created": "2022-09-07T19:50:05.000",
    "date_modified": "2022-09-07T19:50:52.000",
    "request_status": "Pending",
    "responsible_agency": "Department of Public Works",
    "final_address": "LAFITTE ST & N GALVEZ ST",
    "address_councildis": "D",
    "status": "Pending",
    "contractor": "Legacy Professional Services",
    "rowid": "917265",
    "final_x": "3678063.5",
    "final_y": "535353.38",
    "longitude": "-90.07878902707445",
    "latitude": "29.96614007394721",
    "geocoded_column": {
      "latitude": "29.96614007394721",
      "longitude": "-90.07878902707445"
    }
  },
  {
    "service_request": "2022-917264",
    "request_type": "Trash/Recycling",
    "request_reason": "Request a Large Item Pick Up",
    "date_created": "2022-09-07T19:39:04.000",
    "date_modified": "2022-09-07T19:39:05.000",
    "request_status": "Pending",
    "responsible_agency": "Department of Sanitation",
    "final_address": "3611 Rue Nichole",
    "address_councildis": "C",
    "status": "Assigned to Contractor",
    "contractor": "Richards Disposal",
    "rowid": "917264",
    "final_x": "3703936.42058",
    "final_y": "517311.340725",
    "longitude": "-89.99774767545854",
    "latitude": "29.915726560347572",
    "geocoded_column": {
      "latitude": "29.915726560347572",
      "longitude": "-89.99774767545854"
    }
  },
  {
    "service_request": "2022-917263",
    "request_type": "Traffic Signals/Signs/Striping/Streetlights",
    "request_reason": "Traffic Sign Missing/Damaged",
    "date_created": "2022-09-07T19:14:18.000",
    "date_modified": "2022-09-07T19:14:18.000",
    "request_status": "Pending",
    "responsible_agency": "Department of Public Works",
    "final_address": "2125 Euterpe St",
    "address_councildis": "B",
    "status": "Pending",
    "rowid": "917263",
    "final_x": "3676827.94753",
    "final_y": "526404.119166",
    "longitude": "-90.08299926440303",
    "latitude": "29.941569739677384",
    "geocoded_column": {
      "latitude": "29.941569739677384",
      "longitude": "-90.08299926440303"
    }
  },
  {
    "service_request": "2022-917262",
    "request_type": "Traffic Signals/Signs/Striping/Streetlights",
    "request_reason": "Street Light Outage/Malfunction",
    "date_created": "2022-09-07T19:12:38.000",
    "date_modified": "2022-09-07T19:12:38.000",
    "request_status": "Pending",
    "responsible_agency": "Department of Public Works",
    "final_address": "1618 S Liberty St",
    "address_councildis": "B",
    "status": "Pending",
    "contractor": "Legacy Professional Services",
    "rowid": "917262",
    "final_x": "3676745.19873",
    "final_y": "526531.537982",
    "longitude": "-90.08325613022687",
    "latitude": "29.941922581934552",
    "geocoded_column": {
      "latitude": "29.941922581934552",
      "longitude": "-90.08325613022687"
    }
  },
  {
    "service_request": "2022-917261",
    "request_type": "Trash/Recycling",
    "request_reason": "Request a Large Item Pick Up",
    "date_created": "2022-09-07T18:54:25.000",
    "date_modified": "2022-09-07T18:54:45.000",
    "request_status": "Pending",
    "responsible_agency": "Department of Sanitation",
    "final_address": "6369 Catina St",
    "address_councildis": "A",
    "status": "Assigned to Contractor",
    "contractor": "Metro Disposal",
    "rowid": "917261",
    "final_x": "3667039.25972",
    "final_y": "550095.437716",
    "longitude": "-90.11310767277688",
    "latitude": "30.007003007258355",
    "geocoded_column": {
      "latitude": "30.007003007258355",
      "longitude": "-90.11310767277688"
    }
  },
  {
    "service_request": "2022-917260",
    "request_type": "Abandoned Vehicles",
    "request_reason": "Abandoned/Junk Vehicles",
    "date_created": "2022-09-07T18:52:44.000",
    "date_modified": "2022-09-07T18:52:44.000",
    "request_status": "Pending",
    "responsible_agency": "Department of Public Works",
    "final_address": "3153 Urquhart St",
    "address_councildis": "C",
    "status": "Pending",
    "rowid": "917260",
    "final_x": "3689611.66703",
    "final_y": "536656.390663",
    "longitude": "-90.0422739363719",
    "latitude": "29.969370184263358",
    "geocoded_column": {
      "latitude": "29.969370184263358",
      "longitude": "-90.0422739363719"
    }
  },
  {
    "service_request": "2022-917259",
    "request_type": "Mosquito, Termite & Rodent Control",
    "request_reason": "Mosquito Complaint",
    "date_created": "2022-09-07T18:52:33.000",
    "date_modified": "2022-09-07T18:52:33.000",
    "request_status": "Pending",
    "responsible_agency": "Mosquito, Termite & Rodent Control Board",
    "final_address": "2367 Leon C Simon Dr",
    "address_councildis": "D",
    "status": "Pending",
    "rowid": "917259",
    "final_x": "3684661.00597",
    "final_y": "557156.488666",
    "longitude": "-90.05718745539008",
    "latitude": "30.025890548260374",
    "geocoded_column": {
      "latitude": "30.025890548260374",
      "longitude": "-90.05718745539008"
    }
  },
  {
    "service_request": "2022-917258",
    "request_type": "Trash/Recycling",
    "request_reason": "Missed Trash Pick-Up",
    "date_created": "2022-09-07T18:44:58.000",
    "date_modified": "2022-09-07T18:44:58.000",
    "request_status": "Pending",
    "responsible_agency": "Department of Sanitation",
    "final_address": "1432 Chartres St",
    "address_councildis": "C",
    "status": "Assigned to Contractor",
    "contractor": "Metro Disposal",
    "rowid": "917258",
    "final_x": "3684565.83516",
    "final_y": "534395.091845",
    "longitude": "-90.0582885121374",
    "latitude": "29.96330775661264",
    "geocoded_column": {
      "latitude": "29.96330775661264",
      "longitude": "-90.0582885121374"
    }
  },
  {
    "service_request": "2022-917257",
    "request_type": "Trash/Recycling",
    "request_reason": "Missed Trash Pick-Up",
    "date_created": "2022-09-07T18:37:10.000",
    "date_modified": "2022-09-07T18:37:11.000",
    "request_status": "Pending",
    "responsible_agency": "Department of Sanitation",
    "final_address": "6361 Louisville St",
    "address_councildis": "A",
    "status": "Assigned to Contractor",
    "contractor": "Metro Disposal",
    "rowid": "917257",
    "final_x": "3668066.15316",
    "final_y": "549814.744788",
    "longitude": "-90.10987289640458",
    "latitude": "30.006201090675304",
    "geocoded_column": {
      "latitude": "30.006201090675304",
      "longitude": "-90.10987289640458"
    }
  },
  {
    "service_request": "2022-917256",
    "request_type": "Trash/Recycling",
    "request_reason": "Missed Trash Pick-Up",
    "date_created": "2022-09-07T18:33:52.000",
    "date_modified": "2022-09-07T18:33:53.000",
    "request_status": "Pending",
    "responsible_agency": "Department of Sanitation",
    "final_address": "10815 Curran Rd",
    "address_councildis": "E",
    "status": "Assigned to Contractor",
    "contractor": "Metro Disposal",
    "rowid": "917256",
    "final_x": "3709842.57547",
    "final_y": "565779.982883",
    "longitude": "-89.97729528437385",
    "latitude": "30.048806547123178",
    "geocoded_column": {
      "latitude": "30.048806547123178",
      "longitude": "-89.97729528437385"
    }
  },
  {
    "service_request": "2022-917255",
    "request_type": "Trash/Recycling",
    "request_reason": "MIssed Recycling Pick-Up",
    "date_created": "2022-09-07T18:33:25.000",
    "date_modified": "2022-09-07T18:33:25.000",
    "request_status": "Pending",
    "responsible_agency": "Department of Sanitation",
    "final_address": "2329 General Meyer Ave",
    "address_councildis": "C",
    "status": "Assigned to Contractor",
    "contractor": "Richards Disposal",
    "rowid": "917255",
    "final_x": "3692652.05296",
    "final_y": "527621.965631",
    "longitude": "-90.03299598049206",
    "latitude": "29.944434123735533",
    "geocoded_column": {
      "latitude": "29.944434123735533",
      "longitude": "-90.03299598049206"
    }
  },
  {
    "service_request": "2022-917254",
    "request_type": "Roads/Drainage",
    "request_reason": "Pothole",
    "date_created": "2022-09-07T18:24:38.000",
    "date_modified": "2022-09-07T18:24:38.000",
    "request_status": "Pending",
    "responsible_agency": "Department of Public Works",
    "final_address": "1643 Josephine St",
    "address_councildis": "B",
    "status": "Pending",
    "rowid": "917254",
    "final_x": "3677727.88078",
    "final_y": "524249.059196",
    "longitude": "-90.08023240309207",
    "latitude": "29.93561700255386",
    "geocoded_column": {
      "latitude": "29.93561700255386",
      "longitude": "-90.08023240309207"
    }
  },
  {
    "service_request": "2022-917253",
    "request_type": "Abandoned Vehicles",
    "request_reason": "Abandoned/Junk Vehicles",
    "date_created": "2022-09-07T18:21:41.000",
    "date_modified": "2022-09-07T18:21:41.000",
    "request_status": "Pending",
    "responsible_agency": "Department of Public Works",
    "final_address": "1719 Pleasure St",
    "address_councildis": "D",
    "status": "Pending",
    "rowid": "917253",
    "final_x": "3680686.21762",
    "final_y": "544904.900303",
    "longitude": "-90.07017403168447",
    "latitude": "29.99232421539203",
    "geocoded_column": {
      "latitude": "29.99232421539203",
      "longitude": "-90.07017403168447"
    }
  },
  {
    "service_request": "2022-917252",
    "request_type": "Trash/Recycling",
    "request_reason": "Request a Large Item Pick Up",
    "date_created": "2022-09-07T18:21:25.000",
    "date_modified": "2022-09-07T18:21:25.000",
    "request_status": "Pending",
    "responsible_agency": "Department of Sanitation",
    "final_address": "4718 Annette St",
    "address_councildis": "D",
    "status": "Assigned to Contractor",
    "contractor": "Metro Disposal",
    "rowid": "917252",
    "final_x": "3681963.0566",
    "final_y": "549942.271636",
    "longitude": "-90.06596475186177",
    "latitude": "30.00613642303206",
    "geocoded_column": {
      "latitude": "30.00613642303206",
      "longitude": "-90.06596475186177"
    }
  },
  {
    "service_request": "2022-917251",
    "request_type": "Abandoned Vehicles",
    "request_reason": "Abandoned/Junk Vehicles",
    "date_created": "2022-09-07T18:16:58.000",
    "date_modified": "2022-09-07T18:16:58.000",
    "request_status": "Pending",
    "responsible_agency": "Department of Public Works",
    "final_address": "4651 St Roch Ave",
    "address_councildis": "D",
    "status": "Pending",
    "rowid": "917251",
    "final_x": "3685464.43983",
    "final_y": "549984.31266",
    "longitude": "-90.05490157047741",
    "latitude": "30.006145069403953",
    "geocoded_column": {
      "latitude": "30.006145069403953",
      "longitude": "-90.05490157047741"
    }
  },
  {
    "service_request": "2022-917250",
    "request_type": "Abandoned Vehicles",
    "request_reason": "Abandoned/Junk Vehicles",
    "date_created": "2022-09-07T18:16:00.000",
    "date_modified": "2022-09-07T18:16:00.000",
    "request_status": "Pending",
    "responsible_agency": "Department of Public Works",
    "final_address": "4651 St Roch Ave",
    "address_councildis": "D",
    "status": "Pending",
    "rowid": "917250",
    "final_x": "3685464.43983",
    "final_y": "549984.31266",
    "longitude": "-90.05490157047741",
    "latitude": "30.006145069403953",
    "geocoded_column": {
      "latitude": "30.006145069403953",
      "longitude": "-90.05490157047741"
    }
  },
  {
    "service_request": "2022-917249",
    "request_type": "Trash/Recycling",
    "request_reason": "MIssed Recycling Pick-Up",
    "date_created": "2022-09-07T18:04:51.000",
    "date_modified": "2022-09-07T18:04:51.000",
    "request_status": "Pending",
    "responsible_agency": "Department of Sanitation",
    "final_address": "7319 Heather Ct",
    "address_councildis": "E",
    "status": "Assigned to Contractor",
    "contractor": "Metro Disposal",
    "rowid": "917249",
    "final_x": "3705683.32945",
    "final_y": "562146.296991",
    "longitude": "-89.99057545084975",
    "latitude": "30.038950040582716",
    "geocoded_column": {
      "latitude": "30.038950040582716",
      "longitude": "-89.99057545084975"
    }
  },
  {
    "service_request": "2022-917248",
    "request_type": "Traffic Signals/Signs/Striping/Streetlights",
    "request_reason": "Street Light Outage/Malfunction",
    "date_created": "2022-09-07T17:58:53.000",
    "date_modified": "2022-09-07T17:58:53.000",
    "request_status": "Pending",
    "responsible_agency": "Department of Public Works",
    "final_address": "LOUISA EXIT & I 10 E",
    "address_councildis": "D",
    "status": "Pending",
    "contractor": "Legacy Professional Services",
    "rowid": "917248",
    "final_x": "3689981.4",
    "final_y": "547947.78",
    "longitude": "-90.04070402243046",
    "latitude": "30.000406003556567",
    "geocoded_column": {
      "latitude": "30.000406003556567",
      "longitude": "-90.04070402243046"
    }
  },
  {
    "service_request": "2022-917247",
    "request_type": "Traffic Signals/Signs/Striping/Streetlights",
    "request_reason": "Street Light Outage/Malfunction",
    "date_created": "2022-09-07T17:56:47.000",
    "date_modified": "2022-09-07T17:56:48.000",
    "request_status": "Pending",
    "responsible_agency": "Department of Public Works",
    "final_address": "CANAL BLVD EXIT & WEST END EXIT",
    "address_councildis": "A",
    "status": "Pending",
    "contractor": "Legacy Professional Services",
    "rowid": "917247",
    "final_x": "3666477.19",
    "final_y": "545874.69",
    "longitude": "-90.1150251881213",
    "latitude": "29.995413854040606",
    "geocoded_column": {
      "latitude": "29.995413854040606",
      "longitude": "-90.1150251881213"
    }
  },
  {
    "service_request": "2022-917246",
    "request_type": "Roads/Drainage",
    "request_reason": "Catch Basin - Broken/Damage",
    "date_created": "2022-09-07T17:56:27.000",
    "date_modified": "2022-09-07T17:56:27.000",
    "request_status": "Pending",
    "responsible_agency": "Department of Public Works",
    "final_address": "2275 Bayou Rd",
    "address_councildis": "D",
    "status": "Pending",
    "rowid": "917246",
    "final_x": "3679329.63419",
    "final_y": "538447.386057",
    "longitude": "-90.07468327746787",
    "latitude": "29.974609351283448",
    "geocoded_column": {
      "latitude": "29.974609351283448",
      "longitude": "-90.07468327746787"
    }
  },
  {
    "service_request": "2022-917245",
    "request_type": "Traffic Signals/Signs/Striping/Streetlights",
    "request_reason": "Additional signage",
    "date_created": "2022-09-07T17:55:33.000",
    "date_modified": "2022-09-07T17:55:33.000",
    "request_status": "Pending",
    "responsible_agency": "Department of Public Works",
    "final_address": "4422 N Robertson St",
    "address_councildis": "D",
    "status": "Pending",
    "rowid": "917245",
    "final_x": "3693575.94109",
    "final_y": "536406.315015",
    "longitude": "-90.02976348594552",
    "latitude": "29.96855915091094",
    "geocoded_column": {
      "latitude": "29.96855915091094",
      "longitude": "-90.02976348594552"
    }
  },
  {
    "service_request": "2022-917244",
    "request_type": "Trash/Recycling",
    "request_reason": "Order Recycling Cart",
    "date_created": "2022-09-07T17:54:05.000",
    "date_modified": "2022-09-07T17:54:05.000",
    "request_status": "Pending",
    "responsible_agency": "Department of Sanitation",
    "final_address": "5104 Laurel St",
    "address_councildis": "B",
    "status": "Pending",
    "rowid": "917244",
    "final_x": "3668248.6754",
    "final_y": "517790.48063",
    "longitude": "-90.11037607883213",
    "latitude": "29.91813960504425",
    "geocoded_column": {
      "latitude": "29.91813960504425",
      "longitude": "-90.11037607883213"
    }
  },
  {
    "service_request": "2022-917243",
    "request_type": "Trash/Recycling",
    "request_reason": "Illegal Dumping",
    "date_created": "2022-09-07T17:45:46.000",
    "date_modified": "2022-09-07T17:45:47.000",
    "request_status": "Pending",
    "responsible_agency": "Department of Sanitation",
    "final_address": "7011 Yorktown Dr",
    "address_councildis": "E",
    "status": "Pending",
    "rowid": "917243",
    "final_x": "3706261.27326",
    "final_y": "560483.24547",
    "longitude": "-89.98881067055623",
    "latitude": "30.03435866981574",
    "geocoded_column": {
      "latitude": "30.03435866981574",
      "longitude": "-89.98881067055623"
    }
  },
  {
    "service_request": "2022-917242",
    "request_type": "Roads/Drainage",
    "request_reason": "Catch Basin - Clogged",
    "date_created": "2022-09-07T17:34:48.000",
    "date_modified": "2022-09-07T17:34:48.000",
    "request_status": "Pending",
    "responsible_agency": "Department of Public Works",
    "final_address": "1500 S Carrollton Ave, New Orleans, Louisiana, 70118",
    "address_councildis": "A",
    "status": "Pending",
    "rowid": "917242",
    "final_x": "3662685.26663",
    "final_y": "529185.500032",
    "longitude": "-90.12755833921449",
    "latitude": "29.949634410304096",
    "geocoded_column": {
      "latitude": "29.949634410304096",
      "longitude": "-90.12755833921449"
    }
  },
  {
    "service_request": "2022-917241",
    "request_type": "Abandoned Vehicles",
    "request_reason": "Abandoned/Junk Vehicles",
    "date_created": "2022-09-07T17:32:50.000",
    "date_modified": "2022-09-07T17:32:50.000",
    "request_status": "Pending",
    "responsible_agency": "Department of Public Works",
    "final_address": "2623 Jasmine St",
    "address_councildis": "D",
    "status": "Pending",
    "rowid": "917241",
    "final_x": "3687220.17231",
    "final_y": "548143.775442",
    "longitude": "-90.04941995159851",
    "latitude": "30.001030281232538",
    "geocoded_column": {
      "latitude": "30.001030281232538",
      "longitude": "-90.04941995159851"
    }
  },
  {
    "service_request": "2022-917240",
    "request_type": "Trash/Recycling",
    "request_reason": "MIssed Recycling Pick-Up",
    "date_created": "2022-09-07T17:26:58.000",
    "date_modified": "2022-09-07T17:26:59.000",
    "request_status": "Pending",
    "responsible_agency": "Department of Sanitation",
    "final_address": "1522 Simon Bolivar Ave",
    "address_councildis": "B",
    "status": "Assigned to Contractor",
    "contractor": "Richards Disposal",
    "rowid": "917240",
    "final_x": "3677250.9261",
    "final_y": "526494.983358",
    "longitude": "-90.08166070222862",
    "latitude": "29.941806888272563",
    "geocoded_column": {
      "latitude": "29.941806888272563",
      "longitude": "-90.08166070222862"
    }
  },
  {
    "service_request": "2022-917239",
    "request_type": "Trash/Recycling",
    "request_reason": "MIssed Recycling Pick-Up",
    "date_created": "2022-09-07T17:25:40.000",
    "date_modified": "2022-09-07T17:25:41.000",
    "request_status": "Pending",
    "responsible_agency": "Department of Sanitation",
    "final_address": "1522 Simon Bolivar Ave",
    "address_councildis": "B",
    "status": "Assigned to Contractor",
    "contractor": "Richards Disposal",
    "rowid": "917239",
    "final_x": "3677250.9261",
    "final_y": "526494.983358",
    "longitude": "-90.08166070222862",
    "latitude": "29.941806888272563",
    "geocoded_column": {
      "latitude": "29.941806888272563",
      "longitude": "-90.08166070222862"
    }
  },
  {
    "service_request": "2022-917238",
    "request_type": "Abandoned Vehicles",
    "request_reason": "Abandoned/Junk Vehicles",
    "date_created": "2022-09-07T17:25:33.000",
    "date_modified": "2022-09-07T17:25:35.000",
    "request_status": "Pending",
    "responsible_agency": "Department of Public Works",
    "final_address": "MAGAZINE ST & ELEONORE ST",
    "address_councildis": "A",
    "status": "Pending",
    "rowid": "917238",
    "final_x": "3665227.9",
    "final_y": "519070.68",
    "longitude": "-90.11986827630119",
    "latitude": "29.921748059259166",
    "geocoded_column": {
      "latitude": "29.921748059259166",
      "longitude": "-90.11986827630119"
    }
  },
  {
    "service_request": "2022-917237",
    "request_type": "Trash/Recycling",
    "request_reason": "MIssed Recycling Pick-Up",
    "date_created": "2022-09-07T17:25:09.000",
    "date_modified": "2022-09-07T17:25:09.000",
    "request_status": "Pending",
    "responsible_agency": "Department of Sanitation",
    "final_address": "1522 Simon Bolivar Ave",
    "address_councildis": "B",
    "status": "Assigned to Contractor",
    "contractor": "Richards Disposal",
    "rowid": "917237",
    "final_x": "3677250.9261",
    "final_y": "526494.983358",
    "longitude": "-90.08166070222862",
    "latitude": "29.941806888272563",
    "geocoded_column": {
      "latitude": "29.941806888272563",
      "longitude": "-90.08166070222862"
    }
  },
  {
    "service_request": "2022-917236",
    "request_type": "Trash/Recycling",
    "request_reason": "Missed Trash Pick-Up",
    "date_created": "2022-09-07T17:19:28.000",
    "date_modified": "2022-09-07T17:19:28.000",
    "request_status": "Pending",
    "responsible_agency": "Department of Sanitation",
    "final_address": "6317 Louis Xiv St",
    "address_councildis": "A",
    "status": "Assigned to Contractor",
    "contractor": "Metro Disposal",
    "rowid": "917236",
    "final_x": "3668354.48551",
    "final_y": "549516.503507",
    "longitude": "-90.10897204874331",
    "latitude": "30.005372562791276",
    "geocoded_column": {
      "latitude": "30.005372562791276",
      "longitude": "-90.10897204874331"
    }
  },
  {
    "service_request": "2022-917235",
    "request_type": "Trash/Recycling",
    "request_reason": "Illegal Dumping",
    "date_created": "2022-09-07T17:19:17.000",
    "date_modified": "2022-09-07T17:37:13.000",
    "request_status": "Pending",
    "responsible_agency": "Department of Sanitation",
    "final_address": "New Orleans,LA",
    "address_councildis": "A",
    "rowid": "917235",
    "final_x": "3665283.20762",
    "final_y": "532597.319044",
    "longitude": "-90.11924128150717",
    "latitude": "29.958940375720072",
    "geocoded_column": {
      "latitude": "29.958940375720072",
      "longitude": "-90.11924128150717"
    }
  },
  {
    "service_request": "2022-917234",
    "request_type": "Parks & Parkways",
    "request_reason": "Request Tree Service (Right of Way/Public Property)",
    "date_created": "2022-09-07T17:13:48.000",
    "date_modified": "2022-09-07T17:13:49.000",
    "request_status": "Pending",
    "responsible_agency": "Department of Parks & Parkway",
    "final_address": "1714 N Broad St",
    "address_councildis": "D",
    "status": "Pending",
    "rowid": "917234",
    "final_x": "3679690.67784",
    "final_y": "540804.960715",
    "longitude": "-90.07346114553293",
    "latitude": "29.981080955292015",
    "geocoded_column": {
      "latitude": "29.981080955292015",
      "longitude": "-90.07346114553293"
    }
  },
  {
    "service_request": "2022-917233",
    "request_type": "Property Maintenance",
    "request_reason": "Property Maintenance",
    "date_created": "2022-09-07T17:12:25.000",
    "date_modified": "2022-09-07T17:12:25.000",
    "request_status": "Pending",
    "responsible_agency": "Department of Code Enforcement",
    "final_address": "2810 St Roch Ave",
    "address_councildis": "D",
    "status": "Pending",
    "rowid": "917233",
    "final_x": "3685867.65558",
    "final_y": "543146.162253",
    "longitude": "-90.05386894314101",
    "latitude": "29.987330236584345",
    "geocoded_column": {
      "latitude": "29.987330236584345",
      "longitude": "-90.05386894314101"
    }
  },
  {
    "service_request": "2022-917232",
    "request_type": "Traffic Signals/Signs/Striping/Streetlights",
    "request_reason": "Traffic Sign Missing/Damaged",
    "date_created": "2022-09-07T17:11:34.000",
    "date_modified": "2022-09-07T17:11:34.000",
    "request_status": "Pending",
    "responsible_agency": "Department of Public Works",
    "final_address": "2700 Bruxelles St",
    "address_councildis": "D",
    "status": "Pending",
    "rowid": "917232",
    "final_x": "3680305.13877",
    "final_y": "542270.062989",
    "longitude": "-90.07146944218226",
    "latitude": "29.98509088400495",
    "geocoded_column": {
      "latitude": "29.98509088400495",
      "longitude": "-90.07146944218226"
    }
  },
  {
    "service_request": "2022-917231",
    "request_type": "Roads/Drainage",
    "request_reason": "Catch Basin - Clogged",
    "date_created": "2022-09-07T17:10:02.000",
    "date_modified": "2022-09-07T17:10:02.000",
    "request_status": "Pending",
    "responsible_agency": "Department of Public Works",
    "final_address": "1537 Fern St",
    "address_councildis": "A",
    "status": "Pending",
    "rowid": "917231",
    "final_x": "3663473.15834",
    "final_y": "528819.75808",
    "longitude": "-90.12508277255752",
    "latitude": "29.948605916553113",
    "geocoded_column": {
      "latitude": "29.948605916553113",
      "longitude": "-90.12508277255752"
    }
  },
  {
    "service_request": "2022-917230",
    "request_type": "Trash/Recycling",
    "request_reason": "Missed Trash Pick-Up",
    "date_created": "2022-09-07T17:06:43.000",
    "date_modified": "2022-09-07T17:06:44.000",
    "request_status": "Pending",
    "responsible_agency": "Department of Sanitation",
    "final_address": "2900 General Taylor St",
    "address_councildis": "B",
    "status": "Assigned to Contractor",
    "contractor": "Richards Disposal",
    "rowid": "917230",
    "final_x": "3671530.52206",
    "final_y": "525588.273021",
    "longitude": "-90.09975206138267",
    "latitude": "29.939484310192746",
    "geocoded_column": {
      "latitude": "29.939484310192746",
      "longitude": "-90.09975206138267"
    }
  },
  {
    "service_request": "2022-917229",
    "request_type": "Roads/Drainage",
    "request_reason": "Street Subsidence (Sinking)",
    "date_created": "2022-09-07T17:06:16.000",
    "date_modified": "2022-09-07T17:08:50.000",
    "request_status": "Pending",
    "responsible_agency": "Department of Public Works",
    "final_address": "New Orleans,LA",
    "address_councildis": "E",
    "rowid": "917229",
    "final_x": "3696388.05399",
    "final_y": "532380.035971",
    "longitude": "-90.0210283546438",
    "latitude": "29.957400044605542",
    "geocoded_column": {
      "latitude": "29.957400044605542",
      "longitude": "-90.0210283546438"
    }
  },
  {
    "service_request": "2022-917228",
    "request_type": "Traffic Signals/Signs/Striping/Streetlights",
    "request_reason": "Traffic Sign Missing/Damaged",
    "date_created": "2022-09-07T17:04:49.000",
    "date_modified": "2022-09-07T17:04:49.000",
    "request_status": "Pending",
    "responsible_agency": "Department of Public Works",
    "final_address": "2200 Nashville Ave",
    "address_councildis": "A",
    "status": "Pending",
    "rowid": "917228",
    "final_x": "3666819.87495",
    "final_y": "524293.369276",
    "longitude": "-90.11466773767599",
    "latitude": "29.93606234484525",
    "geocoded_column": {
      "latitude": "29.93606234484525",
      "longitude": "-90.11466773767599"
    }
  },
  {
    "service_request": "2022-917227",
    "request_type": "Trash/Recycling",
    "request_reason": "Missed Trash Pick-Up",
    "date_created": "2022-09-07T17:04:13.000",
    "date_modified": "2022-09-07T17:04:13.000",
    "request_status": "Pending",
    "responsible_agency": "Department of Sanitation",
    "final_address": "7020 Crowder Blvd",
    "address_councildis": "E",
    "status": "Assigned to Contractor",
    "contractor": "Metro Disposal",
    "rowid": "917227",
    "final_x": "3704288.08574",
    "final_y": "559503.095645",
    "longitude": "-89.99508234015966",
    "latitude": "30.031727156153885",
    "geocoded_column": {
      "latitude": "30.031727156153885",
      "longitude": "-89.99508234015966"
    }
  },
  {
    "service_request": "2022-917226",
    "request_type": "Trash/Recycling",
    "request_reason": "Missed Trash Pick-Up",
    "date_created": "2022-09-07T17:02:18.000",
    "date_modified": "2022-09-07T17:02:20.000",
    "request_status": "Pending",
    "responsible_agency": "Department of Sanitation",
    "final_address": "7008 Crowder Blvd",
    "address_councildis": "E",
    "status": "Assigned to Contractor",
    "contractor": "Metro Disposal",
    "rowid": "917226",
    "final_x": "3704309.52273",
    "final_y": "559458.005149",
    "longitude": "-89.99501626287896",
    "latitude": "30.03160248645925",
    "geocoded_column": {
      "latitude": "30.03160248645925",
      "longitude": "-89.99501626287896"
    }
  },
  {
    "service_request": "2022-917225",
    "request_type": "Roads/Drainage",
    "request_reason": "Pothole",
    "date_created": "2022-09-07T17:01:51.000",
    "date_modified": "2022-09-07T17:01:51.000",
    "request_status": "Pending",
    "responsible_agency": "Department of Public Works",
    "final_address": "2810 St Roch Ave",
    "address_councildis": "D",
    "status": "Pending",
    "rowid": "917225",
    "final_x": "3685867.65558",
    "final_y": "543146.162253",
    "longitude": "-90.05386894314101",
    "latitude": "29.987330236584345",
    "geocoded_column": {
      "latitude": "29.987330236584345",
      "longitude": "-90.05386894314101"
    }
  },
  {
    "service_request": "2022-917224",
    "request_type": "Trash/Recycling",
    "request_reason": "Missed Trash Pick-Up",
    "date_created": "2022-09-07T16:58:29.000",
    "date_modified": "2022-09-07T16:58:30.000",
    "request_status": "Pending",
    "responsible_agency": "Department of Sanitation",
    "final_address": "1120 S Carrollton Ave",
    "address_councildis": "A",
    "status": "Assigned to Contractor",
    "contractor": "Richards Disposal",
    "rowid": "917224",
    "final_x": "3661839.50963",
    "final_y": "528270.572416",
    "longitude": "-90.13025912358017",
    "latitude": "29.947143097277987",
    "geocoded_column": {
      "latitude": "29.947143097277987",
      "longitude": "-90.13025912358017"
    }
  },
  {
    "service_request": "2022-917223",
    "request_type": "Trash/Recycling",
    "request_reason": "Illegal Dumping",
    "date_created": "2022-09-07T16:58:27.000",
    "date_modified": "2022-09-07T16:58:27.000",
    "request_status": "Pending",
    "responsible_agency": "Department of Sanitation",
    "final_address": "3802 Dauphine St",
    "address_councildis": "C",
    "status": "Pending",
    "rowid": "917223",
    "final_x": "3690979.57481",
    "final_y": "534212.453189",
    "longitude": "-90.03804123929405",
    "latitude": "29.9626077639324",
    "geocoded_column": {
      "latitude": "29.9626077639324",
      "longitude": "-90.03804123929405"
    }
  },
  {
    "service_request": "2022-917222",
    "request_type": "Roads/Drainage",
    "request_reason": "Street Subsidence (Sinking)",
    "date_created": "2022-09-07T16:53:56.000",
    "date_modified": "2022-09-07T16:53:56.000",
    "request_status": "Pending",
    "responsible_agency": "Department of Public Works",
    "final_address": "2420 Lapeyrouse St",
    "address_councildis": "D",
    "status": "Pending",
    "rowid": "917222",
    "final_x": "3679766.46607",
    "final_y": "539585.653322",
    "longitude": "-90.07326412265162",
    "latitude": "29.977725991587377",
    "geocoded_column": {
      "latitude": "29.977725991587377",
      "longitude": "-90.07326412265162"
    }
  },
  {
    "service_request": "2022-917221",
    "request_type": "Safety & Permits",
    "request_reason": "Construction permit",
    "date_created": "2022-09-07T16:50:35.000",
    "date_modified": "2022-09-07T16:50:35.000",
    "request_status": "Pending",
    "responsible_agency": "Department of Code Enforcement",
    "status": "Pending",
    "rowid": "917221",
    "longitude": "0.0",
    "latitude": "0.0",
    "geocoded_column": {
      "latitude": "0.0",
      "longitude": "0.0"
    }
  },
  {
    "service_request": "2022-917220",
    "request_type": "Trash/Recycling",
    "request_reason": "Order Trash Cart",
    "date_created": "2022-09-07T16:48:27.000",
    "date_modified": "2022-09-07T16:48:28.000",
    "request_status": "Pending",
    "responsible_agency": "Department of Sanitation",
    "final_address": "6858 Mayo Rd",
    "address_councildis": "E",
    "status": "Assigned to Contractor",
    "contractor": "Metro Disposal",
    "rowid": "917220",
    "final_x": "3701824.35543",
    "final_y": "557532.396699",
    "longitude": "-90.00294011090502",
    "latitude": "30.026387385486693",
    "geocoded_column": {
      "latitude": "30.026387385486693",
      "longitude": "-90.00294011090502"
    }
  },
  {
    "service_request": "2022-917219",
    "request_type": "Roads/Drainage",
    "request_reason": "Catch Basin - Clogged",
    "date_created": "2022-09-07T16:43:15.000",
    "date_modified": "2022-09-07T16:43:15.000",
    "request_status": "Pending",
    "responsible_agency": "Department of Public Works",
    "final_address": "3510 Octavia St",
    "address_councildis": "A",
    "status": "Pending",
    "rowid": "917219",
    "final_x": "3668483.87412",
    "final_y": "528460.668032",
    "longitude": "-90.10927389000997",
    "latitude": "29.947472302219687",
    "geocoded_column": {
      "latitude": "29.947472302219687",
      "longitude": "-90.10927389000997"
    }
  },
  {
    "service_request": "2022-917218",
    "request_type": "Abandoned Vehicles",
    "request_reason": "Abandoned/Junk Vehicles",
    "date_created": "2022-09-07T16:40:04.000",
    "date_modified": "2022-09-07T16:40:04.000",
    "request_status": "Pending",
    "responsible_agency": "Department of Public Works",
    "final_address": "1924 Philip St",
    "address_councildis": "B",
    "status": "Pending",
    "rowid": "917218",
    "final_x": "3676398.94574",
    "final_y": "524399.943292",
    "longitude": "-90.08442267733004",
    "latitude": "29.936071779429394",
    "geocoded_column": {
      "latitude": "29.936071779429394",
      "longitude": "-90.08442267733004"
    }
  },
  {
    "service_request": "2022-917217",
    "request_type": "Trash/Recycling",
    "request_reason": "MIssed Recycling Pick-Up",
    "date_created": "2022-09-07T16:39:54.000",
    "date_modified": "2022-09-07T16:41:17.000",
    "request_status": "Pending",
    "responsible_agency": "Department of Sanitation",
    "final_address": "156 Millaudon St",
    "address_councildis": "A",
    "status": "Assigned to Contractor",
    "contractor": "Richards Disposal",
    "rowid": "917217",
    "final_x": "3660951.45619",
    "final_y": "523633.768187",
    "longitude": "-90.1332163934246",
    "latitude": "29.934418962918983",
    "geocoded_column": {
      "latitude": "29.934418962918983",
      "longitude": "-90.1332163934246"
    }
  },
  {
    "service_request": "2022-917216",
    "request_type": "Trash/Recycling",
    "request_reason": "Missed Trash Pick-Up",
    "date_created": "2022-09-07T16:39:23.000",
    "date_modified": "2022-09-07T16:40:20.000",
    "request_status": "Pending",
    "responsible_agency": "Department of Sanitation",
    "final_address": "156 Millaudon St",
    "address_councildis": "A",
    "status": "Assigned to Contractor",
    "contractor": "Richards Disposal",
    "rowid": "917216",
    "final_x": "3660951.45619",
    "final_y": "523633.768187",
    "longitude": "-90.1332163934246",
    "latitude": "29.934418962918983",
    "geocoded_column": {
      "latitude": "29.934418962918983",
      "longitude": "-90.1332163934246"
    }
  },
  {
    "service_request": "2022-917215",
    "request_type": "Abandoned Vehicles",
    "request_reason": "Abandoned/Junk Vehicles",
    "date_created": "2022-09-07T16:37:28.000",
    "date_modified": "2022-09-07T16:37:28.000",
    "request_status": "Pending",
    "responsible_agency": "Department of Public Works",
    "final_address": "1924 Philip St",
    "address_councildis": "B",
    "status": "Pending",
    "rowid": "917215",
    "final_x": "3676398.94574",
    "final_y": "524399.943292",
    "longitude": "-90.08442267733004",
    "latitude": "29.936071779429394",
    "geocoded_column": {
      "latitude": "29.936071779429394",
      "longitude": "-90.08442267733004"
    }
  },
  {
    "service_request": "2022-917214",
    "request_type": "Abandoned Vehicles",
    "request_reason": "Abandoned/Junk Vehicles",
    "date_created": "2022-09-07T16:33:53.000",
    "date_modified": "2022-09-07T16:33:53.000",
    "request_status": "Pending",
    "responsible_agency": "Department of Public Works",
    "final_address": "2743 Toulouse St",
    "address_councildis": "A",
    "status": "Pending",
    "rowid": "917214",
    "final_x": "3676141.33793",
    "final_y": "536839.864072",
    "longitude": "-90.08480802612547",
    "latitude": "29.970285127338684",
    "geocoded_column": {
      "latitude": "29.970285127338684",
      "longitude": "-90.08480802612547"
    }
  },
  {
    "service_request": "2022-917213",
    "request_type": "Traffic Signals/Signs/Striping/Streetlights",
    "request_reason": "Traffic Sign Missing/Damaged",
    "date_created": "2022-09-07T16:30:30.000",
    "date_modified": "2022-09-07T16:31:13.000",
    "request_status": "Pending",
    "responsible_agency": "Department of Public Works",
    "final_address": "5900 BLK N Galvez St",
    "address_councildis": "E",
    "status": "Pending",
    "rowid": "917213",
    "final_x": "3700088.56665",
    "final_y": "537211.747543",
    "longitude": "-90.00916700616104",
    "latitude": "29.970568468016165",
    "geocoded_column": {
      "latitude": "29.970568468016165",
      "longitude": "-90.00916700616104"
    }
  },
  {
    "service_request": "2022-917212",
    "request_type": "Trash/Recycling",
    "request_reason": "Replace Trash Cart",
    "date_created": "2022-09-07T16:20:56.000",
    "date_modified": "2022-09-07T16:21:10.000",
    "request_status": "Pending",
    "responsible_agency": "Department of Sanitation",
    "final_address": "21 Audubon Pl",
    "address_councildis": "A",
    "status": "Assigned to Contractor",
    "contractor": "Richards Disposal",
    "rowid": "917212",
    "final_x": "3664373.1865",
    "final_y": "525061.114877",
    "longitude": "-90.12236641301351",
    "latitude": "29.938244725948756",
    "geocoded_column": {
      "latitude": "29.938244725948756",
      "longitude": "-90.12236641301351"
    }
  },
  {
    "service_request": "2022-917211",
    "request_type": "Trash/Recycling",
    "request_reason": "Missed Trash Pick-Up",
    "date_created": "2022-09-07T16:17:01.000",
    "date_modified": "2022-09-07T16:17:02.000",
    "request_status": "Pending",
    "responsible_agency": "Department of Sanitation",
    "final_address": "2820 Louisiana Ave",
    "address_councildis": "B",
    "status": "Assigned to Contractor",
    "contractor": "Richards Disposal",
    "rowid": "917211",
    "final_x": "3672349.60686",
    "final_y": "525636.450941",
    "longitude": "-90.09716445516692",
    "latitude": "29.939592511646122",
    "geocoded_column": {
      "latitude": "29.939592511646122",
      "longitude": "-90.09716445516692"
    }
  },
  {
    "service_request": "2022-917210",
    "request_type": "Abandoned Vehicles",
    "request_reason": "Abandoned/Junk Vehicles",
    "date_created": "2022-09-07T16:16:43.000",
    "date_modified": "2022-09-07T16:16:43.000",
    "request_status": "Pending",
    "responsible_agency": "Department of Public Works",
    "final_address": "502 Whitney Ave",
    "address_councildis": "C",
    "status": "Pending",
    "rowid": "917210",
    "final_x": "3690319.91036",
    "final_y": "529723.107265",
    "longitude": "-90.04028434393486",
    "latitude": "29.95028410789239",
    "geocoded_column": {
      "latitude": "29.95028410789239",
      "longitude": "-90.04028434393486"
    }
  },
  {
    "service_request": "2022-917209",
    "request_type": "Traffic Signals/Signs/Striping/Streetlights",
    "request_reason": "Street Light Outage/Malfunction",
    "date_created": "2022-09-07T16:13:03.000",
    "date_modified": "2022-09-07T16:13:04.000",
    "request_status": "Pending",
    "responsible_agency": "Department of Public Works",
    "final_address": "1428 Polymnia St",
    "address_councildis": "B",
    "status": "Pending",
    "contractor": "Legacy Professional Services",
    "rowid": "917209",
    "final_x": "3679350.43138",
    "final_y": "524317.110844",
    "longitude": "-90.07510763403788",
    "latitude": "29.935755231294902",
    "geocoded_column": {
      "latitude": "29.935755231294902",
      "longitude": "-90.07510763403788"
    }
  },
  {
    "service_request": "2022-917208",
    "request_type": "Trash/Recycling",
    "request_reason": "Request a Large Item Pick Up",
    "date_created": "2022-09-07T16:12:56.000",
    "date_modified": "2022-09-07T16:12:57.000",
    "request_status": "Pending",
    "responsible_agency": "Department of Sanitation",
    "final_address": "1738 Prytania St",
    "address_councildis": "B",
    "status": "Assigned to Contractor",
    "contractor": "Richards Disposal",
    "rowid": "917208",
    "final_x": "3679164.56847",
    "final_y": "524407.243132",
    "longitude": "-90.07569128298755",
    "latitude": "29.936008675926224",
    "geocoded_column": {
      "latitude": "29.936008675926224",
      "longitude": "-90.07569128298755"
    }
  },
  {
    "service_request": "2022-917207",
    "request_type": "Trash/Recycling",
    "request_reason": "Replace Trash Cart",
    "date_created": "2022-09-07T16:08:02.000",
    "date_modified": "2022-09-07T16:08:03.000",
    "request_status": "Pending",
    "responsible_agency": "Department of Sanitation",
    "final_address": "6135 Catina St",
    "address_councildis": "A",
    "status": "Assigned to Contractor",
    "contractor": "Metro Disposal",
    "rowid": "917207",
    "final_x": "3666900.32833",
    "final_y": "548430.595666",
    "longitude": "-90.11360258490949",
    "latitude": "30.002429336636297",
    "geocoded_column": {
      "latitude": "30.002429336636297",
      "longitude": "-90.11360258490949"
    }
  },
  {
    "service_request": "2022-917206",
    "request_type": "Roads/Drainage",
    "request_reason": "Pothole",
    "date_created": "2022-09-07T16:05:45.000",
    "date_modified": "2022-09-07T16:05:45.000",
    "request_status": "Pending",
    "responsible_agency": "Department of Public Works",
    "final_address": "1129 Josephine St",
    "address_councildis": "B",
    "status": "Pending",
    "rowid": "917206",
    "final_x": "3679003.57794",
    "final_y": "522573.634618",
    "longitude": "-90.07626304063878",
    "latitude": "29.930971712999796",
    "geocoded_column": {
      "latitude": "29.930971712999796",
      "longitude": "-90.07626304063878"
    }
  },
  {
    "service_request": "2022-917205",
    "request_type": "Traffic Signals/Signs/Striping/Streetlights",
    "request_reason": "Street Light Knocked Down/Leaning",
    "date_created": "2022-09-07T15:59:59.000",
    "date_modified": "2022-09-07T16:00:00.000",
    "request_status": "Pending",
    "responsible_agency": "Department of Public Works",
    "final_address": "2829 Amazon St",
    "address_councildis": "C",
    "status": "Pending",
    "contractor": "Legacy Professional Services",
    "rowid": "917205",
    "final_x": "3693721.79779",
    "final_y": "521385.447993",
    "longitude": "-90.02984249668836",
    "latitude": "29.92725240996156",
    "geocoded_column": {
      "latitude": "29.92725240996156",
      "longitude": "-90.02984249668836"
    }
  },
  {
    "service_request": "2022-917204",
    "request_type": "Trash/Recycling",
    "request_reason": "Repair Trash Cart",
    "date_created": "2022-09-07T15:59:49.000",
    "date_modified": "2022-09-07T15:59:49.000",
    "request_status": "Pending",
    "responsible_agency": "Department of Sanitation",
    "final_address": "8338 Palm St",
    "address_councildis": "A",
    "status": "Assigned to Contractor",
    "contractor": "Richards Disposal",
    "rowid": "917204",
    "final_x": "3666916.90759",
    "final_y": "535359.682694",
    "longitude": "-90.11398962423627",
    "latitude": "29.966488266388133",
    "geocoded_column": {
      "latitude": "29.966488266388133",
      "longitude": "-90.11398962423627"
    }
  },
  {
    "service_request": "2022-917203",
    "request_type": "Trash/Recycling",
    "request_reason": "Illegal Dumping",
    "date_created": "2022-09-07T15:57:32.000",
    "date_modified": "2022-09-07T15:57:32.000",
    "request_status": "Pending",
    "responsible_agency": "Department of Sanitation",
    "final_address": "ALMONASTER AVE & LOUISA ST",
    "address_councildis": "D",
    "status": "Pending",
    "rowid": "917203",
    "final_x": "3691620.4",
    "final_y": "548541.28",
    "longitude": "-90.03550510438399",
    "latitude": "30.00198696956321",
    "geocoded_column": {
      "latitude": "30.00198696956321",
      "longitude": "-90.03550510438399"
    }
  },
  {
    "service_request": "2022-917202",
    "request_type": "Trash/Recycling",
    "request_reason": "Replace Trash Cart",
    "date_created": "2022-09-07T15:56:36.000",
    "date_modified": "2022-09-07T15:56:37.000",
    "request_status": "Pending",
    "responsible_agency": "Department of Sanitation",
    "final_address": "3517 Frenchmen St",
    "address_councildis": "D",
    "status": "Assigned to Contractor",
    "contractor": "Metro Disposal",
    "rowid": "917202",
    "final_x": "3683884.85628",
    "final_y": "545625.327312",
    "longitude": "-90.06004488023737",
    "latitude": "29.99420778899601",
    "geocoded_column": {
      "latitude": "29.99420778899601",
      "longitude": "-90.06004488023737"
    }
  },
  {
    "service_request": "2022-917201",
    "request_type": "Trash/Recycling",
    "request_reason": "Request a Large Item Pick Up",
    "date_created": "2022-09-07T15:56:02.000",
    "date_modified": "2022-09-07T15:56:03.000",
    "request_status": "Pending",
    "responsible_agency": "Department of Sanitation",
    "final_address": "635 N Pierce St",
    "address_councildis": "A",
    "status": "Assigned to Contractor",
    "contractor": "Richards Disposal",
    "rowid": "917201",
    "final_x": "3672751.52033",
    "final_y": "539696.022794",
    "longitude": "-90.09541600768199",
    "latitude": "29.978239720899868",
    "geocoded_column": {
      "latitude": "29.978239720899868",
      "longitude": "-90.09541600768199"
    }
  },
  {
    "service_request": "2022-917200",
    "request_type": "Trash/Recycling",
    "request_reason": "Illegal Dumping",
    "date_created": "2022-09-07T15:53:21.000",
    "date_modified": "2022-09-07T15:53:21.000",
    "request_status": "Pending",
    "responsible_agency": "Department of Sanitation",
    "final_address": "I 10 E & ALMONASTER EXIT",
    "address_councildis": "D",
    "status": "Pending",
    "rowid": "917200",
    "final_x": "3688749.9",
    "final_y": "546731.98",
    "longitude": "-90.04463759162736",
    "latitude": "29.997101136640296",
    "geocoded_column": {
      "latitude": "29.997101136640296",
      "longitude": "-90.04463759162736"
    }
  },
  {
    "service_request": "2022-917199",
    "request_type": "Roads/Drainage",
    "request_reason": "Damaged Sidewalk",
    "date_created": "2022-09-07T15:52:56.000",
    "date_modified": "2022-09-07T15:52:56.000",
    "request_status": "Pending",
    "responsible_agency": "Department of Public Works",
    "final_address": "2019 St Philip St",
    "address_councildis": "D",
    "status": "Pending",
    "rowid": "917199",
    "final_x": "3679480.19157",
    "final_y": "536284.746823",
    "longitude": "-90.07428283012412",
    "latitude": "29.96865828842867",
    "geocoded_column": {
      "latitude": "29.96865828842867",
      "longitude": "-90.07428283012412"
    }
  },
  {
    "service_request": "2022-917198",
    "request_type": "Trash/Recycling",
    "request_reason": "Order Recycling Cart",
    "date_created": "2022-09-07T15:50:10.000",
    "date_modified": "2022-09-07T15:50:10.000",
    "request_status": "Pending",
    "responsible_agency": "Department of Sanitation",
    "final_address": "1917 Annette St",
    "address_councildis": "D",
    "status": "Pending",
    "rowid": "917198",
    "final_x": "3682982.6502",
    "final_y": "539264.348426",
    "longitude": "-90.06311756962596",
    "latitude": "29.976744873333352",
    "geocoded_column": {
      "latitude": "29.976744873333352",
      "longitude": "-90.06311756962596"
    }
  },
  {
    "service_request": "2022-917196",
    "request_type": "Abandoned Vehicles",
    "request_reason": "Abandoned/Junk Vehicles",
    "date_created": "2022-09-07T15:48:01.000",
    "date_modified": "2022-09-07T15:48:01.000",
    "request_status": "Pending",
    "responsible_agency": "Department of Public Works",
    "final_address": "2039 Washington Ave",
    "address_councildis": "B",
    "status": "Pending",
    "rowid": "917196",
    "final_x": "3674989.69781",
    "final_y": "524013.936828",
    "longitude": "-90.08888494957742",
    "latitude": "29.935052547624775",
    "geocoded_column": {
      "latitude": "29.935052547624775",
      "longitude": "-90.08888494957742"
    }
  },
  {
    "service_request": "2022-917195",
    "request_type": "Traffic Signals/Signs/Striping/Streetlights",
    "request_reason": "Street Light Outage/Malfunction",
    "date_created": "2022-09-07T15:47:12.000",
    "date_modified": "2022-09-07T15:47:12.000",
    "request_status": "Pending",
    "responsible_agency": "Department of Public Works",
    "final_address": "2019 St Philip St",
    "address_councildis": "D",
    "status": "Pending",
    "contractor": "Legacy Professional Services",
    "rowid": "917195",
    "final_x": "3679480.19157",
    "final_y": "536284.746823",
    "longitude": "-90.07428283012412",
    "latitude": "29.96865828842867",
    "geocoded_column": {
      "latitude": "29.96865828842867",
      "longitude": "-90.07428283012412"
    }
  },
  {
    "service_request": "2022-917194",
    "request_type": "Trash/Recycling",
    "request_reason": "Illegal Dumping",
    "date_created": "2022-09-07T15:46:59.000",
    "date_modified": "2022-09-07T15:47:00.000",
    "request_status": "Pending",
    "responsible_agency": "Department of Sanitation",
    "final_address": "MOSS ST & ESPLANADE AVE",
    "address_councildis": "A",
    "status": "Pending",
    "rowid": "917194",
    "final_x": "3674762.88",
    "final_y": "541628.82",
    "longitude": "-90.08899710978908",
    "latitude": "29.983494346378606",
    "geocoded_column": {
      "latitude": "29.983494346378606",
      "longitude": "-90.08899710978908"
    }
  },
  {
    "service_request": "2022-917193",
    "request_type": "Trash/Recycling",
    "request_reason": "Missed Trash Pick-Up",
    "date_created": "2022-09-07T15:46:12.000",
    "date_modified": "2022-09-07T17:05:32.000",
    "request_status": "Pending",
    "responsible_agency": "Department of Sanitation",
    "final_address": "New Orleans,LA",
    "address_councildis": "D",
    "status": "Assigned to Contractor",
    "contractor": "Metro Disposal",
    "rowid": "917193",
    "final_x": "3680184.98802",
    "final_y": "538377.719948",
    "longitude": "-90.07198428351087",
    "latitude": "29.974391931035516",
    "geocoded_column": {
      "latitude": "29.974391931035516",
      "longitude": "-90.07198428351087"
    }
  },
  {
    "service_request": "2022-917192",
    "request_type": "Property Maintenance",
    "request_reason": "Property Maintenance",
    "date_created": "2022-09-07T15:41:45.000",
    "date_modified": "2022-09-07T17:04:11.000",
    "request_status": "Pending",
    "responsible_agency": "Department of Code Enforcement",
    "final_address": "4202 S. Roman Street, NOLA, 70125",
    "address_councildis": "B",
    "rowid": "917192",
    "final_x": "3670984.917",
    "final_y": "526592.494654",
    "longitude": "-90.10144052790281",
    "latitude": "29.94226173326892",
    "geocoded_column": {
      "latitude": "29.94226173326892",
      "longitude": "-90.10144052790281"
    }
  },
  {
    "service_request": "2022-917191",
    "request_type": "Property Maintenance",
    "request_reason": "Property Maintenance",
    "date_created": "2022-09-07T15:39:55.000",
    "date_modified": "2022-09-07T15:39:56.000",
    "request_status": "Pending",
    "responsible_agency": "Department of Code Enforcement",
    "final_address": "5916 Lafaye St",
    "address_councildis": "D",
    "status": "Pending",
    "rowid": "917191",
    "final_x": "3687108.01007",
    "final_y": "555026.164313",
    "longitude": "-90.04953068233289",
    "latitude": "30.019957785673604",
    "geocoded_column": {
      "latitude": "30.019957785673604",
      "longitude": "-90.04953068233289"
    }
  },
  {
    "service_request": "2022-917190",
    "request_type": "Property Maintenance",
    "request_reason": "Property Maintenance",
    "date_created": "2022-09-07T15:39:31.000",
    "date_modified": "2022-09-07T15:39:31.000",
    "request_status": "Pending",
    "responsible_agency": "Department of Code Enforcement",
    "final_address": "2120 Annette St",
    "address_councildis": "D",
    "status": "Pending",
    "rowid": "917190",
    "final_x": "3682797.31176",
    "final_y": "540011.370379",
    "longitude": "-90.06367678297964",
    "latitude": "29.978804571081692",
    "geocoded_column": {
      "latitude": "29.978804571081692",
      "longitude": "-90.06367678297964"
    }
  },
  {
    "service_request": "2022-917189",
    "request_type": "Trash/Recycling",
    "request_reason": "Missed Trash Pick-Up",
    "date_created": "2022-09-07T15:38:38.000",
    "date_modified": "2022-09-07T15:38:39.000",
    "request_status": "Pending",
    "responsible_agency": "Department of Sanitation",
    "final_address": "1558 N Rocheblave St",
    "address_councildis": "D",
    "status": "Assigned to Contractor",
    "contractor": "Metro Disposal",
    "rowid": "917189",
    "final_x": "3679836.15343",
    "final_y": "539327.647178",
    "longitude": "-90.0730529886429",
    "latitude": "29.97701445666532",
    "geocoded_column": {
      "latitude": "29.97701445666532",
      "longitude": "-90.0730529886429"
    }
  },
  {
    "service_request": "2022-917188",
    "request_type": "Trash/Recycling",
    "request_reason": "Order Trash Cart",
    "date_created": "2022-09-07T15:33:45.000",
    "date_modified": "2022-09-07T15:33:45.000",
    "request_status": "Pending",
    "responsible_agency": "Department of Sanitation",
    "final_address": "3016 Deers St",
    "address_councildis": "D",
    "status": "Assigned to Contractor",
    "contractor": "Metro Disposal",
    "rowid": "917188",
    "final_x": "3687993.71823",
    "final_y": "544095.54203",
    "longitude": "-90.04711981753238",
    "latitude": "29.989875243517368",
    "geocoded_column": {
      "latitude": "29.989875243517368",
      "longitude": "-90.04711981753238"
    }
  },
  {
    "service_request": "2022-917187",
    "request_type": "Trash/Recycling",
    "request_reason": "Request a Large Item Pick Up",
    "date_created": "2022-09-07T15:30:01.000",
    "date_modified": "2022-09-07T15:30:02.000",
    "request_status": "Pending",
    "responsible_agency": "Department of Sanitation",
    "final_address": "2608 S Carrollton Ave",
    "address_councildis": "A",
    "status": "Assigned to Contractor",
    "contractor": "Richards Disposal",
    "rowid": "917187",
    "final_x": "3665393.64992",
    "final_y": "532189.644291",
    "longitude": "-90.11890617494807",
    "latitude": "29.957816185310232",
    "geocoded_column": {
      "latitude": "29.957816185310232",
      "longitude": "-90.11890617494807"
    }
  },
  {
    "service_request": "2022-917186",
    "request_type": "Trash/Recycling",
    "request_reason": "Order Trash Cart",
    "date_created": "2022-09-07T15:26:57.000",
    "date_modified": "2022-09-07T15:26:58.000",
    "request_status": "Pending",
    "responsible_agency": "Department of Sanitation",
    "final_address": "11031 Kinneil Rd",
    "address_councildis": "E",
    "status": "Assigned to Contractor",
    "contractor": "Metro Disposal",
    "rowid": "917186",
    "final_x": "3711629.27883",
    "final_y": "564527.835041",
    "longitude": "-89.97169532458015",
    "latitude": "30.04530538564317",
    "geocoded_column": {
      "latitude": "30.04530538564317",
      "longitude": "-89.97169532458015"
    }
  },
  {
    "service_request": "2022-917185",
    "request_type": "Property Maintenance",
    "request_reason": "Property Maintenance",
    "date_created": "2022-09-07T15:24:43.000",
    "date_modified": "2022-09-07T15:24:43.000",
    "request_status": "Pending",
    "responsible_agency": "Department of Code Enforcement",
    "final_address": "1913 Casa Calvo St",
    "address_councildis": "C",
    "status": "Pending",
    "rowid": "917185",
    "final_x": "3691896.8712",
    "final_y": "524164.881404",
    "longitude": "-90.03550392712869",
    "latitude": "29.934951867401704",
    "geocoded_column": {
      "latitude": "29.934951867401704",
      "longitude": "-90.03550392712869"
    }
  },
  {
    "service_request": "2022-917184",
    "request_type": "Trash/Recycling",
    "request_reason": "Request a Large Item Pick Up",
    "date_created": "2022-09-07T15:22:40.000",
    "date_modified": "2022-09-07T15:22:40.000",
    "request_status": "Pending",
    "responsible_agency": "Department of Sanitation",
    "final_address": "7742 Briarwood Dr",
    "address_councildis": "E",
    "status": "Assigned to Contractor",
    "contractor": "Metro Disposal",
    "rowid": "917184",
    "final_x": "3717102.04959",
    "final_y": "571521.429992",
    "longitude": "-89.95413288252956",
    "latitude": "30.064354931264365",
    "geocoded_column": {
      "latitude": "30.064354931264365",
      "longitude": "-89.95413288252956"
    }
  },
  {
    "service_request": "2022-917183",
    "request_type": "Parks & Parkways",
    "request_reason": "Request Grass Cutting Service (City Owned Property)",
    "date_created": "2022-09-07T15:17:23.000",
    "date_modified": "2022-09-07T15:17:23.000",
    "request_status": "Pending",
    "responsible_agency": "Department of Parks & Parkway",
    "final_address": "4824 Bancroft Dr",
    "address_councildis": "D",
    "status": "Pending",
    "rowid": "917183",
    "final_x": "3676309.03163",
    "final_y": "550001.421332",
    "longitude": "-90.08382516888214",
    "latitude": "30.006469806080144",
    "geocoded_column": {
      "latitude": "30.006469806080144",
      "longitude": "-90.08382516888214"
    }
  },
  {
    "service_request": "2022-917182",
    "request_type": "Abandoned Vehicles",
    "request_reason": "Abandoned/Junk Vehicles",
    "date_created": "2022-09-07T15:15:43.000",
    "date_modified": "2022-09-07T15:17:35.000",
    "request_status": "Pending",
    "responsible_agency": "Department of Public Works",
    "final_address": "3332 Louisiana Avenue Prkwy",
    "address_councildis": "B",
    "status": "Pending",
    "rowid": "917182",
    "final_x": "3671681.82343",
    "final_y": "527469.640191",
    "longitude": "-90.0992104080639",
    "latitude": "29.944652977051035",
    "geocoded_column": {
      "latitude": "29.944652977051035",
      "longitude": "-90.0992104080639"
    }
  },
  {
    "service_request": "2022-917181",
    "request_type": "Trash/Recycling",
    "request_reason": "Request a Large Item Pick Up",
    "date_created": "2022-09-07T15:14:25.000",
    "date_modified": "2022-09-07T15:14:26.000",
    "request_status": "Pending",
    "responsible_agency": "Department of Sanitation",
    "final_address": "5840 Brunswick Ct",
    "address_councildis": "C",
    "status": "Assigned to Contractor",
    "contractor": "Richards Disposal",
    "rowid": "917181",
    "final_x": "3705304.21067",
    "final_y": "517210.311989",
    "longitude": "-89.99343417143143",
    "latitude": "29.915404857633558",
    "geocoded_column": {
      "latitude": "29.915404857633558",
      "longitude": "-89.99343417143143"
    }
  },
  {
    "service_request": "2022-917180",
    "request_type": "Trash/Recycling",
    "request_reason": "Illegal Dumping",
    "date_created": "2022-09-07T15:13:25.000",
    "date_modified": "2022-09-07T15:13:25.000",
    "request_status": "Pending",
    "responsible_agency": "Department of Sanitation",
    "final_address": "4725 Banks St",
    "address_councildis": "A",
    "status": "Pending",
    "rowid": "917180",
    "final_x": "3668252.12263",
    "final_y": "539075.558474",
    "longitude": "-90.10964769849264",
    "latitude": "29.9766665454641",
    "geocoded_column": {
      "latitude": "29.9766665454641",
      "longitude": "-90.10964769849264"
    }
  },
  {
    "service_request": "2022-917179",
    "request_type": "Trash/Recycling",
    "request_reason": "MIssed Recycling Pick-Up",
    "date_created": "2022-09-07T15:09:52.000",
    "date_modified": "2022-09-07T15:09:53.000",
    "request_status": "Pending",
    "responsible_agency": "Department of Sanitation",
    "final_address": "8834 Palm St",
    "address_councildis": "A",
    "status": "Assigned to Contractor",
    "contractor": "Richards Disposal",
    "rowid": "917179",
    "final_x": "3665658.17287",
    "final_y": "536523.688711",
    "longitude": "-90.11792571810764",
    "latitude": "29.969725668794226",
    "geocoded_column": {
      "latitude": "29.969725668794226",
      "longitude": "-90.11792571810764"
    }
  },
  {
    "service_request": "2022-917178",
    "request_type": "Traffic Signals/Signs/Striping/Streetlights",
    "request_reason": "Street Light Outage/Malfunction",
    "date_created": "2022-09-07T15:09:46.000",
    "date_modified": "2022-09-07T15:09:47.000",
    "request_status": "Pending",
    "responsible_agency": "Department of Public Works",
    "final_address": "4920 Werner Dr",
    "address_councildis": "E",
    "status": "Pending",
    "contractor": "Legacy Professional Services",
    "rowid": "917178",
    "final_x": "3704630.6195",
    "final_y": "556213.260314",
    "longitude": "-89.99412142822294",
    "latitude": "30.022670383261826",
    "geocoded_column": {
      "latitude": "30.022670383261826",
      "longitude": "-89.99412142822294"
    }
  },
  {
    "service_request": "2022-917177",
    "request_type": "Trash/Recycling",
    "request_reason": "Replace Trash Cart",
    "date_created": "2022-09-07T15:05:56.000",
    "date_modified": "2022-09-07T15:05:57.000",
    "request_status": "Pending",
    "responsible_agency": "Department of Sanitation",
    "final_address": "1225 Odeon St",
    "address_councildis": "C",
    "status": "Assigned to Contractor",
    "contractor": "Richards Disposal",
    "rowid": "917177",
    "final_x": "3695965.32106",
    "final_y": "526785.57747",
    "longitude": "-90.02256529464756",
    "latitude": "29.942030542977303",
    "geocoded_column": {
      "latitude": "29.942030542977303",
      "longitude": "-90.02256529464756"
    }
  },
  {
    "service_request": "2022-917176",
    "request_type": "Trash/Recycling",
    "request_reason": "Request a Large Item Pick Up",
    "date_created": "2022-09-07T14:59:27.000",
    "date_modified": "2022-09-07T14:59:28.000",
    "request_status": "Pending",
    "responsible_agency": "Department of Sanitation",
    "final_address": "2219 Delachaise St, New Orleans, Louisiana, 70115",
    "address_councildis": "B",
    "status": "Assigned to Contractor",
    "contractor": "Richards Disposal",
    "rowid": "917176",
    "final_x": "3672982.32033",
    "final_y": "523530.131195",
    "longitude": "-90.09523874190147",
    "latitude": "29.933782032660826",
    "geocoded_column": {
      "latitude": "29.933782032660826",
      "longitude": "-90.09523874190147"
    }
  },
  {
    "service_request": "2022-917175",
    "request_type": "Abandoned Vehicles",
    "request_reason": "Abandoned/Junk Vehicles",
    "date_created": "2022-09-07T14:54:07.000",
    "date_modified": "2022-09-07T14:54:07.000",
    "request_status": "Pending",
    "responsible_agency": "Department of Public Works",
    "final_address": "600 BLK Julia St",
    "address_councildis": "B",
    "status": "Pending",
    "rowid": "917175",
    "final_x": "3680688.66516",
    "final_y": "527954.651227",
    "longitude": "-90.07075627412296",
    "latitude": "29.94571678271064",
    "geocoded_column": {
      "latitude": "29.94571678271064",
      "longitude": "-90.07075627412296"
    }
  },
  {
    "service_request": "2022-917174",
    "request_type": "Traffic Signals/Signs/Striping/Streetlights",
    "request_reason": "Street Light Knocked Down/Leaning",
    "date_created": "2022-09-07T14:52:41.000",
    "date_modified": "2022-09-07T14:52:42.000",
    "request_status": "Pending",
    "responsible_agency": "Department of Public Works",
    "final_address": "3440 Timber Wolf Ln",
    "address_councildis": "C",
    "status": "Pending",
    "contractor": "Legacy Professional Services",
    "rowid": "917174",
    "final_x": "3704611.95114",
    "final_y": "511361.220976",
    "longitude": "-89.99583468135039",
    "latitude": "29.899344095272802",
    "geocoded_column": {
      "latitude": "29.899344095272802",
      "longitude": "-89.99583468135039"
    }
  },
  {
    "service_request": "2022-917173",
    "request_type": "Trash/Recycling",
    "request_reason": "Request a Large Item Pick Up",
    "date_created": "2022-09-07T14:51:44.000",
    "date_modified": "2022-09-07T14:51:45.000",
    "request_status": "Pending",
    "responsible_agency": "Department of Sanitation",
    "final_address": "4669 Western St",
    "address_councildis": "D",
    "status": "Assigned to Contractor",
    "contractor": "Metro Disposal",
    "rowid": "917173",
    "final_x": "3684237.62716",
    "final_y": "549944.188436",
    "longitude": "-90.05877877428624",
    "latitude": "30.006072321617555",
    "geocoded_column": {
      "latitude": "30.006072321617555",
      "longitude": "-90.05877877428624"
    }
  },
  {
    "service_request": "2022-917172",
    "request_type": "Trash/Recycling",
    "request_reason": "Request a Large Item Pick Up",
    "date_created": "2022-09-07T14:50:40.000",
    "date_modified": "2022-09-07T14:50:41.000",
    "case_close_date": "2021-04-10T19:00:00.000",
    "request_status": "Pending",
    "responsible_agency": "Department of Sanitation",
    "final_address": "7930 Unity Dr",
    "address_councildis": "E",
    "status": "Assigned to Contractor",
    "contractor": "Metro Disposal",
    "rowid": "917172",
    "final_x": "3711453.87192",
    "final_y": "567858.245028",
    "longitude": "-89.97212464927337",
    "latitude": "30.05446839426302",
    "geocoded_column": {
      "latitude": "30.05446839426302",
      "longitude": "-89.97212464927337"
    }
  },
  {
    "service_request": "2022-917171",
    "request_type": "Trash/Recycling",
    "request_reason": "Request a Large Item Pick Up",
    "date_created": "2022-09-07T14:50:27.000",
    "date_modified": "2022-09-07T14:50:27.000",
    "request_status": "Pending",
    "responsible_agency": "Department of Sanitation",
    "final_address": "7700 Wave Dr",
    "address_councildis": "E",
    "status": "Assigned to Contractor",
    "contractor": "Metro Disposal",
    "rowid": "917171",
    "final_x": "3714644.88549",
    "final_y": "569077.494182",
    "longitude": "-89.96199256599522",
    "latitude": "30.057716210539034",
    "geocoded_column": {
      "latitude": "30.057716210539034",
      "longitude": "-89.96199256599522"
    }
  },
  {
    "service_request": "2022-917170",
    "request_type": "Trash/Recycling",
    "request_reason": "Repair Trash Cart",
    "date_created": "2022-09-07T14:49:24.000",
    "date_modified": "2022-09-07T14:49:24.000",
    "request_status": "Pending",
    "responsible_agency": "Department of Sanitation",
    "final_address": "116 Sharon Dr",
    "address_councildis": "A",
    "status": "Assigned to Contractor",
    "contractor": "Metro Disposal",
    "rowid": "917170",
    "final_x": "3665598.58919",
    "final_y": "546843.228497",
    "longitude": "-90.11776815753024",
    "latitude": "29.99810266019465",
    "geocoded_column": {
      "latitude": "29.99810266019465",
      "longitude": "-90.11776815753024"
    }
  },
  {
    "service_request": "2022-917169",
    "request_type": "Trash/Recycling",
    "request_reason": "Replace Trash Cart",
    "date_created": "2022-09-07T14:48:47.000",
    "date_modified": "2022-09-07T14:48:48.000",
    "request_status": "Pending",
    "responsible_agency": "Department of Sanitation",
    "final_address": "4131 Hamilton St",
    "address_councildis": "A",
    "status": "Assigned to Contractor",
    "contractor": "Richards Disposal",
    "rowid": "917169",
    "final_x": "3666485.9993",
    "final_y": "538515.822601",
    "longitude": "-90.1152444773365",
    "latitude": "29.975179202527354",
    "geocoded_column": {
      "latitude": "29.975179202527354",
      "longitude": "-90.1152444773365"
    }
  },
  {
    "service_request": "2022-917168",
    "request_type": "Trash/Recycling",
    "request_reason": "Request a Large Item Pick Up",
    "date_created": "2022-09-07T14:48:15.000",
    "date_modified": "2022-09-07T14:48:16.000",
    "request_status": "Pending",
    "responsible_agency": "Department of Sanitation",
    "final_address": "1455 Gardena Dr",
    "address_councildis": "D",
    "status": "Assigned to Contractor",
    "contractor": "Metro Disposal",
    "rowid": "917168",
    "final_x": "3677901.9812",
    "final_y": "551542.530453",
    "longitude": "-90.07873932667688",
    "latitude": "30.010659445701254",
    "geocoded_column": {
      "latitude": "30.010659445701254",
      "longitude": "-90.07873932667688"
    }
  },
  {
    "service_request": "2022-917167",
    "request_type": "Trash/Recycling",
    "request_reason": "Replace Trash Cart",
    "date_created": "2022-09-07T14:47:41.000",
    "date_modified": "2022-09-07T14:47:42.000",
    "request_status": "Pending",
    "responsible_agency": "Department of Sanitation",
    "final_address": "4200 Dauphine St",
    "address_councildis": "C",
    "status": "Assigned to Contractor",
    "contractor": "Metro Disposal",
    "rowid": "917167",
    "final_x": "3692124.63837",
    "final_y": "533975.752261",
    "longitude": "-90.03443377071265",
    "latitude": "29.961921277775215",
    "geocoded_column": {
      "latitude": "29.961921277775215",
      "longitude": "-90.03443377071265"
    }
  },
  {
    "service_request": "2022-917166",
    "request_type": "Trash/Recycling",
    "request_reason": "Missed Trash Pick-Up",
    "date_created": "2022-09-07T14:46:53.000",
    "date_modified": "2022-09-07T14:46:54.000",
    "request_status": "Pending",
    "responsible_agency": "Department of Sanitation",
    "final_address": "1729 Kerlerec St",
    "address_councildis": "D",
    "status": "Assigned to Contractor",
    "contractor": "Metro Disposal",
    "rowid": "917166",
    "final_x": "3681043.91432",
    "final_y": "537284.36916",
    "longitude": "-90.06930968354476",
    "latitude": "29.971359567828113",
    "geocoded_column": {
      "latitude": "29.971359567828113",
      "longitude": "-90.06930968354476"
    }
  },
  {
    "service_request": "2022-917165",
    "request_type": "Trash/Recycling",
    "request_reason": "Replace Trash Cart",
    "date_created": "2022-09-07T14:46:18.000",
    "date_modified": "2022-09-07T14:46:18.000",
    "request_status": "Pending",
    "responsible_agency": "Department of Sanitation",
    "final_address": "New Orleans,LA",
    "status": "Assigned to Contractor",
    "rowid": "917165",
    "longitude": "0.0",
    "latitude": "0.0",
    "geocoded_column": {
      "latitude": "0.0",
      "longitude": "0.0"
    }
  },
  {
    "service_request": "2022-917164",
    "request_type": "Traffic Signals/Signs/Striping/Streetlights",
    "request_reason": "Street Light Outage/Malfunction",
    "date_created": "2022-09-07T14:45:50.000",
    "date_modified": "2022-09-07T14:45:51.000",
    "request_status": "Pending",
    "responsible_agency": "Department of Public Works",
    "final_address": "11 Bamboo Rd",
    "address_councildis": "A",
    "status": "Pending",
    "contractor": "Legacy Professional Services",
    "rowid": "917164",
    "final_x": "3663517.71943",
    "final_y": "539052.21505",
    "longitude": "-90.12460125843019",
    "latitude": "29.976740533375892",
    "geocoded_column": {
      "latitude": "29.976740533375892",
      "longitude": "-90.12460125843019"
    }
  },
  {
    "service_request": "2022-917163",
    "request_type": "Property Maintenance",
    "request_reason": "Property Maintenance",
    "date_created": "2022-09-07T14:45:38.000",
    "date_modified": "2022-09-07T14:45:38.000",
    "request_status": "Pending",
    "responsible_agency": "Department of Code Enforcement",
    "final_address": "617 First St",
    "address_councildis": "B",
    "status": "Pending",
    "rowid": "917163",
    "final_x": "3679028.40936",
    "final_y": "520117.103224",
    "longitude": "-90.07626972804592",
    "latitude": "29.92421630502302",
    "geocoded_column": {
      "latitude": "29.92421630502302",
      "longitude": "-90.07626972804592"
    }
  },
  {
    "service_request": "2022-917161",
    "request_type": "Property Maintenance",
    "request_reason": "Property Maintenance",
    "date_created": "2022-09-07T14:42:25.000",
    "date_modified": "2022-09-07T14:42:26.000",
    "request_status": "Pending",
    "responsible_agency": "Department of Code Enforcement",
    "final_address": "6340 Hewes St",
    "address_councildis": "A",
    "status": "Pending",
    "rowid": "917161",
    "final_x": "3667650.43265",
    "final_y": "529744.762817",
    "longitude": "-90.11186217558213",
    "latitude": "29.951027600084394",
    "geocoded_column": {
      "latitude": "29.951027600084394",
      "longitude": "-90.11186217558213"
    }
  },
  {
    "service_request": "2022-917160",
    "request_type": "Trash/Recycling",
    "request_reason": "Request a Large Item Pick Up",
    "date_created": "2022-09-07T14:41:34.000",
    "date_modified": "2022-09-07T14:41:34.000",
    "request_status": "Pending",
    "responsible_agency": "Department of Sanitation",
    "final_address": "820 N Robertson St",
    "address_councildis": "C",
    "status": "Assigned to Contractor",
    "contractor": "Richards Disposal",
    "rowid": "917160",
    "final_x": "3680457.03471",
    "final_y": "534730.252742",
    "longitude": "-90.0712519774718",
    "latitude": "29.964354412307728",
    "geocoded_column": {
      "latitude": "29.964354412307728",
      "longitude": "-90.0712519774718"
    }
  },
  {
    "service_request": "2022-917159",
    "request_type": "Trash/Recycling",
    "request_reason": "MIssed Recycling Pick-Up",
    "date_created": "2022-09-07T14:41:13.000",
    "date_modified": "2022-09-07T14:41:14.000",
    "request_status": "Pending",
    "responsible_agency": "Department of Sanitation",
    "final_address": "1729 Kerlerec St",
    "address_councildis": "D",
    "status": "Assigned to Contractor",
    "contractor": "Metro Disposal",
    "rowid": "917159",
    "final_x": "3681043.91432",
    "final_y": "537284.36916",
    "longitude": "-90.06930968354476",
    "latitude": "29.971359567828113",
    "geocoded_column": {
      "latitude": "29.971359567828113",
      "longitude": "-90.06930968354476"
    }
  },
  {
    "service_request": "2022-917158",
    "request_type": "Traffic Signals/Signs/Striping/Streetlights",
    "request_reason": "Street Light Outage/Malfunction",
    "date_created": "2022-09-07T14:41:08.000",
    "date_modified": "2022-09-07T14:41:09.000",
    "request_status": "Pending",
    "responsible_agency": "Department of Public Works",
    "final_address": "3801 N Roman St",
    "address_councildis": "D",
    "status": "Pending",
    "contractor": "Legacy Professional Services",
    "rowid": "917158",
    "final_x": "3691920.75056",
    "final_y": "538109.602313",
    "longitude": "-90.03492969277225",
    "latitude": "29.973294261221923",
    "geocoded_column": {
      "latitude": "29.973294261221923",
      "longitude": "-90.03492969277225"
    }
  },
  {
    "service_request": "2022-917157",
    "request_type": "Trash/Recycling",
    "request_reason": "Missed Trash Pick-Up",
    "date_created": "2022-09-07T14:40:19.000",
    "date_modified": "2022-09-07T14:40:20.000",
    "request_status": "Pending",
    "responsible_agency": "Department of Sanitation",
    "final_address": "1442 N Roman St",
    "address_councildis": "D",
    "status": "Assigned to Contractor",
    "contractor": "Metro Disposal",
    "rowid": "917157",
    "final_x": "3681006.51938",
    "final_y": "537328.75316",
    "longitude": "-90.06942623586762",
    "latitude": "29.97148274275327",
    "geocoded_column": {
      "latitude": "29.97148274275327",
      "longitude": "-90.06942623586762"
    }
  },
  {
    "service_request": "2022-917156",
    "request_type": "Parks & Parkways",
    "request_reason": "Request Tree Service (Right of Way/Public Property)",
    "date_created": "2022-09-07T14:39:36.000",
    "date_modified": "2022-09-07T14:39:36.000",
    "request_status": "Pending",
    "responsible_agency": "Department of Parks & Parkway",
    "final_address": "7202 Canal Blvd",
    "address_councildis": "D",
    "status": "Pending",
    "rowid": "917156",
    "final_x": "3669380.62682",
    "final_y": "554832.854872",
    "longitude": "-90.10555026794287",
    "latitude": "30.01996046706393",
    "geocoded_column": {
      "latitude": "30.01996046706393",
      "longitude": "-90.10555026794287"
    }
  },
  {
    "service_request": "2022-917155",
    "request_type": "Property Maintenance",
    "request_reason": "Property Maintenance",
    "date_created": "2022-09-07T14:38:30.000",
    "date_modified": "2022-09-07T14:38:30.000",
    "request_status": "Pending",
    "responsible_agency": "Department of Code Enforcement",
    "final_address": "4816 Kendall Dr",
    "address_councildis": "D",
    "status": "Pending",
    "rowid": "917155",
    "final_x": "3690313.90972",
    "final_y": "550927.334037",
    "longitude": "-90.03954732842193",
    "latitude": "30.00858836737706",
    "geocoded_column": {
      "latitude": "30.00858836737706",
      "longitude": "-90.03954732842193"
    }
  },
  {
    "service_request": "2022-917154",
    "request_type": "Trash/Recycling",
    "request_reason": "Order Trash Cart",
    "date_created": "2022-09-07T14:34:24.000",
    "date_modified": "2022-09-07T14:34:24.000",
    "request_status": "Pending",
    "responsible_agency": "Department of Sanitation",
    "final_address": "1831 Dumaine St",
    "address_councildis": "D",
    "status": "Assigned to Contractor",
    "contractor": "Richards Disposal",
    "rowid": "917154",
    "final_x": "3679719.06536",
    "final_y": "535605.169414",
    "longitude": "-90.07355204886312",
    "latitude": "29.966782463882353",
    "geocoded_column": {
      "latitude": "29.966782463882353",
      "longitude": "-90.07355204886312"
    }
  },
  {
    "service_request": "2022-917153",
    "request_type": "Trash/Recycling",
    "request_reason": "Order Trash Cart",
    "date_created": "2022-09-07T14:34:05.000",
    "date_modified": "2022-09-07T14:34:05.000",
    "request_status": "Pending",
    "responsible_agency": "Department of Sanitation",
    "final_address": "825 Lowerline St, New Orleans, Louisiana, 70118",
    "address_councildis": "A",
    "status": "Assigned to Contractor",
    "contractor": "Richards Disposal",
    "rowid": "917153",
    "final_x": "3663054.48954",
    "final_y": "525820.103677",
    "longitude": "-90.12650444596721",
    "latitude": "29.94036995875034",
    "geocoded_column": {
      "latitude": "29.94036995875034",
      "longitude": "-90.12650444596721"
    }
  },
  {
    "service_request": "2022-917152",
    "request_type": "Trash/Recycling",
    "request_reason": "Missed Trash Pick-Up",
    "date_created": "2022-09-07T14:33:36.000",
    "date_modified": "2022-09-07T14:33:37.000",
    "request_status": "Pending",
    "responsible_agency": "Department of Sanitation",
    "final_address": "1831 Dumaine St",
    "address_councildis": "D",
    "status": "Assigned to Contractor",
    "contractor": "Richards Disposal",
    "rowid": "917152",
    "final_x": "3679719.06536",
    "final_y": "535605.169414",
    "longitude": "-90.07355204886312",
    "latitude": "29.966782463882353",
    "geocoded_column": {
      "latitude": "29.966782463882353",
      "longitude": "-90.07355204886312"
    }
  },
  {
    "service_request": "2022-917151",
    "request_type": "Property Maintenance",
    "request_reason": "Property Maintenance",
    "date_created": "2022-09-07T14:30:10.000",
    "date_modified": "2022-09-07T16:08:59.000",
    "request_status": "Pending",
    "responsible_agency": "Department of Code Enforcement",
    "final_address": "4202 S. Roman Street, New Orleans, LA  70125",
    "address_councildis": "B",
    "rowid": "917151",
    "final_x": "3670984.917",
    "final_y": "526592.494654",
    "longitude": "-90.10144052790281",
    "latitude": "29.94226173326892",
    "geocoded_column": {
      "latitude": "29.94226173326892",
      "longitude": "-90.10144052790281"
    }
  },
  {
    "service_request": "2022-917150",
    "request_type": "Abandoned Vehicles",
    "request_reason": "Vehicle Blocking Your Driveway",
    "date_created": "2022-09-07T14:29:00.000",
    "date_modified": "2022-09-07T14:29:00.000",
    "request_status": "Pending",
    "responsible_agency": "Department of Public Works",
    "final_address": "737 Eleonore St, New Orleans, Louisiana, 70115",
    "address_councildis": "A",
    "status": "Pending",
    "rowid": "917150",
    "final_x": "3665250.75239",
    "final_y": "519020.469111",
    "longitude": "-90.11979781935953",
    "latitude": "29.921609329573183",
    "geocoded_column": {
      "latitude": "29.921609329573183",
      "longitude": "-90.11979781935953"
    }
  },
  {
    "service_request": "2022-917149",
    "request_type": "Trash/Recycling",
    "request_reason": "Order Trash Cart",
    "date_created": "2022-09-07T14:26:51.000",
    "date_modified": "2022-09-07T14:26:52.000",
    "request_status": "Pending",
    "responsible_agency": "Department of Sanitation",
    "final_address": "827 Lowerline St, New Orleans, Louisiana, 70118",
    "address_councildis": "A",
    "status": "Assigned to Contractor",
    "contractor": "Richards Disposal",
    "rowid": "917149",
    "final_x": "3663067.35328",
    "final_y": "525838.348349",
    "longitude": "-90.12646322617557",
    "latitude": "29.940419753246985",
    "geocoded_column": {
      "latitude": "29.940419753246985",
      "longitude": "-90.12646322617557"
    }
  },
  {
    "service_request": "2022-917148",
    "request_type": "Property Maintenance",
    "request_reason": "Property Maintenance",
    "date_created": "2022-09-07T14:21:51.000",
    "date_modified": "2022-09-07T14:21:52.000",
    "request_status": "Pending",
    "responsible_agency": "Department of Code Enforcement",
    "final_address": "2837 Louisiana Ave",
    "address_councildis": "B",
    "status": "Pending",
    "rowid": "917148",
    "final_x": "3672437.12871",
    "final_y": "525780.823037",
    "longitude": "-90.096883217691",
    "latitude": "29.939986891326548",
    "geocoded_column": {
      "latitude": "29.939986891326548",
      "longitude": "-90.096883217691"
    }
  },
  {
    "service_request": "2022-917147",
    "request_type": "Trash/Recycling",
    "request_reason": "Request a Large Item Pick Up",
    "date_created": "2022-09-07T14:18:22.000",
    "date_modified": "2022-09-07T14:18:23.000",
    "request_status": "Pending",
    "responsible_agency": "Department of Sanitation",
    "final_address": "1000 Aline St",
    "address_councildis": "B",
    "status": "Assigned to Contractor",
    "contractor": "Richards Disposal",
    "rowid": "917147",
    "final_x": "3674498.80936",
    "final_y": "519141.643511",
    "longitude": "-90.09060150805863",
    "latitude": "29.921669965991597",
    "geocoded_column": {
      "latitude": "29.921669965991597",
      "longitude": "-90.09060150805863"
    }
  },
  {
    "service_request": "2022-917146",
    "request_type": "Trash/Recycling",
    "request_reason": "Request a Large Item Pick Up",
    "date_created": "2022-09-07T14:16:21.000",
    "date_modified": "2022-09-07T14:16:22.000",
    "request_status": "Pending",
    "responsible_agency": "Department of Sanitation",
    "final_address": "2014 N Roman St",
    "address_councildis": "D",
    "status": "Assigned to Contractor",
    "contractor": "Metro Disposal",
    "rowid": "917146",
    "final_x": "3684166.55145",
    "final_y": "538797.082889",
    "longitude": "-90.05939485279828",
    "latitude": "29.97542391658076",
    "geocoded_column": {
      "latitude": "29.97542391658076",
      "longitude": "-90.05939485279828"
    }
  },
  {
    "service_request": "2022-917145",
    "request_type": "Property Maintenance",
    "request_reason": "Property Maintenance",
    "date_created": "2022-09-07T14:15:35.000",
    "date_modified": "2022-09-07T16:06:49.000",
    "request_status": "Pending",
    "responsible_agency": "Department of Code Enforcement",
    "final_address": "4202 S Roman St, New Orleans, Louisiana, 70125",
    "address_councildis": "B",
    "rowid": "917145",
    "final_x": "3670984.917",
    "final_y": "526592.494654",
    "longitude": "-90.10144052790281",
    "latitude": "29.94226173326892",
    "geocoded_column": {
      "latitude": "29.94226173326892",
      "longitude": "-90.10144052790281"
    }
  },
  {
    "service_request": "2022-917144",
    "request_type": "Abandoned Vehicles",
    "request_reason": "Abandoned/Junk Vehicles",
    "date_created": "2022-09-07T14:15:09.000",
    "date_modified": "2022-09-07T14:15:09.000",
    "request_status": "Pending",
    "responsible_agency": "Department of Public Works",
    "final_address": "1428 Joseph St",
    "address_councildis": "A",
    "status": "Pending",
    "rowid": "917144",
    "final_x": "3666579.18465",
    "final_y": "521175.954681",
    "longitude": "-90.11553220434062",
    "latitude": "29.92749748263231",
    "geocoded_column": {
      "latitude": "29.92749748263231",
      "longitude": "-90.11553220434062"
    }
  },
  {
    "service_request": "2022-917143",
    "request_type": "Parks & Parkways",
    "request_reason": "Request Tree Service (Right of Way/Public Property)",
    "date_created": "2022-09-07T14:14:14.000",
    "date_modified": "2022-09-07T14:14:14.000",
    "request_status": "Pending",
    "responsible_agency": "Department of Parks & Parkway",
    "final_address": "110 Hathaway Pl",
    "address_councildis": "D",
    "status": "Pending",
    "rowid": "917143",
    "final_x": "3678317.48315",
    "final_y": "544041.005134",
    "longitude": "-90.0776863093718",
    "latitude": "29.99002039444591",
    "geocoded_column": {
      "latitude": "29.99002039444591",
      "longitude": "-90.0776863093718"
    }
  },
  {
    "service_request": "2022-917140",
    "request_type": "Abandoned Vehicles",
    "request_reason": "Abandoned/Junk Vehicles",
    "date_created": "2022-09-07T13:59:28.000",
    "date_modified": "2022-09-07T14:00:02.000",
    "request_status": "Pending",
    "responsible_agency": "Department of Public Works",
    "final_address": "900 Vallette St",
    "address_councildis": "C",
    "status": "Inspected",
    "rowid": "917140",
    "final_x": "3687515.27151",
    "final_y": "528322.756544",
    "longitude": "-90.04918945110774",
    "latitude": "29.946520349200973",
    "geocoded_column": {
      "latitude": "29.946520349200973",
      "longitude": "-90.04918945110774"
    }
  },