[
  {
    "service_request": "2023-1015300",
    "request_type": "Roads/Drainage",
    "request_reason": "Unpermitted work in ROW",
    "date_created": "2023-07-09T02:00:10.000",
    "date_modified": "2023-07-09T02:00:10.000",
    "request_status": "Pending",
    "responsible_agency": "Department of Public Works",
    "final_address": "5859 Louis Xiv St",
    "address_councildis": "A",
    "status": "Pending",
    "rowid": "1015300",
    "final_x": "3668061.91687",
    "final_y": "546438.607953",
    "longitude": "-90.11000015389702",
    "latitude": "29.996918008801593",
    "geocoded_column": {
      "latitude": "29.996918008801593",
      "longitude": "-90.11000015389702"
    }
  },
  {
    "service_request": "2023-1015299",
    "request_type": "Traffic Signals/Signs/Striping/Streetlights",
    "request_reason": "Street Light Outage/Malfunction",
    "date_created": "2023-07-08T23:56:30.000",
    "date_modified": "2023-07-08T23:56:30.000",
    "request_status": "Pending",
    "responsible_agency": "Department of Public Works",
    "final_address": "1836 General Ogden St",
    "address_councildis": "A",
    "status": "Assigned to Contractor",
    "contractor": "Legacy Professional Services",
    "rowid": "1015299",
    "final_x": "3661458.46336",
    "final_y": "532094.544835",
    "longitude": "-90.13133558140692",
    "latitude": "29.957668787163833",
    "geocoded_column": {
      "latitude": "29.957668787163833",
      "longitude": "-90.13133558140692"
    }
  },
  {
    "service_request": "2023-1015298",
    "request_type": "Trash/Recycling",
    "request_reason": "Replace Trash Cart",
    "date_created": "2023-07-08T23:47:40.000",
    "date_modified": "2023-07-08T23:47:41.000",
    "request_status": "Pending",
    "responsible_agency": "Department of Sanitation",
    "final_address": "4233 Iberville St",
    "address_councildis": "A",
    "status": "Assigned to Contractor",
    "contractor": "Richards Disposal",
    "rowid": "1015298",
    "final_x": "3670650.00564",
    "final_y": "539268.741386",
    "longitude": "-90.10206786521819",
    "latitude": "29.977127102285333",
    "geocoded_column": {
      "latitude": "29.977127102285333",
      "longitude": "-90.10206786521819"
    }
  },
  {
    "service_request": "2023-1015297",
    "request_type": "Property Maintenance",
    "request_reason": "Property Maintenance",
    "date_created": "2023-07-08T23:32:44.000",
    "date_modified": "2023-07-08T23:32:44.000",
    "request_status": "Pending",
    "responsible_agency": "Department of Code Enforcement",
    "final_address": "4945 Congress Dr",
    "address_councildis": "D",
    "status": "Pending",
    "rowid": "1015297",
    "final_x": "3692173.93385",
    "final_y": "552488.412374",
    "longitude": "-90.03361499651125",
    "latitude": "30.012822875772887",
    "geocoded_column": {
      "latitude": "30.012822875772887",
      "longitude": "-90.03361499651125"
    }
  },
  {
    "service_request": "2023-1015296",
    "request_type": "Health Related Request",
    "request_reason": "Noise Ordinance Complaint",
    "date_created": "2023-07-08T22:58:51.000",
    "date_modified": "2023-07-08T22:58:51.000",
    "request_status": "Pending",
    "responsible_agency": "Health Department",
    "final_address": "739 Canal St, New Orleans, Louisiana, 70130",
    "address_councildis": "C",
    "status": "Pending",
    "rowid": "1015296",
    "final_x": "3681011.37141",
    "final_y": "530920.698434",
    "longitude": "-90.06963410407758",
    "latitude": "29.953862633161567",
    "geocoded_column": {
      "latitude": "29.953862633161567",
      "longitude": "-90.06963410407758"
    }
  },
  {
    "service_request": "2023-1015295",
    "request_type": "Traffic Signals/Signs/Striping/Streetlights",
    "request_reason": "Street Light Outage/Malfunction",
    "date_created": "2023-07-08T22:44:45.000",
    "date_modified": "2023-07-08T22:44:46.000",
    "request_status": "Pending",
    "responsible_agency": "Department of Public Works",
    "final_address": "4814 Prytania St",
    "address_councildis": "B",
    "status": "Assigned to Contractor",
    "contractor": "Legacy Professional Services",
    "rowid": "1015295",
    "final_x": "3669270.429",
    "final_y": "520113.468024",
    "longitude": "-90.10707247616587",
    "latitude": "29.924497060065338",
    "geocoded_column": {
      "latitude": "29.924497060065338",
      "longitude": "-90.10707247616587"
    }
  },
  {
    "service_request": "2023-1015294",
    "request_type": "Trash/Recycling",
    "request_reason": "Request a Large Item Pick Up",
    "date_created": "2023-07-08T22:28:18.000",
    "date_modified": "2023-07-08T22:28:19.000",
    "request_status": "Pending",
    "responsible_agency": "Department of Sanitation",
    "final_address": "6910 Camberley Dr",
    "address_councildis": "E",
    "status": "Assigned to Contractor",
    "contractor": "Waste Pro",
    "rowid": "1015294",
    "final_x": "3713395.02053",
    "final_y": "564104.384609",
    "longitude": "-89.96613075468699",
    "latitude": "30.044083255172254",
    "geocoded_column": {
      "latitude": "30.044083255172254",
      "longitude": "-89.96613075468699"
    }
  },
  {
    "service_request": "2023-1015293",
    "request_type": "Tax and Revenue",
    "request_reason": "Occupational License Tax",
    "date_created": "2023-07-08T22:14:29.000",
    "date_modified": "2023-07-08T22:14:29.000",
    "request_status": "Pending",
    "responsible_agency": "Bureau of Revenue",
    "final_address": "1328 St Bernard Ave",
    "address_councildis": "C",
    "status": "Pending",
    "rowid": "1015293",
    "final_x": "3682712.52284",
    "final_y": "536735.540615",
    "longitude": "-90.06405918653729",
    "latitude": "29.96979976049472",
    "geocoded_column": {
      "latitude": "29.96979976049472",
      "longitude": "-90.06405918653729"
    }
  },
  {
    "service_request": "2023-1015292",
    "request_type": "Safety & Permits",
    "request_reason": "Licenses & Permits",
    "date_created": "2023-07-08T22:13:50.000",
    "date_modified": "2023-07-08T22:13:50.000",
    "request_status": "Pending",
    "responsible_agency": "Safety and Permits",
    "final_address": "1328 St Bernard Ave",
    "address_councildis": "C",
    "status": "Pending",
    "rowid": "1015292",
    "final_x": "3682712.52284",
    "final_y": "536735.540615",
    "longitude": "-90.06405918653729",
    "latitude": "29.96979976049472",
    "geocoded_column": {
      "latitude": "29.96979976049472",
      "longitude": "-90.06405918653729"
    }
  },
  {
    "service_request": "2023-1015291",
    "request_type": "Health Related Request",
    "request_reason": "Noise Ordinance Complaint",
    "date_created": "2023-07-08T22:11:49.000",
    "date_modified": "2023-07-08T22:11:49.000",
    "request_status": "Pending",
    "responsible_agency": "Health Department",
    "final_address": "1328 St Bernard Ave",
    "address_councildis": "C",
    "status": "Pending",
    "rowid": "1015291",
    "final_x": "3682712.52284",
    "final_y": "536735.540615",
    "longitude": "-90.06405918653729",
    "latitude": "29.96979976049472",
    "geocoded_column": {
      "latitude": "29.96979976049472",
      "longitude": "-90.06405918653729"
    }
  },
  {
    "service_request": "2023-1015290",
    "request_type": "Roads/Drainage",
    "request_reason": "Catch Basin - Broken/Damage",
    "date_created": "2023-07-08T22:03:15.000",
    "date_modified": "2023-07-08T22:03:15.000",
    "request_status": "Pending",
    "responsible_agency": "Department of Public Works",
    "final_address": "5251 Michoud Blvd",
    "address_councildis": "E",
    "status": "Pending",
    "rowid": "1015290",
    "final_x": "3724873.17337",
    "final_y": "562779.96944",
    "longitude": "-89.9299064760112",
    "latitude": "30.04006008965546",
    "geocoded_column": {
      "latitude": "30.04006008965546",
      "longitude": "-89.9299064760112"
    }
  },
  {
    "service_request": "2023-1015289",
    "request_type": "Tax and Revenue",
    "request_reason": "Occupational License Tax",
    "date_created": "2023-07-08T22:03:01.000",
    "date_modified": "2023-07-08T22:03:01.000",
    "request_status": "Pending",
    "responsible_agency": "Bureau of Revenue",
    "final_address": "1775 Joseph Guillaume Pl",
    "address_councildis": "C",
    "status": "Pending",
    "rowid": "1015289",
    "final_x": "3683462.43785",
    "final_y": "536121.270855",
    "longitude": "-90.06171241725919",
    "latitude": "29.96808786850646",
    "geocoded_column": {
      "latitude": "29.96808786850646",
      "longitude": "-90.06171241725919"
    }
  },
  {
    "service_request": "2023-1015288",
    "request_type": "Safety & Permits",
    "request_reason": "Licenses & Permits",
    "date_created": "2023-07-08T22:02:16.000",
    "date_modified": "2023-07-08T22:02:16.000",
    "request_status": "Pending",
    "responsible_agency": "Safety and Permits",
    "final_address": "1775 Joseph Guillaume Pl",
    "address_councildis": "C",
    "status": "Pending",
    "rowid": "1015288",
    "final_x": "3683462.43785",
    "final_y": "536121.270855",
    "longitude": "-90.06171241725919",
    "latitude": "29.96808786850646",
    "geocoded_column": {
      "latitude": "29.96808786850646",
      "longitude": "-90.06171241725919"
    }
  },
  {
    "service_request": "2023-1015287",
    "request_type": "Health Related Request",
    "request_reason": "Noise Ordinance Complaint",
    "date_created": "2023-07-08T22:01:05.000",
    "date_modified": "2023-07-08T22:01:05.000",
    "request_status": "Pending",
    "responsible_agency": "Health Department",
    "final_address": "1775 Joseph Guillaume Pl",
    "address_councildis": "C",
    "status": "Pending",
    "rowid": "1015287",
    "final_x": "3683462.43785",
    "final_y": "536121.270855",
    "longitude": "-90.06171241725919",
    "latitude": "29.96808786850646",
    "geocoded_column": {
      "latitude": "29.96808786850646",
      "longitude": "-90.06171241725919"
    }
  },
  {
    "service_request": "2023-1015286",
    "request_type": "Roads/Drainage",
    "request_reason": "Catch Basin - Broken/Damage",
    "date_created": "2023-07-08T21:59:35.000",
    "date_modified": "2023-07-08T21:59:35.000",
    "request_status": "Pending",
    "responsible_agency": "Department of Public Works",
    "final_address": "8000 Lake Forest Blvd",
    "address_councildis": "E",
    "status": "Pending",
    "rowid": "1015286",
    "final_x": "3704089.00682",
    "final_y": "556974.502042",
    "longitude": "-89.99580470738424",
    "latitude": "30.024780898112446",
    "geocoded_column": {
      "latitude": "30.024780898112446",
      "longitude": "-89.99580470738424"
    }
  },
  {
    "service_request": "2023-1015285",
    "request_type": "Traffic Signals/Signs/Striping/Streetlights",
    "request_reason": "Street Light Outage/Malfunction",
    "date_created": "2023-07-08T21:52:51.000",
    "date_modified": "2023-07-08T21:52:51.000",
    "request_status": "Pending",
    "responsible_agency": "Department of Public Works",
    "final_address": "5711 Louis Prima Ct",
    "address_councildis": "E",
    "status": "Assigned to Contractor",
    "contractor": "Legacy Professional Services",
    "rowid": "1015285",
    "final_x": "3716206.03314",
    "final_y": "561874.385247",
    "longitude": "-89.95733144120516",
    "latitude": "30.037859137095186",
    "geocoded_column": {
      "latitude": "30.037859137095186",
      "longitude": "-89.95733144120516"
    }
  },
  {
    "service_request": "2023-1015284",
    "request_type": "Traffic Signals/Signs/Striping/Streetlights",
    "request_reason": "Street Light Outage/Malfunction",
    "date_created": "2023-07-08T21:39:07.000",
    "date_modified": "2023-07-08T21:39:08.000",
    "request_status": "Pending",
    "responsible_agency": "Department of Public Works",
    "final_address": "301 Delacroix Rd",
    "address_councildis": "C",
    "status": "Assigned to Contractor",
    "contractor": "Legacy Professional Services",
    "rowid": "1015284",
    "final_x": "3726487.42496",
    "final_y": "516531.081461",
    "longitude": "-89.92659939796987",
    "latitude": "29.91283911260007",
    "geocoded_column": {
      "latitude": "29.91283911260007",
      "longitude": "-89.92659939796987"
    }
  },
  {
    "service_request": "2023-1015283",
    "request_type": "Health Related Request",
    "request_reason": "Smoke-Free Ordinance Complaint",
    "date_created": "2023-07-08T21:32:29.000",
    "date_modified": "2023-07-08T21:32:29.000",
    "request_status": "Pending",
    "responsible_agency": "Health Department",
    "final_address": "2707 Orleans Ave",
    "address_councildis": "A",
    "status": "Pending",
    "rowid": "1015283",
    "final_x": "3676747.53512",
    "final_y": "537213.051272",
    "longitude": "-90.0828807269015",
    "latitude": "29.97129308883862",
    "geocoded_column": {
      "latitude": "29.97129308883862",
      "longitude": "-90.0828807269015"
    }
  },
  {
    "service_request": "2023-1015282",
    "request_type": "Trash/Recycling",
    "request_reason": "Replace Trash Cart",
    "date_created": "2023-07-08T21:26:43.000",
    "date_modified": "2023-07-08T21:26:44.000",
    "request_status": "Pending",
    "responsible_agency": "Department of Sanitation",
    "final_address": "4818 Ken Ct",
    "address_councildis": "C",
    "status": "Assigned to Contractor",
    "contractor": "Richards Disposal",
    "rowid": "1015282",
    "final_x": "3701914.03165",
    "final_y": "518578.584759",
    "longitude": "-90.0040846611289",
    "latitude": "29.919275709929032",
    "geocoded_column": {
      "latitude": "29.919275709929032",
      "longitude": "-90.0040846611289"
    }
  },
  {
    "service_request": "2023-1015281",
    "request_type": "Traffic Signals/Signs/Striping/Streetlights",
    "request_reason": "Street Light Outage/Malfunction",
    "date_created": "2023-07-08T21:04:41.000",
    "date_modified": "2023-07-08T21:04:41.000",
    "request_status": "Pending",
    "responsible_agency": "Department of Public Works",
    "final_address": "8424 Sycamore St",
    "address_councildis": "A",
    "status": "Assigned to Contractor",
    "contractor": "Legacy Professional Services",
    "rowid": "1015281",
    "final_x": "3663352.80096",
    "final_y": "531812.079875",
    "longitude": "-90.12536319009104",
    "latitude": "29.95683732355394",
    "geocoded_column": {
      "latitude": "29.95683732355394",
      "longitude": "-90.12536319009104"
    }
  },
  {
    "service_request": "2023-1015280",
    "request_type": "Traffic Signals/Signs/Striping/Streetlights",
    "request_reason": "Street Light Outage/Malfunction",
    "date_created": "2023-07-08T21:03:05.000",
    "date_modified": "2023-07-08T21:03:06.000",
    "request_status": "Pending",
    "responsible_agency": "Department of Public Works",
    "final_address": "8200 BLK Sycamore St",
    "address_councildis": "A",
    "status": "Assigned to Contractor",
    "contractor": "Legacy Professional Services",
    "rowid": "1015280",
    "final_x": "3663929.18392",
    "final_y": "531332.484367",
    "longitude": "-90.12355913664824",
    "latitude": "29.95550187121594",
    "geocoded_column": {
      "latitude": "29.95550187121594",
      "longitude": "-90.12355913664824"
    }
  },
  {
    "service_request": "2023-1015279",
    "request_type": "Traffic Signals/Signs/Striping/Streetlights",
    "request_reason": "Street Light Outage/Malfunction",
    "date_created": "2023-07-08T21:00:05.000",
    "date_modified": "2023-07-08T21:00:06.000",
    "request_status": "Pending",
    "responsible_agency": "Department of Public Works",
    "final_address": "8418 Sycamore St",
    "address_councildis": "A",
    "status": "Assigned to Contractor",
    "contractor": "Legacy Professional Services",
    "rowid": "1015279",
    "final_x": "3663382.8809",
    "final_y": "531784.169795",
    "longitude": "-90.12526913592149",
    "latitude": "29.95675970791891",
    "geocoded_column": {
      "latitude": "29.95675970791891",
      "longitude": "-90.12526913592149"
    }
  },
  {
    "service_request": "2023-1015278",
    "request_type": "Trash/Recycling",
    "request_reason": "Replace Trash Cart",
    "date_created": "2023-07-08T20:52:11.000",
    "date_modified": "2023-07-08T20:52:12.000",
    "request_status": "Pending",
    "responsible_agency": "Department of Sanitation",
    "final_address": "1456 N Galvez St",
    "address_councildis": "D",
    "status": "Assigned to Contractor",
    "contractor": "IV Waste",
    "rowid": "1015278",
    "final_x": "3680211.78133",
    "final_y": "538068.433033",
    "longitude": "-90.07191041721757",
    "latitude": "29.97354068777575",
    "geocoded_column": {
      "latitude": "29.97354068777575",
      "longitude": "-90.07191041721757"
    }
  },
  {
    "service_request": "2023-1015277",
    "request_type": "Trash/Recycling",
    "request_reason": "Missed Trash Pick-Up",
    "date_created": "2023-07-08T20:24:26.000",
    "date_modified": "2023-07-08T20:24:26.000",
    "request_status": "Pending",
    "responsible_agency": "Department of Sanitation",
    "final_address": "1830 General Taylor St",
    "address_councildis": "B",
    "status": "Assigned to Contractor",
    "contractor": "Richards Disposal",
    "rowid": "1015277",
    "final_x": "3672367.75022",
    "final_y": "522013.03417",
    "longitude": "-90.0972305817191",
    "latitude": "29.92962875024938",
    "geocoded_column": {
      "latitude": "29.92962875024938",
      "longitude": "-90.0972305817191"
    }
  },
  {
    "service_request": "2023-1015276",
    "request_type": "Parks & Parkways",
    "request_reason": "Request Grass Cutting Service (City Owned Property)",
    "date_created": "2023-07-08T20:21:14.000",
    "date_modified": "2023-07-08T20:21:14.000",
    "request_status": "Pending",
    "responsible_agency": "Department of Parks & Parkway",
    "final_address": "5300 BLK Peoples Ave",
    "address_councildis": "D",
    "status": "Pending",
    "rowid": "1015276",
    "final_x": "3688007.68038",
    "final_y": "552807.268845",
    "longitude": "-90.04676673939102",
    "latitude": "30.013828896634788",
    "geocoded_column": {
      "latitude": "30.013828896634788",
      "longitude": "-90.04676673939102"
    }
  },
  {
    "service_request": "2023-1015275",
    "request_type": "Trash/Recycling",
    "request_reason": "Order Trash Cart",
    "date_created": "2023-07-08T19:59:39.000",
    "date_modified": "2023-07-08T19:59:39.000",
    "request_status": "Pending",
    "responsible_agency": "Department of Sanitation",
    "final_address": "1732 Hero Blvd",
    "address_councildis": "C",
    "status": "Assigned to Contractor",
    "contractor": "Richards Disposal",
    "rowid": "1015275",
    "final_x": "3690553.04803",
    "final_y": "523427.399291",
    "longitude": "-90.03977263241143",
    "latitude": "29.93296582491295",
    "geocoded_column": {
      "latitude": "29.93296582491295",
      "longitude": "-90.03977263241143"
    }
  },
  {
    "service_request": "2023-1015274",
    "request_type": "Trash/Recycling",
    "request_reason": "Repair Trash Cart",
    "date_created": "2023-07-08T19:39:54.000",
    "date_modified": "2023-07-08T19:39:54.000",
    "request_status": "Pending",
    "responsible_agency": "Department of Sanitation",
    "final_address": "2520 Joliet St",
    "address_councildis": "A",
    "status": "Assigned to Contractor",
    "contractor": "Richards Disposal",
    "rowid": "1015274",
    "final_x": "3664145.7554",
    "final_y": "532949.580484",
    "longitude": "-90.12282133469309",
    "latitude": "29.95994206976518",
    "geocoded_column": {
      "latitude": "29.95994206976518",
      "longitude": "-90.12282133469309"
    }
  },
  {
    "service_request": "2023-1015273",
    "request_type": "Trash/Recycling",
    "request_reason": "Replace Trash Cart",
    "date_created": "2023-07-08T19:08:43.000",
    "date_modified": "2023-07-08T19:08:44.000",
    "request_status": "Pending",
    "responsible_agency": "Department of Sanitation",
    "final_address": "3521 Livingston St",
    "address_councildis": "A",
    "status": "Assigned to Contractor",
    "contractor": "Richards Disposal",
    "rowid": "1015273",
    "final_x": "3663996.7186",
    "final_y": "537847.292553",
    "longitude": "-90.1231286155604",
    "latitude": "29.973413494597004",
    "geocoded_column": {
      "latitude": "29.973413494597004",
      "longitude": "-90.1231286155604"
    }
  },
  {
    "service_request": "2023-1015272",
    "request_type": "Trash/Recycling",
    "request_reason": "MIssed Recycling Pick-Up",
    "date_created": "2023-07-08T18:29:31.000",
    "date_modified": "2023-07-08T18:29:32.000",
    "request_status": "Pending",
    "responsible_agency": "Department of Sanitation",
    "final_address": "4109 Eden St",
    "address_councildis": "B",
    "status": "Assigned to Contractor",
    "contractor": "Richards Disposal",
    "rowid": "1015272",
    "final_x": "3670717.38881",
    "final_y": "530197.241537",
    "longitude": "-90.10216289043983",
    "latitude": "29.95218151416097",
    "geocoded_column": {
      "latitude": "29.95218151416097",
      "longitude": "-90.10216289043983"
    }
  },
  {
    "service_request": "2023-1015271",
    "request_type": "Trash/Recycling",
    "request_reason": "Request a Large Item Pick Up",
    "date_created": "2023-07-08T18:21:51.000",
    "date_modified": "2023-07-08T18:21:52.000",
    "request_status": "Pending",
    "responsible_agency": "Department of Sanitation",
    "final_address": "7040 Pinebrook Dr",
    "address_councildis": "E",
    "status": "Assigned to Contractor",
    "contractor": "Waste Pro",
    "rowid": "1015271",
    "final_x": "3719515.24729",
    "final_y": "569711.089126",
    "longitude": "-89.94657390819788",
    "latitude": "30.05929716283975",
    "geocoded_column": {
      "latitude": "30.05929716283975",
      "longitude": "-89.94657390819788"
    }
  },
  {
    "service_request": "2023-1015270",
    "request_type": "Property Maintenance",
    "request_reason": "Property Maintenance",
    "date_created": "2023-07-08T17:48:46.000",
    "date_modified": "2023-07-08T17:48:47.000",
    "request_status": "Pending",
    "responsible_agency": "Department of Code Enforcement",
    "final_address": "1477 N Miro St",
    "address_councildis": "D",
    "status": "Pending",
    "rowid": "1015270",
    "final_x": "3679954.79483",
    "final_y": "538447.878409",
    "longitude": "-90.07270885047096",
    "latitude": "29.974591808153022",
    "geocoded_column": {
      "latitude": "29.974591808153022",
      "longitude": "-90.07270885047096"
    }
  },
  {
    "service_request": "2023-1015269",
    "request_type": "Trash/Recycling",
    "request_reason": "Repair Trash Cart",
    "date_created": "2023-07-08T17:22:17.000",
    "date_modified": "2023-07-08T17:22:18.000",
    "request_status": "Pending",
    "responsible_agency": "Department of Sanitation",
    "final_address": "2431 Mazant St",
    "address_councildis": "D",
    "status": "Assigned to Contractor",
    "contractor": "IV Waste",
    "rowid": "1015269",
    "final_x": "3693415.89161",
    "final_y": "540342.477515",
    "longitude": "-90.03012755088807",
    "latitude": "29.979387200426327",
    "geocoded_column": {
      "latitude": "29.979387200426327",
      "longitude": "-90.03012755088807"
    }
  },
  {
    "service_request": "2023-1015268",
    "request_type": "Trash/Recycling",
    "request_reason": "Request a Large Item Pick Up",
    "date_created": "2023-07-08T16:11:35.000",
    "date_modified": "2023-07-08T16:11:35.000",
    "request_status": "Pending",
    "responsible_agency": "Department of Sanitation",
    "final_address": "7929 Freret St",
    "address_councildis": "A",
    "status": "Assigned to Contractor",
    "contractor": "Richards Disposal",
    "rowid": "1015268",
    "final_x": "3661926.85114",
    "final_y": "527522.518655",
    "longitude": "-90.13000815603785",
    "latitude": "29.9450836666227",
    "geocoded_column": {
      "latitude": "29.9450836666227",
      "longitude": "-90.13000815603785"
    }
  },
  {
    "service_request": "2023-1015267",
    "request_type": "Trash/Recycling",
    "request_reason": "Repair Trash Cart",
    "date_created": "2023-07-08T16:03:19.000",
    "date_modified": "2023-07-08T16:03:20.000",
    "request_status": "Pending",
    "responsible_agency": "Department of Sanitation",
    "final_address": "7522 Marquis St",
    "address_councildis": "E",
    "status": "Assigned to Contractor",
    "contractor": "Waste Pro",
    "rowid": "1015267",
    "final_x": "3711608.80664",
    "final_y": "565671.900258",
    "longitude": "-89.97171705909957",
    "latitude": "30.048451771912042",
    "geocoded_column": {
      "latitude": "30.048451771912042",
      "longitude": "-89.97171705909957"
    }
  },
  {
    "service_request": "2023-1015266",
    "request_type": "Trash/Recycling",
    "request_reason": "Order Trash Cart",
    "date_created": "2023-07-08T15:54:12.000",
    "date_modified": "2023-07-08T15:54:13.000",
    "request_status": "Pending",
    "responsible_agency": "Department of Sanitation",
    "final_address": "8624 Jeannette St",
    "address_councildis": "A",
    "status": "Assigned to Contractor",
    "contractor": "Richards Disposal",
    "rowid": "1015266",
    "final_x": "3661171.83834",
    "final_y": "530463.42445",
    "longitude": "-90.13229465185634",
    "latitude": "29.953191996486144",
    "geocoded_column": {
      "latitude": "29.953191996486144",
      "longitude": "-90.13229465185634"
    }
  },
  {
    "service_request": "2023-1015265",
    "request_type": "Traffic Signals/Signs/Striping/Streetlights",
    "request_reason": "Traffic Signal Malfunctioning/Damaged",
    "date_created": "2023-07-08T15:47:17.000",
    "date_modified": "2023-07-08T15:47:17.000",
    "request_status": "Pending",
    "responsible_agency": "Department of Public Works",
    "final_address": "5900 Read Blvd",
    "address_councildis": "E",
    "status": "Pending",
    "rowid": "1015265",
    "final_x": "3710171.44011",
    "final_y": "561017.296606",
    "longitude": "-89.97643414198811",
    "latitude": "30.035700361410903",
    "geocoded_column": {
      "latitude": "30.035700361410903",
      "longitude": "-89.97643414198811"
    }
  },
  {
    "service_request": "2023-1015264",
    "request_type": "Abandoned Vehicles",
    "request_reason": "Abandoned/Junk Vehicles",
    "date_created": "2023-07-08T15:43:50.000",
    "date_modified": "2023-07-08T15:43:50.000",
    "request_status": "Pending",
    "responsible_agency": "Department of Public Works",
    "final_address": "4120 Annunciation St",
    "address_councildis": "B",
    "status": "Pending",
    "rowid": "1015264",
    "final_x": "3672082.48417",
    "final_y": "517804.626294",
    "longitude": "-90.09827431397554",
    "latitude": "29.918065432283477",
    "geocoded_column": {
      "latitude": "29.918065432283477",
      "longitude": "-90.09827431397554"
    }
  },
  {
    "service_request": "2023-1015263",
    "request_type": "Traffic Signals/Signs/Striping/Streetlights",
    "request_reason": "Street Name Sign Damaged or Missing",
    "date_created": "2023-07-08T15:42:05.000",
    "date_modified": "2023-07-08T15:42:05.000",
    "request_status": "Pending",
    "responsible_agency": "Department of Public Works",
    "final_address": "5400 BLK Tchoupitoulas St",
    "address_councildis": "A",
    "status": "Pending",
    "rowid": "1015263",
    "final_x": "3666234.7692",
    "final_y": "517149.712207",
    "longitude": "-90.11675438867134",
    "latitude": "29.91643664139899",
    "geocoded_column": {
      "latitude": "29.91643664139899",
      "longitude": "-90.11675438867134"
    }
  },
  {
    "service_request": "2023-1015262",
    "request_type": "Traffic Signals/Signs/Striping/Streetlights",
    "request_reason": "Street Light Outage/Malfunction",
    "date_created": "2023-07-08T15:40:23.000",
    "date_modified": "2023-07-08T15:40:24.000",
    "request_status": "Pending",
    "responsible_agency": "Department of Public Works",
    "final_address": "7521 Symmes Ave",
    "address_councildis": "E",
    "status": "Assigned to Contractor",
    "contractor": "Legacy Professional Services",
    "rowid": "1015262",
    "final_x": "3708059.00625",
    "final_y": "564384.981857",
    "longitude": "-89.98298433291292",
    "latitude": "30.04502877019775",
    "geocoded_column": {
      "latitude": "30.04502877019775",
      "longitude": "-89.98298433291292"
    }
  },
  {
    "service_request": "2023-1015261",
    "request_type": "Abandoned Vehicles",
    "request_reason": "Abandoned/Junk Vehicles",
    "date_created": "2023-07-08T15:39:27.000",
    "date_modified": "2023-07-08T15:39:27.000",
    "request_status": "Pending",
    "responsible_agency": "Department of Public Works",
    "final_address": "STATE STREET DR & DART ST",
    "address_councildis": "B",
    "status": "Pending",
    "rowid": "1015261",
    "final_x": "3668720.4",
    "final_y": "531839.38",
    "longitude": "-90.10841304265097",
    "latitude": "29.95675570462169",
    "geocoded_column": {
      "latitude": "29.95675570462169",
      "longitude": "-90.10841304265097"
    }
  },
  {
    "service_request": "2023-1015260",
    "request_type": "Trash/Recycling",
    "request_reason": "MIssed Recycling Pick-Up",
    "date_created": "2023-07-08T15:35:44.000",
    "date_modified": "2023-07-08T15:50:44.000",
    "request_status": "Pending",
    "responsible_agency": "Department of Sanitation",
    "final_address": "4227 St Charles Ave",
    "address_councildis": "B",
    "contractor": "Richards Disposal",
    "rowid": "1015260",
    "final_x": "3671358.86478",
    "final_y": "521031.645369",
    "longitude": "-90.10044879479399",
    "latitude": "29.926960133461964",
    "geocoded_column": {
      "latitude": "29.926960133461964",
      "longitude": "-90.10044879479399"
    }
  },
  {
    "service_request": "2023-1015259",
    "request_type": "Trash/Recycling",
    "request_reason": "Request a Large Item Pick Up",
    "date_created": "2023-07-08T15:14:51.000",
    "date_modified": "2023-07-08T15:14:51.000",
    "request_status": "Pending",
    "responsible_agency": "Department of Sanitation",
    "final_address": "242 20th St, New Orleans, Louisiana, 70124",
    "address_councildis": "A",
    "status": "Assigned to Contractor",
    "contractor": "IV Waste",
    "rowid": "1015259",
    "final_x": "3665427.82823",
    "final_y": "548958.289747",
    "longitude": "-90.11823673866354",
    "latitude": "30.00392333054476",
    "geocoded_column": {
      "latitude": "30.00392333054476",
      "longitude": "-90.11823673866354"
    }
  },
  {
    "service_request": "2023-1015258",
    "request_type": "Trash/Recycling",
    "request_reason": "Missed Trash Pick-Up",
    "date_created": "2023-07-08T15:09:36.000",
    "date_modified": "2023-07-08T15:09:36.000",
    "request_status": "Pending",
    "responsible_agency": "Department of Sanitation",
    "final_address": "9702 Hayne Blvd",
    "address_councildis": "E",
    "status": "Assigned to Contractor",
    "contractor": "Waste Pro",
    "rowid": "1015258",
    "final_x": "3706915.27371",
    "final_y": "565382.200162",
    "longitude": "-89.9865619966026",
    "latitude": "30.047807733771375",
    "geocoded_column": {
      "latitude": "30.047807733771375",
      "longitude": "-89.9865619966026"
    }
  },
  {
    "service_request": "2023-1015257",
    "request_type": "Trash/Recycling",
    "request_reason": "Missed Trash Pick-Up",
    "date_created": "2023-07-08T15:03:08.000",
    "date_modified": "2023-07-08T15:03:09.000",
    "request_status": "Pending",
    "responsible_agency": "Department of Sanitation",
    "final_address": "1712 Cambronne St",
    "address_councildis": "A",
    "status": "Assigned to Contractor",
    "contractor": "Richards Disposal",
    "rowid": "1015257",
    "final_x": "3662400.06951",
    "final_y": "530521.705986",
    "longitude": "-90.12841447516294",
    "latitude": "29.95331679556777",
    "geocoded_column": {
      "latitude": "29.95331679556777",
      "longitude": "-90.12841447516294"
    }
  },
  {
    "service_request": "2023-1015256",
    "request_type": "Trash/Recycling",
    "request_reason": "Order Recycling Cart",
    "date_created": "2023-07-08T14:56:09.000",
    "date_modified": "2023-07-08T14:56:09.000",
    "request_status": "Pending",
    "responsible_agency": "Department of Sanitation",
    "final_address": "1924 Mazant St",
    "address_councildis": "D",
    "status": "Pending",
    "rowid": "1015256",
    "final_x": "3692869.10109",
    "final_y": "538437.308745",
    "longitude": "-90.03192286694383",
    "latitude": "29.974165754932628",
    "geocoded_column": {
      "latitude": "29.974165754932628",
      "longitude": "-90.03192286694383"
    }
  },
  {
    "service_request": "2023-1015255",
    "request_type": "Trash/Recycling",
    "request_reason": "Order Trash Cart",
    "date_created": "2023-07-08T14:54:41.000",
    "date_modified": "2023-07-08T14:54:42.000",
    "request_status": "Pending",
    "responsible_agency": "Department of Sanitation",
    "final_address": "1924 Mazant St",
    "address_councildis": "D",
    "status": "Assigned to Contractor",
    "contractor": "IV Waste",
    "rowid": "1015255",
    "final_x": "3692869.10109",
    "final_y": "538437.308745",
    "longitude": "-90.03192286694383",
    "latitude": "29.974165754932628",
    "geocoded_column": {
      "latitude": "29.974165754932628",
      "longitude": "-90.03192286694383"
    }
  },
  {
    "service_request": "2023-1015254",
    "request_type": "Roads/Drainage",
    "request_reason": "Street Flooding / Drainage",
    "date_created": "2023-07-08T14:44:17.000",
    "date_modified": "2023-07-08T14:44:17.000",
    "request_status": "Pending",
    "responsible_agency": "Department of Public Works",
    "final_address": "6953 General Diaz St",
    "address_councildis": "A",
    "status": "Pending",
    "rowid": "1015254",
    "final_x": "3670151.66151",
    "final_y": "553737.896279",
    "longitude": "-90.10315118151661",
    "latitude": "30.016926980850847",
    "geocoded_column": {
      "latitude": "30.016926980850847",
      "longitude": "-90.10315118151661"
    }
  },
  {
    "service_request": "2023-1015253",
    "request_type": "Roads/Drainage",
    "request_reason": "Street Flooding / Drainage",
    "date_created": "2023-07-08T14:23:57.000",
    "date_modified": "2023-07-08T14:23:57.000",
    "request_status": "Pending",
    "responsible_agency": "Department of Public Works",
    "final_address": "6900 BLK Louisville St",
    "address_councildis": "A",
    "status": "Pending",
    "rowid": "1015253",
    "final_x": "3668327.89658",
    "final_y": "553727.572451",
    "longitude": "-90.1089138888726",
    "latitude": "30.016952306019423",
    "geocoded_column": {
      "latitude": "30.016952306019423",
      "longitude": "-90.1089138888726"
    }
  },
  {
    "service_request": "2023-1015252",
    "request_type": "Roads/Drainage",
    "request_reason": "Accessibility Ramps, Curbs and Sidewalk Repair",
    "date_created": "2023-07-08T14:23:45.000",
    "date_modified": "2023-07-08T14:23:45.000",
    "request_status": "Pending",
    "responsible_agency": "Department of Public Works",
    "final_address": "6430 Louis Xiv St",
    "address_councildis": "A",
    "status": "Pending",
    "rowid": "1015252",
    "final_x": "3668296.81812",
    "final_y": "550346.975764",
    "longitude": "-90.10912620240461",
    "latitude": "30.007657765967732",
    "geocoded_column": {
      "latitude": "30.007657765967732",
      "longitude": "-90.10912620240461"
    }
  },
  {
    "service_request": "2023-1015251",
    "request_type": "Roads/Drainage",
    "request_reason": "Street Flooding / Drainage",
    "date_created": "2023-07-08T14:19:48.000",
    "date_modified": "2023-07-08T14:19:48.000",
    "request_status": "Pending",
    "responsible_agency": "Department of Public Works",
    "final_address": "6800 BLK Louis XIV St",
    "address_councildis": "A",
    "status": "Pending",
    "rowid": "1015251",
    "final_x": "3668600.30154",
    "final_y": "553039.458341",
    "longitude": "-90.10807644778959",
    "latitude": "30.015052228614305",
    "geocoded_column": {
      "latitude": "30.015052228614305",
      "longitude": "-90.10807644778959"
    }
  },
  {
    "service_request": "2023-1015250",
    "request_type": "Roads/Drainage",
    "request_reason": "Street Flooding / Drainage",
    "date_created": "2023-07-08T14:19:00.000",
    "date_modified": "2023-07-08T14:19:00.000",
    "request_status": "Pending",
    "responsible_agency": "Department of Public Works",
    "final_address": "6600 BLK General Diaz St",
    "address_councildis": "A",
    "status": "Pending",
    "rowid": "1015250",
    "final_x": "3669906.12111",
    "final_y": "551593.372323",
    "longitude": "-90.1039996848183",
    "latitude": "30.011037543920633",
    "geocoded_column": {
      "latitude": "30.011037543920633",
      "longitude": "-90.1039996848183"
    }
  },
  {
    "service_request": "2023-1015249",
    "request_type": "Traffic Signals/Signs/Striping/Streetlights",
    "request_reason": "Street Light Outage/Malfunction",
    "date_created": "2023-07-08T14:16:47.000",
    "date_modified": "2023-07-08T14:16:48.000",
    "request_status": "Pending",
    "responsible_agency": "Department of Public Works",
    "final_address": "6800 BLK Louis XIV St",
    "address_councildis": "A",
    "status": "Assigned to Contractor",
    "contractor": "Legacy Professional Services",
    "rowid": "1015249",
    "final_x": "3668600.30154",
    "final_y": "553039.458341",
    "longitude": "-90.10807644778959",
    "latitude": "30.015052228614305",
    "geocoded_column": {
      "latitude": "30.015052228614305",
      "longitude": "-90.10807644778959"
    }
  },
  {
    "service_request": "2023-1015248",
    "request_type": "Traffic Signals/Signs/Striping/Streetlights",
    "request_reason": "Street Light Outage/Malfunction",
    "date_created": "2023-07-08T14:15:48.000",
    "date_modified": "2023-07-08T14:15:48.000",
    "request_status": "Pending",
    "responsible_agency": "Department of Public Works",
    "final_address": "6800 BLK Louis XIV St",
    "address_councildis": "A",
    "status": "Assigned to Contractor",
    "contractor": "Legacy Professional Services",
    "rowid": "1015248",
    "final_x": "3668600.30154",
    "final_y": "553039.458341",
    "longitude": "-90.10807644778959",
    "latitude": "30.015052228614305",
    "geocoded_column": {
      "latitude": "30.015052228614305",
      "longitude": "-90.10807644778959"
    }
  },
  {
    "service_request": "2023-1015247",
    "request_type": "Trash/Recycling",
    "request_reason": "Request a Large Item Pick Up",
    "date_created": "2023-07-08T14:11:23.000",
    "date_modified": "2023-07-08T14:11:24.000",
    "request_status": "Pending",
    "responsible_agency": "Department of Sanitation",
    "final_address": "3950 Laurel St",
    "address_councildis": "B",
    "status": "Assigned to Contractor",
    "contractor": "Richards Disposal",
    "rowid": "1015247",
    "final_x": "3672819.6763",
    "final_y": "518131.266486",
    "longitude": "-90.09593626090395",
    "latitude": "29.918941719533713",
    "geocoded_column": {
      "latitude": "29.918941719533713",
      "longitude": "-90.09593626090395"
    }
  },
  {
    "service_request": "2023-1015246",
    "request_type": "Roads/Drainage",
    "request_reason": "Damaged Sidewalk",
    "date_created": "2023-07-08T14:10:11.000",
    "date_modified": "2023-07-08T14:10:11.000",
    "request_status": "Pending",
    "responsible_agency": "Department of Public Works",
    "final_address": "11401 Morrison Rd",
    "address_councildis": "E",
    "status": "Pending",
    "rowid": "1015246",
    "final_x": "3712043.87576",
    "final_y": "565711.587234",
    "longitude": "-89.97034050884764",
    "latitude": "30.04854667239688",
    "geocoded_column": {
      "latitude": "30.04854667239688",
      "longitude": "-89.97034050884764"
    }
  },
  {
    "service_request": "2023-1015245",
    "request_type": "Trash/Recycling",
    "request_reason": "Missed Trash Pick-Up",
    "date_created": "2023-07-08T14:09:52.000",
    "date_modified": "2023-07-08T14:09:53.000",
    "request_status": "Pending",
    "responsible_agency": "Department of Sanitation",
    "final_address": "1633 Constantinople St",
    "address_councildis": "B",
    "status": "Assigned to Contractor",
    "contractor": "Richards Disposal",
    "rowid": "1015245",
    "final_x": "3672326.07796",
    "final_y": "521292.084217",
    "longitude": "-90.09738668272621",
    "latitude": "29.927647605718374",
    "geocoded_column": {
      "latitude": "29.927647605718374",
      "longitude": "-90.09738668272621"
    }
  },
  {
    "service_request": "2023-1015244",
    "request_type": "Roads/Drainage",
    "request_reason": "Street Flooding / Drainage",
    "date_created": "2023-07-08T14:08:29.000",
    "date_modified": "2023-07-08T14:08:29.000",
    "request_status": "Pending",
    "responsible_agency": "Department of Public Works",
    "final_address": "6500 BLK Memphis St",
    "address_councildis": "A",
    "status": "Pending",
    "rowid": "1015244",
    "final_x": "3669527.64778",
    "final_y": "550966.061569",
    "longitude": "-90.10521667864853",
    "latitude": "30.009323819327804",
    "geocoded_column": {
      "latitude": "30.009323819327804",
      "longitude": "-90.10521667864853"
    }
  },
  {
    "service_request": "2023-1015243",
    "request_type": "Roads/Drainage",
    "request_reason": "Catch Basin - Clogged",
    "date_created": "2023-07-08T14:07:03.000",
    "date_modified": "2023-07-08T14:07:03.000",
    "request_status": "Pending",
    "responsible_agency": "Department of Public Works",
    "final_address": "5641 Hawthorne Pl",
    "address_councildis": "A",
    "status": "Pending",
    "rowid": "1015243",
    "final_x": "3667953.40404",
    "final_y": "544943.140815",
    "longitude": "-90.11039336159016",
    "latitude": "29.992809173182646",
    "geocoded_column": {
      "latitude": "29.992809173182646",
      "longitude": "-90.11039336159016"
    }
  },
  {
    "service_request": "2023-1015241",
    "request_type": "Trash/Recycling",
    "request_reason": "Request a Large Item Pick Up",
    "date_created": "2023-07-08T14:03:28.000",
    "date_modified": "2023-07-08T14:03:29.000",
    "request_status": "Pending",
    "responsible_agency": "Department of Sanitation",
    "final_address": "4318 Dumaine St",
    "address_councildis": "A",
    "status": "Assigned to Contractor",
    "contractor": "Richards Disposal",
    "rowid": "1015241",
    "final_x": "3671941.51451",
    "final_y": "541408.295884",
    "longitude": "-90.09791599548352",
    "latitude": "29.98297192515515",
    "geocoded_column": {
      "latitude": "29.98297192515515",
      "longitude": "-90.09791599548352"
    }
  },
  {
    "service_request": "2023-1015240",
    "request_type": "Trash/Recycling",
    "request_reason": "Missed Trash Pick-Up",
    "date_created": "2023-07-08T14:03:22.000",
    "date_modified": "2023-07-08T14:03:23.000",
    "request_status": "Pending",
    "responsible_agency": "Department of Sanitation",
    "final_address": "3238 Vincennes Pl",
    "address_councildis": "A",
    "status": "Assigned to Contractor",
    "contractor": "Richards Disposal",
    "rowid": "1015240",
    "final_x": "3667789.45549",
    "final_y": "528170.942976",
    "longitude": "-90.11147619979641",
    "latitude": "29.946696031746015",
    "geocoded_column": {
      "latitude": "29.946696031746015",
      "longitude": "-90.11147619979641"
    }
  },
  {
    "service_request": "2023-1015239",
    "request_type": "Property Maintenance",
    "request_reason": "Property Maintenance",
    "date_created": "2023-07-08T13:56:56.000",
    "date_modified": "2023-07-08T13:56:57.000",
    "request_status": "Pending",
    "responsible_agency": "Department of Code Enforcement",
    "final_address": "1459 N Derbigny St",
    "address_councildis": "D",
    "status": "Pending",
    "rowid": "1015239",
    "final_x": "3681275.58844",
    "final_y": "537266.349128",
    "longitude": "-90.06857865240981",
    "latitude": "29.971302989649413",
    "geocoded_column": {
      "latitude": "29.971302989649413",
      "longitude": "-90.06857865240981"
    }
  },
  {
    "service_request": "2023-1015238",
    "request_type": "Roads/Drainage",
    "request_reason": "Street Flooding / Drainage",
    "date_created": "2023-07-08T13:47:22.000",
    "date_modified": "2023-07-08T13:47:22.000",
    "request_status": "Pending",
    "responsible_agency": "Department of Public Works",
    "final_address": "771 Conrad St",
    "address_councildis": "A",
    "status": "Pending",
    "rowid": "1015238",
    "final_x": "3669753.65678",
    "final_y": "554294.812952",
    "longitude": "-90.10438984233589",
    "latitude": "30.018470047301967",
    "geocoded_column": {
      "latitude": "30.018470047301967",
      "longitude": "-90.10438984233589"
    }
  },
  {
    "service_request": "2023-1015237",
    "request_type": "Abandoned Vehicles",
    "request_reason": "Abandoned/Junk Vehicles",
    "date_created": "2023-07-08T13:42:01.000",
    "date_modified": "2023-07-08T13:43:10.000",
    "request_status": "Pending",
    "responsible_agency": "Department of Public Works",
    "final_address": "2501 Jourdan Ave",
    "address_councildis": "E",
    "status": "Pending",
    "rowid": "1015237",
    "final_x": "3696552.52176",
    "final_y": "539738.15873",
    "longitude": "-90.02024275647403",
    "latitude": "29.977627078000328",
    "geocoded_column": {
      "latitude": "29.977627078000328",
      "longitude": "-90.02024275647403"
    }
  },
  {
    "service_request": "2023-1015235",
    "request_type": "Trash/Recycling",
    "request_reason": "Request a Large Item Pick Up",
    "date_created": "2023-07-08T13:25:25.000",
    "date_modified": "2023-07-08T13:25:26.000",
    "request_status": "Pending",
    "responsible_agency": "Department of Sanitation",
    "final_address": "7563 Avalon Way",
    "address_councildis": "E",
    "status": "Assigned to Contractor",
    "contractor": "Waste Pro",
    "rowid": "1015235",
    "final_x": "3709196.02341",
    "final_y": "564368.800737",
    "longitude": "-89.97939145633315",
    "latitude": "30.044947386062912",
    "geocoded_column": {
      "latitude": "30.044947386062912",
      "longitude": "-89.97939145633315"
    }
  },
  {
    "service_request": "2023-1015234",
    "request_type": "Traffic Signals/Signs/Striping/Streetlights",
    "request_reason": "Street Light Outage/Malfunction",
    "date_created": "2023-07-08T13:21:41.000",
    "date_modified": "2023-07-08T13:21:42.000",
    "request_status": "Pending",
    "responsible_agency": "Department of Public Works",
    "final_address": "1729 N Villere St",
    "address_councildis": "C",
    "status": "Assigned to Contractor",
    "contractor": "Legacy Professional Services",
    "rowid": "1015234",
    "final_x": "3683295.71669",
    "final_y": "537308.38612",
    "longitude": "-90.06219733947242",
    "latitude": "29.9713571110199",
    "geocoded_column": {
      "latitude": "29.9713571110199",
      "longitude": "-90.06219733947242"
    }
  },
  {
    "service_request": "2023-1015233",
    "request_type": "Trash/Recycling",
    "request_reason": "Request a Large Item Pick Up",
    "date_created": "2023-07-08T13:01:31.000",
    "date_modified": "2023-07-08T13:01:32.000",
    "request_status": "Pending",
    "responsible_agency": "Department of Sanitation",
    "final_address": "4449 Eastern St",
    "address_councildis": "D",
    "status": "Assigned to Contractor",
    "contractor": "IV Waste",
    "rowid": "1015233",
    "final_x": "3688148.45807",
    "final_y": "549513.175955",
    "longitude": "-90.0464388435936",
    "latitude": "30.004767001564463",
    "geocoded_column": {
      "latitude": "30.004767001564463",
      "longitude": "-90.0464388435936"
    }
  },
  {
    "service_request": "2023-1015232",
    "request_type": "Trash/Recycling",
    "request_reason": "Request a Large Item Pick Up",
    "date_created": "2023-07-08T12:56:44.000",
    "date_modified": "2023-07-08T12:56:45.000",
    "request_status": "Pending",
    "responsible_agency": "Department of Sanitation",
    "final_address": "1236 N Villere St",
    "address_councildis": "C",
    "status": "Assigned to Contractor",
    "contractor": "Richards Disposal",
    "rowid": "1015232",
    "final_x": "3681694.38818",
    "final_y": "535932.513415",
    "longitude": "-90.06730256806506",
    "latitude": "29.967622683909525",
    "geocoded_column": {
      "latitude": "29.967622683909525",
      "longitude": "-90.06730256806506"
    }
  },
  {
    "service_request": "2023-1015231",
    "request_type": "Roads/Drainage",
    "request_reason": "Street Subsidence (Sinking)",
    "date_created": "2023-07-08T12:55:53.000",
    "date_modified": "2023-07-08T13:05:44.000",
    "case_close_date": "2023-07-08T08:05:44.000",
    "request_status": "Closed",
    "responsible_agency": "Department of Public Works",
    "final_address": "950 Felicity St, New Orleans, Louisiana, 70130",
    "address_councildis": "B",
    "status": "Duplicate Request",
    "rowid": "1015231",
    "final_x": "3680205.53794",
    "final_y": "522775.031418",
    "longitude": "-90.07246162129708",
    "latitude": "29.931489175026222",
    "geocoded_column": {
      "latitude": "29.931489175026222",
      "longitude": "-90.07246162129708"
    }
  },
  {
    "service_request": "2023-1015230",
    "request_type": "Abandoned Vehicles",
    "request_reason": "Abandoned/Junk Vehicles",
    "date_created": "2023-07-08T12:52:44.000",
    "date_modified": "2023-07-08T12:53:56.000",
    "request_status": "Pending",
    "responsible_agency": "Department of Public Works",
    "final_address": "821 Fourth St",
    "address_councildis": "B",
    "status": "Pending",
    "rowid": "1015230",
    "final_x": "3677862.88373",
    "final_y": "520244.723064",
    "longitude": "-90.07994447996904",
    "latitude": "29.9246023256881",
    "geocoded_column": {
      "latitude": "29.9246023256881",
      "longitude": "-90.07994447996904"
    }
  },
  {
    "service_request": "2023-1015229",
    "request_type": "Trash/Recycling",
    "request_reason": "Missed Trash Pick-Up",
    "date_created": "2023-07-08T12:48:25.000",
    "date_modified": "2023-07-08T12:48:25.000",
    "request_status": "Pending",
    "responsible_agency": "Department of Sanitation",
    "final_address": "1912 First St",
    "address_councildis": "B",
    "status": "Assigned to Contractor",
    "contractor": "Richards Disposal",
    "rowid": "1015229",
    "final_x": "3676255.78408",
    "final_y": "524205.49446",
    "longitude": "-90.08488133127145",
    "latitude": "29.9355413985829",
    "geocoded_column": {
      "latitude": "29.9355413985829",
      "longitude": "-90.08488133127145"
    }
  },
  {
    "service_request": "2023-1015227",
    "request_type": "Roads/Drainage",
    "request_reason": "Debris in Roadway",
    "date_created": "2023-07-08T12:42:44.000",
    "date_modified": "2023-07-08T12:42:44.000",
    "request_status": "Pending",
    "responsible_agency": "Department of Public Works",
    "final_address": "S LAVERNE ST & FOCH RD",
    "address_councildis": "D",
    "status": "Pending",
    "rowid": "1015227",
    "final_x": "3696964.2",
    "final_y": "555435.68",
    "longitude": "-90.01837358924575",
    "latitude": "30.020776476607626",
    "geocoded_column": {
      "latitude": "30.020776476607626",
      "longitude": "-90.01837358924575"
    }
  },
  {
    "service_request": "2023-1015226",
    "request_type": "Roads/Drainage",
    "request_reason": "Catch Basin - Clogged",
    "date_created": "2023-07-08T12:35:54.000",
    "date_modified": "2023-07-08T12:35:54.000",
    "request_status": "Pending",
    "responsible_agency": "Department of Public Works",
    "final_address": "5601 Bentley Dr",
    "address_councildis": "E",
    "status": "Pending",
    "rowid": "1015226",
    "final_x": "3703957.81751",
    "final_y": "556689.495194",
    "longitude": "-89.99622974953137",
    "latitude": "30.02400144954686",
    "geocoded_column": {
      "latitude": "30.02400144954686",
      "longitude": "-89.99622974953137"
    }
  },
  {
    "service_request": "2023-1015224",
    "request_type": "Parks & Parkways",
    "request_reason": "Request Tree Service (Right of Way/Public Property)",
    "date_created": "2023-07-08T12:35:37.000",
    "date_modified": "2023-07-08T12:35:37.000",
    "request_status": "Pending",
    "responsible_agency": "Department of Parks & Parkway",
    "final_address": "3900 BLK Louisiana Avenue Pkwy",
    "address_councildis": "B",
    "status": "Pending",
    "rowid": "1015224",
    "final_x": "3671108.30637",
    "final_y": "529305.107188",
    "longitude": "-90.10095884838921",
    "latitude": "29.949716882818805",
    "geocoded_column": {
      "latitude": "29.949716882818805",
      "longitude": "-90.10095884838921"
    }
  },
  {
    "service_request": "2023-1015223",
    "request_type": "Trash/Recycling",
    "request_reason": "Missed Trash Pick-Up",
    "date_created": "2023-07-08T12:35:07.000",
    "date_modified": "2023-07-08T12:35:07.000",
    "request_status": "Pending",
    "responsible_agency": "Department of Sanitation",
    "final_address": "5156 Bayouview Ct",
    "address_councildis": "E",
    "status": "Assigned to Contractor",
    "contractor": "Waste Pro",
    "rowid": "1015223",
    "final_x": "3699136.38026",
    "final_y": "556407.354714",
    "longitude": "-90.01147476067077",
    "latitude": "30.02337949016853",
    "geocoded_column": {
      "latitude": "30.02337949016853",
      "longitude": "-90.01147476067077"
    }
  },
  {
    "service_request": "2023-1015222",
    "request_type": "Trash/Recycling",
    "request_reason": "Missed Trash Pick-Up",
    "date_created": "2023-07-08T12:26:23.000",
    "date_modified": "2023-07-08T12:26:23.000",
    "request_status": "Pending",
    "responsible_agency": "Department of Sanitation",
    "final_address": "8624 Jeannette St",
    "address_councildis": "A",
    "status": "Assigned to Contractor",
    "contractor": "Richards Disposal",
    "rowid": "1015222",
    "final_x": "3661171.83834",
    "final_y": "530463.42445",
    "longitude": "-90.13229465185634",
    "latitude": "29.953191996486144",
    "geocoded_column": {
      "latitude": "29.953191996486144",
      "longitude": "-90.13229465185634"
    }
  },
  {
    "service_request": "2023-1015221",
    "request_type": "Trash/Recycling",
    "request_reason": "Missed Trash Pick-Up",
    "date_created": "2023-07-08T12:23:06.000",
    "date_modified": "2023-07-08T12:23:06.000",
    "request_status": "Pending",
    "responsible_agency": "Department of Sanitation",
    "final_address": "8624 Jeannette St",
    "address_councildis": "A",
    "status": "Assigned to Contractor",
    "contractor": "Richards Disposal",
    "rowid": "1015221",
    "final_x": "3661171.83834",
    "final_y": "530463.42445",
    "longitude": "-90.13229465185634",
    "latitude": "29.953191996486144",
    "geocoded_column": {
      "latitude": "29.953191996486144",
      "longitude": "-90.13229465185634"
    }
  },
  {
    "service_request": "2023-1015220",
    "request_type": "Abandoned Vehicles",
    "request_reason": "Abandoned/Junk Vehicles",
    "date_created": "2023-07-08T12:20:56.000",
    "date_modified": "2023-07-08T12:20:56.000",
    "request_status": "Pending",
    "responsible_agency": "Department of Public Works",
    "final_address": "3009 N Derbigny St",
    "address_councildis": "D",
    "status": "Pending",
    "rowid": "1015220",
    "final_x": "3689110.95977",
    "final_y": "538422.509961",
    "longitude": "-90.04379243442379",
    "latitude": "29.97424189395471",
    "geocoded_column": {
      "latitude": "29.97424189395471",
      "longitude": "-90.04379243442379"
    }
  },
  {
    "service_request": "2023-1015219",
    "request_type": "Trash/Recycling",
    "request_reason": "MIssed Recycling Pick-Up",
    "date_created": "2023-07-08T12:19:43.000",
    "date_modified": "2023-07-08T12:19:44.000",
    "request_status": "Pending",
    "responsible_agency": "Department of Sanitation",
    "final_address": "8325 Hickory St",
    "address_councildis": "A",
    "status": "Assigned to Contractor",
    "contractor": "Richards Disposal",
    "rowid": "1015219",
    "final_x": "3662711.41075",
    "final_y": "530597.77581",
    "longitude": "-90.12742886042908",
    "latitude": "29.953516957106004",
    "geocoded_column": {
      "latitude": "29.953516957106004",
      "longitude": "-90.12742886042908"
    }
  },
  {
    "service_request": "2023-1015218",
    "request_type": "Roads/Drainage",
    "request_reason": "Catch Basin - Broken/Damage",
    "date_created": "2023-07-08T12:05:14.000",
    "date_modified": "2023-07-08T12:06:18.000",
    "request_status": "Pending",
    "responsible_agency": "Department of Public Works",
    "final_address": "3500 BLK Johnny Jackson Jr Blvd",
    "address_councildis": "D",
    "status": "Pending",
    "rowid": "1015218",
    "final_x": "3691967.96445",
    "final_y": "545457.741221",
    "longitude": "-90.03451753111888",
    "latitude": "29.993497534126455",
    "geocoded_column": {
      "latitude": "29.993497534126455",
      "longitude": "-90.03451753111888"
    }
  },
  {
    "service_request": "2023-1015217",
    "request_type": "Trash/Recycling",
    "request_reason": "Missed Trash Pick-Up",
    "date_created": "2023-07-08T12:04:46.000",
    "date_modified": "2023-07-08T12:04:47.000",
    "request_status": "Pending",
    "responsible_agency": "Department of Sanitation",
    "final_address": "527 Joseph St",
    "address_councildis": "A",
    "status": "Assigned to Contractor",
    "contractor": "Richards Disposal",
    "rowid": "1015217",
    "final_x": "3665983.66861",
    "final_y": "518088.558838",
    "longitude": "-90.11751552322508",
    "latitude": "29.919025504580265",
    "geocoded_column": {
      "latitude": "29.919025504580265",
      "longitude": "-90.11751552322508"
    }
  },
  {
    "service_request": "2023-1015216",
    "request_type": "Trash/Recycling",
    "request_reason": "Order Recycling Cart",
    "date_created": "2023-07-08T12:04:17.000",
    "date_modified": "2023-07-08T12:04:17.000",
    "request_status": "Pending",
    "responsible_agency": "Department of Sanitation",
    "final_address": "7703 Wales St",
    "address_councildis": "E",
    "status": "Pending",
    "rowid": "1015216",
    "final_x": "3700883.63594",
    "final_y": "561790.500063",
    "longitude": "-90.0057567645267",
    "latitude": "30.038125518012926",
    "geocoded_column": {
      "latitude": "30.038125518012926",
      "longitude": "-90.0057567645267"
    }
  },
  {
    "service_request": "2023-1015215",
    "request_type": "Abandoned Vehicles",
    "request_reason": "Abandoned/Junk Vehicles",
    "date_created": "2023-07-08T11:49:05.000",
    "date_modified": "2023-07-08T11:49:05.000",
    "request_status": "Pending",
    "responsible_agency": "Department of Public Works",
    "final_address": "4152 Iberville St",
    "address_councildis": "A",
    "status": "Pending",
    "rowid": "1015215",
    "final_x": "3670935.69467",
    "final_y": "538929.70177",
    "longitude": "-90.10117707893001",
    "latitude": "29.976186413954",
    "geocoded_column": {
      "latitude": "29.976186413954",
      "longitude": "-90.10117707893001"
    }
  },
  {
    "service_request": "2023-1015214",
    "request_type": "Mosquito, Termite & Rodent Control",
    "request_reason": "Rodent Complaint (Rats)",
    "date_created": "2023-07-08T11:42:30.000",
    "date_modified": "2023-07-08T11:42:30.000",
    "request_status": "Pending",
    "responsible_agency": "Mosquito, Termite & Rodent Control Board",
    "final_address": "5530 Vicksburg St",
    "address_councildis": "A",
    "status": "Pending",
    "rowid": "1015214",
    "final_x": "3668647.87118",
    "final_y": "543727.930766",
    "longitude": "-90.10824069863268",
    "latitude": "29.989447363409585",
    "geocoded_column": {
      "latitude": "29.989447363409585",
      "longitude": "-90.10824069863268"
    }
  },
  {
    "service_request": "2023-1015213",
    "request_type": "Property Maintenance",
    "request_reason": "Property Maintenance",
    "date_created": "2023-07-08T11:42:17.000",
    "date_modified": "2023-07-08T11:42:17.000",
    "request_status": "Pending",
    "responsible_agency": "Department of Code Enforcement",
    "final_address": "1723 Paul Morphy St",
    "address_councildis": "D",
    "status": "Pending",
    "rowid": "1015213",
    "final_x": "3679342.98991",
    "final_y": "541172.617548",
    "longitude": "-90.07454654342455",
    "latitude": "29.982102390838463",
    "geocoded_column": {
      "latitude": "29.982102390838463",
      "longitude": "-90.07454654342455"
    }
  },
  {
    "service_request": "2023-1015212",
    "request_type": "Trash/Recycling",
    "request_reason": "Dead Animal Pick Up",
    "date_created": "2023-07-08T11:40:40.000",
    "date_modified": "2023-07-08T11:40:41.000",
    "request_status": "Pending",
    "responsible_agency": "Department of Sanitation",
    "final_address": "4512 S Rocheblave St",
    "address_councildis": "B",
    "status": "Assigned to Contractor",
    "contractor": "Richards Disposal",
    "rowid": "1015212",
    "final_x": "3669602.29511",
    "final_y": "528380.511168",
    "longitude": "-90.10574530446097",
    "latitude": "29.947218997433932",
    "geocoded_column": {
      "latitude": "29.947218997433932",
      "longitude": "-90.10574530446097"
    }
  },
  {
    "service_request": "2023-1015211",
    "request_type": "Roads/Drainage",
    "request_reason": "Street Flooding / Drainage",
    "date_created": "2023-07-08T11:40:16.000",
    "date_modified": "2023-07-08T11:40:16.000",
    "request_status": "Pending",
    "responsible_agency": "Department of Public Works",
    "final_address": "1717 Paul Morphy St",
    "address_councildis": "D",
    "status": "Pending",
    "rowid": "1015211",
    "final_x": "3679319.48968",
    "final_y": "541131.562252",
    "longitude": "-90.07462219293285",
    "latitude": "29.98199021289834",
    "geocoded_column": {
      "latitude": "29.98199021289834",
      "longitude": "-90.07462219293285"
    }
  },
  {
    "service_request": "2023-1015210",
    "request_type": "Roads/Drainage",
    "request_reason": "Street Flooding / Drainage",
    "date_created": "2023-07-08T11:36:58.000",
    "date_modified": "2023-07-08T11:36:58.000",
    "request_status": "Pending",
    "responsible_agency": "Department of Public Works",
    "final_address": "1717 Paul Morphy St",
    "address_councildis": "D",
    "status": "Pending",
    "rowid": "1015210",
    "final_x": "3679319.48968",
    "final_y": "541131.562252",
    "longitude": "-90.07462219293285",
    "latitude": "29.98199021289834",
    "geocoded_column": {
      "latitude": "29.98199021289834",
      "longitude": "-90.07462219293285"
    }
  },
  {
    "service_request": "2023-1015209",
    "request_type": "Traffic Signals/Signs/Striping/Streetlights",
    "request_reason": "Street Light Outage/Malfunction",
    "date_created": "2023-07-08T11:36:55.000",
    "date_modified": "2023-07-08T11:36:56.000",
    "request_status": "Pending",
    "responsible_agency": "Department of Public Works",
    "final_address": "5530 Vicksburg St",
    "address_councildis": "A",
    "status": "Assigned to Contractor",
    "contractor": "Legacy Professional Services",
    "rowid": "1015209",
    "final_x": "3668647.87118",
    "final_y": "543727.930766",
    "longitude": "-90.10824069863268",
    "latitude": "29.989447363409585",
    "geocoded_column": {
      "latitude": "29.989447363409585",
      "longitude": "-90.10824069863268"
    }
  },
  {
    "service_request": "2023-1015207",
    "request_type": "Trash/Recycling",
    "request_reason": "Order Recycling Cart",
    "date_created": "2023-07-08T11:24:38.000",
    "date_modified": "2023-07-08T11:24:38.000",
    "request_status": "Pending",
    "responsible_agency": "Department of Sanitation",
    "final_address": "3011 Memorial Park Dr",
    "address_councildis": "C",
    "status": "Pending",
    "rowid": "1015207",
    "final_x": "3694237.64573",
    "final_y": "519746.810744",
    "longitude": "-90.0282730183632",
    "latitude": "29.922730566662114",
    "geocoded_column": {
      "latitude": "29.922730566662114",
      "longitude": "-90.0282730183632"
    }
  },
  {
    "service_request": "2023-1015206",
    "request_type": "Trash/Recycling",
    "request_reason": "MIssed Recycling Pick-Up",
    "date_created": "2023-07-08T11:22:31.000",
    "date_modified": "2023-07-08T11:22:32.000",
    "request_status": "Pending",
    "responsible_agency": "Department of Sanitation",
    "final_address": "5459 Dauphine St",
    "address_councildis": "E",
    "status": "Assigned to Contractor",
    "contractor": "Waste Pro",
    "rowid": "1015206",
    "final_x": "3697299.68311",
    "final_y": "532771.419332",
    "longitude": "-90.01813553402272",
    "latitude": "29.958447470719396",
    "geocoded_column": {
      "latitude": "29.958447470719396",
      "longitude": "-90.01813553402272"
    }
  },
  {
    "service_request": "2023-1015205",
    "request_type": "Trash/Recycling",
    "request_reason": "Missed Trash Pick-Up",
    "date_created": "2023-07-08T11:21:50.000",
    "date_modified": "2023-07-08T11:21:51.000",
    "request_status": "Pending",
    "responsible_agency": "Department of Sanitation",
    "final_address": "2427 Felicity St",
    "address_councildis": "B",
    "status": "Assigned to Contractor",
    "contractor": "Richards Disposal",
    "rowid": "1015205",
    "final_x": "3676016.74913",
    "final_y": "527092.404159",
    "longitude": "-90.08553671779838",
    "latitude": "29.943486610972837",
    "geocoded_column": {
      "latitude": "29.943486610972837",
      "longitude": "-90.08553671779838"
    }
  },
  {
    "service_request": "2023-1015204",
    "request_type": "Trash/Recycling",
    "request_reason": "MIssed Recycling Pick-Up",
    "date_created": "2023-07-08T11:20:08.000",
    "date_modified": "2023-07-08T11:20:09.000",
    "request_status": "Pending",
    "responsible_agency": "Department of Sanitation",
    "final_address": "1132 Merrill St",
    "address_councildis": "C",
    "status": "Assigned to Contractor",
    "contractor": "Richards Disposal",
    "rowid": "1015204",
    "final_x": "3695023.62877",
    "final_y": "527778.731199",
    "longitude": "-90.02550261532149",
    "latitude": "29.944790958838567",
    "geocoded_column": {
      "latitude": "29.944790958838567",
      "longitude": "-90.02550261532149"
    }
  },
  {
    "service_request": "2023-1015203",
    "request_type": "Traffic Signals/Signs/Striping/Streetlights",
    "request_reason": "Street Name Sign Damaged or Missing",
    "date_created": "2023-07-08T11:16:17.000",
    "date_modified": "2023-07-08T11:16:17.000",
    "request_status": "Pending",
    "responsible_agency": "Department of Public Works",
    "final_address": "2819 General Meyer Ave",
    "address_councildis": "C",
    "status": "Pending",
    "rowid": "1015203",
    "final_x": "3694658.80214",
    "final_y": "526760.403646",
    "longitude": "-90.02669114102325",
    "latitude": "29.94200235473749",
    "geocoded_column": {
      "latitude": "29.94200235473749",
      "longitude": "-90.02669114102325"
    }
  },
  {
    "service_request": "2023-1015202",
    "request_type": "Property Maintenance",
    "request_reason": "Property Maintenance",
    "date_created": "2023-07-08T11:15:24.000",
    "date_modified": "2023-07-08T11:15:24.000",
    "request_status": "Pending",
    "responsible_agency": "Department of Code Enforcement",
    "final_address": "814 Wilson Dr",
    "address_councildis": "A",
    "status": "Pending",
    "rowid": "1015202",
    "final_x": "3674073.62843",
    "final_y": "539340.674634",
    "longitude": "-90.09125247409784",
    "latitude": "29.9772232939344",
    "geocoded_column": {
      "latitude": "29.9772232939344",
      "longitude": "-90.09125247409784"
    }
  },
  {
    "service_request": "2023-1015201",
    "request_type": "Traffic Signals/Signs/Striping/Streetlights",
    "request_reason": "Traffic Signal Malfunctioning/Damaged",
    "date_created": "2023-07-08T11:14:07.000",
    "date_modified": "2023-07-08T11:14:07.000",
    "request_status": "Pending",
    "responsible_agency": "Department of Public Works",
    "final_address": "BULLARD AVE & HAYNE BLVD",
    "address_councildis": "E",
    "status": "Pending",
    "rowid": "1015201",
    "final_x": "3712142.2",
    "final_y": "568794.68",
    "longitude": "-89.96991380312626",
    "latitude": "30.057020706348293",
    "geocoded_column": {
      "latitude": "30.057020706348293",
      "longitude": "-89.96991380312626"
    }
  },
  {
    "service_request": "2023-1015200",
    "request_type": "Traffic Signals/Signs/Striping/Streetlights",
    "request_reason": "Additional signage",
    "date_created": "2023-07-08T11:13:36.000",
    "date_modified": "2023-07-08T11:13:36.000",
    "request_status": "Pending",
    "responsible_agency": "Department of Public Works",
    "final_address": "2638 Lapeyrouse St",
    "address_councildis": "D",
    "status": "Pending",
    "rowid": "1015200",
    "final_x": "3678799.96034",
    "final_y": "540326.247435",
    "longitude": "-90.07629101954583",
    "latitude": "29.979791558650504",
    "geocoded_column": {
      "latitude": "29.979791558650504",
      "longitude": "-90.07629101954583"
    }
  },
  {
    "service_request": "2023-1015199",
    "request_type": "Trash/Recycling",
    "request_reason": "Replace Trash Cart",
    "date_created": "2023-07-08T11:10:12.000",
    "date_modified": "2023-07-08T11:10:13.000",
    "request_status": "Pending",
    "responsible_agency": "Department of Sanitation",
    "final_address": "1420 General Pershing St, New Orleans, Louisiana, 70115",
    "address_councildis": "B",
    "status": "Assigned to Contractor",
    "contractor": "Richards Disposal",
    "rowid": "1015199",
    "final_x": "3671242.41179",
    "final_y": "520513.52268",
    "longitude": "-90.10083399992165",
    "latitude": "29.925538906557254",
    "geocoded_column": {
      "latitude": "29.925538906557254",
      "longitude": "-90.10083399992165"
    }
  },
  {
    "service_request": "2023-1015198",
    "request_type": "Property Maintenance",
    "request_reason": "Property Maintenance",
    "date_created": "2023-07-08T11:03:39.000",
    "date_modified": "2023-07-08T11:03:39.000",
    "request_status": "Pending",
    "responsible_agency": "Department of Code Enforcement",
    "final_address": "1533 Broadway St",
    "address_councildis": "A",
    "status": "Pending",
    "rowid": "1015198",
    "final_x": "3664990.44039",
    "final_y": "527595.855935",
    "longitude": "-90.12033296150125",
    "latitude": "29.945196500277824",
    "geocoded_column": {
      "latitude": "29.945196500277824",
      "longitude": "-90.12033296150125"
    }
  },
  {
    "service_request": "2023-1015197",
    "request_type": "Trash/Recycling",
    "request_reason": "Request a Large Item Pick Up",
    "date_created": "2023-07-08T11:01:32.000",
    "date_modified": "2023-07-08T11:01:33.000",
    "request_status": "Pending",
    "responsible_agency": "Department of Sanitation",
    "final_address": "4938 Arts St",
    "address_councildis": "D",
    "status": "Assigned to Contractor",
    "contractor": "IV Waste",
    "rowid": "1015197",
    "final_x": "3685815.25897",
    "final_y": "551268.810197",
    "longitude": "-90.05374793268902",
    "latitude": "30.00966620297956",
    "geocoded_column": {
      "latitude": "30.00966620297956",
      "longitude": "-90.05374793268902"
    }
  },
  {
    "service_request": "2023-1015196",
    "request_type": "Trash/Recycling",
    "request_reason": "Request a Large Item Pick Up",
    "date_created": "2023-07-08T10:53:05.000",
    "date_modified": "2023-07-08T10:53:06.000",
    "request_status": "Pending",
    "responsible_agency": "Department of Sanitation",
    "final_address": "2931 St Claude Ave",
    "address_councildis": "C",
    "status": "Assigned to Contractor",
    "contractor": "IV Waste",
    "rowid": "1015196",
    "final_x": "3688401.44431",
    "final_y": "536252.633159",
    "longitude": "-90.04611022881703",
    "latitude": "29.968297431309566",
    "geocoded_column": {
      "latitude": "29.968297431309566",
      "longitude": "-90.04611022881703"
    }
  },
  {
    "service_request": "2023-1015195",
    "request_type": "Abandoned Vehicles",
    "request_reason": "Abandoned/Junk Vehicles",
    "date_created": "2023-07-08T10:51:52.000",
    "date_modified": "2023-07-08T10:51:53.000",
    "request_status": "Pending",
    "responsible_agency": "Department of Public Works",
    "final_address": "S LOPEZ ST & FONTAINEBLEAU DR",
    "address_councildis": "A",
    "status": "Pending",
    "rowid": "1015195",
    "final_x": "3669257.0",
    "final_y": "529475.18",
    "longitude": "-90.10679853798263",
    "latitude": "29.950239146714456",
    "geocoded_column": {
      "latitude": "29.950239146714456",
      "longitude": "-90.10679853798263"
    }
  },
  {
    "service_request": "2023-1015194",
    "request_type": "Trash/Recycling",
    "request_reason": "Request a Large Item Pick Up",
    "date_created": "2023-07-08T10:51:50.000",
    "date_modified": "2023-07-08T10:51:50.000",
    "request_status": "Pending",
    "responsible_agency": "Department of Sanitation",
    "final_address": "2929 St Claude Ave",
    "address_councildis": "C",
    "status": "Assigned to Contractor",
    "contractor": "IV Waste",
    "rowid": "1015194",
    "final_x": "3688388.94428",
    "final_y": "536256.800583",
    "longitude": "-90.04614955652005",
    "latitude": "29.968309276378637",
    "geocoded_column": {
      "latitude": "29.968309276378637",
      "longitude": "-90.04614955652005"
    }
  },
  {
    "service_request": "2023-1015193",
    "request_type": "Trash/Recycling",
    "request_reason": "Request a Large Item Pick Up",
    "date_created": "2023-07-08T10:41:04.000",
    "date_modified": "2023-07-08T10:41:05.000",
    "request_status": "Pending",
    "responsible_agency": "Department of Sanitation",
    "final_address": "3410 Robert St",
    "address_councildis": "B",
    "status": "Assigned to Contractor",
    "contractor": "Richards Disposal",
    "rowid": "1015193",
    "final_x": "3668897.17031",
    "final_y": "527386.502527",
    "longitude": "-90.10800521869379",
    "latitude": "29.944506549776687",
    "geocoded_column": {
      "latitude": "29.944506549776687",
      "longitude": "-90.10800521869379"
    }
  },
  {
    "service_request": "2023-1015192",
    "request_type": "Trash/Recycling",
    "request_reason": "MIssed Recycling Pick-Up",
    "date_created": "2023-07-08T10:33:37.000",
    "date_modified": "2023-07-08T10:33:38.000",
    "request_status": "Pending",
    "responsible_agency": "Department of Sanitation",
    "final_address": "2000 BLK Broadway St",
    "address_councildis": "A",
    "status": "Assigned to Contractor",
    "contractor": "Richards Disposal",
    "rowid": "1015192",
    "final_x": "3665835.08398",
    "final_y": "529003.27938",
    "longitude": "-90.1176189992121",
    "latitude": "29.949041846888985",
    "geocoded_column": {
      "latitude": "29.949041846888985",
      "longitude": "-90.1176189992121"
    }
  },
  {
    "service_request": "2023-1015191",
    "request_type": "Trash/Recycling",
    "request_reason": "Replace Trash Cart",
    "date_created": "2023-07-08T10:20:02.000",
    "date_modified": "2023-07-08T10:20:03.000",
    "request_status": "Pending",
    "responsible_agency": "Department of Sanitation",
    "final_address": "2116 Adams St",
    "address_councildis": "A",
    "status": "Assigned to Contractor",
    "contractor": "Richards Disposal",
    "rowid": "1015191",
    "final_x": "3665263.47117",
    "final_y": "529869.876545",
    "longitude": "-90.11939484894044",
    "latitude": "29.951441372051406",
    "geocoded_column": {
      "latitude": "29.951441372051406",
      "longitude": "-90.11939484894044"
    }
  },
  {
    "service_request": "2023-1015190",
    "request_type": "Trash/Recycling",
    "request_reason": "Missed Trash Pick-Up",
    "date_created": "2023-07-08T10:19:43.000",
    "date_modified": "2023-07-08T10:19:44.000",
    "request_status": "Pending",
    "responsible_agency": "Department of Sanitation",
    "final_address": "1729 Calhoun St",
    "address_councildis": "A",
    "status": "Assigned to Contractor",
    "contractor": "Richards Disposal",
    "rowid": "1015190",
    "final_x": "3665231.09485",
    "final_y": "523635.942203",
    "longitude": "-90.11970556024689",
    "latitude": "29.934300996731718",
    "geocoded_column": {
      "latitude": "29.934300996731718",
      "longitude": "-90.11970556024689"
    }
  },
  {
    "service_request": "2023-1015189",
    "request_type": "Trash/Recycling",
    "request_reason": "Request a Large Item Pick Up",
    "date_created": "2023-07-08T09:59:12.000",
    "date_modified": "2023-07-08T09:59:13.000",
    "request_status": "Pending",
    "responsible_agency": "Department of Sanitation",
    "final_address": "7325 Cranbrook Dr",
    "address_councildis": "E",
    "status": "Assigned to Contractor",
    "contractor": "Waste Pro",
    "rowid": "1015189",
    "final_x": "3713868.26834",
    "final_y": "565961.674019",
    "longitude": "-89.96456497880354",
    "latitude": "30.049174512649316",
    "geocoded_column": {
      "latitude": "30.049174512649316",
      "longitude": "-89.96456497880354"
    }
  },
  {
    "service_request": "2023-1015188",
    "request_type": "Trash/Recycling",
    "request_reason": "Replace Trash Cart",
    "date_created": "2023-07-08T09:54:02.000",
    "date_modified": "2023-07-08T09:54:02.000",
    "request_status": "Pending",
    "responsible_agency": "Department of Sanitation",
    "final_address": "4217 Tchoupitoulas St",
    "address_councildis": "B",
    "status": "Assigned to Contractor",
    "contractor": "Richards Disposal",
    "rowid": "1015188",
    "final_x": "3671796.50823",
    "final_y": "517566.214326",
    "longitude": "-90.09918509179559",
    "latitude": "29.91741834758617",
    "geocoded_column": {
      "latitude": "29.91741834758617",
      "longitude": "-90.09918509179559"
    }
  },
  {
    "service_request": "2023-1015186",
    "request_type": "Parks & Parkways",
    "request_reason": "Request Tree Service (Right of Way/Public Property)",
    "date_created": "2023-07-08T09:50:41.000",
    "date_modified": "2023-07-08T09:50:41.000",
    "request_status": "Pending",
    "responsible_agency": "Department of Parks & Parkway",
    "final_address": "37 Honeysuckle Ln",
    "address_councildis": "E",
    "status": "Pending",
    "rowid": "1015186",
    "final_x": "3713126.9475",
    "final_y": "568245.313637",
    "longitude": "-89.96682190065317",
    "latitude": "30.05547791884598",
    "geocoded_column": {
      "latitude": "30.05547791884598",
      "longitude": "-89.96682190065317"
    }
  },
  {
    "service_request": "2023-1015185",
    "request_type": "Abandoned Vehicles",
    "request_reason": "Abandoned/Junk Vehicles",
    "date_created": "2023-07-08T09:42:56.000",
    "date_modified": "2023-07-08T09:42:56.000",
    "request_status": "Pending",
    "responsible_agency": "Department of Public Works",
    "final_address": "3801 Tchoupitoulas St",
    "address_councildis": "B",
    "status": "Pending",
    "rowid": "1015185",
    "final_x": "3673671.26804",
    "final_y": "517749.470262",
    "longitude": "-90.09326126339094",
    "latitude": "29.917866587178136",
    "geocoded_column": {
      "latitude": "29.917866587178136",
      "longitude": "-90.09326126339094"
    }
  },
  {
    "service_request": "2023-1015184",
    "request_type": "Trash/Recycling",
    "request_reason": "Request a Large Item Pick Up",
    "date_created": "2023-07-08T09:25:25.000",
    "date_modified": "2023-07-08T09:25:26.000",
    "request_status": "Pending",
    "responsible_agency": "Department of Sanitation",
    "final_address": "6201 Memphis St",
    "address_councildis": "A",
    "status": "Assigned to Contractor",
    "contractor": "IV Waste",
    "rowid": "1015184",
    "final_x": "3669379.9842",
    "final_y": "548569.609491",
    "longitude": "-90.10576431258646",
    "latitude": "30.00273876467606",
    "geocoded_column": {
      "latitude": "30.00273876467606",
      "longitude": "-90.10576431258646"
    }
  },
  {
    "service_request": "2023-1015183",
    "request_type": "Trash/Recycling",
    "request_reason": "Missed Trash Pick-Up",
    "date_created": "2023-07-08T09:21:19.000",
    "date_modified": "2023-07-08T09:21:20.000",
    "request_status": "Pending",
    "responsible_agency": "Department of Sanitation",
    "final_address": "2236 Dublin St",
    "address_councildis": "A",
    "status": "Assigned to Contractor",
    "contractor": "Richards Disposal",
    "rowid": "1015183",
    "final_x": "3664234.64589",
    "final_y": "531455.995011",
    "longitude": "-90.12259047246525",
    "latitude": "29.955832613978846",
    "geocoded_column": {
      "latitude": "29.955832613978846",
      "longitude": "-90.12259047246525"
    }
  },
  {
    "service_request": "2023-1015182",
    "request_type": "Trash/Recycling",
    "request_reason": "Missed Trash Pick-Up",
    "date_created": "2023-07-08T08:51:50.000",
    "date_modified": "2023-07-08T08:51:50.000",
    "request_status": "Pending",
    "responsible_agency": "Department of Sanitation",
    "final_address": "1217 L. B. Landry Ave",
    "address_councildis": "C",
    "status": "Assigned to Contractor",
    "contractor": "Richards Disposal",
    "rowid": "1015182",
    "final_x": "3690057.64752",
    "final_y": "526935.401214",
    "longitude": "-90.04121168758277",
    "latitude": "29.942627007321956",
    "geocoded_column": {
      "latitude": "29.942627007321956",
      "longitude": "-90.04121168758277"
    }
  },
  {
    "service_request": "2023-1015181",
    "request_type": "Abandoned Vehicles",
    "request_reason": "Abandoned/Junk Vehicles",
    "date_created": "2023-07-08T08:50:16.000",
    "date_modified": "2023-07-08T08:50:16.000",
    "request_status": "Pending",
    "responsible_agency": "Department of Public Works",
    "final_address": "4519 Baronne St",
    "address_councildis": "B",
    "status": "Pending",
    "rowid": "1015181",
    "final_x": "3670220.46561",
    "final_y": "521578.855481",
    "longitude": "-90.10402389919547",
    "latitude": "29.928498417537977",
    "geocoded_column": {
      "latitude": "29.928498417537977",
      "longitude": "-90.10402389919547"
    }
  },
  {
    "service_request": "2023-1015180",
    "request_type": "Abandoned Vehicles",
    "request_reason": "Abandoned/Junk Vehicles",
    "date_created": "2023-07-08T08:49:10.000",
    "date_modified": "2023-07-08T08:49:10.000",
    "request_status": "Pending",
    "responsible_agency": "Department of Public Works",
    "final_address": "1421 Port St",
    "address_councildis": "C",
    "status": "Pending",
    "rowid": "1015180",
    "final_x": "3687783.61833",
    "final_y": "537681.413768",
    "longitude": "-90.04801073184876",
    "latitude": "29.972245147452668",
    "geocoded_column": {
      "latitude": "29.972245147452668",
      "longitude": "-90.04801073184876"
    }
  },
  {
    "service_request": "2023-1015179",
    "request_type": "Trash/Recycling",
    "request_reason": "Request a Large Item Pick Up",
    "date_created": "2023-07-08T08:48:30.000",
    "date_modified": "2023-07-08T08:48:30.000",
    "request_status": "Pending",
    "responsible_agency": "Department of Sanitation",
    "final_address": "2504 Marengo St",
    "address_councildis": "B",
    "status": "Assigned to Contractor",
    "contractor": "Richards Disposal",
    "rowid": "1015179",
    "final_x": "3671582.50318",
    "final_y": "524211.073084",
    "longitude": "-90.09963476361426",
    "latitude": "29.935695917941676",
    "geocoded_column": {
      "latitude": "29.935695917941676",
      "longitude": "-90.09963476361426"
    }
  },
  {
    "service_request": "2023-1015178",
    "request_type": "Abandoned Vehicles",
    "request_reason": "Abandoned/Junk Vehicles",
    "date_created": "2023-07-08T08:45:56.000",
    "date_modified": "2023-07-08T08:45:56.000",
    "request_status": "Pending",
    "responsible_agency": "Department of Public Works",
    "final_address": "1572 N Prieur St",
    "address_councildis": "D",
    "status": "Pending",
    "rowid": "1015178",
    "final_x": "3681331.31695",
    "final_y": "538309.045513",
    "longitude": "-90.06836630074714",
    "latitude": "29.974168352791896",
    "geocoded_column": {
      "latitude": "29.974168352791896",
      "longitude": "-90.06836630074714"
    }
  },
  {
    "service_request": "2023-1015177",
    "request_type": "Trash/Recycling",
    "request_reason": "Request a Large Item Pick Up",
    "date_created": "2023-07-08T08:36:18.000",
    "date_modified": "2023-07-08T08:36:18.000",
    "request_status": "Pending",
    "responsible_agency": "Department of Sanitation",
    "final_address": "3416 Vincennes Pl",
    "address_councildis": "A",
    "status": "Assigned to Contractor",
    "contractor": "Richards Disposal",
    "rowid": "1015177",
    "final_x": "3667921.7641",
    "final_y": "528636.018688",
    "longitude": "-90.11104278842221",
    "latitude": "29.94797095882576",
    "geocoded_column": {
      "latitude": "29.94797095882576",
      "longitude": "-90.11104278842221"
    }
  },
  {
    "service_request": "2023-1015176",
    "request_type": "Traffic Signals/Signs/Striping/Streetlights",
    "request_reason": "Additional signage",
    "date_created": "2023-07-08T08:33:07.000",
    "date_modified": "2023-07-08T08:33:07.000",
    "request_status": "Pending",
    "responsible_agency": "Department of Public Works",
    "final_address": "1521 Marigny St",
    "address_councildis": "C",
    "status": "Pending",
    "rowid": "1015176",
    "final_x": "3685318.47465",
    "final_y": "537985.169545",
    "longitude": "-90.05578536426421",
    "latitude": "29.973156173630887",
    "geocoded_column": {
      "latitude": "29.973156173630887",
      "longitude": "-90.05578536426421"
    }
  },
  {
    "service_request": "2023-1015175",
    "request_type": "Abandoned Vehicles",
    "request_reason": "Abandoned/Junk Vehicles",
    "date_created": "2023-07-08T08:28:57.000",
    "date_modified": "2023-07-08T08:28:57.000",
    "request_status": "Pending",
    "responsible_agency": "Department of Public Works",
    "final_address": "1400 BLK Port St",
    "address_councildis": "C",
    "status": "Pending",
    "rowid": "1015175",
    "final_x": "3687746.86528",
    "final_y": "537676.107834",
    "longitude": "-90.04812699187545",
    "latitude": "29.972231691543637",
    "geocoded_column": {
      "latitude": "29.972231691543637",
      "longitude": "-90.04812699187545"
    }
  },
  {
    "service_request": "2023-1015174",
    "request_type": "Trash/Recycling",
    "request_reason": "Request a Large Item Pick Up",
    "date_created": "2023-07-08T08:26:50.000",
    "date_modified": "2023-07-08T09:09:40.000",
    "request_status": "Pending",
    "responsible_agency": "Department of Sanitation",
    "final_address": "814 France Street 70117",
    "address_councildis": "C",
    "status": "Assigned to Contractor",
    "contractor": "IV Waste",
    "rowid": "1015174",
    "final_x": "3692106.26486",
    "final_y": "534146.616261",
    "longitude": "-90.03448567504594",
    "latitude": "29.96239166654277",
    "geocoded_column": {
      "latitude": "29.96239166654277",
      "longitude": "-90.03448567504594"
    }
  },
  {
    "service_request": "2023-1015173",
    "request_type": "Trash/Recycling",
    "request_reason": "Request a Large Item Pick Up",
    "date_created": "2023-07-08T08:06:48.000",
    "date_modified": "2023-07-08T11:20:27.000",
    "case_close_date": "2023-07-08T06:20:27.000",
    "request_status": "Closed",
    "responsible_agency": "Department of Sanitation",
    "final_address": "7518 Freret St",
    "address_councildis": "A",
    "status": "Resolved",
    "contractor": "Richards Disposal",
    "contractor_action": "Completed",
    "rowid": "1015173",
    "final_x": "3662925.15296",
    "final_y": "526505.696958",
    "longitude": "-90.12688999426159",
    "latitude": "29.942258866863263",
    "geocoded_column": {
      "latitude": "29.942258866863263",
      "longitude": "-90.12688999426159"
    }
  },
  {
    "service_request": "2023-1015172",
    "request_type": "Trash/Recycling",
    "request_reason": "Missed Trash Pick-Up",
    "date_created": "2023-07-08T08:04:12.000",
    "date_modified": "2023-07-08T08:04:12.000",
    "request_status": "Pending",
    "responsible_agency": "Department of Sanitation",
    "final_address": "8025 Wales St",
    "address_councildis": "E",
    "status": "Assigned to Contractor",
    "contractor": "Waste Pro",
    "rowid": "1015172",
    "final_x": "3701949.28465",
    "final_y": "562275.845215",
    "longitude": "-90.0023712489195",
    "latitude": "30.039426035466246",
    "geocoded_column": {
      "latitude": "30.039426035466246",
      "longitude": "-90.0023712489195"
    }
  },
  {
    "service_request": "2023-1015171",
    "request_type": "Trash/Recycling",
    "request_reason": "Replace Recycling Cart",
    "date_created": "2023-07-08T07:52:24.000",
    "date_modified": "2023-07-08T07:52:24.000",
    "request_status": "Pending",
    "responsible_agency": "Department of Sanitation",
    "final_address": "2710 Milan St",
    "address_councildis": "B",
    "status": "Pending",
    "rowid": "1015171",
    "final_x": "3671162.61147",
    "final_y": "524902.230268",
    "longitude": "-90.10093690241135",
    "latitude": "29.93760880086282",
    "geocoded_column": {
      "latitude": "29.93760880086282",
      "longitude": "-90.10093690241135"
    }
  },
  {
    "service_request": "2023-1015170",
    "request_type": "Roads/Drainage",
    "request_reason": "Street Flooding / Drainage",
    "date_created": "2023-07-08T07:51:38.000",
    "date_modified": "2023-07-08T07:51:38.000",
    "request_status": "Pending",
    "responsible_agency": "Department of Public Works",
    "status": "Pending",
    "rowid": "1015170",
    "longitude": "0.0",
    "latitude": "0.0",
    "geocoded_column": {
      "latitude": "0.0",
      "longitude": "0.0"
    }
  },
  {
    "service_request": "2023-1015169",
    "request_type": "Trash/Recycling",
    "request_reason": "Replace Trash Cart",
    "date_created": "2023-07-08T07:46:44.000",
    "date_modified": "2023-07-08T07:46:45.000",
    "request_status": "Pending",
    "responsible_agency": "Department of Sanitation",
    "final_address": "710 Milan St",
    "address_councildis": "B",
    "status": "Assigned to Contractor",
    "contractor": "Richards Disposal",
    "rowid": "1015169",
    "final_x": "3671827.46311",
    "final_y": "518217.526326",
    "longitude": "-90.09906523970139",
    "latitude": "29.919208332051454",
    "geocoded_column": {
      "latitude": "29.919208332051454",
      "longitude": "-90.09906523970139"
    }
  },
  {
    "service_request": "2023-1015167",
    "request_type": "Parks & Parkways",
    "request_reason": "Request Tree Service (Right of Way/Public Property)",
    "date_created": "2023-07-08T07:30:43.000",
    "date_modified": "2023-07-08T07:30:43.000",
    "request_status": "Pending",
    "responsible_agency": "Department of Parks & Parkway",
    "final_address": "6336 Vicksburg St",
    "address_councildis": "A",
    "status": "Pending",
    "rowid": "1015167",
    "final_x": "3669012.43694",
    "final_y": "549600.369427",
    "longitude": "-90.10689059395837",
    "latitude": "30.005583817319103",
    "geocoded_column": {
      "latitude": "30.005583817319103",
      "longitude": "-90.10689059395837"
    }
  },
  {
    "service_request": "2023-1015166",
    "request_type": "Trash/Recycling",
    "request_reason": "Missed Trash Pick-Up",
    "date_created": "2023-07-08T07:11:24.000",
    "date_modified": "2023-07-08T07:11:24.000",
    "request_status": "Pending",
    "responsible_agency": "Department of Sanitation",
    "final_address": "6321 Hewes St",
    "address_councildis": "A",
    "status": "Assigned to Contractor",
    "contractor": "Richards Disposal",
    "rowid": "1015166",
    "final_x": "3667715.97914",
    "final_y": "529885.970305",
    "longitude": "-90.1116504581841",
    "latitude": "29.951413953192326",
    "geocoded_column": {
      "latitude": "29.951413953192326",
      "longitude": "-90.1116504581841"
    }
  },
  {
    "service_request": "2023-1015165",
    "request_type": "Trash/Recycling",
    "request_reason": "Request a Large Item Pick Up",
    "date_created": "2023-07-08T07:09:38.000",
    "date_modified": "2023-07-08T07:09:38.000",
    "request_status": "Pending",
    "responsible_agency": "Department of Sanitation",
    "final_address": "6321 Hewes St",
    "address_councildis": "A",
    "status": "Assigned to Contractor",
    "contractor": "Richards Disposal",
    "rowid": "1015165",
    "final_x": "3667715.97914",
    "final_y": "529885.970305",
    "longitude": "-90.1116504581841",
    "latitude": "29.951413953192326",
    "geocoded_column": {
      "latitude": "29.951413953192326",
      "longitude": "-90.1116504581841"
    }
  },
  {
    "service_request": "2023-1015164",
    "request_type": "Trash/Recycling",
    "request_reason": "Request a Large Item Pick Up",
    "date_created": "2023-07-08T06:58:24.000",
    "date_modified": "2023-07-08T06:58:25.000",
    "request_status": "Pending",
    "responsible_agency": "Department of Sanitation",
    "final_address": "1921 Prytania St",
    "address_councildis": "B",
    "status": "Assigned to Contractor",
    "contractor": "Richards Disposal",
    "rowid": "1015164",
    "final_x": "3678583.00603",
    "final_y": "523848.028411",
    "longitude": "-90.0775466381238",
    "latitude": "29.934488557973467",
    "geocoded_column": {
      "latitude": "29.934488557973467",
      "longitude": "-90.0775466381238"
    }
  },
  {
    "service_request": "2023-1015163",
    "request_type": "Roads/Drainage",
    "request_reason": "Street Subsidence (Sinking)",
    "date_created": "2023-07-08T06:41:04.000",
    "date_modified": "2023-07-08T06:41:04.000",
    "request_status": "Pending",
    "responsible_agency": "Department of Public Works",
    "final_address": "1700 BLK Upperline St",
    "address_councildis": "B",
    "status": "Pending",
    "rowid": "1015163",
    "final_x": "3669078.90557",
    "final_y": "521245.352638",
    "longitude": "-90.1076388324249",
    "latitude": "29.927615017382372",
    "geocoded_column": {
      "latitude": "29.927615017382372",
      "longitude": "-90.1076388324249"
    }
  },
  {
    "service_request": "2023-1015162",
    "request_type": "Tax and Revenue",
    "request_reason": "Occupational License Tax",
    "date_created": "2023-07-08T02:39:34.000",
    "date_modified": "2023-07-08T02:39:34.000",
    "request_status": "Pending",
    "responsible_agency": "Bureau of Revenue",
    "final_address": "1328 St Bernard Ave",
    "address_councildis": "C",
    "status": "Pending",
    "rowid": "1015162",
    "final_x": "3682712.52284",
    "final_y": "536735.540615",
    "longitude": "-90.06405918653729",
    "latitude": "29.96979976049472",
    "geocoded_column": {
      "latitude": "29.96979976049472",
      "longitude": "-90.06405918653729"
    }
  },
  {
    "service_request": "2023-1015161",
    "request_type": "Safety & Permits",
    "request_reason": "Licenses & Permits",
    "date_created": "2023-07-08T02:38:52.000",
    "date_modified": "2023-07-08T02:38:52.000",
    "request_status": "Pending",
    "responsible_agency": "Safety and Permits",
    "final_address": "1328 St Bernard Ave",
    "address_councildis": "C",
    "status": "Pending",
    "rowid": "1015161",
    "final_x": "3682712.52284",
    "final_y": "536735.540615",
    "longitude": "-90.06405918653729",
    "latitude": "29.96979976049472",
    "geocoded_column": {
      "latitude": "29.96979976049472",
      "longitude": "-90.06405918653729"
    }
  },
  {
    "service_request": "2023-1015160",
    "request_type": "Health Related Request",
    "request_reason": "Noise Ordinance Complaint",
    "date_created": "2023-07-08T02:37:28.000",
    "date_modified": "2023-07-08T02:37:28.000",
    "request_status": "Pending",
    "responsible_agency": "Health Department",
    "final_address": "1328 St Bernard Ave",
    "address_councildis": "C",
    "status": "Pending",
    "rowid": "1015160",
    "final_x": "3682712.52284",
    "final_y": "536735.540615",
    "longitude": "-90.06405918653729",
    "latitude": "29.96979976049472",
    "geocoded_column": {
      "latitude": "29.96979976049472",
      "longitude": "-90.06405918653729"
    }
  },
  {
    "service_request": "2023-1015158",
    "request_type": "Roads/Drainage",
    "request_reason": "Pothole",
    "date_created": "2023-07-08T00:35:55.000",
    "date_modified": "2023-07-08T00:35:55.000",
    "request_status": "Pending",
    "responsible_agency": "Department of Public Works",
    "final_address": "3600 Chestnut St",
    "address_councildis": "B",
    "status": "Pending",
    "rowid": "1015158",
    "final_x": "3673912.44795",
    "final_y": "519932.72588",
    "longitude": "-90.09242535895338",
    "latitude": "29.923862662172834",
    "geocoded_column": {
      "latitude": "29.923862662172834",
      "longitude": "-90.09242535895338"
    }
  },
  {
    "service_request": "2023-1015157",
    "request_type": "Abandoned Vehicles",
    "request_reason": "Abandoned/Junk Vehicles",
    "date_created": "2023-07-08T00:35:48.000",
    "date_modified": "2023-07-08T00:35:49.000",
    "request_status": "Pending",
    "responsible_agency": "Department of Public Works",
    "final_address": "2501 Jourdan Ave",
    "address_councildis": "E",
    "status": "Pending",
    "rowid": "1015157",
    "final_x": "3696552.52176",
    "final_y": "539738.15873",
    "longitude": "-90.02024275647403",
    "latitude": "29.977627078000328",
    "geocoded_column": {
      "latitude": "29.977627078000328",
      "longitude": "-90.02024275647403"
    }
  },
  {
    "service_request": "2023-1015156",
    "request_type": "Trash/Recycling",
    "request_reason": "Request a Large Item Pick Up",
    "date_created": "2023-07-07T23:50:57.000",
    "date_modified": "2023-07-07T23:50:58.000",
    "request_status": "Pending",
    "responsible_agency": "Department of Sanitation",
    "final_address": "6861 Argonne Blvd",
    "address_councildis": "A",
    "status": "Assigned to Contractor",
    "contractor": "IV Waste",
    "rowid": "1015156",
    "final_x": "3670754.65313",
    "final_y": "552982.938263",
    "longitude": "-90.10127162196488",
    "latitude": "30.014833299927723",
    "geocoded_column": {
      "latitude": "30.014833299927723",
      "longitude": "-90.10127162196488"
    }
  },