[
  {
    "service_request": "2023-1001380",
    "request_type": "Traffic Signals/Signs/Striping/Streetlights",
    "request_reason": "Street Light Outage/Malfunction",
    "date_created": "2023-05-20T22:55:52.000",
    "date_modified": "2023-05-20T22:55:52.000",
    "request_status": "Pending",
    "responsible_agency": "Department of Public Works",
    "final_address": "5524 Mandeville St",
    "address_councildis": "D",
    "status": "Assigned to Contractor",
    "contractor": "Legacy Professional Services",
    "rowid": "1001380",
    "final_x": "3684366.53807",
    "final_y": "553296.742359",
    "longitude": "-90.05825365292627",
    "latitude": "30.01528668144594",
    "geocoded_column": {
      "latitude": "30.01528668144594",
      "longitude": "-90.05825365292627"
    }
  },
  {
    "service_request": "2023-1001379",
    "request_type": "Trash/Recycling",
    "request_reason": "Replace Trash Cart",
    "date_created": "2023-05-20T22:54:16.000",
    "date_modified": "2023-05-20T22:54:16.000",
    "request_status": "Pending",
    "responsible_agency": "Department of Sanitation",
    "final_address": "2415 Jefferson Ave",
    "address_councildis": "B",
    "status": "Assigned to Contractor",
    "contractor": "Richards Disposal",
    "rowid": "1001379",
    "final_x": "3668111.28186",
    "final_y": "524461.736956",
    "longitude": "-90.11058504793853",
    "latitude": "29.93648747245749",
    "geocoded_column": {
      "latitude": "29.93648747245749",
      "longitude": "-90.11058504793853"
    }
  },
  {
    "service_request": "2023-1001378",
    "request_type": "Trash/Recycling",
    "request_reason": "Order Trash Cart",
    "date_created": "2023-05-20T22:54:02.000",
    "date_modified": "2023-05-20T22:54:02.000",
    "request_status": "Pending",
    "responsible_agency": "Department of Sanitation",
    "final_address": "917 N Rocheblave St",
    "address_councildis": "D",
    "status": "Assigned to Contractor",
    "contractor": "Richards Disposal",
    "rowid": "1001378",
    "final_x": "3678028.24162",
    "final_y": "537046.895944",
    "longitude": "-90.07884182024289",
    "latitude": "29.9707977263233",
    "geocoded_column": {
      "latitude": "29.9707977263233",
      "longitude": "-90.07884182024289"
    }
  },
  {
    "service_request": "2023-1001377",
    "request_type": "Traffic Signals/Signs/Striping/Streetlights",
    "request_reason": "Street Light Outage/Malfunction",
    "date_created": "2023-05-20T22:53:26.000",
    "date_modified": "2023-05-20T22:53:27.000",
    "request_status": "Pending",
    "responsible_agency": "Department of Public Works",
    "final_address": "5524 Mandeville St",
    "address_councildis": "D",
    "status": "Assigned to Contractor",
    "contractor": "Legacy Professional Services",
    "rowid": "1001377",
    "final_x": "3684366.53807",
    "final_y": "553296.742359",
    "longitude": "-90.05825365292627",
    "latitude": "30.01528668144594",
    "geocoded_column": {
      "latitude": "30.01528668144594",
      "longitude": "-90.05825365292627"
    }
  },
  {
    "service_request": "2023-1001376",
    "request_type": "Trash/Recycling",
    "request_reason": "Request a Large Item Pick Up",
    "date_created": "2023-05-20T22:03:48.000",
    "date_modified": "2023-05-20T22:03:48.000",
    "request_status": "Pending",
    "responsible_agency": "Department of Sanitation",
    "final_address": "7929 Freret St",
    "address_councildis": "A",
    "status": "Assigned to Contractor",
    "contractor": "Richards Disposal",
    "rowid": "1001376",
    "final_x": "3661926.85114",
    "final_y": "527522.518655",
    "longitude": "-90.13000815603785",
    "latitude": "29.9450836666227",
    "geocoded_column": {
      "latitude": "29.9450836666227",
      "longitude": "-90.13000815603785"
    }
  },
  {
    "service_request": "2023-1001375",
    "request_type": "Roads/Drainage",
    "request_reason": "Catch Basin - Clogged",
    "date_created": "2023-05-20T21:31:02.000",
    "date_modified": "2023-05-20T21:31:02.000",
    "request_status": "Pending",
    "responsible_agency": "Department of Public Works",
    "final_address": "3701 Napoleon Ave",
    "address_councildis": "B",
    "status": "Pending",
    "rowid": "1001375",
    "final_x": "3670212.17415",
    "final_y": "528205.00416",
    "longitude": "-90.10382562664194",
    "latitude": "29.94671843033207",
    "geocoded_column": {
      "latitude": "29.94671843033207",
      "longitude": "-90.10382562664194"
    }
  },
  {
    "service_request": "2023-1001374",
    "request_type": "Roads/Drainage",
    "request_reason": "Catch Basin - Clogged",
    "date_created": "2023-05-20T21:30:21.000",
    "date_modified": "2023-05-20T21:30:21.000",
    "request_status": "Pending",
    "responsible_agency": "Department of Public Works",
    "final_address": "3701 Napoleon Ave",
    "address_councildis": "B",
    "status": "Pending",
    "rowid": "1001374",
    "final_x": "3670212.17415",
    "final_y": "528205.00416",
    "longitude": "-90.10382562664194",
    "latitude": "29.94671843033207",
    "geocoded_column": {
      "latitude": "29.94671843033207",
      "longitude": "-90.10382562664194"
    }
  },
  {
    "service_request": "2023-1001373",
    "request_type": "Roads/Drainage",
    "request_reason": "Catch Basin - Clogged",
    "date_created": "2023-05-20T21:29:37.000",
    "date_modified": "2023-05-20T21:29:37.000",
    "request_status": "Pending",
    "responsible_agency": "Department of Public Works",
    "final_address": "3701 Napoleon Ave",
    "address_councildis": "B",
    "status": "Pending",
    "rowid": "1001373",
    "final_x": "3670212.17415",
    "final_y": "528205.00416",
    "longitude": "-90.10382562664194",
    "latitude": "29.94671843033207",
    "geocoded_column": {
      "latitude": "29.94671843033207",
      "longitude": "-90.10382562664194"
    }
  },
  {
    "service_request": "2023-1001372",
    "request_type": "Roads/Drainage",
    "request_reason": "Catch Basin - Clogged",
    "date_created": "2023-05-20T21:27:43.000",
    "date_modified": "2023-05-20T21:27:43.000",
    "request_status": "Pending",
    "responsible_agency": "Department of Public Works",
    "final_address": "3701 Napoleon Ave",
    "address_councildis": "B",
    "status": "Pending",
    "rowid": "1001372",
    "final_x": "3670212.17415",
    "final_y": "528205.00416",
    "longitude": "-90.10382562664194",
    "latitude": "29.94671843033207",
    "geocoded_column": {
      "latitude": "29.94671843033207",
      "longitude": "-90.10382562664194"
    }
  },
  {
    "service_request": "2023-1001371",
    "request_type": "Abandoned Vehicles",
    "request_reason": "Vehicle Blocking Your Driveway",
    "date_created": "2023-05-20T21:01:01.000",
    "date_modified": "2023-05-20T21:01:01.000",
    "request_status": "Pending",
    "responsible_agency": "Department of Public Works",
    "final_address": "N LOPEZ ST & CONTI ST",
    "address_councildis": "B",
    "status": "Pending",
    "rowid": "1001371",
    "final_x": "3674576.5",
    "final_y": "537159.18",
    "longitude": "-90.08973901541256",
    "latitude": "29.971209928646157",
    "geocoded_column": {
      "latitude": "29.971209928646157",
      "longitude": "-90.08973901541256"
    }
  },
  {
    "service_request": "2023-1001370",
    "request_type": "Trash/Recycling",
    "request_reason": "Request a Large Item Pick Up",
    "date_created": "2023-05-20T18:58:57.000",
    "date_modified": "2023-05-20T18:58:58.000",
    "request_status": "Pending",
    "responsible_agency": "Department of Sanitation",
    "final_address": "2731 Onzaga St",
    "address_councildis": "D",
    "status": "Assigned to Contractor",
    "contractor": "IV Waste",
    "rowid": "1001370",
    "final_x": "3678819.4285",
    "final_y": "540878.082379",
    "longitude": "-90.07621040922507",
    "latitude": "29.981308326147573",
    "geocoded_column": {
      "latitude": "29.981308326147573",
      "longitude": "-90.07621040922507"
    }
  },
  {
    "service_request": "2023-1001369",
    "request_type": "Trash/Recycling",
    "request_reason": "Request a Large Item Pick Up",
    "date_created": "2023-05-20T18:07:51.000",
    "date_modified": "2023-05-20T18:07:51.000",
    "request_status": "Pending",
    "responsible_agency": "Department of Sanitation",
    "final_address": "7930 Wave Dr",
    "address_councildis": "E",
    "status": "Assigned to Contractor",
    "contractor": "Waste Pro",
    "rowid": "1001369",
    "final_x": "3714167.02885",
    "final_y": "569727.654054",
    "longitude": "-89.96347842724394",
    "latitude": "30.05951959889848",
    "geocoded_column": {
      "latitude": "30.05951959889848",
      "longitude": "-89.96347842724394"
    }
  },
  {
    "service_request": "2023-1001368",
    "request_type": "Traffic Signals/Signs/Striping/Streetlights",
    "request_reason": "Traffic Signal Malfunctioning/Damaged",
    "date_created": "2023-05-20T17:58:55.000",
    "date_modified": "2023-05-20T17:58:55.000",
    "request_status": "Pending",
    "responsible_agency": "Department of Public Works",
    "final_address": "7931 Wave Dr",
    "address_councildis": "E",
    "status": "Pending",
    "rowid": "1001368",
    "final_x": "3714286.42738",
    "final_y": "569822.703078",
    "longitude": "-89.96309742766941",
    "latitude": "30.059777019172074",
    "geocoded_column": {
      "latitude": "30.059777019172074",
      "longitude": "-89.96309742766941"
    }
  },
  {
    "service_request": "2023-1001367",
    "request_type": "Abandoned Vehicles",
    "request_reason": "Abandoned/Junk Vehicles",
    "date_created": "2023-05-20T17:05:40.000",
    "date_modified": "2023-05-20T17:05:40.000",
    "request_status": "Pending",
    "responsible_agency": "Department of Public Works",
    "final_address": "2004 Mandeville St",
    "address_councildis": "D",
    "status": "Pending",
    "rowid": "1001367",
    "final_x": "3685453.96412",
    "final_y": "539749.296586",
    "longitude": "-90.05529531990919",
    "latitude": "29.978002750654866",
    "geocoded_column": {
      "latitude": "29.978002750654866",
      "longitude": "-90.05529531990919"
    }
  },
  {
    "service_request": "2023-1001366",
    "request_type": "Trash/Recycling",
    "request_reason": "MIssed Recycling Pick-Up",
    "date_created": "2023-05-20T16:30:33.000",
    "date_modified": "2023-05-20T16:30:34.000",
    "request_status": "Pending",
    "responsible_agency": "Department of Sanitation",
    "final_address": "3409 Fern St",
    "address_councildis": "B",
    "status": "Assigned to Contractor",
    "contractor": "Richards Disposal",
    "rowid": "1001366",
    "final_x": "3667916.33313",
    "final_y": "533688.731269",
    "longitude": "-90.11088973621463",
    "latitude": "29.96186442198065",
    "geocoded_column": {
      "latitude": "29.96186442198065",
      "longitude": "-90.11088973621463"
    }
  },
  {
    "service_request": "2023-1001365",
    "request_type": "Trash/Recycling",
    "request_reason": "Request a Large Item Pick Up",
    "date_created": "2023-05-20T15:48:35.000",
    "date_modified": "2023-05-20T15:48:36.000",
    "request_status": "Pending",
    "responsible_agency": "Department of Sanitation",
    "final_address": "1630 Washington Ave",
    "address_councildis": "B",
    "status": "Assigned to Contractor",
    "contractor": "Richards Disposal",
    "rowid": "1001365",
    "final_x": "3675728.51483",
    "final_y": "522748.708858",
    "longitude": "-90.08659596719141",
    "latitude": "29.931551499180358",
    "geocoded_column": {
      "latitude": "29.931551499180358",
      "longitude": "-90.08659596719141"
    }
  },
  {
    "service_request": "2023-1001364",
    "request_type": "Roads/Drainage",
    "request_reason": "Street Subsidence (Sinking)",
    "date_created": "2023-05-20T15:46:41.000",
    "date_modified": "2023-05-20T15:46:41.000",
    "request_status": "Pending",
    "responsible_agency": "Department of Public Works",
    "final_address": "BELLEVILLE ST & NEWTON ST",
    "address_councildis": "C",
    "status": "Pending",
    "rowid": "1001364",
    "final_x": "3687774.2",
    "final_y": "527968.28",
    "longitude": "-90.04838447467073",
    "latitude": "29.945537677954206",
    "geocoded_column": {
      "latitude": "29.945537677954206",
      "longitude": "-90.04838447467073"
    }
  },
  {
    "service_request": "2023-1001363",
    "request_type": "Traffic Signals/Signs/Striping/Streetlights",
    "request_reason": "Traffic Signal Malfunctioning/Damaged",
    "date_created": "2023-05-20T15:38:45.000",
    "date_modified": "2023-05-20T15:38:45.000",
    "request_status": "Pending",
    "responsible_agency": "Department of Public Works",
    "final_address": "ST CHARLES AVE & NASHVILLE AVE",
    "address_councildis": "A",
    "status": "Pending",
    "rowid": "1001363",
    "final_x": "3666231.1",
    "final_y": "522124.98",
    "longitude": "-90.11659921430268",
    "latitude": "29.93011716947148",
    "geocoded_column": {
      "latitude": "29.93011716947148",
      "longitude": "-90.11659921430268"
    }
  },
  {
    "service_request": "2023-1001362",
    "request_type": "Trash/Recycling",
    "request_reason": "Request a Large Item Pick Up",
    "date_created": "2023-05-20T15:35:42.000",
    "date_modified": "2023-05-20T15:35:42.000",
    "request_status": "Pending",
    "responsible_agency": "Department of Sanitation",
    "final_address": "6460 Louisville St",
    "address_councildis": "A",
    "status": "Assigned to Contractor",
    "contractor": "IV Waste",
    "rowid": "1001362",
    "final_x": "3667949.86074",
    "final_y": "550624.815764",
    "longitude": "-90.11021297570554",
    "latitude": "30.00843191694031",
    "geocoded_column": {
      "latitude": "30.00843191694031",
      "longitude": "-90.11021297570554"
    }
  },
  {
    "service_request": "2023-1001361",
    "request_type": "Trash/Recycling",
    "request_reason": "Missed Trash Pick-Up",
    "date_created": "2023-05-20T15:34:36.000",
    "date_modified": "2023-05-20T15:34:37.000",
    "request_status": "Pending",
    "responsible_agency": "Department of Sanitation",
    "final_address": "332 Calhoun St",
    "address_councildis": "A",
    "status": "Assigned to Contractor",
    "contractor": "Richards Disposal",
    "rowid": "1001361",
    "final_x": "3662835.88397",
    "final_y": "518370.209974",
    "longitude": "-90.12744215448869",
    "latitude": "29.9198914223849",
    "geocoded_column": {
      "latitude": "29.9198914223849",
      "longitude": "-90.12744215448869"
    }
  },
  {
    "service_request": "2023-1001360",
    "request_type": "Trash/Recycling",
    "request_reason": "Damaged Caused By Contractor",
    "date_created": "2023-05-20T15:32:34.000",
    "date_modified": "2023-05-20T15:32:35.000",
    "request_status": "Pending",
    "responsible_agency": "Department of Sanitation",
    "final_address": "4812 Chestnut St",
    "address_councildis": "B",
    "status": "Assigned to Contractor",
    "contractor": "Richards Disposal",
    "rowid": "1001360",
    "final_x": "3669414.92986",
    "final_y": "519323.645367",
    "longitude": "-90.10664302606075",
    "latitude": "29.922321045377622",
    "geocoded_column": {
      "latitude": "29.922321045377622",
      "longitude": "-90.10664302606075"
    }
  },
  {
    "service_request": "2023-1001359",
    "request_type": "Roads/Drainage",
    "request_reason": "Pothole",
    "date_created": "2023-05-20T15:23:40.000",
    "date_modified": "2023-05-20T15:23:40.000",
    "request_status": "Pending",
    "responsible_agency": "Department of Public Works",
    "final_address": "200 BLK Huntlee Dr",
    "address_councildis": "C",
    "status": "Pending",
    "rowid": "1001359",
    "final_x": "3702180.98241",
    "final_y": "523060.419874",
    "longitude": "-90.00307780171515",
    "latitude": "29.93159068931225",
    "geocoded_column": {
      "latitude": "29.93159068931225",
      "longitude": "-90.00307780171515"
    }
  },
  {
    "service_request": "2023-1001358",
    "request_type": "Trash/Recycling",
    "request_reason": "Illegal Dumping",
    "date_created": "2023-05-20T15:00:47.000",
    "date_modified": "2023-05-20T15:00:47.000",
    "request_status": "Pending",
    "responsible_agency": "Department of Sanitation",
    "final_address": "2700 BLK Jasmine St",
    "address_councildis": "D",
    "status": "Pending",
    "rowid": "1001358",
    "final_x": "3688058.72621",
    "final_y": "548170.955611",
    "longitude": "-90.0467699347168",
    "latitude": "30.00107915456802",
    "geocoded_column": {
      "latitude": "30.00107915456802",
      "longitude": "-90.0467699347168"
    }
  },
  {
    "service_request": "2023-1001357",
    "request_type": "Trash/Recycling",
    "request_reason": "Request a Large Item Pick Up",
    "date_created": "2023-05-20T14:57:01.000",
    "date_modified": "2023-05-20T14:57:02.000",
    "request_status": "Pending",
    "responsible_agency": "Department of Sanitation",
    "final_address": "4222 Paris Ave",
    "address_councildis": "D",
    "status": "Assigned to Contractor",
    "contractor": "IV Waste",
    "rowid": "1001357",
    "final_x": "3679402.30613",
    "final_y": "547902.696594",
    "longitude": "-90.07412559478865",
    "latitude": "30.000605949863004",
    "geocoded_column": {
      "latitude": "30.000605949863004",
      "longitude": "-90.07412559478865"
    }
  },
  {
    "service_request": "2023-1001356",
    "request_type": "Trash/Recycling",
    "request_reason": "Request a Large Item Pick Up",
    "date_created": "2023-05-20T14:56:03.000",
    "date_modified": "2023-05-20T14:56:03.000",
    "request_status": "Pending",
    "responsible_agency": "Department of Sanitation",
    "final_address": "4222 Paris Ave",
    "address_councildis": "D",
    "status": "Assigned to Contractor",
    "contractor": "IV Waste",
    "rowid": "1001356",
    "final_x": "3679402.30613",
    "final_y": "547902.696594",
    "longitude": "-90.07412559478865",
    "latitude": "30.000605949863004",
    "geocoded_column": {
      "latitude": "30.000605949863004",
      "longitude": "-90.07412559478865"
    }
  },
  {
    "service_request": "2023-1001355",
    "request_type": "Trash/Recycling",
    "request_reason": "Illegal Dumping",
    "date_created": "2023-05-20T14:52:46.000",
    "date_modified": "2023-05-20T14:52:46.000",
    "request_status": "Pending",
    "responsible_agency": "Department of Sanitation",
    "final_address": "1 Peoples Ave",
    "address_councildis": "D",
    "status": "Pending",
    "rowid": "1001355",
    "final_x": "3688554.35215",
    "final_y": "544473.663567",
    "longitude": "-90.04533550688092",
    "latitude": "29.990897626169275",
    "geocoded_column": {
      "latitude": "29.990897626169275",
      "longitude": "-90.04533550688092"
    }
  },
  {
    "service_request": "2023-1001354",
    "request_type": "Trash/Recycling",
    "request_reason": "Illegal Dumping",
    "date_created": "2023-05-20T14:42:49.000",
    "date_modified": "2023-05-20T14:42:49.000",
    "request_status": "Pending",
    "responsible_agency": "Department of Sanitation",
    "final_address": "2750 Verbena St",
    "address_councildis": "D",
    "status": "Pending",
    "rowid": "1001354",
    "final_x": "3688171.78191",
    "final_y": "547844.572562",
    "longitude": "-90.04642436346035",
    "latitude": "30.000178228729343",
    "geocoded_column": {
      "latitude": "30.000178228729343",
      "longitude": "-90.04642436346035"
    }
  },
  {
    "service_request": "2023-1001353",
    "request_type": "Mosquito, Termite & Rodent Control",
    "request_reason": "Mosquito Complaint",
    "date_created": "2023-05-20T14:39:51.000",
    "date_modified": "2023-05-20T14:39:51.000",
    "request_status": "Pending",
    "responsible_agency": "Mosquito, Termite & Rodent Control Board",
    "final_address": "2743 Verbena St",
    "address_councildis": "D",
    "status": "Pending",
    "rowid": "1001353",
    "final_x": "3688049.57923",
    "final_y": "547918.881746",
    "longitude": "-90.04680777163712",
    "latitude": "30.0003863252885",
    "geocoded_column": {
      "latitude": "30.0003863252885",
      "longitude": "-90.04680777163712"
    }
  },
  {
    "service_request": "2023-1001352",
    "request_type": "Abandoned Vehicles",
    "request_reason": "Abandoned/Junk Vehicles",
    "date_created": "2023-05-20T14:09:54.000",
    "date_modified": "2023-05-20T14:09:54.000",
    "request_status": "Pending",
    "responsible_agency": "Department of Public Works",
    "final_address": "429 S Telemachus St",
    "address_councildis": "B",
    "status": "Pending",
    "rowid": "1001352",
    "final_x": "3671403.99028",
    "final_y": "536233.807495",
    "longitude": "-90.09978972124965",
    "latitude": "29.968759759377274",
    "geocoded_column": {
      "latitude": "29.968759759377274",
      "longitude": "-90.09978972124965"
    }
  },
  {
    "service_request": "2023-1001351",
    "request_type": "Mosquito, Termite & Rodent Control",
    "request_reason": "Non-Rodent Complaint (Mice, Possums, Snakes)",
    "date_created": "2023-05-20T13:56:55.000",
    "date_modified": "2023-05-20T13:56:55.000",
    "request_status": "Pending",
    "responsible_agency": "Mosquito, Termite & Rodent Control Board",
    "final_address": "3530 Magazine St",
    "address_councildis": "B",
    "status": "Pending",
    "rowid": "1001351",
    "final_x": "3674232.35105",
    "final_y": "519284.081207",
    "longitude": "-90.09143773056103",
    "latitude": "29.922069567579115",
    "geocoded_column": {
      "latitude": "29.922069567579115",
      "longitude": "-90.09143773056103"
    }
  },
  {
    "service_request": "2023-1001350",
    "request_type": "Trash/Recycling",
    "request_reason": "Start Trash Service",
    "date_created": "2023-05-20T13:56:00.000",
    "date_modified": "2023-05-20T13:56:01.000",
    "request_status": "Pending",
    "responsible_agency": "Department of Sanitation",
    "final_address": "837 Elmira Ave",
    "address_councildis": "C",
    "status": "Assigned to Contractor",
    "contractor": "Richards Disposal",
    "rowid": "1001350",
    "final_x": "3688101.4182",
    "final_y": "528422.105536",
    "longitude": "-90.0473352619255",
    "latitude": "29.946775449607273",
    "geocoded_column": {
      "latitude": "29.946775449607273",
      "longitude": "-90.0473352619255"
    }
  },
  {
    "service_request": "2023-1001349",
    "request_type": "Trash/Recycling",
    "request_reason": "Illegal Dumping",
    "date_created": "2023-05-20T13:34:38.000",
    "date_modified": "2023-05-20T13:34:38.000",
    "request_status": "Pending",
    "responsible_agency": "Department of Code Enforcement",
    "final_address": "9026 Green St",
    "address_councildis": "A",
    "status": "Pending",
    "rowid": "1001349",
    "final_x": "3660585.59443",
    "final_y": "531945.871811",
    "longitude": "-90.13409677579662",
    "latitude": "29.957285132742253",
    "geocoded_column": {
      "latitude": "29.957285132742253",
      "longitude": "-90.13409677579662"
    }
  },
  {
    "service_request": "2023-1001348",
    "request_type": "Abandoned Vehicles",
    "request_reason": "Abandoned/Junk Vehicles",
    "date_created": "2023-05-20T13:25:21.000",
    "date_modified": "2023-05-20T13:28:15.000",
    "request_status": "Pending",
    "responsible_agency": "Department of Public Works",
    "final_address": "1513 Marais St",
    "address_councildis": "C",
    "status": "Pending",
    "rowid": "1001348",
    "final_x": "3682744.72373",
    "final_y": "536490.851207",
    "longitude": "-90.06396605383196",
    "latitude": "29.969125968344702",
    "geocoded_column": {
      "latitude": "29.969125968344702",
      "longitude": "-90.06396605383196"
    }
  },
  {
    "service_request": "2023-1001347",
    "request_type": "Trash/Recycling",
    "request_reason": "Missed Trash Pick-Up",
    "date_created": "2023-05-20T13:04:36.000",
    "date_modified": "2023-05-20T13:04:37.000",
    "request_status": "Pending",
    "responsible_agency": "Department of Sanitation",
    "final_address": "4324 Perrier St",
    "address_councildis": "B",
    "status": "Assigned to Contractor",
    "contractor": "Richards Disposal",
    "rowid": "1001347",
    "final_x": "3671142.07713",
    "final_y": "520043.531192",
    "longitude": "-90.10116668027464",
    "latitude": "29.924249547133904",
    "geocoded_column": {
      "latitude": "29.924249547133904",
      "longitude": "-90.10116668027464"
    }
  },
  {
    "service_request": "2023-1001346",
    "request_type": "Trash/Recycling",
    "request_reason": "Missed Trash Pick-Up",
    "date_created": "2023-05-20T13:00:40.000",
    "date_modified": "2023-05-20T13:00:40.000",
    "request_status": "Pending",
    "responsible_agency": "Department of Sanitation",
    "final_address": "608 Harrison Ave",
    "address_councildis": "A",
    "status": "Assigned to Contractor",
    "contractor": "IV Waste",
    "rowid": "1001346",
    "final_x": "3668383.57818",
    "final_y": "549188.486547",
    "longitude": "-90.10889121197954",
    "latitude": "30.00446977558625",
    "geocoded_column": {
      "latitude": "30.00446977558625",
      "longitude": "-90.10889121197954"
    }
  },
  {
    "service_request": "2023-1001345",
    "request_type": "Roads/Drainage",
    "request_reason": "Catch Basin - Clogged",
    "date_created": "2023-05-20T12:46:37.000",
    "date_modified": "2023-05-20T12:46:37.000",
    "request_status": "Pending",
    "responsible_agency": "Department of Public Works",
    "final_address": "6734 Avenue A",
    "address_councildis": "A",
    "status": "Pending",
    "rowid": "1001345",
    "final_x": "3666026.28896",
    "final_y": "552937.563287",
    "longitude": "-90.11621255771406",
    "latitude": "30.014847483287696",
    "geocoded_column": {
      "latitude": "30.014847483287696",
      "longitude": "-90.11621255771406"
    }
  },
  {
    "service_request": "2023-1001344",
    "request_type": "Trash/Recycling",
    "request_reason": "Return Trash Cart",
    "date_created": "2023-05-20T12:41:02.000",
    "date_modified": "2023-05-20T12:41:02.000",
    "request_status": "Pending",
    "responsible_agency": "Department of Sanitation",
    "final_address": "2833 Carondelet St",
    "address_councildis": "B",
    "status": "Assigned to Contractor",
    "contractor": "Richards Disposal",
    "rowid": "1001344",
    "final_x": "3675441.84789",
    "final_y": "522718.692922",
    "longitude": "-90.08750197230938",
    "latitude": "29.931477538488934",
    "geocoded_column": {
      "latitude": "29.931477538488934",
      "longitude": "-90.08750197230938"
    }
  },
  {
    "service_request": "2023-1001343",
    "request_type": "Trash/Recycling",
    "request_reason": "Return Recycling Cart",
    "date_created": "2023-05-20T12:40:23.000",
    "date_modified": "2023-05-20T12:40:23.000",
    "request_status": "Pending",
    "responsible_agency": "Department of Sanitation",
    "final_address": "2833 Carondelet St",
    "address_councildis": "B",
    "status": "Pending",
    "rowid": "1001343",
    "final_x": "3675441.84789",
    "final_y": "522718.692922",
    "longitude": "-90.08750197230938",
    "latitude": "29.931477538488934",
    "geocoded_column": {
      "latitude": "29.931477538488934",
      "longitude": "-90.08750197230938"
    }
  },
  {
    "service_request": "2023-1001342",
    "request_type": "Trash/Recycling",
    "request_reason": "Order Recycling Cart",
    "date_created": "2023-05-20T12:36:00.000",
    "date_modified": "2023-05-20T12:36:00.000",
    "request_status": "Pending",
    "responsible_agency": "Department of Sanitation",
    "final_address": "5759 Dauphine St",
    "address_councildis": "E",
    "status": "Pending",
    "rowid": "1001342",
    "final_x": "3698511.95722",
    "final_y": "532463.502468",
    "longitude": "-90.01431871126022",
    "latitude": "29.957562492737036",
    "geocoded_column": {
      "latitude": "29.957562492737036",
      "longitude": "-90.01431871126022"
    }
  },
  {
    "service_request": "2023-1001341",
    "request_type": "Trash/Recycling",
    "request_reason": "Order Recycling Cart",
    "date_created": "2023-05-20T12:26:37.000",
    "date_modified": "2023-05-20T12:26:38.000",
    "request_status": "Pending",
    "responsible_agency": "Department of Sanitation",
    "final_address": "6041 Patton St",
    "address_councildis": "A",
    "status": "Pending",
    "rowid": "1001341",
    "final_x": "3664191.42624",
    "final_y": "518774.955767",
    "longitude": "-90.12314985433889",
    "latitude": "29.920965050977863",
    "geocoded_column": {
      "latitude": "29.920965050977863",
      "longitude": "-90.12314985433889"
    }
  },
  {
    "service_request": "2023-1001340",
    "request_type": "Property Maintenance",
    "request_reason": "Property Maintenance",
    "date_created": "2023-05-20T12:22:14.000",
    "date_modified": "2023-05-20T12:22:14.000",
    "request_status": "Pending",
    "responsible_agency": "Department of Code Enforcement",
    "final_address": "2237 Columbus St",
    "address_councildis": "D",
    "status": "Pending",
    "rowid": "1001340",
    "final_x": "3679852.66178",
    "final_y": "538747.920649",
    "longitude": "-90.07302098877905",
    "latitude": "29.97541990992771",
    "geocoded_column": {
      "latitude": "29.97541990992771",
      "longitude": "-90.07302098877905"
    }
  },
  {
    "service_request": "2023-1001339",
    "request_type": "Trash/Recycling",
    "request_reason": "Missed Trash Pick-Up",
    "date_created": "2023-05-20T12:20:50.000",
    "date_modified": "2023-05-20T12:20:51.000",
    "request_status": "Pending",
    "responsible_agency": "Department of Sanitation",
    "final_address": "7126 Tudor Ct",
    "address_councildis": "E",
    "status": "Assigned to Contractor",
    "contractor": "Waste Pro",
    "rowid": "1001339",
    "final_x": "3703546.82206",
    "final_y": "559671.875293",
    "longitude": "-89.9974185372171",
    "latitude": "30.032215018078762",
    "geocoded_column": {
      "latitude": "30.032215018078762",
      "longitude": "-89.9974185372171"
    }
  },
  {
    "service_request": "2023-1001338",
    "request_type": "Trash/Recycling",
    "request_reason": "Request a Large Item Pick Up",
    "date_created": "2023-05-20T12:10:10.000",
    "date_modified": "2023-05-20T12:10:11.000",
    "request_status": "Pending",
    "responsible_agency": "Department of Sanitation",
    "final_address": "4418 Painters St",
    "address_councildis": "D",
    "status": "Assigned to Contractor",
    "contractor": "IV Waste",
    "rowid": "1001338",
    "final_x": "3686239.45794",
    "final_y": "549064.289875",
    "longitude": "-90.0524855953164",
    "latitude": "30.003591541830534",
    "geocoded_column": {
      "latitude": "30.003591541830534",
      "longitude": "-90.0524855953164"
    }
  },
  {
    "service_request": "2023-1001337",
    "request_type": "Utility Poles",
    "request_reason": "Utility Pole Leaning",
    "date_created": "2023-05-20T12:09:08.000",
    "date_modified": "2023-05-20T12:09:14.000",
    "request_status": "Pending",
    "responsible_agency": "Utility Company Collective",
    "final_address": "6508 Orleans Ave",
    "address_councildis": "A",
    "status": "Pending",
    "rowid": "1001337",
    "final_x": "3671160.26356",
    "final_y": "550597.502996",
    "longitude": "-90.10007120373695",
    "latitude": "30.008262197512423",
    "geocoded_column": {
      "latitude": "30.008262197512423",
      "longitude": "-90.10007120373695"
    }
  },
  {
    "service_request": "2023-1001336",
    "request_type": "Trash/Recycling",
    "request_reason": "Order Recycling Cart",
    "date_created": "2023-05-20T12:00:24.000",
    "date_modified": "2023-05-20T12:00:24.000",
    "request_status": "Pending",
    "responsible_agency": "Department of Sanitation",
    "final_address": "111 Country Club Dr",
    "address_councildis": "A",
    "status": "Pending",
    "rowid": "1001336",
    "final_x": "3665719.16436",
    "final_y": "544407.625935",
    "longitude": "-90.11746890286786",
    "latitude": "29.99140206799938",
    "geocoded_column": {
      "latitude": "29.99140206799938",
      "longitude": "-90.11746890286786"
    }
  },
  {
    "service_request": "2023-1001335",
    "request_type": "Trash/Recycling",
    "request_reason": "Order Recycling Cart",
    "date_created": "2023-05-20T11:55:24.000",
    "date_modified": "2023-05-20T11:55:24.000",
    "request_status": "Pending",
    "responsible_agency": "Department of Sanitation",
    "final_address": "32 Arbor Ln",
    "address_councildis": "C",
    "status": "Pending",
    "rowid": "1001335",
    "final_x": "3717118.32383",
    "final_y": "518197.354486",
    "longitude": "-89.95610743810425",
    "latitude": "29.917733722366208",
    "geocoded_column": {
      "latitude": "29.917733722366208",
      "longitude": "-89.95610743810425"
    }
  },
  {
    "service_request": "2023-1001334",
    "request_type": "Trash/Recycling",
    "request_reason": "Replace Trash Cart",
    "date_created": "2023-05-20T11:54:21.000",
    "date_modified": "2023-05-20T11:54:22.000",
    "request_status": "Pending",
    "responsible_agency": "Department of Sanitation",
    "final_address": "32 Arbor Ln",
    "address_councildis": "C",
    "status": "Assigned to Contractor",
    "contractor": "Richards Disposal",
    "rowid": "1001334",
    "final_x": "3717118.32383",
    "final_y": "518197.354486",
    "longitude": "-89.95610743810425",
    "latitude": "29.917733722366208",
    "geocoded_column": {
      "latitude": "29.917733722366208",
      "longitude": "-89.95610743810425"
    }
  },
  {
    "service_request": "2023-1001333",
    "request_type": "Trash/Recycling",
    "request_reason": "Order Recycling Cart",
    "date_created": "2023-05-20T11:47:43.000",
    "date_modified": "2023-05-20T11:47:43.000",
    "request_status": "Pending",
    "responsible_agency": "Department of Sanitation",
    "final_address": "636 Baronne St",
    "address_councildis": "B",
    "status": "Pending",
    "rowid": "1001333",
    "final_x": "3679785.0292",
    "final_y": "528795.052928",
    "longitude": "-90.07358017887013",
    "latitude": "29.94805495378251",
    "geocoded_column": {
      "latitude": "29.94805495378251",
      "longitude": "-90.07358017887013"
    }
  },
  {
    "service_request": "2023-1001332",
    "request_type": "Trash/Recycling",
    "request_reason": "Missed Trash Pick-Up",
    "date_created": "2023-05-20T11:40:35.000",
    "date_modified": "2023-05-20T11:40:36.000",
    "request_status": "Pending",
    "responsible_agency": "Department of Sanitation",
    "final_address": "3914 Erato St",
    "address_councildis": "B",
    "status": "Assigned to Contractor",
    "contractor": "Richards Disposal",
    "rowid": "1001332",
    "final_x": "3672563.54964",
    "final_y": "530390.842626",
    "longitude": "-90.09632696191888",
    "latitude": "29.952659180478108",
    "geocoded_column": {
      "latitude": "29.952659180478108",
      "longitude": "-90.09632696191888"
    }
  },
  {
    "service_request": "2023-1001331",
    "request_type": "Roads/Drainage",
    "request_reason": "Debris in Roadway",
    "date_created": "2023-05-20T11:40:15.000",
    "date_modified": "2023-05-20T11:40:15.000",
    "request_status": "Pending",
    "responsible_agency": "Department of Public Works",
    "final_address": "6033 Camp St",
    "address_councildis": "A",
    "status": "Pending",
    "rowid": "1001331",
    "final_x": "3664568.98868",
    "final_y": "519729.163192",
    "longitude": "-90.12192621174727",
    "latitude": "29.923577852646616",
    "geocoded_column": {
      "latitude": "29.923577852646616",
      "longitude": "-90.12192621174727"
    }
  },
  {
    "service_request": "2023-1001330",
    "request_type": "Abandoned Vehicles",
    "request_reason": "Abandoned/Junk Vehicles",
    "date_created": "2023-05-20T11:37:06.000",
    "date_modified": "2023-05-20T11:39:28.000",
    "request_status": "Pending",
    "responsible_agency": "Department of Public Works",
    "final_address": "7530 Hansbrough Ave",
    "address_councildis": "E",
    "status": "Pending",
    "rowid": "1001330",
    "final_x": "3707712.96792",
    "final_y": "564253.205665",
    "longitude": "-89.98408287281936",
    "latitude": "30.044677646667182",
    "geocoded_column": {
      "latitude": "30.044677646667182",
      "longitude": "-89.98408287281936"
    }
  },
  {
    "service_request": "2023-1001329",
    "request_type": "Trash/Recycling",
    "request_reason": "Repair Trash Cart",
    "date_created": "2023-05-20T11:22:34.000",
    "date_modified": "2023-05-20T11:22:34.000",
    "request_status": "Pending",
    "responsible_agency": "Department of Sanitation",
    "final_address": "3207 Bienville Ave",
    "address_councildis": "B",
    "status": "Assigned to Contractor",
    "contractor": "Richards Disposal",
    "rowid": "1001329",
    "final_x": "3674325.24129",
    "final_y": "536979.187336",
    "longitude": "-90.09053869145548",
    "latitude": "29.970722505628906",
    "geocoded_column": {
      "latitude": "29.970722505628906",
      "longitude": "-90.09053869145548"
    }
  },
  {
    "service_request": "2023-1001328",
    "request_type": "Trash/Recycling",
    "request_reason": "Request a Large Item Pick Up",
    "date_created": "2023-05-20T11:21:20.000",
    "date_modified": "2023-05-20T11:21:21.000",
    "request_status": "Pending",
    "responsible_agency": "Department of Sanitation",
    "final_address": "11001 Yardley Rd",
    "address_councildis": "E",
    "status": "Assigned to Contractor",
    "contractor": "Waste Pro",
    "rowid": "1001328",
    "final_x": "3711892.25483",
    "final_y": "563761.654241",
    "longitude": "-89.97089299399481",
    "latitude": "30.043190101856865",
    "geocoded_column": {
      "latitude": "30.043190101856865",
      "longitude": "-89.97089299399481"
    }
  },
  {
    "service_request": "2023-1001327",
    "request_type": "Trash/Recycling",
    "request_reason": "Order Trash Cart",
    "date_created": "2023-05-20T11:16:07.000",
    "date_modified": "2023-05-20T11:16:08.000",
    "request_status": "Pending",
    "responsible_agency": "Department of Sanitation",
    "final_address": "2056 N Rocheblave St",
    "address_councildis": "D",
    "status": "Assigned to Contractor",
    "contractor": "IV Waste",
    "rowid": "1001327",
    "final_x": "3683014.10082",
    "final_y": "540935.299723",
    "longitude": "-90.0629597294082",
    "latitude": "29.981338446532195",
    "geocoded_column": {
      "latitude": "29.981338446532195",
      "longitude": "-90.0629597294082"
    }
  },
  {
    "service_request": "2023-1001326",
    "request_type": "Trash/Recycling",
    "request_reason": "Request a Large Item Pick Up",
    "date_created": "2023-05-20T11:11:28.000",
    "date_modified": "2023-05-20T11:13:33.000",
    "request_status": "Pending",
    "responsible_agency": "Department of Sanitation",
    "final_address": "1929 Broadway St",
    "address_councildis": "A",
    "status": "Assigned to Contractor",
    "contractor": "Richards Disposal",
    "rowid": "1001326",
    "final_x": "3665767.48653",
    "final_y": "528788.791104",
    "longitude": "-90.1178396186824",
    "latitude": "29.948454045418334",
    "geocoded_column": {
      "latitude": "29.948454045418334",
      "longitude": "-90.1178396186824"
    }
  },
  {
    "service_request": "2023-1001325",
    "request_type": "Trash/Recycling",
    "request_reason": "Request a Large Item Pick Up",
    "date_created": "2023-05-20T10:57:13.000",
    "date_modified": "2023-05-20T10:57:14.000",
    "request_status": "Pending",
    "responsible_agency": "Department of Sanitation",
    "final_address": "2203 Esplanade Ave",
    "address_councildis": "D",
    "status": "Assigned to Contractor",
    "contractor": "IV Waste",
    "rowid": "1001325",
    "final_x": "3679582.64303",
    "final_y": "537986.188041",
    "longitude": "-90.07390022344131",
    "latitude": "29.973333571505414",
    "geocoded_column": {
      "latitude": "29.973333571505414",
      "longitude": "-90.07390022344131"
    }
  },
  {
    "service_request": "2023-1001324",
    "request_type": "Trash/Recycling",
    "request_reason": "MIssed Recycling Pick-Up",
    "date_created": "2023-05-20T10:53:25.000",
    "date_modified": "2023-05-20T10:53:26.000",
    "request_status": "Pending",
    "responsible_agency": "Department of Sanitation",
    "final_address": "3118 Hamilton St",
    "address_councildis": "A",
    "status": "Assigned to Contractor",
    "contractor": "Richards Disposal",
    "rowid": "1001324",
    "final_x": "3664010.80244",
    "final_y": "535913.144903",
    "longitude": "-90.1231486503308",
    "latitude": "29.968094819180052",
    "geocoded_column": {
      "latitude": "29.968094819180052",
      "longitude": "-90.1231486503308"
    }
  },
  {
    "service_request": "2023-1001323",
    "request_type": "Trash/Recycling",
    "request_reason": "MIssed Recycling Pick-Up",
    "date_created": "2023-05-20T10:52:37.000",
    "date_modified": "2023-05-20T10:52:38.000",
    "request_status": "Pending",
    "responsible_agency": "Department of Sanitation",
    "final_address": "3122 Hamilton St",
    "address_councildis": "A",
    "status": "Assigned to Contractor",
    "contractor": "Richards Disposal",
    "rowid": "1001323",
    "final_x": "3664036.48359",
    "final_y": "535942.806919",
    "longitude": "-90.12306655849386",
    "latitude": "29.96817563412154",
    "geocoded_column": {
      "latitude": "29.96817563412154",
      "longitude": "-90.12306655849386"
    }
  },
  {
    "service_request": "2023-1001322",
    "request_type": "Trash/Recycling",
    "request_reason": "Missed Trash Pick-Up",
    "date_created": "2023-05-20T10:52:03.000",
    "date_modified": "2023-05-20T10:52:04.000",
    "request_status": "Pending",
    "responsible_agency": "Department of Sanitation",
    "final_address": "1900 Reynes St",
    "address_councildis": "E",
    "status": "Assigned to Contractor",
    "contractor": "Waste Pro",
    "rowid": "1001322",
    "final_x": "3696780.5304",
    "final_y": "537307.725448",
    "longitude": "-90.01961063934917",
    "latitude": "29.97093707361728",
    "geocoded_column": {
      "latitude": "29.97093707361728",
      "longitude": "-90.01961063934917"
    }
  },
  {
    "service_request": "2023-1001321",
    "request_type": "Trash/Recycling",
    "request_reason": "Missed Trash Pick-Up",
    "date_created": "2023-05-20T10:51:56.000",
    "date_modified": "2023-05-20T10:51:56.000",
    "request_status": "Pending",
    "responsible_agency": "Department of Sanitation",
    "final_address": "2930 Hudson St",
    "address_councildis": "C",
    "status": "Assigned to Contractor",
    "contractor": "Richards Disposal",
    "rowid": "1001321",
    "final_x": "3694001.44867",
    "final_y": "520412.912184",
    "longitude": "-90.02899466084676",
    "latitude": "29.924569515520368",
    "geocoded_column": {
      "latitude": "29.924569515520368",
      "longitude": "-90.02899466084676"
    }
  },
  {
    "service_request": "2023-1001320",
    "request_type": "Trash/Recycling",
    "request_reason": "Missed Trash Pick-Up",
    "date_created": "2023-05-20T10:47:53.000",
    "date_modified": "2023-05-20T10:47:54.000",
    "request_status": "Pending",
    "responsible_agency": "Department of Sanitation",
    "final_address": "2930 Hudson St",
    "address_councildis": "C",
    "status": "Assigned to Contractor",
    "contractor": "Richards Disposal",
    "rowid": "1001320",
    "final_x": "3694001.44867",
    "final_y": "520412.912184",
    "longitude": "-90.02899466084676",
    "latitude": "29.924569515520368",
    "geocoded_column": {
      "latitude": "29.924569515520368",
      "longitude": "-90.02899466084676"
    }
  },
  {
    "service_request": "2023-1001319",
    "request_type": "Property Maintenance",
    "request_reason": "Property Maintenance",
    "date_created": "2023-05-20T10:41:40.000",
    "date_modified": "2023-05-20T10:41:40.000",
    "request_status": "Pending",
    "responsible_agency": "Department of Code Enforcement",
    "final_address": "1013 N Salcedo St",
    "address_councildis": "A",
    "status": "Pending",
    "rowid": "1001319",
    "final_x": "3676225.69768",
    "final_y": "538957.452682",
    "longitude": "-90.08446872004451",
    "latitude": "29.976105244878166",
    "geocoded_column": {
      "latitude": "29.976105244878166",
      "longitude": "-90.08446872004451"
    }
  },
  {
    "service_request": "2023-1001318",
    "request_type": "Roads/Drainage",
    "request_reason": "Catch Basin - Clogged",
    "date_created": "2023-05-20T10:26:27.000",
    "date_modified": "2023-05-20T10:26:27.000",
    "request_status": "Pending",
    "responsible_agency": "Department of Public Works",
    "final_address": "416 Lowerline St",
    "address_councildis": "A",
    "status": "Pending",
    "rowid": "1001318",
    "final_x": "3661712.00333",
    "final_y": "524057.031804",
    "longitude": "-90.13080133064518",
    "latitude": "29.93556087934907",
    "geocoded_column": {
      "latitude": "29.93556087934907",
      "longitude": "-90.13080133064518"
    }
  },
  {
    "service_request": "2023-1001317",
    "request_type": "Trash/Recycling",
    "request_reason": "Request a Large Item Pick Up",
    "date_created": "2023-05-20T10:14:07.000",
    "date_modified": "2023-05-20T10:33:27.000",
    "request_status": "Pending",
    "responsible_agency": "Department of Sanitation",
    "final_address": "322 Wallace Drive, New Orleans 70122",
    "address_councildis": "D",
    "status": "Assigned to Contractor",
    "contractor": "IV Waste",
    "rowid": "1001317",
    "final_x": "3682021.95202",
    "final_y": "548017.843474",
    "longitude": "-90.06584593890697",
    "latitude": "30.000843144929448",
    "geocoded_column": {
      "latitude": "30.000843144929448",
      "longitude": "-90.06584593890697"
    }
  },
  {
    "service_request": "2023-1001316",
    "request_type": "Roads/Drainage",
    "request_reason": "Street Flooding / Drainage",
    "date_created": "2023-05-20T10:06:35.000",
    "date_modified": "2023-05-20T10:06:35.000",
    "request_status": "Pending",
    "responsible_agency": "Department of Public Works",
    "final_address": "6767 Avenue A",
    "address_councildis": "A",
    "status": "Pending",
    "rowid": "1001316",
    "final_x": "3666144.88058",
    "final_y": "553189.751959",
    "longitude": "-90.11582939748749",
    "latitude": "30.015537449428752",
    "geocoded_column": {
      "latitude": "30.015537449428752",
      "longitude": "-90.11582939748749"
    }
  },
  {
    "service_request": "2023-1001315",
    "request_type": "Trash/Recycling",
    "request_reason": "MIssed Recycling Pick-Up",
    "date_created": "2023-05-20T10:05:56.000",
    "date_modified": "2023-05-20T10:05:59.000",
    "request_status": "Pending",
    "responsible_agency": "Department of Sanitation",
    "final_address": "1410 Thalia St",
    "address_councildis": "B",
    "status": "Assigned to Contractor",
    "contractor": "Richards Disposal",
    "rowid": "1001315",
    "final_x": "3679969.49877",
    "final_y": "525375.765245",
    "longitude": "-90.0731164711927",
    "latitude": "29.938647474163314",
    "geocoded_column": {
      "latitude": "29.938647474163314",
      "longitude": "-90.0731164711927"
    }
  },
  {
    "service_request": "2023-1001314",
    "request_type": "Roads/Drainage",
    "request_reason": "Pothole",
    "date_created": "2023-05-20T10:05:17.000",
    "date_modified": "2023-05-20T10:05:17.000",
    "request_status": "Pending",
    "responsible_agency": "Department of Public Works",
    "final_address": "1417 L. B. Landry Ave",
    "address_councildis": "C",
    "status": "Pending",
    "rowid": "1001314",
    "final_x": "3690010.25584",
    "final_y": "526184.84947",
    "longitude": "-90.04138803182393",
    "latitude": "29.94056471537336",
    "geocoded_column": {
      "latitude": "29.94056471537336",
      "longitude": "-90.04138803182393"
    }
  },
  {
    "service_request": "2023-1001313",
    "request_type": "Trash/Recycling",
    "request_reason": "Request a Large Item Pick Up",
    "date_created": "2023-05-20T10:05:02.000",
    "date_modified": "2023-05-20T10:05:03.000",
    "request_status": "Pending",
    "responsible_agency": "Department of Sanitation",
    "final_address": "1656 Paul Morphy St",
    "address_councildis": "D",
    "status": "Assigned to Contractor",
    "contractor": "IV Waste",
    "rowid": "1001313",
    "final_x": "3679102.13647",
    "final_y": "540741.781899",
    "longitude": "-90.0753222146949",
    "latitude": "29.98092501568063",
    "geocoded_column": {
      "latitude": "29.98092501568063",
      "longitude": "-90.0753222146949"
    }
  },
  {
    "service_request": "2023-1001312",
    "request_type": "Trash/Recycling",
    "request_reason": "Request a Large Item Pick Up",
    "date_created": "2023-05-20T09:56:43.000",
    "date_modified": "2023-05-20T09:56:44.000",
    "request_status": "Pending",
    "responsible_agency": "Department of Sanitation",
    "final_address": "1929 Broadway St",
    "address_councildis": "A",
    "status": "Assigned to Contractor",
    "contractor": "Richards Disposal",
    "rowid": "1001312",
    "final_x": "3665767.48653",
    "final_y": "528788.791104",
    "longitude": "-90.1178396186824",
    "latitude": "29.948454045418334",
    "geocoded_column": {
      "latitude": "29.948454045418334",
      "longitude": "-90.1178396186824"
    }
  },
  {
    "service_request": "2023-1001311",
    "request_type": "Roads/Drainage",
    "request_reason": "Pothole",
    "date_created": "2023-05-20T09:54:33.000",
    "date_modified": "2023-05-20T09:54:33.000",
    "request_status": "Pending",
    "responsible_agency": "Department of Public Works",
    "final_address": "EARHART BLVD & MAGNOLIA ST",
    "address_councildis": "B",
    "status": "Pending",
    "rowid": "1001311",
    "final_x": "3676590.5",
    "final_y": "528721.38",
    "longitude": "-90.08366914458753",
    "latitude": "29.947948562397546",
    "geocoded_column": {
      "latitude": "29.947948562397546",
      "longitude": "-90.08366914458753"
    }
  },
  {
    "service_request": "2023-1001309",
    "request_type": "Trash/Recycling",
    "request_reason": "Replace Trash Cart",
    "date_created": "2023-05-20T09:41:58.000",
    "date_modified": "2023-05-20T09:41:58.000",
    "request_status": "Pending",
    "responsible_agency": "Department of Sanitation",
    "final_address": "2021 Calhoun St",
    "address_councildis": "A",
    "status": "Assigned to Contractor",
    "contractor": "Richards Disposal",
    "rowid": "1001309",
    "final_x": "3665619.39578",
    "final_y": "524604.449084",
    "longitude": "-90.1184472832243",
    "latitude": "29.936952767708362",
    "geocoded_column": {
      "latitude": "29.936952767708362",
      "longitude": "-90.1184472832243"
    }
  },
  {
    "service_request": "2023-1001308",
    "request_type": "Traffic Signals/Signs/Striping/Streetlights",
    "request_reason": "Street Name Sign Damaged or Missing",
    "date_created": "2023-05-20T09:28:37.000",
    "date_modified": "2023-05-20T09:28:38.000",
    "request_status": "Pending",
    "responsible_agency": "Department of Public Works",
    "final_address": "S PRIEUR ST & DELACHAISE ST",
    "address_councildis": "B",
    "status": "Pending",
    "rowid": "1001308",
    "final_x": "3671579.0",
    "final_y": "527079.88",
    "longitude": "-90.09954830328616",
    "latitude": "29.943584308549344",
    "geocoded_column": {
      "latitude": "29.943584308549344",
      "longitude": "-90.09954830328616"
    }
  },
  {
    "service_request": "2023-1001307",
    "request_type": "Trash/Recycling",
    "request_reason": "Missed Trash Pick-Up",
    "date_created": "2023-05-20T09:12:43.000",
    "date_modified": "2023-05-20T09:12:43.000",
    "request_status": "Pending",
    "responsible_agency": "Department of Sanitation",
    "final_address": "8800 BLK S Claiborne Ave",
    "address_councildis": "A",
    "status": "Assigned to Contractor",
    "contractor": "Richards Disposal",
    "rowid": "1001307",
    "final_x": "3662713.87795",
    "final_y": "533402.379833",
    "longitude": "-90.12732786240704",
    "latitude": "29.961228636812443",
    "geocoded_column": {
      "latitude": "29.961228636812443",
      "longitude": "-90.12732786240704"
    }
  },
  {
    "service_request": "2023-1001306",
    "request_type": "Roads/Drainage",
    "request_reason": "Culvert Issue",
    "date_created": "2023-05-20T09:06:34.000",
    "date_modified": "2023-05-20T09:06:34.000",
    "request_status": "Pending",
    "responsible_agency": "Department of Public Works",
    "final_address": "400 BLK Hillary St",
    "address_councildis": "A",
    "status": "Pending",
    "rowid": "1001306",
    "final_x": "3661520.44037",
    "final_y": "525211.512357",
    "longitude": "-90.13136786749038",
    "latitude": "29.93874086274785",
    "geocoded_column": {
      "latitude": "29.93874086274785",
      "longitude": "-90.13136786749038"
    }
  },
  {
    "service_request": "2023-1001305",
    "request_type": "Traffic Signals/Signs/Striping/Streetlights",
    "request_reason": "Traffic Sign Missing/Damaged",
    "date_created": "2023-05-20T09:05:54.000",
    "date_modified": "2023-05-20T09:05:54.000",
    "request_status": "Pending",
    "responsible_agency": "Department of Public Works",
    "final_address": "738 Napoleon Ave",
    "address_councildis": "B",
    "status": "Pending",
    "rowid": "1001305",
    "final_x": "3671003.26683",
    "final_y": "518330.136182",
    "longitude": "-90.10166299439517",
    "latitude": "29.919542359407593",
    "geocoded_column": {
      "latitude": "29.919542359407593",
      "longitude": "-90.10166299439517"
    }
  },
  {
    "service_request": "2023-1001304",
    "request_type": "Roads/Drainage",
    "request_reason": "Debris in Roadway",
    "date_created": "2023-05-20T09:04:40.000",
    "date_modified": "2023-05-20T09:04:40.000",
    "request_status": "Pending",
    "responsible_agency": "Department of Public Works",
    "final_address": "300 BLK Hillary St",
    "address_councildis": "A",
    "status": "Pending",
    "rowid": "1001304",
    "final_x": "3661285.75187",
    "final_y": "524953.810444",
    "longitude": "-90.13211733792774",
    "latitude": "29.938039031132085",
    "geocoded_column": {
      "latitude": "29.938039031132085",
      "longitude": "-90.13211733792774"
    }
  },
  {
    "service_request": "2023-1001303",
    "request_type": "Property Maintenance",
    "request_reason": "Property Maintenance",
    "date_created": "2023-05-20T08:53:58.000",
    "date_modified": "2023-05-20T08:53:58.000",
    "request_status": "Pending",
    "responsible_agency": "Department of Code Enforcement",
    "final_address": "17 Navigation Ct",
    "address_councildis": "C",
    "status": "Pending",
    "rowid": "1001303",
    "final_x": "3703628.40286",
    "final_y": "523139.410619",
    "longitude": "-89.99850559354664",
    "latitude": "29.931761602303574",
    "geocoded_column": {
      "latitude": "29.931761602303574",
      "longitude": "-89.99850559354664"
    }
  },
  {
    "service_request": "2023-1001302",
    "request_type": "Trash/Recycling",
    "request_reason": "Request a Large Item Pick Up",
    "date_created": "2023-05-20T08:30:05.000",
    "date_modified": "2023-05-20T08:30:05.000",
    "request_status": "Pending",
    "responsible_agency": "Department of Sanitation",
    "final_address": "4660 Wright Rd",
    "address_councildis": "E",
    "status": "Assigned to Contractor",
    "contractor": "Waste Pro",
    "rowid": "1001302",
    "final_x": "3716616.13234",
    "final_y": "556539.419674",
    "longitude": "-89.9562380653574",
    "latitude": "30.02317657314148",
    "geocoded_column": {
      "latitude": "30.02317657314148",
      "longitude": "-89.9562380653574"
    }
  },
  {
    "service_request": "2023-1001301",
    "request_type": "Roads/Drainage",
    "request_reason": "Street Flooding / Drainage",
    "date_created": "2023-05-20T07:36:55.000",
    "date_modified": "2023-05-20T07:36:55.000",
    "request_status": "Pending",
    "responsible_agency": "Department of Public Works",
    "final_address": "1300 BLK Cambronne St",
    "address_councildis": "A",
    "status": "Pending",
    "rowid": "1001301",
    "final_x": "3661521.00271",
    "final_y": "529488.041861",
    "longitude": "-90.1312244470087",
    "latitude": "29.95049993986015",
    "geocoded_column": {
      "latitude": "29.95049993986015",
      "longitude": "-90.1312244470087"
    }
  },
  {
    "service_request": "2023-1001300",
    "request_type": "Trash/Recycling",
    "request_reason": "Replace Trash Cart",
    "date_created": "2023-05-20T07:03:34.000",
    "date_modified": "2023-05-20T07:03:35.000",
    "request_status": "Pending",
    "responsible_agency": "Department of Sanitation",
    "final_address": "4026 Prytania St",
    "address_councildis": "B",
    "status": "Assigned to Contractor",
    "contractor": "Richards Disposal",
    "rowid": "1001300",
    "final_x": "3672153.85486",
    "final_y": "520403.683704",
    "longitude": "-90.09796058670182",
    "latitude": "29.925209895951717",
    "geocoded_column": {
      "latitude": "29.925209895951717",
      "longitude": "-90.09796058670182"
    }
  },
  {
    "service_request": "2023-1001299",
    "request_type": "Property Maintenance",
    "request_reason": "Property Maintenance",
    "date_created": "2023-05-20T06:59:37.000",
    "date_modified": "2023-05-20T06:59:37.000",
    "request_status": "Pending",
    "responsible_agency": "Department of Code Enforcement",
    "final_address": "2621 Calhoun Street",
    "address_councildis": "A",
    "status": "Pending",
    "rowid": "1001299",
    "final_x": "3666432.49018",
    "final_y": "526507.846526",
    "longitude": "-90.11581644085307",
    "latitude": "29.94216277054734",
    "geocoded_column": {
      "latitude": "29.94216277054734",
      "longitude": "-90.11581644085307"
    }
  },
  {
    "service_request": "2023-1001298",
    "request_type": "Roads/Drainage",
    "request_reason": "Catch Basin - Clogged",
    "date_created": "2023-05-20T06:10:40.000",
    "date_modified": "2023-05-20T06:10:41.000",
    "request_status": "Pending",
    "responsible_agency": "Department of Public Works",
    "final_address": "500 S Norman C Francis Prkwy",
    "address_councildis": "B",
    "status": "Pending",
    "rowid": "1001298",
    "final_x": "3672321.93287",
    "final_y": "535319.025094",
    "longitude": "-90.09692197070544",
    "latitude": "29.966217211138765",
    "geocoded_column": {
      "latitude": "29.966217211138765",
      "longitude": "-90.09692197070544"
    }
  },
  {
    "service_request": "2023-1001297",
    "request_type": "Roads/Drainage",
    "request_reason": "Service Cut",
    "date_created": "2023-05-20T06:08:43.000",
    "date_modified": "2023-05-20T06:08:44.000",
    "request_status": "Pending",
    "responsible_agency": "Department of Public Works",
    "final_address": "3300 BLK Baudin St",
    "address_councildis": "B",
    "status": "Pending",
    "rowid": "1001297",
    "final_x": "3672462.62256",
    "final_y": "535283.379024",
    "longitude": "-90.09647888980486",
    "latitude": "29.96611502139737",
    "geocoded_column": {
      "latitude": "29.96611502139737",
      "longitude": "-90.09647888980486"
    }
  },
  {
    "service_request": "2023-1001296",
    "request_type": "Health Related Request",
    "request_reason": "Noise Ordinance Complaint",
    "date_created": "2023-05-20T05:34:31.000",
    "date_modified": "2023-05-20T09:03:04.000",
    "request_status": "Pending",
    "responsible_agency": "Health Department",
    "final_address": "301 North Norman C Francis",
    "address_councildis": "B",
    "status": "Pending",
    "rowid": "1001296",
    "final_x": "3673614.82856",
    "final_y": "537594.122504",
    "longitude": "-90.09276123914566",
    "latitude": "29.97243453662993",
    "geocoded_column": {
      "latitude": "29.97243453662993",
      "longitude": "-90.09276123914566"
    }
  },
  {
    "service_request": "2023-1001295",
    "request_type": "Health Related Request",
    "request_reason": "Noise Ordinance Complaint",
    "date_created": "2023-05-20T02:39:32.000",
    "date_modified": "2023-05-20T02:39:33.000",
    "request_status": "Pending",
    "responsible_agency": "Health Department",
    "final_address": "1328 St Bernard Ave",
    "address_councildis": "C",
    "status": "Pending",
    "rowid": "1001295",
    "final_x": "3682712.52284",
    "final_y": "536735.540615",
    "longitude": "-90.06405918653729",
    "latitude": "29.96979976049472",
    "geocoded_column": {
      "latitude": "29.96979976049472",
      "longitude": "-90.06405918653729"
    }
  },
  {
    "service_request": "2023-1001294",
    "request_type": "Traffic Signals/Signs/Striping/Streetlights",
    "request_reason": "Traffic Sign Missing/Damaged",
    "date_created": "2023-05-19T23:10:17.000",
    "date_modified": "2023-05-19T23:10:17.000",
    "request_status": "Pending",
    "responsible_agency": "Department of Public Works",
    "final_address": "N ROMAN ST & ST ANN ST",
    "address_councildis": "D",
    "status": "Pending",
    "rowid": "1001294",
    "final_x": "3679413.3",
    "final_y": "535325.18",
    "longitude": "-90.07452736868699",
    "latitude": "29.966021828621066",
    "geocoded_column": {
      "latitude": "29.966021828621066",
      "longitude": "-90.07452736868699"
    }
  },
  {
    "service_request": "2023-1001293",
    "request_type": "Traffic Signals/Signs/Striping/Streetlights",
    "request_reason": "Street Light Outage/Malfunction",
    "date_created": "2023-05-19T22:30:39.000",
    "date_modified": "2023-05-19T22:30:40.000",
    "request_status": "Pending",
    "responsible_agency": "Department of Public Works",
    "final_address": "7609 Daniel Dr",
    "address_councildis": "E",
    "status": "Assigned to Contractor",
    "contractor": "Legacy Professional Services",
    "rowid": "1001293",
    "final_x": "3705242.90007",
    "final_y": "562770.363616",
    "longitude": "-89.99194423285837",
    "latitude": "30.04068016132728",
    "geocoded_column": {
      "latitude": "30.04068016132728",
      "longitude": "-89.99194423285837"
    }
  },
  {
    "service_request": "2023-1001292",
    "request_type": "Mosquito, Termite & Rodent Control",
    "request_reason": "Mosquito Complaint",
    "date_created": "2023-05-19T22:24:21.000",
    "date_modified": "2023-05-19T22:24:22.000",
    "request_status": "Pending",
    "responsible_agency": "Mosquito, Termite & Rodent Control Board",
    "final_address": "8631 Hammond St",
    "address_councildis": "E",
    "status": "Pending",
    "rowid": "1001292",
    "final_x": "3707232.8268",
    "final_y": "555959.224793",
    "longitude": "-89.98590857124378",
    "latitude": "30.021888001704244",
    "geocoded_column": {
      "latitude": "30.021888001704244",
      "longitude": "-89.98590857124378"
    }
  },
  {
    "service_request": "2023-1001291",
    "request_type": "Trash/Recycling",
    "request_reason": "MIssed Recycling Pick-Up",
    "date_created": "2023-05-19T20:19:11.000",
    "date_modified": "2023-05-19T20:19:11.000",
    "request_status": "Pending",
    "responsible_agency": "Department of Sanitation",
    "final_address": "4434 Werner Dr",
    "address_councildis": "E",
    "status": "Assigned to Contractor",
    "contractor": "Waste Pro",
    "rowid": "1001291",
    "final_x": "3704859.88004",
    "final_y": "553549.068439",
    "longitude": "-89.99349545871338",
    "latitude": "30.01533751238025",
    "geocoded_column": {
      "latitude": "30.01533751238025",
      "longitude": "-89.99349545871338"
    }
  },
  {
    "service_request": "2023-1001290",
    "request_type": "Roads/Drainage",
    "request_reason": "Pothole",
    "date_created": "2023-05-19T19:42:27.000",
    "date_modified": "2023-05-19T19:42:27.000",
    "request_status": "Pending",
    "responsible_agency": "Department of Public Works",
    "final_address": "1400 BLK L. B. Landry Ave",
    "address_councildis": "C",
    "status": "Pending",
    "rowid": "1001290",
    "final_x": "3690062.40691",
    "final_y": "526158.189597",
    "longitude": "-90.04122433184651",
    "latitude": "29.940489792876935",
    "geocoded_column": {
      "latitude": "29.940489792876935",
      "longitude": "-90.04122433184651"
    }
  },
  {
    "service_request": "2023-1001288",
    "request_type": "Parks & Parkways",
    "request_reason": "Request Tree Service (Right of Way/Public Property)",
    "date_created": "2023-05-19T19:28:39.000",
    "date_modified": "2023-05-19T19:28:39.000",
    "request_status": "Pending",
    "responsible_agency": "Department of Parks & Parkway",
    "final_address": "4907 Dryades St",
    "address_councildis": "B",
    "status": "Pending",
    "rowid": "1001288",
    "final_x": "3669031.0155",
    "final_y": "521867.427834",
    "longitude": "-90.10776900650795",
    "latitude": "29.92932693437949",
    "geocoded_column": {
      "latitude": "29.92932693437949",
      "longitude": "-90.10776900650795"
    }
  },
  {
    "service_request": "2023-1001287",
    "request_type": "Trash/Recycling",
    "request_reason": "Missed Trash Pick-Up",
    "date_created": "2023-05-19T19:28:28.000",
    "date_modified": "2023-05-19T19:28:28.000",
    "request_status": "Pending",
    "responsible_agency": "Department of Sanitation",
    "final_address": "1607 N Villere St",
    "address_councildis": "C",
    "status": "Assigned to Contractor",
    "contractor": "IV Waste",
    "rowid": "1001287",
    "final_x": "3682592.50415",
    "final_y": "537323.870856",
    "longitude": "-90.06441764058462",
    "latitude": "29.97142112021534",
    "geocoded_column": {
      "latitude": "29.97142112021534",
      "longitude": "-90.06441764058462"
    }
  },
  {
    "service_request": "2023-1001285",
    "request_type": "Parks & Parkways",
    "request_reason": "Request Tree Service (Right of Way/Public Property)",
    "date_created": "2023-05-19T19:25:25.000",
    "date_modified": "2023-05-19T19:25:25.000",
    "request_status": "Pending",
    "responsible_agency": "Department of Parks & Parkway",
    "final_address": "4907 Dryades St",
    "address_councildis": "B",
    "status": "Pending",
    "rowid": "1001285",
    "final_x": "3669031.0155",
    "final_y": "521867.427834",
    "longitude": "-90.10776900650795",
    "latitude": "29.92932693437949",
    "geocoded_column": {
      "latitude": "29.92932693437949",
      "longitude": "-90.10776900650795"
    }
  },
  {
    "service_request": "2023-1001284",
    "request_type": "Roads/Drainage",
    "request_reason": "Pothole",
    "date_created": "2023-05-19T19:24:03.000",
    "date_modified": "2023-05-19T19:24:03.000",
    "request_status": "Pending",
    "responsible_agency": "Department of Public Works",
    "final_address": "10 Mars Pl",
    "address_councildis": "B",
    "status": "Pending",
    "rowid": "1001284",
    "final_x": "3667403.50113",
    "final_y": "533358.518724",
    "longitude": "-90.11252029393044",
    "latitude": "29.960971480276495",
    "geocoded_column": {
      "latitude": "29.960971480276495",
      "longitude": "-90.11252029393044"
    }
  },
  {
    "service_request": "2023-1001283",
    "request_type": "Roads/Drainage",
    "request_reason": "Man hole cover issue",
    "date_created": "2023-05-19T18:51:24.000",
    "date_modified": "2023-05-19T18:51:25.000",
    "request_status": "Pending",
    "responsible_agency": "Department of Public Works",
    "final_address": "CAMP ST & VALMONT ST",
    "address_councildis": "B",
    "status": "Pending",
    "rowid": "1001283",
    "final_x": "3667543.2",
    "final_y": "518997.38",
    "longitude": "-90.11256230377712",
    "latitude": "29.921478883768337",
    "geocoded_column": {
      "latitude": "29.921478883768337",
      "longitude": "-90.11256230377712"
    }
  },
  {
    "service_request": "2023-1001282",
    "request_type": "Traffic Signals/Signs/Striping/Streetlights",
    "request_reason": "Street Light Outage/Malfunction",
    "date_created": "2023-05-19T18:49:24.000",
    "date_modified": "2023-05-19T18:49:25.000",
    "request_status": "Pending",
    "responsible_agency": "Department of Public Works",
    "final_address": "5742 Debore Dr",
    "address_councildis": "D",
    "status": "Assigned to Contractor",
    "contractor": "Legacy Professional Services",
    "rowid": "1001282",
    "final_x": "3691442.10582",
    "final_y": "555223.451609",
    "longitude": "-90.03582931564867",
    "latitude": "30.02036601946765",
    "geocoded_column": {
      "latitude": "30.02036601946765",
      "longitude": "-90.03582931564867"
    }
  },
  {
    "service_request": "2023-1001281",
    "request_type": "Abandoned Vehicles",
    "request_reason": "Abandoned/Junk Vehicles",
    "date_created": "2023-05-19T18:47:23.000",
    "date_modified": "2023-05-19T18:47:23.000",
    "request_status": "Pending",
    "responsible_agency": "Department of Public Works",
    "final_address": "3118 Orleans Ave",
    "address_councildis": "A",
    "status": "Pending",
    "rowid": "1001281",
    "final_x": "3675136.15669",
    "final_y": "538174.210377",
    "longitude": "-90.08793669939132",
    "latitude": "29.973984203246843",
    "geocoded_column": {
      "latitude": "29.973984203246843",
      "longitude": "-90.08793669939132"
    }
  },
  {
    "service_request": "2023-1001280",
    "request_type": "Abandoned Vehicles",
    "request_reason": "Abandoned/Junk Vehicles",
    "date_created": "2023-05-19T18:46:49.000",
    "date_modified": "2023-05-19T18:46:49.000",
    "request_status": "Pending",
    "responsible_agency": "Department of Public Works",
    "final_address": "3118 Orleans Ave",
    "address_councildis": "A",
    "status": "Pending",
    "rowid": "1001280",
    "final_x": "3675136.15669",
    "final_y": "538174.210377",
    "longitude": "-90.08793669939132",
    "latitude": "29.973984203246843",
    "geocoded_column": {
      "latitude": "29.973984203246843",
      "longitude": "-90.08793669939132"
    }
  },
  {
    "service_request": "2023-1001279",
    "request_type": "Abandoned Vehicles",
    "request_reason": "Abandoned/Junk Vehicles",
    "date_created": "2023-05-19T18:46:31.000",
    "date_modified": "2023-05-19T18:46:31.000",
    "request_status": "Pending",
    "responsible_agency": "Department of Public Works",
    "final_address": "3118 Orleans Ave",
    "address_councildis": "A",
    "status": "Pending",
    "rowid": "1001279",
    "final_x": "3675136.15669",
    "final_y": "538174.210377",
    "longitude": "-90.08793669939132",
    "latitude": "29.973984203246843",
    "geocoded_column": {
      "latitude": "29.973984203246843",
      "longitude": "-90.08793669939132"
    }
  },
  {
    "service_request": "2023-1001278",
    "request_type": "Roads/Drainage",
    "request_reason": "Street Flooding / Drainage",
    "date_created": "2023-05-19T18:36:37.000",
    "date_modified": "2023-05-19T18:36:37.000",
    "request_status": "Pending",
    "responsible_agency": "Department of Public Works",
    "final_address": "317 Spencer Ave",
    "address_councildis": "A",
    "status": "Pending",
    "rowid": "1001278",
    "final_x": "3665235.5865",
    "final_y": "553710.292439",
    "longitude": "-90.11868492687017",
    "latitude": "30.016995287948404",
    "geocoded_column": {
      "latitude": "30.016995287948404",
      "longitude": "-90.11868492687017"
    }
  },
  {
    "service_request": "2023-1001277",
    "request_type": "Trash/Recycling",
    "request_reason": "Order Trash Cart",
    "date_created": "2023-05-19T18:35:35.000",
    "date_modified": "2023-05-19T18:35:36.000",
    "request_status": "Pending",
    "responsible_agency": "Department of Sanitation",
    "final_address": "2617 Magnolia St",
    "address_councildis": "B",
    "status": "Assigned to Contractor",
    "contractor": "Richards Disposal",
    "rowid": "1001277",
    "final_x": "3674078.79905",
    "final_y": "526153.88787",
    "longitude": "-90.09168744839268",
    "latitude": "29.940963885336135",
    "geocoded_column": {
      "latitude": "29.940963885336135",
      "longitude": "-90.09168744839268"
    }
  },
  {
    "service_request": "2023-1001276",
    "request_type": "Roads/Drainage",
    "request_reason": "Street Flooding / Drainage",
    "date_created": "2023-05-19T18:32:46.000",
    "date_modified": "2023-05-19T18:32:46.000",
    "request_status": "Pending",
    "responsible_agency": "Department of Public Works",
    "final_address": "317 Spencer Ave",
    "address_councildis": "A",
    "status": "Pending",
    "rowid": "1001276",
    "final_x": "3665235.5865",
    "final_y": "553710.292439",
    "longitude": "-90.11868492687017",
    "latitude": "30.016995287948404",
    "geocoded_column": {
      "latitude": "30.016995287948404",
      "longitude": "-90.11868492687017"
    }
  },
  {
    "service_request": "2023-1001275",
    "request_type": "Trash/Recycling",
    "request_reason": "Replace Trash Cart",
    "date_created": "2023-05-19T18:31:10.000",
    "date_modified": "2023-05-19T18:31:10.000",
    "request_status": "Pending",
    "responsible_agency": "Department of Sanitation",
    "final_address": "2908 Palmer Ave",
    "address_councildis": "A",
    "status": "Assigned to Contractor",
    "contractor": "Richards Disposal",
    "rowid": "1001275",
    "final_x": "3666981.18074",
    "final_y": "527245.999743",
    "longitude": "-90.11405930009502",
    "latitude": "29.94417641149624",
    "geocoded_column": {
      "latitude": "29.94417641149624",
      "longitude": "-90.11405930009502"
    }
  },
  {
    "service_request": "2023-1001274",
    "request_type": "Trash/Recycling",
    "request_reason": "Missed Trash Pick-Up",
    "date_created": "2023-05-19T18:23:01.000",
    "date_modified": "2023-05-19T18:23:02.000",
    "request_status": "Pending",
    "responsible_agency": "Department of Sanitation",
    "final_address": "8500 Hickory St",
    "address_councildis": "A",
    "status": "Assigned to Contractor",
    "contractor": "Richards Disposal",
    "rowid": "1001274",
    "final_x": "3662258.41747",
    "final_y": "530908.106946",
    "longitude": "-90.12884892842975",
    "latitude": "29.954383368522432",
    "geocoded_column": {
      "latitude": "29.954383368522432",
      "longitude": "-90.12884892842975"
    }
  },
  {
    "service_request": "2023-1001273",
    "request_type": "Roads/Drainage",
    "request_reason": "Pothole",
    "date_created": "2023-05-19T18:14:39.000",
    "date_modified": "2023-05-20T09:58:55.000",
    "request_status": "Pending",
    "responsible_agency": "Department of Public Works",
    "final_address": "1521 Independence St",
    "address_councildis": "D",
    "status": "Inspected",
    "rowid": "1001273",
    "final_x": "3691401.8232",
    "final_y": "537164.294152",
    "longitude": "-90.03660235081479",
    "latitude": "29.97071115664258",
    "geocoded_column": {
      "latitude": "29.97071115664258",
      "longitude": "-90.03660235081479"
    }
  },
  {
    "service_request": "2023-1001272",
    "request_type": "Trash/Recycling",
    "request_reason": "Replace Trash Cart",
    "date_created": "2023-05-19T18:11:51.000",
    "date_modified": "2023-05-19T18:11:52.000",
    "request_status": "Pending",
    "responsible_agency": "Department of Sanitation",
    "final_address": "3129 St Roch Ave",
    "address_councildis": "D",
    "status": "Assigned to Contractor",
    "contractor": "IV Waste",
    "rowid": "1001272",
    "final_x": "3685983.94242",
    "final_y": "544428.086991",
    "longitude": "-90.05345640675839",
    "latitude": "29.9908515021132",
    "geocoded_column": {
      "latitude": "29.9908515021132",
      "longitude": "-90.05345640675839"
    }
  },
  {
    "service_request": "2023-1001271",
    "request_type": "Trash/Recycling",
    "request_reason": "Request a Large Item Pick Up",
    "date_created": "2023-05-19T18:04:48.000",
    "date_modified": "2023-05-19T18:04:49.000",
    "request_status": "Pending",
    "responsible_agency": "Department of Sanitation",
    "final_address": "1435 Egania St",
    "address_councildis": "E",
    "status": "Assigned to Contractor",
    "contractor": "Waste Pro",
    "rowid": "1001271",
    "final_x": "3697229.85373",
    "final_y": "535432.089542",
    "longitude": "-90.01825960990936",
    "latitude": "29.965765572777382",
    "geocoded_column": {
      "latitude": "29.965765572777382",
      "longitude": "-90.01825960990936"
    }
  },
  {
    "service_request": "2023-1001270",
    "request_type": "Abandoned Vehicles",
    "request_reason": "Abandoned/Junk Vehicles",
    "date_created": "2023-05-19T17:55:21.000",
    "date_modified": "2023-05-19T17:55:21.000",
    "request_status": "Pending",
    "responsible_agency": "Department of Public Works",
    "final_address": "3118 Orleans Ave",
    "address_councildis": "A",
    "status": "Pending",
    "rowid": "1001270",
    "final_x": "3675136.15669",
    "final_y": "538174.210377",
    "longitude": "-90.08793669939132",
    "latitude": "29.973984203246843",
    "geocoded_column": {
      "latitude": "29.973984203246843",
      "longitude": "-90.08793669939132"
    }
  },
  {
    "service_request": "2023-1001269",
    "request_type": "Trash/Recycling",
    "request_reason": "Repair Trash Cart",
    "date_created": "2023-05-19T17:45:01.000",
    "date_modified": "2023-05-19T17:45:02.000",
    "request_status": "Pending",
    "responsible_agency": "Department of Sanitation",
    "final_address": "1029 Thalia St",
    "address_councildis": "B",
    "status": "Assigned to Contractor",
    "contractor": "Richards Disposal",
    "rowid": "1001269",
    "final_x": "3680682.29346",
    "final_y": "525237.492861",
    "longitude": "-90.07087091287855",
    "latitude": "29.938245695874336",
    "geocoded_column": {
      "latitude": "29.938245695874336",
      "longitude": "-90.07087091287855"
    }
  },
  {
    "service_request": "2023-1001268",
    "request_type": "Trash/Recycling",
    "request_reason": "Missed Trash Pick-Up",
    "date_created": "2023-05-19T17:43:15.000",
    "date_modified": "2023-05-19T17:43:16.000",
    "request_status": "Pending",
    "responsible_agency": "Department of Sanitation",
    "final_address": "1027 Thalia St",
    "address_councildis": "B",
    "status": "Assigned to Contractor",
    "contractor": "Richards Disposal",
    "rowid": "1001268",
    "final_x": "3680691.81691",
    "final_y": "525233.984829",
    "longitude": "-90.07084096849036",
    "latitude": "29.93823576143189",
    "geocoded_column": {
      "latitude": "29.93823576143189",
      "longitude": "-90.07084096849036"
    }
  },
  {
    "service_request": "2023-1001267",
    "request_type": "Abandoned Vehicles",
    "request_reason": "Vehicle Blocking Your Driveway",
    "date_created": "2023-05-19T17:42:08.000",
    "date_modified": "2023-05-19T17:42:08.000",
    "request_status": "Pending",
    "responsible_agency": "Department of Public Works",
    "final_address": "2228 Gravier St",
    "address_councildis": "B",
    "status": "Pending",
    "rowid": "1001267",
    "final_x": "3675569.69505",
    "final_y": "532479.666372",
    "longitude": "-90.08676314289572",
    "latitude": "29.95831316996966",
    "geocoded_column": {
      "latitude": "29.95831316996966",
      "longitude": "-90.08676314289572"
    }
  },
  {
    "service_request": "2023-1001266",
    "request_type": "Abandoned Vehicles",
    "request_reason": "Abandoned/Junk Vehicles",
    "date_created": "2023-05-19T17:39:56.000",
    "date_modified": "2023-05-19T17:39:56.000",
    "request_status": "Pending",
    "responsible_agency": "Department of Public Works",
    "final_address": "1031 Thalia St",
    "address_councildis": "B",
    "status": "Pending",
    "rowid": "1001266",
    "final_x": "3680664.80501",
    "final_y": "525240.355005",
    "longitude": "-90.07092602598497",
    "latitude": "29.938254095625982",
    "geocoded_column": {
      "latitude": "29.938254095625982",
      "longitude": "-90.07092602598497"
    }
  },
  {
    "service_request": "2023-1001265",
    "request_type": "Property Maintenance",
    "request_reason": "Property Maintenance",
    "date_created": "2023-05-19T17:39:50.000",
    "date_modified": "2023-05-19T17:39:50.000",
    "request_status": "Pending",
    "responsible_agency": "Department of Code Enforcement",
    "final_address": "2309 Bartholomew St",
    "address_councildis": "D",
    "status": "Pending",
    "rowid": "1001265",
    "final_x": "3692991.41334",
    "final_y": "539886.55393",
    "longitude": "-90.03148457610314",
    "latitude": "29.97814684156116",
    "geocoded_column": {
      "latitude": "29.97814684156116",
      "longitude": "-90.03148457610314"
    }
  },
  {
    "service_request": "2023-1001264",
    "request_type": "Trash/Recycling",
    "request_reason": "MIssed Recycling Pick-Up",
    "date_created": "2023-05-19T17:38:24.000",
    "date_modified": "2023-05-19T17:38:25.000",
    "request_status": "Pending",
    "responsible_agency": "Department of Sanitation",
    "final_address": "1234 Esplanade Ave",
    "address_councildis": "C",
    "status": "Assigned to Contractor",
    "contractor": "Richards Disposal",
    "rowid": "1001264",
    "final_x": "3682303.73346",
    "final_y": "535690.692167",
    "longitude": "-90.06538669364366",
    "latitude": "29.966939232299",
    "geocoded_column": {
      "latitude": "29.966939232299",
      "longitude": "-90.06538669364366"
    }
  },
  {
    "service_request": "2023-1001263",
    "request_type": "Trash/Recycling",
    "request_reason": "Request a Large Item Pick Up",
    "date_created": "2023-05-19T17:35:56.000",
    "date_modified": "2023-05-19T17:35:56.000",
    "request_status": "Pending",
    "responsible_agency": "Department of Sanitation",
    "final_address": "710 Burdette St",
    "address_councildis": "A",
    "status": "Assigned to Contractor",
    "contractor": "Richards Disposal",
    "rowid": "1001263",
    "final_x": "3661688.77869",
    "final_y": "526456.236734",
    "longitude": "-90.13079516030061",
    "latitude": "29.94215860334788",
    "geocoded_column": {
      "latitude": "29.94215860334788",
      "longitude": "-90.13079516030061"
    }
  },
  {
    "service_request": "2023-1001262",
    "request_type": "Roads/Drainage",
    "request_reason": "Ditch Issue",
    "date_created": "2023-05-19T17:22:41.000",
    "date_modified": "2023-05-19T17:22:41.000",
    "request_status": "Pending",
    "responsible_agency": "Department of Public Works",
    "final_address": "100 BLK Burgundy St",
    "address_councildis": "C",
    "status": "Pending",
    "rowid": "1001262",
    "final_x": "3680474.56355",
    "final_y": "531510.788472",
    "longitude": "-90.07130859970957",
    "latitude": "29.95550144907972",
    "geocoded_column": {
      "latitude": "29.95550144907972",
      "longitude": "-90.07130859970957"
    }
  },
  {
    "service_request": "2023-1001261",
    "request_type": "Trash/Recycling",
    "request_reason": "Request a Large Item Pick Up",
    "date_created": "2023-05-19T17:17:51.000",
    "date_modified": "2023-05-19T17:17:52.000",
    "request_status": "Pending",
    "responsible_agency": "Department of Sanitation",
    "final_address": "8523 Fordham Ct",
    "address_councildis": "E",
    "status": "Assigned to Contractor",
    "contractor": "Waste Pro",
    "rowid": "1001261",
    "final_x": "3704869.70244",
    "final_y": "560379.172062",
    "longitude": "-89.9932120364606",
    "latitude": "30.034117332843124",
    "geocoded_column": {
      "latitude": "30.034117332843124",
      "longitude": "-89.9932120364606"
    }
  },
  {
    "service_request": "2023-1001260",
    "request_type": "Property Maintenance",
    "request_reason": "Property Maintenance",
    "date_created": "2023-05-19T17:11:55.000",
    "date_modified": "2023-05-19T17:11:55.000",
    "request_status": "Pending",
    "responsible_agency": "Department of Code Enforcement",
    "final_address": "638 Bartholomew St",
    "address_councildis": "C",
    "status": "Pending",
    "rowid": "1001260",
    "final_x": "3691352.53091",
    "final_y": "533787.437189",
    "longitude": "-90.03687868427389",
    "latitude": "29.96142752082298",
    "geocoded_column": {
      "latitude": "29.96142752082298",
      "longitude": "-90.03687868427389"
    }
  },
  {
    "service_request": "2023-1001259",
    "request_type": "Abandoned Vehicles",
    "request_reason": "Abandoned/Junk Vehicles",
    "date_created": "2023-05-19T17:04:05.000",
    "date_modified": "2023-05-19T17:04:05.000",
    "request_status": "Pending",
    "responsible_agency": "Department of Public Works",
    "final_address": "1905 Wilton Dr",
    "address_councildis": "D",
    "status": "Pending",
    "rowid": "1001259",
    "final_x": "3681213.94965",
    "final_y": "550944.758933",
    "longitude": "-90.06829639574323",
    "latitude": "30.008915663366814",
    "geocoded_column": {
      "latitude": "30.008915663366814",
      "longitude": "-90.06829639574323"
    }
  },
  {
    "service_request": "2023-1001258",
    "request_type": "Property Maintenance",
    "request_reason": "Property Maintenance",
    "date_created": "2023-05-19T17:02:36.000",
    "date_modified": "2023-05-19T17:02:36.000",
    "request_status": "Pending",
    "responsible_agency": "Department of Code Enforcement",
    "final_address": "2314 Bartholomew St",
    "address_councildis": "D",
    "status": "Pending",
    "rowid": "1001258",
    "final_x": "3692913.01949",
    "final_y": "539964.623818",
    "longitude": "-90.03172936989709",
    "latitude": "29.978363954633227",
    "geocoded_column": {
      "latitude": "29.978363954633227",
      "longitude": "-90.03172936989709"
    }
  },
  {
    "service_request": "2023-1001257",
    "request_type": "Abandoned Vehicles",
    "request_reason": "Abandoned/Junk Vehicles",
    "date_created": "2023-05-19T17:00:17.000",
    "date_modified": "2023-05-19T17:00:17.000",
    "request_status": "Pending",
    "responsible_agency": "Department of Public Works",
    "final_address": "1901 Wilton Dr",
    "address_councildis": "D",
    "status": "Pending",
    "rowid": "1001257",
    "final_x": "3681154.60469",
    "final_y": "550941.249685",
    "longitude": "-90.06848400839263",
    "latitude": "30.008907815585268",
    "geocoded_column": {
      "latitude": "30.008907815585268",
      "longitude": "-90.06848400839263"
    }
  },
  {
    "service_request": "2023-1001256",
    "request_type": "Trash/Recycling",
    "request_reason": "Repair Recycling Cart",
    "date_created": "2023-05-19T16:47:14.000",
    "date_modified": "2023-05-19T16:47:14.000",
    "request_status": "Pending",
    "responsible_agency": "Department of Sanitation",
    "final_address": "8132 Jeannette St",
    "address_councildis": "A",
    "status": "Pending",
    "rowid": "1001256",
    "final_x": "3662457.61127",
    "final_y": "529293.256193",
    "longitude": "-90.12827357601262",
    "latitude": "29.949937290350242",
    "geocoded_column": {
      "latitude": "29.949937290350242",
      "longitude": "-90.12827357601262"
    }
  },
  {
    "service_request": "2023-1001255",
    "request_type": "Trash/Recycling",
    "request_reason": "Missed Trash Pick-Up",
    "date_created": "2023-05-19T16:47:13.000",
    "date_modified": "2023-05-19T16:47:14.000",
    "request_status": "Pending",
    "responsible_agency": "Department of Sanitation",
    "final_address": "2012 Independence St",
    "address_councildis": "D",
    "status": "Assigned to Contractor",
    "contractor": "IV Waste",
    "rowid": "1001255",
    "final_x": "3691778.51504",
    "final_y": "539011.368394",
    "longitude": "-90.03534663858063",
    "latitude": "29.975778228539625",
    "geocoded_column": {
      "latitude": "29.975778228539625",
      "longitude": "-90.03534663858063"
    }
  },
  {
    "service_request": "2023-1001254",
    "request_type": "Trash/Recycling",
    "request_reason": "Order Recycling Cart",
    "date_created": "2023-05-19T16:24:13.000",
    "date_modified": "2023-05-19T16:24:13.000",
    "request_status": "Pending",
    "responsible_agency": "Department of Sanitation",
    "final_address": "4838 Magazine St",
    "address_councildis": "B",
    "status": "Pending",
    "rowid": "1001254",
    "final_x": "3669291.68506",
    "final_y": "518520.249463",
    "longitude": "-90.10705920070258",
    "latitude": "29.92011558819923",
    "geocoded_column": {
      "latitude": "29.92011558819923",
      "longitude": "-90.10705920070258"
    }
  },
  {
    "service_request": "2023-1001253",
    "request_type": "Abandoned Vehicles",
    "request_reason": "Abandoned/Junk Vehicles",
    "date_created": "2023-05-19T16:23:41.000",
    "date_modified": "2023-05-19T16:23:41.000",
    "request_status": "Pending",
    "responsible_agency": "Department of Public Works",
    "final_address": "5062 Stephen Girard Ave",
    "address_councildis": "D",
    "status": "Pending",
    "rowid": "1001253",
    "final_x": "3693075.81936",
    "final_y": "551205.015573",
    "longitude": "-90.03081163495635",
    "latitude": "30.0092658516872",
    "geocoded_column": {
      "latitude": "30.0092658516872",
      "longitude": "-90.03081163495635"
    }
  },
  {
    "service_request": "2023-1001252",
    "request_type": "Trash/Recycling",
    "request_reason": "Request a Large Item Pick Up",
    "date_created": "2023-05-19T16:21:27.000",
    "date_modified": "2023-05-19T16:21:28.000",
    "request_status": "Pending",
    "responsible_agency": "Department of Sanitation",
    "final_address": "2010 Barracks St",
    "address_councildis": "D",
    "status": "Assigned to Contractor",
    "contractor": "Richards Disposal",
    "rowid": "1001252",
    "final_x": "3680147.88891",
    "final_y": "537046.05332",
    "longitude": "-90.07214774214502",
    "latitude": "29.970731429599184",
    "geocoded_column": {
      "latitude": "29.970731429599184",
      "longitude": "-90.07214774214502"
    }
  },
  {
    "service_request": "2023-1001250",
    "request_type": "Trash/Recycling",
    "request_reason": "Request a Large Item Pick Up",
    "date_created": "2023-05-19T16:20:28.000",
    "date_modified": "2023-05-19T16:20:28.000",
    "request_status": "Pending",
    "responsible_agency": "Department of Sanitation",
    "final_address": "4026 Dale St",
    "address_councildis": "E",
    "status": "Assigned to Contractor",
    "contractor": "Waste Pro",
    "rowid": "1001250",
    "final_x": "3699722.86154",
    "final_y": "551482.158229",
    "longitude": "-90.00980137435833",
    "latitude": "30.00981845356199",
    "geocoded_column": {
      "latitude": "30.00981845356199",
      "longitude": "-90.00980137435833"
    }
  },
  {
    "service_request": "2023-1001249",
    "request_type": "Trash/Recycling",
    "request_reason": "Replace Trash Cart",
    "date_created": "2023-05-19T16:19:47.000",
    "date_modified": "2023-05-19T16:19:48.000",
    "request_status": "Pending",
    "responsible_agency": "Department of Sanitation",
    "final_address": "2374 Laurel St",
    "address_councildis": "B",
    "status": "Assigned to Contractor",
    "contractor": "Richards Disposal",
    "rowid": "1001249",
    "final_x": "3678526.11669",
    "final_y": "520874.250297",
    "longitude": "-90.07782910286775",
    "latitude": "29.926313355582053",
    "geocoded_column": {
      "latitude": "29.926313355582053",
      "longitude": "-90.07782910286775"
    }
  },
  {
    "service_request": "2023-1001248",
    "request_type": "Trash/Recycling",
    "request_reason": "Order Recycling Cart",
    "date_created": "2023-05-19T16:15:43.000",
    "date_modified": "2023-05-19T16:15:43.000",
    "request_status": "Pending",
    "responsible_agency": "Department of Sanitation",
    "final_address": "6362 Orleans Ave",
    "address_councildis": "A",
    "status": "Pending",
    "rowid": "1001248",
    "final_x": "3671053.85268",
    "final_y": "549580.288659",
    "longitude": "-90.1004419680292",
    "latitude": "30.005468364099222",
    "geocoded_column": {
      "latitude": "30.005468364099222",
      "longitude": "-90.1004419680292"
    }
  },
  {
    "service_request": "2023-1001247",
    "request_type": "Trash/Recycling",
    "request_reason": "Order Trash Cart",
    "date_created": "2023-05-19T16:15:07.000",
    "date_modified": "2023-05-19T16:15:08.000",
    "request_status": "Pending",
    "responsible_agency": "Department of Sanitation",
    "final_address": "6362 Orleans Ave",
    "address_councildis": "A",
    "status": "Assigned to Contractor",
    "contractor": "IV Waste",
    "rowid": "1001247",
    "final_x": "3671053.85268",
    "final_y": "549580.288659",
    "longitude": "-90.1004419680292",
    "latitude": "30.005468364099222",
    "geocoded_column": {
      "latitude": "30.005468364099222",
      "longitude": "-90.1004419680292"
    }
  },
  {
    "service_request": "2023-1001246",
    "request_type": "Trash/Recycling",
    "request_reason": "Request a Large Item Pick Up",
    "date_created": "2023-05-19T16:13:16.000",
    "date_modified": "2023-05-19T16:13:17.000",
    "request_status": "Pending",
    "responsible_agency": "Department of Sanitation",
    "final_address": "841 Walker St",
    "address_councildis": "A",
    "status": "Assigned to Contractor",
    "contractor": "IV Waste",
    "rowid": "1001246",
    "final_x": "3670214.30561",
    "final_y": "553937.798552",
    "longitude": "-90.10294646951012",
    "latitude": "30.017474791711397",
    "geocoded_column": {
      "latitude": "30.017474791711397",
      "longitude": "-90.10294646951012"
    }
  },
  {
    "service_request": "2023-1001245",
    "request_type": "Abandoned Vehicles",
    "request_reason": "Abandoned/Junk Vehicles",
    "date_created": "2023-05-19T16:11:01.000",
    "date_modified": "2023-05-19T16:11:01.000",
    "request_status": "Pending",
    "responsible_agency": "Department of Public Works",
    "final_address": "1313 St Philip St",
    "address_councildis": "C",
    "status": "Pending",
    "rowid": "1001245",
    "final_x": "3681419.61032",
    "final_y": "534777.94375",
    "longitude": "-90.06821057970303",
    "latitude": "29.964456358568476",
    "geocoded_column": {
      "latitude": "29.964456358568476",
      "longitude": "-90.06821057970303"
    }
  },
  {
    "service_request": "2023-1001244",
    "request_type": "Abandoned Vehicles",
    "request_reason": "Abandoned/Junk Vehicles",
    "date_created": "2023-05-19T16:05:28.000",
    "date_modified": "2023-05-19T16:05:28.000",
    "request_status": "Pending",
    "responsible_agency": "Department of Public Works",
    "final_address": "2018 N Prieur St",
    "address_councildis": "D",
    "status": "Pending",
    "rowid": "1001244",
    "final_x": "3683815.28917",
    "final_y": "539066.095434",
    "longitude": "-90.06049479476357",
    "latitude": "29.976174340781096",
    "geocoded_column": {
      "latitude": "29.976174340781096",
      "longitude": "-90.06049479476357"
    }
  },
  {
    "service_request": "2023-1001243",
    "request_type": "Abandoned Vehicles",
    "request_reason": "Abandoned/Junk Vehicles",
    "date_created": "2023-05-19T16:02:49.000",
    "date_modified": "2023-05-19T16:02:49.000",
    "request_status": "Pending",
    "responsible_agency": "Department of Public Works",
    "final_address": "5102 Laurel St",
    "address_councildis": "B",
    "status": "Pending",
    "rowid": "1001243",
    "final_x": "3668278.8098",
    "final_y": "517789.795766",
    "longitude": "-90.11028098361761",
    "latitude": "29.918136837483843",
    "geocoded_column": {
      "latitude": "29.918136837483843",
      "longitude": "-90.11028098361761"
    }
  },
  {
    "service_request": "2023-1001242",
    "request_type": "Trash/Recycling",
    "request_reason": "Request a Large Item Pick Up",
    "date_created": "2023-05-19T15:59:13.000",
    "date_modified": "2023-05-20T09:17:27.000",
    "case_close_date": "2023-05-20T04:17:27.000",
    "request_status": "Closed",
    "responsible_agency": "Department of Sanitation",
    "final_address": "3811 Red Cypress Dr",
    "address_councildis": "C",
    "status": "Resolved",
    "contractor": "Richards Disposal",
    "rowid": "1001242",
    "final_x": "3703630.7347",
    "final_y": "512166.636465",
    "longitude": "-89.99890164242139",
    "latitude": "29.901590172061162",
    "geocoded_column": {
      "latitude": "29.901590172061162",
      "longitude": "-89.99890164242139"
    }
  },
  {
    "service_request": "2023-1001241",
    "request_type": "Trash/Recycling",
    "request_reason": "MIssed Recycling Pick-Up",
    "date_created": "2023-05-19T15:56:05.000",
    "date_modified": "2023-05-19T15:56:06.000",
    "request_status": "Pending",
    "responsible_agency": "Department of Sanitation",
    "final_address": "7555 Mercier St",
    "address_councildis": "E",
    "status": "Assigned to Contractor",
    "contractor": "Waste Pro",
    "rowid": "1001241",
    "final_x": "3711826.78008",
    "final_y": "565996.400291",
    "longitude": "-89.97101594916865",
    "latitude": "30.049336891735546",
    "geocoded_column": {
      "latitude": "30.049336891735546",
      "longitude": "-89.97101594916865"
    }
  },
  {
    "service_request": "2023-1001240",
    "request_type": "Trash/Recycling",
    "request_reason": "Return Trash Cart",
    "date_created": "2023-05-19T15:53:40.000",
    "date_modified": "2023-05-19T15:53:40.000",
    "request_status": "Pending",
    "responsible_agency": "Department of Sanitation",
    "final_address": "578 Joseph St",
    "address_councildis": "A",
    "status": "Assigned to Contractor",
    "contractor": "Richards Disposal",
    "rowid": "1001240",
    "final_x": "3665989.83188",
    "final_y": "518514.817911",
    "longitude": "-90.1174817919517",
    "latitude": "29.920197403725602",
    "geocoded_column": {
      "latitude": "29.920197403725602",
      "longitude": "-90.1174817919517"
    }
  },
  {
    "service_request": "2023-1001239",
    "request_type": "Roads/Drainage",
    "request_reason": "Catch Basin - Clogged",
    "date_created": "2023-05-19T15:53:15.000",
    "date_modified": "2023-05-19T15:53:15.000",
    "request_status": "Pending",
    "responsible_agency": "Department of Public Works",
    "final_address": "210 Baronne St HM",
    "address_councildis": "B",
    "status": "Pending",
    "rowid": "1001239",
    "final_x": "3680262.51093",
    "final_y": "530595.47501",
    "longitude": "-90.07201000055318",
    "latitude": "29.952991066285993",
    "geocoded_column": {
      "latitude": "29.952991066285993",
      "longitude": "-90.07201000055318"
    }
  },
  {
    "service_request": "2023-1001237",
    "request_type": "Trash/Recycling",
    "request_reason": "Request a Large Item Pick Up",
    "date_created": "2023-05-19T15:47:26.000",
    "date_modified": "2023-05-19T15:47:27.000",
    "request_status": "Pending",
    "responsible_agency": "Department of Sanitation",
    "final_address": "1812 Wilton Dr",
    "address_councildis": "D",
    "status": "Assigned to Contractor",
    "contractor": "IV Waste",
    "rowid": "1001237",
    "final_x": "3681274.25711",
    "final_y": "550816.982613",
    "longitude": "-90.06811032209946",
    "latitude": "30.00856249367368",
    "geocoded_column": {
      "latitude": "30.00856249367368",
      "longitude": "-90.06811032209946"
    }
  },