[
  {
    "service_request": "2025-1224269",
    "request_type": "Property Maintenance",
    "request_reason": "Property Maintenance",
    "date_created": "2025-09-05T23:48:47.000",
    "date_modified": "2025-09-05T23:48:51.000",
    "request_status": "Pending",
    "responsible_agency": "Department of Code Enforcement",
    "final_address": "2115 New Orleans St",
    "address_councildis": "D",
    "status": "Pending",
    "rowid": "1224269",
    "final_x": "3682128.87413",
    "final_y": "539935.640138",
    "longitude": "-90.06579060542812",
    "latitude": "29.978616688167563",
    "geocoded_column": {
      "latitude": "29.978616688167563",
      "longitude": "-90.06579060542812"
    }
  },
  {
    "service_request": "2025-1224268",
    "request_type": "Trash/Recycling",
    "request_reason": "Order Recycling Cart",
    "date_created": "2025-09-05T22:35:54.000",
    "date_modified": "2025-09-05T22:35:56.000",
    "request_status": "Pending",
    "responsible_agency": "Department of Sanitation",
    "final_address": "626 Independence St",
    "address_councildis": "C",
    "status": "Pending",
    "rowid": "1224268",
    "final_x": "3690521.7112",
    "final_y": "533896.265669",
    "longitude": "-90.03949838009606",
    "latitude": "29.961752582499596",
    "geocoded_column": {
      "latitude": "29.961752582499596",
      "longitude": "-90.03949838009606"
    }
  },
  {
    "service_request": "2025-1224267",
    "request_type": "Trash/Recycling",
    "request_reason": "Order Trash Cart",
    "date_created": "2025-09-05T22:24:55.000",
    "date_modified": "2025-09-05T22:24:57.000",
    "request_status": "Pending",
    "responsible_agency": "Department of Sanitation",
    "final_address": "2614 Peace Ct",
    "address_councildis": "D",
    "status": "Assigned to Contractor",
    "contractor": "IV Waste",
    "rowid": "1224267",
    "final_x": "3686620.51689",
    "final_y": "541037.550475",
    "longitude": "-90.05156542954836",
    "latitude": "29.981509165789916",
    "geocoded_column": {
      "latitude": "29.981509165789916",
      "longitude": "-90.05156542954836"
    }
  },
  {
    "service_request": "2025-1224266",
    "request_type": "Streetlights",
    "request_reason": "Streetlight Outage/Malfunction",
    "date_created": "2025-09-05T22:03:26.000",
    "date_modified": "2025-09-05T22:03:28.000",
    "request_status": "Pending",
    "responsible_agency": "Department of Public Works",
    "final_address": "1133 Lowerline St",
    "address_councildis": "A",
    "status": "Pending",
    "rowid": "1224266",
    "final_x": "3663677.03795",
    "final_y": "526752.776062",
    "longitude": "-90.1245078865072",
    "latitude": "29.9429164661833",
    "geocoded_column": {
      "latitude": "29.9429164661833",
      "longitude": "-90.1245078865072"
    }
  },
  {
    "service_request": "2025-1224265",
    "request_type": "Abandoned Vehicles",
    "request_reason": "Abandoned/Junk Vehicles",
    "date_created": "2025-09-05T21:31:51.000",
    "date_modified": "2025-09-05T21:31:53.000",
    "request_status": "Pending",
    "responsible_agency": "Department of Public Works",
    "final_address": "7516 Oak St",
    "address_councildis": "A",
    "status": "Pending",
    "rowid": "1224265",
    "final_x": "3663398.53043",
    "final_y": "527027.392062",
    "longitude": "-90.12537806593485",
    "latitude": "29.943679648451337",
    "geocoded_column": {
      "latitude": "29.943679648451337",
      "longitude": "-90.12537806593485"
    }
  },
  {
    "service_request": "2025-1224264",
    "request_type": "Abandoned Vehicles",
    "request_reason": "Abandoned/Junk Vehicles",
    "date_created": "2025-09-05T21:30:01.000",
    "date_modified": "2025-09-05T21:30:03.000",
    "request_status": "Pending",
    "responsible_agency": "Department of Public Works",
    "final_address": "7516 Oak St",
    "address_councildis": "A",
    "status": "Pending",
    "rowid": "1224264",
    "final_x": "3663398.53043",
    "final_y": "527027.392062",
    "longitude": "-90.12537806593485",
    "latitude": "29.943679648451337",
    "geocoded_column": {
      "latitude": "29.943679648451337",
      "longitude": "-90.12537806593485"
    }
  },
  {
    "service_request": "2025-1224263",
    "request_type": "Streetlights",
    "request_reason": "Streetlight Outage/Malfunction",
    "date_created": "2025-09-05T21:06:24.000",
    "date_modified": "2025-09-05T21:06:26.000",
    "request_status": "Pending",
    "responsible_agency": "Department of Public Works",
    "final_address": "926 Solomon Pl",
    "address_councildis": "A",
    "status": "Pending",
    "rowid": "1224263",
    "final_x": "3672565.40801",
    "final_y": "541324.549772",
    "longitude": "-90.09594827445268",
    "latitude": "29.98272314126774",
    "geocoded_column": {
      "latitude": "29.98272314126774",
      "longitude": "-90.09594827445268"
    }
  },
  {
    "service_request": "2025-1224262",
    "request_type": "Property Maintenance",
    "request_reason": "Property Maintenance",
    "date_created": "2025-09-05T20:49:42.000",
    "date_modified": "2025-09-05T20:49:45.000",
    "request_status": "Pending",
    "responsible_agency": "Department of Code Enforcement",
    "final_address": "514 S Salcedo St",
    "address_councildis": "B",
    "status": "Pending",
    "rowid": "1224262",
    "final_x": "3673080.29096",
    "final_y": "534620.464198",
    "longitude": "-90.09455093703228",
    "latitude": "29.96427388101359",
    "geocoded_column": {
      "latitude": "29.96427388101359",
      "longitude": "-90.09455093703228"
    }
  },
  {
    "service_request": "2025-1224261",
    "request_type": "Streetlights",
    "request_reason": "Streetlight Outage/Malfunction",
    "date_created": "2025-09-05T20:19:20.000",
    "date_modified": "2025-09-05T20:19:22.000",
    "request_status": "Pending",
    "responsible_agency": "Department of Public Works",
    "final_address": "3705 State Street Dr",
    "address_councildis": "A",
    "status": "Pending",
    "rowid": "1224261",
    "final_x": "3668038.06484",
    "final_y": "529365.677249",
    "longitude": "-90.1106509957693",
    "latitude": "29.949973870587257",
    "geocoded_column": {
      "latitude": "29.949973870587257",
      "longitude": "-90.1106509957693"
    }
  },
  {
    "service_request": "2025-1224260",
    "request_type": "Trash/Recycling",
    "request_reason": "Request a Large Item Pick Up",
    "date_created": "2025-09-05T20:18:13.000",
    "date_modified": "2025-09-05T20:18:16.000",
    "request_status": "Pending",
    "responsible_agency": "Department of Sanitation",
    "final_address": "4138 St Peter St",
    "address_councildis": "A",
    "status": "Assigned to Contractor",
    "contractor": "IV Waste",
    "rowid": "1224260",
    "final_x": "3672236.461",
    "final_y": "540131.983691",
    "longitude": "-90.09702789740554",
    "latitude": "29.97945375523649",
    "geocoded_column": {
      "latitude": "29.97945375523649",
      "longitude": "-90.09702789740554"
    }
  },
  {
    "service_request": "2025-1224259",
    "request_type": "Streetlights",
    "request_reason": "Streetlight Outage/Malfunction",
    "date_created": "2025-09-05T20:16:58.000",
    "date_modified": "2025-09-05T20:17:00.000",
    "request_status": "Pending",
    "responsible_agency": "Department of Public Works",
    "final_address": "3809 State Street Dr",
    "address_councildis": "A",
    "status": "Pending",
    "rowid": "1224259",
    "final_x": "3668104.67284",
    "final_y": "529580.225345",
    "longitude": "-90.11043345276177",
    "latitude": "29.95056185340376",
    "geocoded_column": {
      "latitude": "29.95056185340376",
      "longitude": "-90.11043345276177"
    }
  },
  {
    "service_request": "2025-1224258",
    "request_type": "Drainage",
    "request_reason": "Drainage Manhole Cover Missing or Damaged",
    "date_created": "2025-09-05T18:39:59.000",
    "date_modified": "2025-09-05T18:40:02.000",
    "request_status": "Pending",
    "responsible_agency": "Sewerage & Water Board",
    "final_address": "2128 St Andrew St",
    "address_councildis": "B",
    "status": "Pending",
    "rowid": "1224258",
    "final_x": "3676851.91688",
    "final_y": "525814.340861",
    "longitude": "-90.08294390778713",
    "latitude": "29.939947324561064",
    "geocoded_column": {
      "latitude": "29.939947324561064",
      "longitude": "-90.08294390778713"
    }
  },
  {
    "service_request": "2025-1224257",
    "request_type": "Trash/Recycling",
    "request_reason": "Request a Large Item Pick Up",
    "date_created": "2025-09-05T18:27:16.000",
    "date_modified": "2025-09-05T18:27:18.000",
    "request_status": "Pending",
    "responsible_agency": "Department of Sanitation",
    "final_address": "1825 Rivertree Ct",
    "address_councildis": "C",
    "status": "Assigned to Contractor",
    "contractor": "Richards Disposal",
    "rowid": "1224257",
    "final_x": "3701373.00465",
    "final_y": "523994.02342",
    "longitude": "-90.00559432454399",
    "latitude": "29.934183542054196",
    "geocoded_column": {
      "latitude": "29.934183542054196",
      "longitude": "-90.00559432454399"
    }
  },
  {
    "service_request": "2025-1224256",
    "request_type": "Traffic Signals",
    "request_reason": "Traffic Signal Malfunctioning or Damaged",
    "date_created": "2025-09-05T18:24:00.000",
    "date_modified": "2025-09-05T18:24:02.000",
    "request_status": "Pending",
    "responsible_agency": "Department of Public Works",
    "final_address": "1400 Sere St",
    "address_councildis": "D",
    "status": "Pending",
    "rowid": "1224256",
    "final_x": "3678599.28034",
    "final_y": "545378.960208",
    "longitude": "-90.07674984021781",
    "latitude": "29.9936908070942",
    "geocoded_column": {
      "latitude": "29.9936908070942",
      "longitude": "-90.07674984021781"
    }
  },
  {
    "service_request": "2025-1224255",
    "request_type": "Street and Traffic Signs",
    "request_reason": "Traffic or Parking Sign Damaged or Missing",
    "date_created": "2025-09-05T17:49:03.000",
    "date_modified": "2025-09-05T17:49:06.000",
    "request_status": "Pending",
    "responsible_agency": "Department of Public Works",
    "final_address": "1200 Canal St",
    "address_councildis": "B",
    "status": "Pending",
    "rowid": "1224255",
    "final_x": "3679661.38056",
    "final_y": "531734.515203",
    "longitude": "-90.07386857354199",
    "latitude": "29.956141223983263",
    "geocoded_column": {
      "latitude": "29.956141223983263",
      "longitude": "-90.07386857354199"
    }
  },
  {
    "service_request": "2025-1224254",
    "request_type": "General Services",
    "request_reason": "General Service Request",
    "date_created": "2025-09-05T17:44:25.000",
    "date_modified": "2025-09-05T17:44:27.000",
    "request_status": "Pending",
    "responsible_agency": "Orleans Parish Communication District",
    "final_address": "7316 Green St",
    "address_councildis": "A",
    "status": "Pending",
    "rowid": "1224254",
    "final_x": "3664733.18368",
    "final_y": "528157.91968",
    "longitude": "-90.12112643122866",
    "latitude": "29.946749480548355",
    "geocoded_column": {
      "latitude": "29.946749480548355",
      "longitude": "-90.12112643122866"
    }
  },
  {
    "service_request": "2025-1224253",
    "request_type": "Roads and Streets",
    "request_reason": "Street Subsidence (Sinking)",
    "date_created": "2025-09-05T17:33:17.000",
    "date_modified": "2025-09-05T17:33:19.000",
    "request_status": "Pending",
    "responsible_agency": "Sewerage & Water Board",
    "final_address": "115 Sherwood Forest Dr",
    "address_councildis": "A",
    "status": "Pending",
    "rowid": "1224253",
    "final_x": "3673249.70254",
    "final_y": "541190.763148",
    "longitude": "-90.09379149639427",
    "latitude": "29.982334937207074",
    "geocoded_column": {
      "latitude": "29.982334937207074",
      "longitude": "-90.09379149639427"
    }
  },
  {
    "service_request": "2025-1224252",
    "request_type": "Trash/Recycling",
    "request_reason": "MIssed Recycling Pick-Up",
    "date_created": "2025-09-05T17:15:26.000",
    "date_modified": "2025-09-05T17:15:28.000",
    "request_status": "Pending",
    "responsible_agency": "Department of Sanitation",
    "final_address": "10 Seaward Ct",
    "address_councildis": "C",
    "status": "Assigned to Contractor",
    "contractor": "Richards Disposal",
    "rowid": "1224252",
    "final_x": "3704447.63351",
    "final_y": "522441.177082",
    "longitude": "-89.99594512077448",
    "latitude": "29.92981543736486",
    "geocoded_column": {
      "latitude": "29.92981543736486",
      "longitude": "-89.99594512077448"
    }
  },
  {
    "service_request": "2025-1224251",
    "request_type": "Traffic Signals",
    "request_reason": "Traffic Signal Malfunctioning or Damaged",
    "date_created": "2025-09-05T17:14:09.000",
    "date_modified": "2025-09-05T17:14:12.000",
    "request_status": "Pending",
    "responsible_agency": "Department of Public Works",
    "final_address": "ST CLAUDE AVE & FORSTALL ST",
    "address_councildis": "E",
    "status": "Pending",
    "rowid": "1224251",
    "final_x": "3696261.2",
    "final_y": "534265.58",
    "longitude": "-90.02136074717859",
    "latitude": "29.962588618515763",
    "geocoded_column": {
      "latitude": "29.962588618515763",
      "longitude": "-90.02136074717859"
    }
  },
  {
    "service_request": "2025-1224250",
    "request_type": "Street and Traffic Signs",
    "request_reason": "Stop Sign Missing or Damaged",
    "date_created": "2025-09-05T17:11:39.000",
    "date_modified": "2025-09-05T17:11:41.000",
    "request_status": "Pending",
    "responsible_agency": "Department of Public Works",
    "final_address": "ST CHARLES AVE & CALLIOPE ST",
    "address_councildis": "B",
    "status": "Pending",
    "rowid": "1224250",
    "final_x": "3679819.05",
    "final_y": "526554.96",
    "longitude": "-90.07355052352129",
    "latitude": "29.941894417235446",
    "geocoded_column": {
      "latitude": "29.941894417235446",
      "longitude": "-90.07355052352129"
    }
  },
  {
    "service_request": "2025-1224249",
    "request_type": "Roads and Streets",
    "request_reason": "Debris in Driving Lanes",
    "date_created": "2025-09-05T16:56:53.000",
    "date_modified": "2025-09-05T16:56:54.000",
    "request_status": "Pending",
    "responsible_agency": "Department of Public Works",
    "final_address": "3438 Nashville Ave",
    "address_councildis": "A",
    "status": "Pending",
    "rowid": "1224249",
    "final_x": "3668066.7433",
    "final_y": "528442.043968",
    "longitude": "-90.11059156491869",
    "latitude": "29.94743333818245",
    "geocoded_column": {
      "latitude": "29.94743333818245",
      "longitude": "-90.11059156491869"
    }
  },
  {
    "service_request": "2025-1224248",
    "request_type": "Trash/Recycling",
    "request_reason": "Request a Large Item Pick Up",
    "date_created": "2025-09-05T16:55:41.000",
    "date_modified": "2025-09-05T16:55:43.000",
    "request_status": "Pending",
    "responsible_agency": "Department of Sanitation",
    "final_address": "1642 N Broad St",
    "address_councildis": "D",
    "status": "Assigned to Contractor",
    "contractor": "IV Waste",
    "rowid": "1224248",
    "final_x": "3679414.11419",
    "final_y": "540432.913867",
    "longitude": "-90.07434756909305",
    "latitude": "29.980066314070616",
    "geocoded_column": {
      "latitude": "29.980066314070616",
      "longitude": "-90.07434756909305"
    }
  },
  {
    "service_request": "2025-1224247",
    "request_type": "Utility Poles",
    "request_reason": "Wires Sagging/Hanging Low",
    "date_created": "2025-09-05T16:53:44.000",
    "date_modified": "2025-09-05T16:53:47.000",
    "request_status": "Pending",
    "responsible_agency": "Utility Company Collective",
    "final_address": "3333 Vincennes Pl",
    "address_councildis": "A",
    "status": "Pending",
    "rowid": "1224247",
    "final_x": "3667954.87386",
    "final_y": "528431.825408",
    "longitude": "-90.11094512516917",
    "latitude": "29.947408522470926",
    "geocoded_column": {
      "latitude": "29.947408522470926",
      "longitude": "-90.11094512516917"
    }
  },
  {
    "service_request": "2025-1224246",
    "request_type": "Trash/Recycling",
    "request_reason": "Missed Trash Pick-Up",
    "date_created": "2025-09-05T16:52:21.000",
    "date_modified": "2025-09-05T16:52:22.000",
    "request_status": "Pending",
    "responsible_agency": "Department of Sanitation",
    "final_address": "8059 Curran Rd",
    "address_councildis": "E",
    "status": "Assigned to Contractor",
    "contractor": "Waste Pro",
    "rowid": "1224246",
    "final_x": "3702372.66634",
    "final_y": "561789.978399",
    "longitude": "-90.00105109957057",
    "latitude": "30.03807656314081",
    "geocoded_column": {
      "latitude": "30.03807656314081",
      "longitude": "-90.00105109957057"
    }
  },
  {
    "service_request": "2025-1224245",
    "request_type": "Trash/Recycling",
    "request_reason": "Missed Trash Pick-Up",
    "date_created": "2025-09-05T16:52:09.000",
    "date_modified": "2025-09-05T16:52:11.000",
    "request_status": "Pending",
    "responsible_agency": "Department of Sanitation",
    "final_address": "5015 St Claude Ave",
    "address_councildis": "E",
    "status": "Assigned to Contractor",
    "contractor": "Waste Pro",
    "rowid": "1224245",
    "final_x": "3696113.05085",
    "final_y": "534351.361221",
    "longitude": "-90.02182547915295",
    "latitude": "29.962829149857008",
    "geocoded_column": {
      "latitude": "29.962829149857008",
      "longitude": "-90.02182547915295"
    }
  },
  {
    "service_request": "2025-1224244",
    "request_type": "Property Maintenance",
    "request_reason": "Property Maintenance",
    "date_created": "2025-09-05T16:49:25.000",
    "date_modified": "2025-09-05T16:49:28.000",
    "request_status": "Pending",
    "responsible_agency": "Department of Code Enforcement",
    "final_address": "4152 DHemecourt St",
    "address_councildis": "A",
    "status": "Pending",
    "rowid": "1224244",
    "final_x": "3669403.9618",
    "final_y": "537083.946568",
    "longitude": "-90.1060771934209",
    "latitude": "29.97115640891978",
    "geocoded_column": {
      "latitude": "29.97115640891978",
      "longitude": "-90.1060771934209"
    }
  },
  {
    "service_request": "2025-1224243",
    "request_type": "Roads and Streets",
    "request_reason": "Street Subsidence (Sinking)",
    "date_created": "2025-09-05T16:44:47.000",
    "date_modified": "2025-09-05T16:44:49.000",
    "request_status": "Pending",
    "responsible_agency": "Sewerage & Water Board",
    "final_address": "3400 BLK Bender Blvd",
    "address_councildis": "C",
    "status": "Pending",
    "rowid": "1224243",
    "final_x": "3697368.99827",
    "final_y": "518779.418594",
    "longitude": "-90.01842367776919",
    "latitude": "29.91997212967274",
    "geocoded_column": {
      "latitude": "29.91997212967274",
      "longitude": "-90.01842367776919"
    }
  },
  {
    "service_request": "2025-1224242",
    "request_type": "Street and Traffic Signs",
    "request_reason": "One Way Sign Missing or Damaged",
    "date_created": "2025-09-05T16:42:01.000",
    "date_modified": "2025-09-05T16:42:03.000",
    "request_status": "Pending",
    "responsible_agency": "Department of Public Works",
    "final_address": "1827 Baronne St",
    "address_councildis": "B",
    "status": "Pending",
    "rowid": "1224242",
    "final_x": "3677685.20475",
    "final_y": "525036.660669",
    "longitude": "-90.0803399419708",
    "latitude": "29.93778393082698",
    "geocoded_column": {
      "latitude": "29.93778393082698",
      "longitude": "-90.0803399419708"
    }
  },
  {
    "service_request": "2025-1224241",
    "request_type": "Street and Traffic Signs",
    "request_reason": "One Way Sign Missing or Damaged",
    "date_created": "2025-09-05T16:42:01.000",
    "date_modified": "2025-09-05T16:42:07.000",
    "request_status": "Pending",
    "responsible_agency": "Department of Public Works",
    "final_address": "1827 Baronne St",
    "address_councildis": "B",
    "status": "Pending",
    "rowid": "1224241",
    "final_x": "3677685.20475",
    "final_y": "525036.660669",
    "longitude": "-90.0803399419708",
    "latitude": "29.93778393082698",
    "geocoded_column": {
      "latitude": "29.93778393082698",
      "longitude": "-90.0803399419708"
    }
  },
  {
    "service_request": "2025-1224239",
    "request_type": "Street and Traffic Signs",
    "request_reason": "One Way Sign Missing or Damaged",
    "date_created": "2025-09-05T16:42:00.000",
    "date_modified": "2025-09-05T16:42:03.000",
    "request_status": "Pending",
    "responsible_agency": "Department of Public Works",
    "final_address": "1827 Baronne St",
    "address_councildis": "B",
    "status": "Pending",
    "rowid": "1224239",
    "final_x": "3677685.20475",
    "final_y": "525036.660669",
    "longitude": "-90.0803399419708",
    "latitude": "29.93778393082698",
    "geocoded_column": {
      "latitude": "29.93778393082698",
      "longitude": "-90.0803399419708"
    }
  },
  {
    "service_request": "2025-1224238",
    "request_type": "Street and Traffic Signs",
    "request_reason": "One Way Sign Missing or Damaged",
    "date_created": "2025-09-05T16:42:00.000",
    "date_modified": "2025-09-05T16:42:06.000",
    "request_status": "Pending",
    "responsible_agency": "Department of Public Works",
    "final_address": "1827 Baronne St",
    "address_councildis": "B",
    "status": "Pending",
    "rowid": "1224238",
    "final_x": "3677685.20475",
    "final_y": "525036.660669",
    "longitude": "-90.0803399419708",
    "latitude": "29.93778393082698",
    "geocoded_column": {
      "latitude": "29.93778393082698",
      "longitude": "-90.0803399419708"
    }
  },
  {
    "service_request": "2025-1224237",
    "request_type": "Street and Traffic Signs",
    "request_reason": "One Way Sign Missing or Damaged",
    "date_created": "2025-09-05T16:42:00.000",
    "date_modified": "2025-09-05T16:42:08.000",
    "request_status": "Pending",
    "responsible_agency": "Department of Public Works",
    "final_address": "1827 Baronne St",
    "address_councildis": "B",
    "status": "Pending",
    "rowid": "1224237",
    "final_x": "3677685.20475",
    "final_y": "525036.660669",
    "longitude": "-90.0803399419708",
    "latitude": "29.93778393082698",
    "geocoded_column": {
      "latitude": "29.93778393082698",
      "longitude": "-90.0803399419708"
    }
  },
  {
    "service_request": "2025-1224240",
    "request_type": "Street and Traffic Signs",
    "request_reason": "One Way Sign Missing or Damaged",
    "date_created": "2025-09-05T16:42:00.000",
    "date_modified": "2025-09-05T16:42:02.000",
    "request_status": "Pending",
    "responsible_agency": "Department of Public Works",
    "final_address": "1827 Baronne St",
    "address_councildis": "B",
    "status": "Pending",
    "rowid": "1224240",
    "final_x": "3677685.20475",
    "final_y": "525036.660669",
    "longitude": "-90.0803399419708",
    "latitude": "29.93778393082698",
    "geocoded_column": {
      "latitude": "29.93778393082698",
      "longitude": "-90.0803399419708"
    }
  },
  {
    "service_request": "2025-1224236",
    "request_type": "Parks & Parkways",
    "request_reason": "Request Tree Service (Right of Way/Public Property)",
    "date_created": "2025-09-05T16:35:34.000",
    "date_modified": "2025-09-05T16:35:36.000",
    "request_status": "Pending",
    "responsible_agency": "Department of Parks & Parkway",
    "final_address": "3200 BLK Bienville Ave",
    "address_councildis": "B",
    "status": "Pending",
    "rowid": "1224236",
    "final_x": "3674194.36745",
    "final_y": "536951.625688",
    "longitude": "-90.09095295136834",
    "latitude": "29.97065062286369",
    "geocoded_column": {
      "latitude": "29.97065062286369",
      "longitude": "-90.09095295136834"
    }
  },
  {
    "service_request": "2025-1224235",
    "request_type": "Trash/Recycling",
    "request_reason": "Request a Large Item Pick Up",
    "date_created": "2025-09-05T16:31:55.000",
    "date_modified": "2025-09-05T16:36:06.000",
    "request_status": "Pending",
    "responsible_agency": "Department of Sanitation",
    "final_address": "3631 Rue Colette",
    "address_councildis": "C",
    "status": "Pending",
    "rowid": "1224235",
    "final_x": "3704455.31761",
    "final_y": "517043.669429",
    "longitude": "-89.99611971084803",
    "latitude": "29.91497391554005",
    "geocoded_column": {
      "latitude": "29.91497391554005",
      "longitude": "-89.99611971084803"
    }
  },
  {
    "service_request": "2025-1224234",
    "request_type": "Trash/Recycling",
    "request_reason": "Request a Large Item Pick Up",
    "date_created": "2025-09-05T16:31:52.000",
    "date_modified": "2025-09-05T16:31:54.000",
    "request_status": "Pending",
    "responsible_agency": "Department of Sanitation",
    "final_address": "6015 Colbert St",
    "address_councildis": "A",
    "status": "Assigned to Contractor",
    "contractor": "IV Waste",
    "rowid": "1224234",
    "final_x": "3667474.5449",
    "final_y": "547484.730834",
    "longitude": "-90.11182041073776",
    "latitude": "29.999811715932992",
    "geocoded_column": {
      "latitude": "29.999811715932992",
      "longitude": "-90.11182041073776"
    }
  },
  {
    "service_request": "2025-1224233",
    "request_type": "Trash/Recycling",
    "request_reason": "Request a Large Item Pick Up",
    "date_created": "2025-09-05T16:29:52.000",
    "date_modified": "2025-09-05T16:29:59.000",
    "request_status": "Pending",
    "responsible_agency": "Department of Sanitation",
    "final_address": "4441 Eastview Dr",
    "address_councildis": "E",
    "status": "Assigned to Contractor",
    "contractor": "Waste Pro",
    "rowid": "1224233",
    "final_x": "3705310.42199",
    "final_y": "553668.028119",
    "longitude": "-89.99206756791003",
    "latitude": "30.015650112467114",
    "geocoded_column": {
      "latitude": "30.015650112467114",
      "longitude": "-89.99206756791003"
    }
  },
  {
    "service_request": "2025-1224232",
    "request_type": "Trash/Recycling",
    "request_reason": "Request a Large Item Pick Up",
    "date_created": "2025-09-05T16:28:49.000",
    "date_modified": "2025-09-05T16:28:51.000",
    "request_status": "Pending",
    "responsible_agency": "Department of Sanitation",
    "final_address": "7176 E Tamaron Blvd",
    "address_councildis": "E",
    "status": "Assigned to Contractor",
    "contractor": "Waste Pro",
    "rowid": "1224232",
    "final_x": "3718223.18335",
    "final_y": "569316.042342",
    "longitude": "-89.95067304617027",
    "latitude": "30.05825388131323",
    "geocoded_column": {
      "latitude": "30.05825388131323",
      "longitude": "-89.95067304617027"
    }
  },
  {
    "service_request": "2025-1224231",
    "request_type": "Trash/Recycling",
    "request_reason": "Request a Large Item Pick Up",
    "date_created": "2025-09-05T16:25:04.000",
    "date_modified": "2025-09-05T16:25:06.000",
    "request_status": "Pending",
    "responsible_agency": "Department of Sanitation",
    "final_address": "1468 N Prieur St",
    "address_councildis": "D",
    "status": "Assigned to Contractor",
    "contractor": "IV Waste",
    "rowid": "1224231",
    "final_x": "3680870.10767",
    "final_y": "537702.906824",
    "longitude": "-90.06984401416933",
    "latitude": "29.972515672881407",
    "geocoded_column": {
      "latitude": "29.972515672881407",
      "longitude": "-90.06984401416933"
    }
  },
  {
    "service_request": "2025-1224230",
    "request_type": "Trash/Recycling",
    "request_reason": "Repair Trash Cart",
    "date_created": "2025-09-05T16:15:58.000",
    "date_modified": "2025-09-05T16:16:01.000",
    "request_status": "Pending",
    "responsible_agency": "Department of Sanitation",
    "final_address": "7232 Claridge Ct",
    "address_councildis": "E",
    "status": "Assigned to Contractor",
    "contractor": "Waste Pro",
    "rowid": "1224230",
    "final_x": "3704754.54641",
    "final_y": "560852.509406",
    "longitude": "-89.993558451832",
    "latitude": "30.03542252763297",
    "geocoded_column": {
      "latitude": "30.03542252763297",
      "longitude": "-89.993558451832"
    }
  },
  {
    "service_request": "2025-1224229",
    "request_type": "Street and Traffic Signs",
    "request_reason": "Stop Sign Missing or Damaged",
    "date_created": "2025-09-05T16:14:21.000",
    "date_modified": "2025-09-05T16:14:23.000",
    "request_status": "Pending",
    "responsible_agency": "Department of Public Works",
    "final_address": "SPRUCE ST & SHORT ST",
    "address_councildis": "A",
    "status": "Pending",
    "rowid": "1224229",
    "final_x": "3664187.9",
    "final_y": "530145.78",
    "longitude": "-90.12278178886116",
    "latitude": "29.952231305743755",
    "geocoded_column": {
      "latitude": "29.952231305743755",
      "longitude": "-90.12278178886116"
    }
  },
  {
    "service_request": "2025-1224228",
    "request_type": "Trash/Recycling",
    "request_reason": "Replace Trash Cart",
    "date_created": "2025-09-05T16:11:54.000",
    "date_modified": "2025-09-05T16:11:57.000",
    "request_status": "Pending",
    "responsible_agency": "Department of Sanitation",
    "final_address": "935 Barracks St",
    "address_councildis": "C",
    "status": "Assigned to Contractor",
    "contractor": "IV Waste",
    "rowid": "1224228",
    "final_x": "3683086.21858",
    "final_y": "534841.932102",
    "longitude": "-90.06294532425949",
    "latitude": "29.96458160274991",
    "geocoded_column": {
      "latitude": "29.96458160274991",
      "longitude": "-90.06294532425949"
    }
  },
  {
    "service_request": "2025-1224226",
    "request_type": "Safety & Permits",
    "request_reason": "Zoning Enforcement",
    "date_created": "2025-09-05T16:08:19.000",
    "date_modified": "2025-09-05T16:08:21.000",
    "request_status": "Pending",
    "responsible_agency": "Safety and Permits",
    "final_address": "2139 Timoleon St",
    "address_councildis": "D",
    "status": "Pending",
    "rowid": "1224226",
    "final_x": "3683364.49781",
    "final_y": "551125.886741",
    "longitude": "-90.06149575903936",
    "latitude": "30.00934824028014",
    "geocoded_column": {
      "latitude": "30.00934824028014",
      "longitude": "-90.06149575903936"
    }
  },
  {
    "service_request": "2025-1224225",
    "request_type": "Abandoned Vehicles",
    "request_reason": "Abandoned/Junk Vehicles",
    "date_created": "2025-09-05T16:07:07.000",
    "date_modified": "2025-09-05T16:07:09.000",
    "request_status": "Pending",
    "responsible_agency": "Department of Public Works",
    "final_address": "2426 Ap Tureaud Ave",
    "address_councildis": "D",
    "status": "Pending",
    "rowid": "1224225",
    "final_x": "3681526.32988",
    "final_y": "541086.90606",
    "longitude": "-90.06765349861294",
    "latitude": "29.981800581679785",
    "geocoded_column": {
      "latitude": "29.981800581679785",
      "longitude": "-90.06765349861294"
    }
  },
  {
    "service_request": "2025-1224224",
    "request_type": "Trash/Recycling",
    "request_reason": "Request a Large Item Pick Up",
    "date_created": "2025-09-05T15:57:27.000",
    "date_modified": "2025-09-05T15:57:28.000",
    "request_status": "Pending",
    "responsible_agency": "Department of Sanitation",
    "final_address": "5513 Rosemary Pl",
    "address_councildis": "A",
    "status": "Assigned to Contractor",
    "contractor": "IV Waste",
    "rowid": "1224224",
    "final_x": "3667184.04538",
    "final_y": "544001.147918",
    "longitude": "-90.11285533073176",
    "latitude": "29.990241570231944",
    "geocoded_column": {
      "latitude": "29.990241570231944",
      "longitude": "-90.11285533073176"
    }
  },
  {
    "service_request": "2025-1224223",
    "request_type": "Trash/Recycling",
    "request_reason": "Illegal Dumping",
    "date_created": "2025-09-05T15:56:13.000",
    "date_modified": "2025-09-05T15:56:15.000",
    "request_status": "Pending",
    "responsible_agency": "Department of Sanitation",
    "final_address": "3400 BLK General Ogden St",
    "address_councildis": "A",
    "status": "Pending",
    "rowid": "1224223",
    "final_x": "3665272.54311",
    "final_y": "536207.117006",
    "longitude": "-90.11915417062721",
    "latitude": "29.968866443081584",
    "geocoded_column": {
      "latitude": "29.968866443081584",
      "longitude": "-90.11915417062721"
    }
  },
  {
    "service_request": "2025-1224222",
    "request_type": "Trash/Recycling",
    "request_reason": "Repair Trash Cart",
    "date_created": "2025-09-05T15:49:48.000",
    "date_modified": "2025-09-05T15:49:50.000",
    "request_status": "Pending",
    "responsible_agency": "Department of Sanitation",
    "final_address": "2604 Clara St",
    "address_councildis": "B",
    "status": "Assigned to Contractor",
    "contractor": "IV Waste",
    "rowid": "1224222",
    "final_x": "3674080.27419",
    "final_y": "526325.069438",
    "longitude": "-90.09167693466061",
    "latitude": "29.941434534626552",
    "geocoded_column": {
      "latitude": "29.941434534626552",
      "longitude": "-90.09167693466061"
    }
  },
  {
    "service_request": "2025-1224221",
    "request_type": "General Services",
    "request_reason": "General Service Request",
    "date_created": "2025-09-05T15:42:49.000",
    "date_modified": "2025-09-05T15:46:22.000",
    "case_close_date": "2025-09-05T10:46:22.000",
    "request_status": "Closed",
    "responsible_agency": "Orleans Parish Communication District",
    "final_address": "5900 BLK Jamison St",
    "address_councildis": "D",
    "status": "Question Answered.",
    "rowid": "1224221",
    "final_x": "3696137.28453",
    "final_y": "553558.822132",
    "longitude": "-90.02105430317809",
    "latitude": "30.015641892611633",
    "geocoded_column": {
      "latitude": "30.015641892611633",
      "longitude": "-90.02105430317809"
    }
  },
  {
    "service_request": "2025-1224220",
    "request_type": "Trash/Recycling",
    "request_reason": "Repair Recycling Cart",
    "date_created": "2025-09-05T15:41:43.000",
    "date_modified": "2025-09-05T15:41:45.000",
    "request_status": "Pending",
    "responsible_agency": "Department of Sanitation",
    "final_address": "3815 Dauphine St",
    "address_councildis": "C",
    "status": "Pending",
    "rowid": "1224220",
    "final_x": "3691068.38755",
    "final_y": "534299.217093",
    "longitude": "-90.03775768375326",
    "latitude": "29.9628435734434",
    "geocoded_column": {
      "latitude": "29.9628435734434",
      "longitude": "-90.03775768375326"
    }
  },
  {
    "service_request": "2025-1224219",
    "request_type": "Trash/Recycling",
    "request_reason": "Repair Trash Cart",
    "date_created": "2025-09-05T15:35:16.000",
    "date_modified": "2025-09-05T15:35:19.000",
    "request_status": "Pending",
    "responsible_agency": "Department of Sanitation",
    "final_address": "9100 Lake Forest Blvd",
    "address_councildis": "E",
    "status": "Assigned to Contractor",
    "contractor": "Waste Pro",
    "rowid": "1224219",
    "final_x": "3707735.80196",
    "final_y": "558365.96502",
    "longitude": "-89.98422977711073",
    "latitude": "30.02848932481353",
    "geocoded_column": {
      "latitude": "30.02848932481353",
      "longitude": "-89.98422977711073"
    }
  },
  {
    "service_request": "2025-1224218",
    "request_type": "Trash/Recycling",
    "request_reason": "Request a Large Item Pick Up",
    "date_created": "2025-09-05T15:33:36.000",
    "date_modified": "2025-09-05T15:33:37.000",
    "request_status": "Pending",
    "responsible_agency": "Department of Sanitation",
    "final_address": "4910 Wright Rd",
    "address_councildis": "E",
    "status": "Assigned to Contractor",
    "contractor": "Waste Pro",
    "rowid": "1224218",
    "final_x": "3716542.28594",
    "final_y": "557630.141339",
    "longitude": "-89.95642998702905",
    "latitude": "30.02617806342211",
    "geocoded_column": {
      "latitude": "30.02617806342211",
      "longitude": "-89.95642998702905"
    }
  },
  {
    "service_request": "2025-1224217",
    "request_type": "Streetlights",
    "request_reason": "Streetlight Outage/Malfunction",
    "date_created": "2025-09-05T15:26:53.000",
    "date_modified": "2025-09-05T15:26:55.000",
    "request_status": "Pending",
    "responsible_agency": "Department of Public Works",
    "final_address": "10321 Castlewood Dr",
    "address_councildis": "E",
    "status": "Pending",
    "rowid": "1224217",
    "final_x": "3709356.96984",
    "final_y": "564783.92733",
    "longitude": "-89.97886728564853",
    "latitude": "30.04608358755259",
    "geocoded_column": {
      "latitude": "30.04608358755259",
      "longitude": "-89.97886728564853"
    }
  },
  {
    "service_request": "2025-1224216",
    "request_type": "General Services",
    "request_reason": "General Service Request",
    "date_created": "2025-09-05T15:24:52.000",
    "date_modified": "2025-09-05T15:30:33.000",
    "case_close_date": "2025-09-05T10:30:33.000",
    "request_status": "Closed",
    "responsible_agency": "Orleans Parish Communication District",
    "final_address": "5606 Canal Blvd",
    "address_councildis": "A",
    "status": "Referred to Risk Management",
    "rowid": "1224216",
    "final_x": "3668091.54477",
    "final_y": "544673.413647",
    "longitude": "-90.1099660949842",
    "latitude": "29.9920634612342",
    "geocoded_column": {
      "latitude": "29.9920634612342",
      "longitude": "-90.1099660949842"
    }
  },
  {
    "service_request": "2025-1224215",
    "request_type": "Property Maintenance",
    "request_reason": "Property Maintenance",
    "date_created": "2025-09-05T15:24:21.000",
    "date_modified": "2025-09-05T15:50:00.000",
    "request_status": "Pending",
    "responsible_agency": "Department of Code Enforcement",
    "final_address": "1765 Pace Blvd",
    "address_councildis": "C",
    "status": "Pending",
    "rowid": "1224215",
    "final_x": "3694255.8289",
    "final_y": "523930.191932",
    "longitude": "-90.02806519575792",
    "latitude": "29.934232873626325",
    "geocoded_column": {
      "latitude": "29.934232873626325",
      "longitude": "-90.02806519575792"
    }
  },
  {
    "service_request": "2025-1224214",
    "request_type": "Parks & Parkways",
    "request_reason": "Request Tree Service (Right of Way/Public Property)",
    "date_created": "2025-09-05T15:22:50.000",
    "date_modified": "2025-09-05T15:22:51.000",
    "request_status": "Pending",
    "responsible_agency": "Department of Parks & Parkway",
    "final_address": "1010 Joseph St",
    "address_councildis": "A",
    "status": "Pending",
    "rowid": "1224214",
    "final_x": "3666234.2626",
    "final_y": "519638.903736",
    "longitude": "-90.11667256258782",
    "latitude": "29.923281152686286",
    "geocoded_column": {
      "latitude": "29.923281152686286",
      "longitude": "-90.11667256258782"
    }
  },
  {
    "service_request": "2025-1224213",
    "request_type": "Trash/Recycling",
    "request_reason": "Request a Large Item Pick Up",
    "date_created": "2025-09-05T15:22:08.000",
    "date_modified": "2025-09-05T15:22:11.000",
    "request_status": "Pending",
    "responsible_agency": "Department of Sanitation",
    "final_address": "7743 Tricia Ct",
    "address_councildis": "E",
    "status": "Assigned to Contractor",
    "contractor": "Waste Pro",
    "rowid": "1224213",
    "final_x": "3717275.87967",
    "final_y": "571690.848936",
    "longitude": "-89.95357694823247",
    "latitude": "30.064815008471452",
    "geocoded_column": {
      "latitude": "30.064815008471452",
      "longitude": "-89.95357694823247"
    }
  },
  {
    "service_request": "2025-1224212",
    "request_type": "Trash/Recycling",
    "request_reason": "Missed Trash Pick-Up",
    "date_created": "2025-09-05T15:21:26.000",
    "date_modified": "2025-09-05T15:21:28.000",
    "request_status": "Pending",
    "responsible_agency": "Department of Sanitation",
    "final_address": "4700 Lonely Oak Dr",
    "address_councildis": "E",
    "status": "Assigned to Contractor",
    "contractor": "Waste Pro",
    "rowid": "1224212",
    "final_x": "3702314.44925",
    "final_y": "554041.050264",
    "longitude": "-90.00151971000429",
    "latitude": "30.01677186864229",
    "geocoded_column": {
      "latitude": "30.01677186864229",
      "longitude": "-90.00151971000429"
    }
  },
  {
    "service_request": "2025-1224211",
    "request_type": "Roads and Streets",
    "request_reason": "Pothole",
    "date_created": "2025-09-05T15:20:28.000",
    "date_modified": "2025-09-05T15:20:30.000",
    "request_status": "Pending",
    "responsible_agency": "Department of Public Works",
    "final_address": "5900 BLK Coliseum St",
    "address_councildis": "A",
    "status": "Pending",
    "rowid": "1224211",
    "final_x": "3665229.9195",
    "final_y": "520116.263033",
    "longitude": "-90.11982694790629",
    "latitude": "29.924623025679562",
    "geocoded_column": {
      "latitude": "29.924623025679562",
      "longitude": "-90.11982694790629"
    }
  },
  {
    "service_request": "2025-1224210",
    "request_type": "Roads and Streets",
    "request_reason": "Pothole",
    "date_created": "2025-09-05T15:19:32.000",
    "date_modified": "2025-09-05T16:35:11.000",
    "request_status": "Pending",
    "responsible_agency": "Department of Public Works",
    "final_address": "5606 Canal Blvd",
    "address_councildis": "A",
    "status": "Pending",
    "rowid": "1224210",
    "final_x": "3668091.54477",
    "final_y": "544673.413647",
    "longitude": "-90.1099660949842",
    "latitude": "29.9920634612342",
    "geocoded_column": {
      "latitude": "29.9920634612342",
      "longitude": "-90.1099660949842"
    }
  },
  {
    "service_request": "2025-1224209",
    "request_type": "Trash/Recycling",
    "request_reason": "Repair Recycling Cart",
    "date_created": "2025-09-05T15:18:48.000",
    "date_modified": "2025-09-05T15:18:50.000",
    "request_status": "Pending",
    "responsible_agency": "Department of Sanitation",
    "final_address": "1210 Valmont St",
    "address_councildis": "B",
    "status": "Pending",
    "rowid": "1224209",
    "final_x": "3667598.10452",
    "final_y": "519810.39564",
    "longitude": "-90.11236164744905",
    "latitude": "29.923712811731768",
    "geocoded_column": {
      "latitude": "29.923712811731768",
      "longitude": "-90.11236164744905"
    }
  },
  {
    "service_request": "2025-1224208",
    "request_type": "Trash/Recycling",
    "request_reason": "Replace Trash Cart",
    "date_created": "2025-09-05T15:17:26.000",
    "date_modified": "2025-09-05T15:17:28.000",
    "request_status": "Pending",
    "responsible_agency": "Department of Sanitation",
    "final_address": "2264 Carondelet St",
    "address_councildis": "B",
    "status": "Assigned to Contractor",
    "contractor": "IV Waste",
    "rowid": "1224208",
    "final_x": "3676999.7188",
    "final_y": "523666.243131",
    "longitude": "-90.08255130473049",
    "latitude": "29.934036325514352",
    "geocoded_column": {
      "latitude": "29.934036325514352",
      "longitude": "-90.08255130473049"
    }
  },
  {
    "service_request": "2025-1224207",
    "request_type": "Trash/Recycling",
    "request_reason": "Request a Large Item Pick Up",
    "date_created": "2025-09-05T15:16:57.000",
    "date_modified": "2025-09-05T15:16:58.000",
    "request_status": "Pending",
    "responsible_agency": "Department of Sanitation",
    "final_address": "2027 Arts St",
    "address_councildis": "D",
    "status": "Assigned to Contractor",
    "contractor": "IV Waste",
    "rowid": "1224207",
    "final_x": "3686959.44591",
    "final_y": "540018.525579",
    "longitude": "-90.0505309698635",
    "latitude": "29.978696778171773",
    "geocoded_column": {
      "latitude": "29.978696778171773",
      "longitude": "-90.0505309698635"
    }
  },
  {
    "service_request": "2025-1224206",
    "request_type": "Trash/Recycling",
    "request_reason": "Request a Large Item Pick Up",
    "date_created": "2025-09-05T15:16:49.000",
    "date_modified": "2025-09-05T15:16:51.000",
    "request_status": "Pending",
    "responsible_agency": "Department of Sanitation",
    "final_address": "3425 Joliet St",
    "address_councildis": "A",
    "status": "Assigned to Contractor",
    "contractor": "IV Waste",
    "rowid": "1224206",
    "final_x": "3666307.98004",
    "final_y": "535201.99847",
    "longitude": "-90.11591790807896",
    "latitude": "29.96607249038967",
    "geocoded_column": {
      "latitude": "29.96607249038967",
      "longitude": "-90.11591790807896"
    }
  },
  {
    "service_request": "2025-1224205",
    "request_type": "Roads and Streets",
    "request_reason": "Debris in Driving Lanes",
    "date_created": "2025-09-05T15:08:19.000",
    "date_modified": "2025-09-05T16:37:42.000",
    "request_status": "Pending",
    "responsible_agency": "Department of Public Works",
    "final_address": "3616 Cherry St",
    "address_councildis": "A",
    "status": "Pending",
    "rowid": "1224205",
    "final_x": "3664666.91744",
    "final_y": "537767.695432",
    "longitude": "-90.1210146394767",
    "latitude": "29.97317514860011",
    "geocoded_column": {
      "latitude": "29.97317514860011",
      "longitude": "-90.1210146394767"
    }
  },
  {
    "service_request": "2025-1224204",
    "request_type": "Trash/Recycling",
    "request_reason": "Request a Large Item Pick Up",
    "date_created": "2025-09-05T15:06:11.000",
    "date_modified": "2025-09-05T15:06:13.000",
    "request_status": "Pending",
    "responsible_agency": "Department of Sanitation",
    "final_address": "638 Huntlee Dr",
    "address_councildis": "C",
    "status": "Assigned to Contractor",
    "contractor": "Richards Disposal",
    "rowid": "1224204",
    "final_x": "3701849.08842",
    "final_y": "520309.99372",
    "longitude": "-90.00422625988942",
    "latitude": "29.92403856028581",
    "geocoded_column": {
      "latitude": "29.92403856028581",
      "longitude": "-90.00422625988942"
    }
  },
  {
    "service_request": "2025-1224203",
    "request_type": "Property Maintenance",
    "request_reason": "Property Maintenance",
    "date_created": "2025-09-05T15:06:06.000",
    "date_modified": "2025-09-05T15:06:08.000",
    "request_status": "Pending",
    "responsible_agency": "Department of Code Enforcement",
    "final_address": "7 Mars Pl",
    "address_councildis": "B",
    "status": "Pending",
    "rowid": "1224203",
    "final_x": "3667397.94996",
    "final_y": "533296.57818",
    "longitude": "-90.11253990746481",
    "latitude": "29.9608013268185",
    "geocoded_column": {
      "latitude": "29.9608013268185",
      "longitude": "-90.11253990746481"
    }
  },
  {
    "service_request": "2025-1224202",
    "request_type": "Trash/Recycling",
    "request_reason": "Request a Large Item Pick Up",
    "date_created": "2025-09-05T14:59:17.000",
    "date_modified": "2025-09-05T14:59:19.000",
    "request_status": "Pending",
    "responsible_agency": "Department of Sanitation",
    "final_address": "7541 Morel St",
    "address_councildis": "E",
    "status": "Assigned to Contractor",
    "contractor": "Waste Pro",
    "rowid": "1224202",
    "final_x": "3719149.11903",
    "final_y": "571603.356904",
    "longitude": "-89.94765886612052",
    "latitude": "30.064512287519054",
    "geocoded_column": {
      "latitude": "30.064512287519054",
      "longitude": "-89.94765886612052"
    }
  },
  {
    "service_request": "2025-1224201",
    "request_type": "Parks & Parkways",
    "request_reason": "Request Grass Cutting Service (City Owned Property)",
    "date_created": "2025-09-05T14:59:02.000",
    "date_modified": "2025-09-05T15:16:23.000",
    "case_close_date": "2025-09-05T10:16:23.000",
    "request_status": "Closed",
    "responsible_agency": "Department of Parks & Parkway",
    "final_address": "2772 Clover St",
    "address_councildis": "D",
    "status": "Referred to Property Owner",
    "rowid": "1224201",
    "final_x": "3688439.81321",
    "final_y": "546685.137361",
    "longitude": "-90.04561880261394",
    "latitude": "29.996981921954625",
    "geocoded_column": {
      "latitude": "29.996981921954625",
      "longitude": "-90.04561880261394"
    }
  },
  {
    "service_request": "2025-1224200",
    "request_type": "Roads and Streets",
    "request_reason": "Sidewalk Damaged or Missing",
    "date_created": "2025-09-05T14:54:56.000",
    "date_modified": "2025-09-05T14:55:22.000",
    "request_status": "Pending",
    "responsible_agency": "Department of Public Works",
    "final_address": "3207 Coliseum St",
    "address_councildis": "B",
    "status": "Pending",
    "rowid": "1224200",
    "final_x": "3675229.34504",
    "final_y": "520932.269753",
    "longitude": "-90.08823409965463",
    "latitude": "29.92657180494806",
    "geocoded_column": {
      "latitude": "29.92657180494806",
      "longitude": "-90.08823409965463"
    }
  },
  {
    "service_request": "2025-1224199",
    "request_type": "Trash/Recycling",
    "request_reason": "Request a Large Item Pick Up",
    "date_created": "2025-09-05T14:54:22.000",
    "date_modified": "2025-09-05T14:54:24.000",
    "request_status": "Pending",
    "responsible_agency": "Department of Sanitation",
    "final_address": "34 Kings Canyon Dr",
    "address_councildis": "C",
    "status": "Assigned to Contractor",
    "contractor": "Richards Disposal",
    "rowid": "1224199",
    "final_x": "3700081.24624",
    "final_y": "515841.231732",
    "longitude": "-90.00996959104926",
    "latitude": "29.91180725562046",
    "geocoded_column": {
      "latitude": "29.91180725562046",
      "longitude": "-90.00996959104926"
    }
  },
  {
    "service_request": "2025-1224198",
    "request_type": "Trash/Recycling",
    "request_reason": "Repair Trash Cart",
    "date_created": "2025-09-05T14:52:26.000",
    "date_modified": "2025-09-05T14:54:03.000",
    "request_status": "Pending",
    "responsible_agency": "Department of Sanitation",
    "final_address": "435 State St",
    "address_councildis": "A",
    "status": "Assigned to Contractor",
    "contractor": "IV Waste",
    "rowid": "1224198",
    "final_x": "3664401.28551",
    "final_y": "518122.920822",
    "longitude": "-90.12250916970683",
    "latitude": "29.919166062181453",
    "geocoded_column": {
      "latitude": "29.919166062181453",
      "longitude": "-90.12250916970683"
    }
  },
  {
    "service_request": "2025-1224197",
    "request_type": "Trash/Recycling",
    "request_reason": "Illegal Dumping",
    "date_created": "2025-09-05T14:50:56.000",
    "date_modified": "2025-09-05T14:50:58.000",
    "request_status": "Pending",
    "responsible_agency": "Department of Sanitation",
    "final_address": "PARC BRITTANY BLVD & S CORONET CT",
    "address_councildis": "E",
    "status": "Pending",
    "rowid": "1224197",
    "final_x": "3702900.8",
    "final_y": "557278.08",
    "longitude": "-89.99954804963379",
    "latitude": "30.025653703559268",
    "geocoded_column": {
      "latitude": "30.025653703559268",
      "longitude": "-89.99954804963379"
    }
  },
  {
    "service_request": "2025-1224196",
    "request_type": "Abandoned Vehicles",
    "request_reason": "Abandoned/Junk Vehicles",
    "date_created": "2025-09-05T14:49:47.000",
    "date_modified": "2025-09-05T14:49:48.000",
    "request_status": "Pending",
    "responsible_agency": "Department of Public Works",
    "final_address": "6600 Peony St",
    "address_councildis": "C",
    "status": "Pending",
    "rowid": "1224196",
    "final_x": "3708071.22411",
    "final_y": "516465.260981",
    "longitude": "-89.98472820484612",
    "latitude": "29.9132669666957",
    "geocoded_column": {
      "latitude": "29.9132669666957",
      "longitude": "-89.98472820484612"
    }
  },
  {
    "service_request": "2025-1224195",
    "request_type": "Trash/Recycling",
    "request_reason": "Return Recycling Cart",
    "date_created": "2025-09-05T14:49:15.000",
    "date_modified": "2025-09-05T14:49:17.000",
    "request_status": "Pending",
    "responsible_agency": "Department of Sanitation",
    "final_address": "1712 General Pershing St",
    "address_councildis": "B",
    "status": "Pending",
    "rowid": "1224195",
    "final_x": "3671142.36903",
    "final_y": "521403.151993",
    "longitude": "-90.10111960513036",
    "latitude": "29.92798806112126",
    "geocoded_column": {
      "latitude": "29.92798806112126",
      "longitude": "-90.10111960513036"
    }
  },
  {
    "service_request": "2025-1224194",
    "request_type": "Trash/Recycling",
    "request_reason": "Request a Large Item Pick Up",
    "date_created": "2025-09-05T14:47:57.000",
    "date_modified": "2025-09-05T14:47:59.000",
    "request_status": "Pending",
    "responsible_agency": "Department of Sanitation",
    "final_address": "1712 General Pershing St",
    "address_councildis": "B",
    "status": "Assigned to Contractor",
    "contractor": "IV Waste",
    "rowid": "1224194",
    "final_x": "3671142.36903",
    "final_y": "521403.151993",
    "longitude": "-90.10111960513036",
    "latitude": "29.92798806112126",
    "geocoded_column": {
      "latitude": "29.92798806112126",
      "longitude": "-90.10111960513036"
    }
  },
  {
    "service_request": "2025-1224193",
    "request_type": "Trash/Recycling",
    "request_reason": "Repair Recycling Cart",
    "date_created": "2025-09-05T14:45:57.000",
    "date_modified": "2025-09-05T14:46:00.000",
    "request_status": "Pending",
    "responsible_agency": "Department of Sanitation",
    "final_address": "4816 Feliciana Dr",
    "address_councildis": "D",
    "status": "Pending",
    "rowid": "1224193",
    "final_x": "3690087.48502",
    "final_y": "550780.486805",
    "longitude": "-90.0402679097431",
    "latitude": "30.008191619270523",
    "geocoded_column": {
      "latitude": "30.008191619270523",
      "longitude": "-90.0402679097431"
    }
  },
  {
    "service_request": "2025-1224192",
    "request_type": "Trash/Recycling",
    "request_reason": "Order Trash Cart",
    "date_created": "2025-09-05T14:43:09.000",
    "date_modified": "2025-09-05T14:43:10.000",
    "request_status": "Pending",
    "responsible_agency": "Department of Sanitation",
    "final_address": "4608 S Carrollton Ave",
    "address_councildis": "A",
    "status": "Assigned to Contractor",
    "contractor": "IV Waste",
    "rowid": "1224192",
    "final_x": "3670714.52705",
    "final_y": "537754.467976",
    "longitude": "-90.10191548273393",
    "latitude": "29.972961455431026",
    "geocoded_column": {
      "latitude": "29.972961455431026",
      "longitude": "-90.10191548273393"
    }
  },
  {
    "service_request": "2025-1224191",
    "request_type": "Trash/Recycling",
    "request_reason": "Order Trash Cart",
    "date_created": "2025-09-05T14:42:38.000",
    "date_modified": "2025-09-05T14:42:39.000",
    "request_status": "Pending",
    "responsible_agency": "Department of Sanitation",
    "final_address": "4730 Plauche Cir",
    "address_councildis": "D",
    "status": "Assigned to Contractor",
    "contractor": "IV Waste",
    "rowid": "1224191",
    "final_x": "3692500.47273",
    "final_y": "551748.586517",
    "longitude": "-90.03260984983578",
    "latitude": "30.010778440952624",
    "geocoded_column": {
      "latitude": "30.010778440952624",
      "longitude": "-90.03260984983578"
    }
  },
  {
    "service_request": "2025-1224190",
    "request_type": "Trash/Recycling",
    "request_reason": "Illegal Dumping",
    "date_created": "2025-09-05T14:42:15.000",
    "date_modified": "2025-09-05T14:42:19.000",
    "request_status": "Pending",
    "responsible_agency": "Department of Sanitation",
    "final_address": "5500 BLK Press Dr",
    "address_councildis": "D",
    "status": "Pending",
    "rowid": "1224190",
    "final_x": "3689338.61604",
    "final_y": "553824.365236",
    "longitude": "-90.04252547834818",
    "latitude": "30.016584377735224",
    "geocoded_column": {
      "latitude": "30.016584377735224",
      "longitude": "-90.04252547834818"
    }
  },
  {
    "service_request": "2025-1224189",
    "request_type": "Trash/Recycling",
    "request_reason": "Missed Trash Pick-Up",
    "date_created": "2025-09-05T14:38:05.000",
    "date_modified": "2025-09-05T14:38:06.000",
    "request_status": "Pending",
    "responsible_agency": "Department of Sanitation",
    "final_address": "14747 Beekman Rd",
    "address_councildis": "E",
    "status": "Assigned to Contractor",
    "contractor": "Waste Pro",
    "rowid": "1224189",
    "final_x": "3721190.72332",
    "final_y": "573908.229226",
    "longitude": "-89.9411167266311",
    "latitude": "30.070781669241853",
    "geocoded_column": {
      "latitude": "30.070781669241853",
      "longitude": "-89.9411167266311"
    }
  },
  {
    "service_request": "2025-1224188",
    "request_type": "Trash/Recycling",
    "request_reason": "Replace Trash Cart",
    "date_created": "2025-09-05T14:37:22.000",
    "date_modified": "2025-09-05T14:37:24.000",
    "request_status": "Pending",
    "responsible_agency": "Department of Sanitation",
    "final_address": "2366 Constance St",
    "address_councildis": "B",
    "status": "Assigned to Contractor",
    "contractor": "IV Waste",
    "rowid": "1224188",
    "final_x": "3678351.86094",
    "final_y": "521206.255033",
    "longitude": "-90.07836770049931",
    "latitude": "29.927231509325566",
    "geocoded_column": {
      "latitude": "29.927231509325566",
      "longitude": "-90.07836770049931"
    }
  },
  {
    "service_request": "2025-1224187",
    "request_type": "Trash/Recycling",
    "request_reason": "Return Trash Cart",
    "date_created": "2025-09-05T14:36:56.000",
    "date_modified": "2025-09-05T14:36:58.000",
    "request_status": "Pending",
    "responsible_agency": "Department of Sanitation",
    "final_address": "2208 Cadiz St",
    "address_councildis": "B",
    "status": "Assigned to Contractor",
    "contractor": "IV Waste",
    "rowid": "1224187",
    "final_x": "3669849.1803",
    "final_y": "522994.151739",
    "longitude": "-90.10514808205183",
    "latitude": "29.932400976751175",
    "geocoded_column": {
      "latitude": "29.932400976751175",
      "longitude": "-90.10514808205183"
    }
  },
  {
    "service_request": "2025-1224186",
    "request_type": "Trash/Recycling",
    "request_reason": "Repair Trash Cart",
    "date_created": "2025-09-05T14:32:55.000",
    "date_modified": "2025-09-05T14:32:57.000",
    "request_status": "Pending",
    "responsible_agency": "Department of Sanitation",
    "final_address": "2755 N Rocheblave St",
    "address_councildis": "D",
    "status": "Assigned to Contractor",
    "contractor": "IV Waste",
    "rowid": "1224186",
    "final_x": "3687756.73686",
    "final_y": "541376.654348",
    "longitude": "-90.04796471529798",
    "latitude": "29.98240658398021",
    "geocoded_column": {
      "latitude": "29.98240658398021",
      "longitude": "-90.04796471529798"
    }
  },
  {
    "service_request": "2025-1224185",
    "request_type": "Trash/Recycling",
    "request_reason": "Replace Trash Cart",
    "date_created": "2025-09-05T14:31:34.000",
    "date_modified": "2025-09-05T14:31:36.000",
    "request_status": "Pending",
    "responsible_agency": "Department of Sanitation",
    "final_address": "2208 Cadiz St",
    "address_councildis": "B",
    "status": "Assigned to Contractor",
    "contractor": "IV Waste",
    "rowid": "1224185",
    "final_x": "3669849.1803",
    "final_y": "522994.151739",
    "longitude": "-90.10514808205183",
    "latitude": "29.932400976751175",
    "geocoded_column": {
      "latitude": "29.932400976751175",
      "longitude": "-90.10514808205183"
    }
  },
  {
    "service_request": "2025-1224184",
    "request_type": "Trash/Recycling",
    "request_reason": "Request a Large Item Pick Up",
    "date_created": "2025-09-05T14:26:53.000",
    "date_modified": "2025-09-05T14:26:55.000",
    "request_status": "Pending",
    "responsible_agency": "Department of Sanitation",
    "final_address": "6620 Louis Xiv St",
    "address_councildis": "A",
    "status": "Assigned to Contractor",
    "contractor": "IV Waste",
    "rowid": "1224184",
    "final_x": "3668400.53697",
    "final_y": "551610.077525",
    "longitude": "-90.1087558760874",
    "latitude": "30.01112780616014",
    "geocoded_column": {
      "latitude": "30.01112780616014",
      "longitude": "-90.1087558760874"
    }
  },
  {
    "service_request": "2025-1224183",
    "request_type": "Drainage",
    "request_reason": "Catch Basin Not Draining",
    "date_created": "2025-09-05T14:26:39.000",
    "date_modified": "2025-09-05T14:26:40.000",
    "request_status": "Pending",
    "responsible_agency": "Sewerage & Water Board",
    "final_address": "4637 Bienville Ave",
    "address_councildis": "A",
    "status": "Pending",
    "rowid": "1224183",
    "final_x": "3669686.15226",
    "final_y": "540476.648139",
    "longitude": "-90.1050711418082",
    "latitude": "29.980476880264224",
    "geocoded_column": {
      "latitude": "29.980476880264224",
      "longitude": "-90.1050711418082"
    }
  },
  {
    "service_request": "2025-1224182",
    "request_type": "Trash/Recycling",
    "request_reason": "Request a Large Item Pick Up",
    "date_created": "2025-09-05T14:25:52.000",
    "date_modified": "2025-09-05T14:25:54.000",
    "request_status": "Pending",
    "responsible_agency": "Department of Sanitation",
    "final_address": "2311 Republic St",
    "address_councildis": "D",
    "status": "Assigned to Contractor",
    "contractor": "IV Waste",
    "rowid": "1224182",
    "final_x": "3680908.31317",
    "final_y": "540519.350155",
    "longitude": "-90.06962525642646",
    "latitude": "29.980258756923142",
    "geocoded_column": {
      "latitude": "29.980258756923142",
      "longitude": "-90.06962525642646"
    }
  },
  {
    "service_request": "2025-1224181",
    "request_type": "Streetlights",
    "request_reason": "Streetlight Outage/Malfunction",
    "date_created": "2025-09-05T14:24:45.000",
    "date_modified": "2025-09-05T14:24:49.000",
    "request_status": "Pending",
    "responsible_agency": "Department of Public Works",
    "final_address": "1701 Wagner St",
    "address_councildis": "C",
    "status": "Pending",
    "rowid": "1224181",
    "final_x": "3690295.47632",
    "final_y": "524783.925884",
    "longitude": "-90.04053744797582",
    "latitude": "29.936703806379818",
    "geocoded_column": {
      "latitude": "29.936703806379818",
      "longitude": "-90.04053744797582"
    }
  },
  {
    "service_request": "2025-1224180",
    "request_type": "Healthy Homes",
    "request_reason": "Healthy Homes",
    "date_created": "2025-09-05T14:19:41.000",
    "date_modified": "2025-09-05T14:19:42.000",
    "request_status": "Pending",
    "responsible_agency": "Department of Code Enforcement",
    "final_address": "7912 Redfish St",
    "address_councildis": "E",
    "status": "Pending",
    "rowid": "1224180",
    "final_x": "3698531.6065",
    "final_y": "560844.819102",
    "longitude": "-90.01322416766044",
    "latitude": "30.035599981428646",
    "geocoded_column": {
      "latitude": "30.035599981428646",
      "longitude": "-90.01322416766044"
    }
  },
  {
    "service_request": "2025-1224179",
    "request_type": "Trash/Recycling",
    "request_reason": "Repair Trash Cart",
    "date_created": "2025-09-05T14:17:34.000",
    "date_modified": "2025-09-05T14:17:35.000",
    "request_status": "Pending",
    "responsible_agency": "Department of Sanitation",
    "final_address": "5166 Westgrove Park",
    "address_councildis": "C",
    "status": "Assigned to Contractor",
    "contractor": "Richards Disposal",
    "rowid": "1224179",
    "final_x": "3703561.0417",
    "final_y": "510992.45528",
    "longitude": "-89.99916473414976",
    "latitude": "29.898363802285147",
    "geocoded_column": {
      "latitude": "29.898363802285147",
      "longitude": "-89.99916473414976"
    }
  },
  {
    "service_request": "2025-1224178",
    "request_type": "Trash/Recycling",
    "request_reason": "Request a Large Item Pick Up",
    "date_created": "2025-09-05T14:16:47.000",
    "date_modified": "2025-09-05T14:16:49.000",
    "request_status": "Pending",
    "responsible_agency": "Department of Sanitation",
    "final_address": "2008 S Liberty St",
    "address_councildis": "B",
    "status": "Assigned to Contractor",
    "contractor": "IV Waste",
    "rowid": "1224178",
    "final_x": "3676493.55227",
    "final_y": "526141.142654",
    "longitude": "-90.08406406989208",
    "latitude": "29.9408566699607",
    "geocoded_column": {
      "latitude": "29.9408566699607",
      "longitude": "-90.08406406989208"
    }
  },
  {
    "service_request": "2025-1224177",
    "request_type": "Trash/Recycling",
    "request_reason": "Request a Large Item Pick Up",
    "date_created": "2025-09-05T14:14:23.000",
    "date_modified": "2025-09-05T14:14:25.000",
    "request_status": "Pending",
    "responsible_agency": "Department of Sanitation",
    "final_address": "8532 Gervais St",
    "address_councildis": "E",
    "status": "Assigned to Contractor",
    "contractor": "Waste Pro",
    "rowid": "1224177",
    "final_x": "3703832.67882",
    "final_y": "562632.84176",
    "longitude": "-89.99640604467133",
    "latitude": "30.04034734816663",
    "geocoded_column": {
      "latitude": "30.04034734816663",
      "longitude": "-89.99640604467133"
    }
  },
  {
    "service_request": "2025-1224175",
    "request_type": "Trash/Recycling",
    "request_reason": "Request a Large Item Pick Up",
    "date_created": "2025-09-05T14:13:40.000",
    "date_modified": "2025-09-05T14:13:41.000",
    "request_status": "Pending",
    "responsible_agency": "Department of Sanitation",
    "final_address": "2336 St Nick Dr",
    "address_councildis": "C",
    "status": "Assigned to Contractor",
    "contractor": "Richards Disposal",
    "rowid": "1224175",
    "final_x": "3699619.45661",
    "final_y": "522321.25241",
    "longitude": "-90.01119111451732",
    "latitude": "29.929639754660748",
    "geocoded_column": {
      "latitude": "29.929639754660748",
      "longitude": "-90.01119111451732"
    }
  },
  {
    "service_request": "2025-1224176",
    "request_type": "Trash/Recycling",
    "request_reason": "Order Trash Cart",
    "date_created": "2025-09-05T14:13:40.000",
    "date_modified": "2025-09-05T14:14:04.000",
    "request_status": "Pending",
    "responsible_agency": "Department of Sanitation",
    "final_address": "3923 Octavia St",
    "address_councildis": "B",
    "status": "Assigned to Contractor",
    "contractor": "IV Waste",
    "rowid": "1224176",
    "final_x": "3668918.92135",
    "final_y": "529927.297729",
    "longitude": "-90.10785074793031",
    "latitude": "29.95149226901675",
    "geocoded_column": {
      "latitude": "29.95149226901675",
      "longitude": "-90.10785074793031"
    }
  },
  {
    "service_request": "2025-1224174",
    "request_type": "Trash/Recycling",
    "request_reason": "Request a Large Item Pick Up",
    "date_created": "2025-09-05T14:12:23.000",
    "date_modified": "2025-09-05T14:12:24.000",
    "request_status": "Pending",
    "responsible_agency": "Department of Sanitation",
    "final_address": "5563 Rosemary Pl",
    "address_councildis": "A",
    "status": "Assigned to Contractor",
    "contractor": "IV Waste",
    "rowid": "1224174",
    "final_x": "3667186.42394",
    "final_y": "544460.624399",
    "longitude": "-90.11283235808882",
    "latitude": "29.991504904029423",
    "geocoded_column": {
      "latitude": "29.991504904029423",
      "longitude": "-90.11283235808882"
    }
  },
  {
    "service_request": "2025-1224173",
    "request_type": "Streetlights",
    "request_reason": "Streetlight Outage/Malfunction",
    "date_created": "2025-09-05T14:11:44.000",
    "date_modified": "2025-09-05T14:11:46.000",
    "request_status": "Pending",
    "responsible_agency": "Department of Public Works",
    "final_address": "1812 Hendee St",
    "address_councildis": "C",
    "status": "Pending",
    "rowid": "1224173",
    "final_x": "3690666.08502",
    "final_y": "524225.219196",
    "longitude": "-90.03938734206871",
    "latitude": "29.935156050015813",
    "geocoded_column": {
      "latitude": "29.935156050015813",
      "longitude": "-90.03938734206871"
    }
  },
  {
    "service_request": "2025-1224172",
    "request_type": "Trash/Recycling",
    "request_reason": "Request a Large Item Pick Up",
    "date_created": "2025-09-05T14:10:20.000",
    "date_modified": "2025-09-05T14:10:23.000",
    "request_status": "Pending",
    "responsible_agency": "Department of Sanitation",
    "final_address": "7923 Tarpon St",
    "address_councildis": "E",
    "status": "Assigned to Contractor",
    "contractor": "Waste Pro",
    "rowid": "1224172",
    "final_x": "3698396.09008",
    "final_y": "560938.529566",
    "longitude": "-90.01364901021333",
    "latitude": "30.035861941143988",
    "geocoded_column": {
      "latitude": "30.035861941143988",
      "longitude": "-90.01364901021333"
    }
  },
  {
    "service_request": "2025-1224171",
    "request_type": "Trash/Recycling",
    "request_reason": "Repair Recycling Cart",
    "date_created": "2025-09-05T14:10:02.000",
    "date_modified": "2025-09-05T14:10:04.000",
    "request_status": "Pending",
    "responsible_agency": "Department of Sanitation",
    "final_address": "1434 Toledano St",
    "address_councildis": "B",
    "status": "Pending",
    "rowid": "1224171",
    "final_x": "3674818.12046",
    "final_y": "520987.251641",
    "longitude": "-90.08953034025946",
    "latitude": "29.926735267824203",
    "geocoded_column": {
      "latitude": "29.926735267824203",
      "longitude": "-90.08953034025946"
    }
  },
  {
    "service_request": "2025-1224170",
    "request_type": "Abandoned Vehicles",
    "request_reason": "Abandoned/Junk Vehicles",
    "date_created": "2025-09-05T14:09:30.000",
    "date_modified": "2025-09-05T14:09:31.000",
    "request_status": "Pending",
    "responsible_agency": "Department of Public Works",
    "final_address": "2701 Felicity St",
    "address_councildis": "B",
    "status": "Pending",
    "rowid": "1224170",
    "final_x": "3675470.442",
    "final_y": "527646.405759",
    "longitude": "-90.08724253176565",
    "latitude": "29.945026279593066",
    "geocoded_column": {
      "latitude": "29.945026279593066",
      "longitude": "-90.08724253176565"
    }
  },
  {
    "service_request": "2025-1224169",
    "request_type": "Streetlights",
    "request_reason": "Streetlight Outage/Malfunction",
    "date_created": "2025-09-05T14:08:13.000",
    "date_modified": "2025-09-05T14:08:15.000",
    "request_status": "Pending",
    "responsible_agency": "Department of Public Works",
    "final_address": "3500 BLK Magazine St",
    "address_councildis": "B",
    "status": "Pending",
    "rowid": "1224169",
    "final_x": "3674312.93218",
    "final_y": "519350.493895",
    "longitude": "-90.09118109661328",
    "latitude": "29.922249779456",
    "geocoded_column": {
      "latitude": "29.922249779456",
      "longitude": "-90.09118109661328"
    }
  },
  {
    "service_request": "2025-1224168",
    "request_type": "Abandoned Vehicles",
    "request_reason": "Abandoned/Junk Vehicles",
    "date_created": "2025-09-05T14:07:30.000",
    "date_modified": "2025-09-05T14:07:32.000",
    "request_status": "Pending",
    "responsible_agency": "Department of Public Works",
    "final_address": "9411 Palm St",
    "address_councildis": "A",
    "status": "Pending",
    "rowid": "1224168",
    "final_x": "3664244.34362",
    "final_y": "537923.284361",
    "longitude": "-90.1223440245906",
    "latitude": "29.973615253203867",
    "geocoded_column": {
      "latitude": "29.973615253203867",
      "longitude": "-90.1223440245906"
    }
  },
  {
    "service_request": "2025-1224167",
    "request_type": "Safety & Permits",
    "request_reason": "Zoning Enforcement",
    "date_created": "2025-09-05T14:05:30.000",
    "date_modified": "2025-09-05T14:48:22.000",
    "case_close_date": "2025-09-05T09:48:21.000",
    "request_status": "Closed",
    "responsible_agency": "Safety and Permits",
    "final_address": "6102 Baccich St",
    "address_councildis": "D",
    "status": "Resolved",
    "rowid": "1224167",
    "final_x": "3687411.23055",
    "final_y": "555685.050201",
    "longitude": "-90.04854926165866",
    "latitude": "30.021760132682797",
    "geocoded_column": {
      "latitude": "30.021760132682797",
      "longitude": "-90.04854926165866"
    }
  },
  {
    "service_request": "2025-1224166",
    "request_type": "Trash/Recycling",
    "request_reason": "Repair Trash Cart",
    "date_created": "2025-09-05T14:04:23.000",
    "date_modified": "2025-09-05T14:04:33.000",
    "request_status": "Pending",
    "responsible_agency": "Department of Sanitation",
    "final_address": "8321 Freret St",
    "address_councildis": "A",
    "status": "Assigned to Contractor",
    "contractor": "IV Waste",
    "rowid": "1224166",
    "final_x": "3660839.14707",
    "final_y": "528502.54624",
    "longitude": "-90.13340999109965",
    "latitude": "29.947809793948554",
    "geocoded_column": {
      "latitude": "29.947809793948554",
      "longitude": "-90.13340999109965"
    }
  },
  {
    "service_request": "2025-1224165",
    "request_type": "Trash/Recycling",
    "request_reason": "Return Recycling Cart",
    "date_created": "2025-09-05T14:03:46.000",
    "date_modified": "2025-09-05T14:03:48.000",
    "request_status": "Pending",
    "responsible_agency": "Department of Sanitation",
    "final_address": "5529 S Johnson St",
    "address_councildis": "A",
    "status": "Pending",
    "rowid": "1224165",
    "final_x": "3667996.93005",
    "final_y": "527164.472255",
    "longitude": "-90.11085502879277",
    "latitude": "29.943922478510796",
    "geocoded_column": {
      "latitude": "29.943922478510796",
      "longitude": "-90.11085502879277"
    }
  },
  {
    "service_request": "2025-1224164",
    "request_type": "Trash/Recycling",
    "request_reason": "Request a Large Item Pick Up",
    "date_created": "2025-09-05T13:57:30.000",
    "date_modified": "2025-09-05T13:57:32.000",
    "request_status": "Pending",
    "responsible_agency": "Department of Sanitation",
    "final_address": "5305 Warrington Dr",
    "address_councildis": "D",
    "status": "Assigned to Contractor",
    "contractor": "IV Waste",
    "rowid": "1224164",
    "final_x": "3681005.27797",
    "final_y": "552240.681942",
    "longitude": "-90.0689104786963",
    "latitude": "30.012485316612572",
    "geocoded_column": {
      "latitude": "30.012485316612572",
      "longitude": "-90.0689104786963"
    }
  },
  {
    "service_request": "2025-1224163",
    "request_type": "Utility Poles",
    "request_reason": "Wires Sagging/Hanging Low",
    "date_created": "2025-09-05T13:57:19.000",
    "date_modified": "2025-09-05T13:57:23.000",
    "request_status": "Pending",
    "responsible_agency": "Utility Company Collective",
    "final_address": "6520 Avenue A",
    "address_councildis": "A",
    "status": "Pending",
    "rowid": "1224163",
    "final_x": "3665956.47911",
    "final_y": "551536.858581",
    "longitude": "-90.11648012243575",
    "latitude": "30.01099807393219",
    "geocoded_column": {
      "latitude": "30.01099807393219",
      "longitude": "-90.11648012243575"
    }
  },
  {
    "service_request": "2025-1224162",
    "request_type": "Streetlights",
    "request_reason": "Streetlight Outage/Malfunction",
    "date_created": "2025-09-05T13:55:36.000",
    "date_modified": "2025-09-05T13:55:38.000",
    "request_status": "Pending",
    "responsible_agency": "Department of Public Works",
    "final_address": "7540 Weaver Ave",
    "address_councildis": "E",
    "status": "Pending",
    "rowid": "1224162",
    "final_x": "3707470.26987",
    "final_y": "564177.382817",
    "longitude": "-89.98485272466526",
    "latitude": "30.044477019766237",
    "geocoded_column": {
      "latitude": "30.044477019766237",
      "longitude": "-89.98485272466526"
    }
  },
  {
    "service_request": "2025-1224161",
    "request_type": "Trash/Recycling",
    "request_reason": "Illegal Dumping",
    "date_created": "2025-09-05T13:53:29.000",
    "date_modified": "2025-09-05T13:53:30.000",
    "request_status": "Pending",
    "responsible_agency": "Department of Sanitation",
    "final_address": "HAMILTON ST & COHN ST",
    "address_councildis": "A",
    "status": "Pending",
    "rowid": "1224161",
    "final_x": "3661009.8",
    "final_y": "532559.48",
    "longitude": "-90.13273695430932",
    "latitude": "29.958960142221116",
    "geocoded_column": {
      "latitude": "29.958960142221116",
      "longitude": "-90.13273695430932"
    }
  },
  {
    "service_request": "2025-1224160",
    "request_type": "Property Maintenance",
    "request_reason": "Property Maintenance",
    "date_created": "2025-09-05T13:48:28.000",
    "date_modified": "2025-09-05T13:48:31.000",
    "request_status": "Pending",
    "responsible_agency": "Department of Code Enforcement",
    "final_address": "2861 Bristol Pl",
    "address_councildis": "C",
    "status": "Pending",
    "rowid": "1224160",
    "final_x": "3702681.0826",
    "final_y": "520368.55564",
    "longitude": "-90.00159782042311",
    "latitude": "29.924173023053534",
    "geocoded_column": {
      "latitude": "29.924173023053534",
      "longitude": "-90.00159782042311"
    }
  },
  {
    "service_request": "2025-1224159",
    "request_type": "Trash/Recycling",
    "request_reason": "Missed Trash Pick-Up",
    "date_created": "2025-09-05T13:44:56.000",
    "date_modified": "2025-09-05T13:45:41.000",
    "request_status": "Pending",
    "responsible_agency": "Department of Sanitation",
    "final_address": "5111 N Roman St",
    "address_councildis": "E",
    "status": "Assigned to Contractor",
    "contractor": "Waste Pro",
    "rowid": "1224159",
    "final_x": "3697110.28432",
    "final_y": "536810.439368",
    "longitude": "-90.01858725977259",
    "latitude": "29.969559315333782",
    "geocoded_column": {
      "latitude": "29.969559315333782",
      "longitude": "-90.01858725977259"
    }
  },
  {
    "service_request": "2025-1224158",
    "request_type": "Streetlights",
    "request_reason": "Streetlight Outage/Malfunction",
    "date_created": "2025-09-05T13:44:31.000",
    "date_modified": "2025-09-05T13:44:33.000",
    "request_status": "Pending",
    "responsible_agency": "Department of Public Works",
    "final_address": "7540 Weaver Ave",
    "address_councildis": "E",
    "status": "Pending",
    "rowid": "1224158",
    "final_x": "3707470.26987",
    "final_y": "564177.382817",
    "longitude": "-89.98485272466526",
    "latitude": "30.044477019766237",
    "geocoded_column": {
      "latitude": "30.044477019766237",
      "longitude": "-89.98485272466526"
    }
  },
  {
    "service_request": "2025-1224157",
    "request_type": "Trash/Recycling",
    "request_reason": "Request a Large Item Pick Up",
    "date_created": "2025-09-05T13:44:01.000",
    "date_modified": "2025-09-05T13:44:10.000",
    "request_status": "Pending",
    "responsible_agency": "Department of Sanitation",
    "final_address": "1017 Jefferson Ave",
    "address_councildis": "B",
    "status": "Assigned to Contractor",
    "contractor": "IV Waste",
    "rowid": "1224157",
    "final_x": "3666999.41729",
    "final_y": "519291.241655",
    "longitude": "-90.11426892619464",
    "latitude": "29.922302829678884",
    "geocoded_column": {
      "latitude": "29.922302829678884",
      "longitude": "-90.11426892619464"
    }
  },
  {
    "service_request": "2025-1224156",
    "request_type": "Trash/Recycling",
    "request_reason": "Request a Large Item Pick Up",
    "date_created": "2025-09-05T13:41:25.000",
    "date_modified": "2025-09-05T13:41:26.000",
    "request_status": "Pending",
    "responsible_agency": "Department of Sanitation",
    "final_address": "7460 Horizon Dr",
    "address_councildis": "E",
    "status": "Assigned to Contractor",
    "contractor": "Waste Pro",
    "rowid": "1224156",
    "final_x": "3725488.30457",
    "final_y": "569443.82135",
    "longitude": "-89.92770414946104",
    "latitude": "30.058362169258892",
    "geocoded_column": {
      "latitude": "30.058362169258892",
      "longitude": "-89.92770414946104"
    }
  },
  {
    "service_request": "2025-1224155",
    "request_type": "Trash/Recycling",
    "request_reason": "Order Second Trash Cart",
    "date_created": "2025-09-05T13:34:05.000",
    "date_modified": "2025-09-05T13:34:37.000",
    "request_status": "Pending",
    "responsible_agency": "Department of Sanitation",
    "final_address": "3424 Coliseum St",
    "address_councildis": "B",
    "status": "Assigned to Contractor",
    "contractor": "IV Waste",
    "rowid": "1224155",
    "final_x": "3674442.37812",
    "final_y": "520398.220664",
    "longitude": "-90.09073662337337",
    "latitude": "29.925126832107438",
    "geocoded_column": {
      "latitude": "29.925126832107438",
      "longitude": "-90.09073662337337"
    }
  },
  {
    "service_request": "2025-1224154",
    "request_type": "Trash/Recycling",
    "request_reason": "Change Size of Trash Cart",
    "date_created": "2025-09-05T13:34:03.000",
    "date_modified": "2025-09-05T13:34:05.000",
    "request_status": "Pending",
    "responsible_agency": "Department of Sanitation",
    "final_address": "131 Torrey Pines Dr",
    "address_councildis": "E",
    "status": "Assigned to Contractor",
    "contractor": "Waste Pro",
    "rowid": "1224154",
    "final_x": "3718156.63084",
    "final_y": "564489.449313",
    "longitude": "-89.95106745080346",
    "latitude": "30.04498494678784",
    "geocoded_column": {
      "latitude": "30.04498494678784",
      "longitude": "-89.95106745080346"
    }
  },
  {
    "service_request": "2025-1224153",
    "request_type": "Property Maintenance",
    "request_reason": "Property Maintenance",
    "date_created": "2025-09-05T13:33:47.000",
    "date_modified": "2025-09-05T13:33:48.000",
    "request_status": "Pending",
    "responsible_agency": "Department of Code Enforcement",
    "final_address": "2459 N Galvez St",
    "address_councildis": "D",
    "status": "Pending",
    "rowid": "1224153",
    "final_x": "3686706.19215",
    "final_y": "540186.216139",
    "longitude": "-90.05132491248128",
    "latitude": "29.979165661592",
    "geocoded_column": {
      "latitude": "29.979165661592",
      "longitude": "-90.05132491248128"
    }
  },
  {
    "service_request": "2025-1224152",
    "request_type": "Property Maintenance",
    "request_reason": "Property Maintenance",
    "date_created": "2025-09-05T13:33:42.000",
    "date_modified": "2025-09-05T13:33:44.000",
    "request_status": "Pending",
    "responsible_agency": "Department of Code Enforcement",
    "final_address": "2461 N Galvez St",
    "address_councildis": "D",
    "status": "Pending",
    "rowid": "1224152",
    "final_x": "3686736.9455",
    "final_y": "540187.631883",
    "longitude": "-90.05122773162951",
    "latitude": "29.979168608253207",
    "geocoded_column": {
      "latitude": "29.979168608253207",
      "longitude": "-90.05122773162951"
    }
  },
  {
    "service_request": "2025-1224151",
    "request_type": "Trash/Recycling",
    "request_reason": "Return Trash Cart",
    "date_created": "2025-09-05T13:32:58.000",
    "date_modified": "2025-09-05T13:33:01.000",
    "request_status": "Pending",
    "responsible_agency": "Department of Sanitation",
    "final_address": "3424 Coliseum St",
    "address_councildis": "B",
    "status": "Assigned to Contractor",
    "contractor": "IV Waste",
    "rowid": "1224151",
    "final_x": "3674442.37812",
    "final_y": "520398.220664",
    "longitude": "-90.09073662337337",
    "latitude": "29.925126832107438",
    "geocoded_column": {
      "latitude": "29.925126832107438",
      "longitude": "-90.09073662337337"
    }
  },
  {
    "service_request": "2025-1224150",
    "request_type": "Street and Traffic Signs",
    "request_reason": "Disabled Parking Sign Missing or Damaged",
    "date_created": "2025-09-05T13:29:30.000",
    "date_modified": "2025-09-05T13:29:32.000",
    "request_status": "Pending",
    "responsible_agency": "Department of Public Works",
    "final_address": "2225 Cadiz St",
    "address_councildis": "B",
    "status": "Pending",
    "rowid": "1224150",
    "final_x": "3669908.157",
    "final_y": "523116.323643",
    "longitude": "-90.10495776277001",
    "latitude": "29.932735171936507",
    "geocoded_column": {
      "latitude": "29.932735171936507",
      "longitude": "-90.10495776277001"
    }
  },
  {
    "service_request": "2025-1224149",
    "request_type": "Trash/Recycling",
    "request_reason": "Repair Trash Cart",
    "date_created": "2025-09-05T13:28:01.000",
    "date_modified": "2025-09-05T13:28:03.000",
    "request_status": "Pending",
    "responsible_agency": "Department of Sanitation",
    "final_address": "2336 St Nick Dr",
    "address_councildis": "C",
    "status": "Assigned to Contractor",
    "contractor": "Richards Disposal",
    "rowid": "1224149",
    "final_x": "3699619.45661",
    "final_y": "522321.25241",
    "longitude": "-90.01119111451732",
    "latitude": "29.929639754660748",
    "geocoded_column": {
      "latitude": "29.929639754660748",
      "longitude": "-90.01119111451732"
    }
  },
  {
    "service_request": "2025-1224148",
    "request_type": "Streetlights",
    "request_reason": "Streetlight Outage/Malfunction",
    "date_created": "2025-09-05T13:22:44.000",
    "date_modified": "2025-09-05T13:27:01.000",
    "request_status": "Pending",
    "responsible_agency": "Department of Public Works",
    "final_address": "11100 BLK Almonaster Ave",
    "address_councildis": "E",
    "status": "Pending",
    "rowid": "1224148",
    "final_x": "3717675.47505",
    "final_y": "552199.837973",
    "longitude": "-89.95305598873324",
    "latitude": "30.0112093928261",
    "geocoded_column": {
      "latitude": "30.0112093928261",
      "longitude": "-89.95305598873324"
    }
  },
  {
    "service_request": "2025-1224147",
    "request_type": "Trash/Recycling",
    "request_reason": "Request a Large Item Pick Up",
    "date_created": "2025-09-05T13:19:54.000",
    "date_modified": "2025-09-05T13:19:56.000",
    "request_status": "Pending",
    "responsible_agency": "Department of Sanitation",
    "final_address": "4384 Genoa St",
    "address_councildis": "E",
    "status": "Assigned to Contractor",
    "contractor": "Waste Pro",
    "rowid": "1224147",
    "final_x": "3761126.94557",
    "final_y": "574147.522538",
    "longitude": "-89.81486007833128",
    "latitude": "30.070044930530692",
    "geocoded_column": {
      "latitude": "30.070044930530692",
      "longitude": "-89.81486007833128"
    }
  },
  {
    "service_request": "2025-1224146",
    "request_type": "Trash/Recycling",
    "request_reason": "Request a Large Item Pick Up",
    "date_created": "2025-09-05T13:16:54.000",
    "date_modified": "2025-09-05T13:16:56.000",
    "request_status": "Pending",
    "responsible_agency": "Department of Sanitation",
    "final_address": "2313 Palmyra St",
    "address_councildis": "B",
    "status": "Assigned to Contractor",
    "contractor": "IV Waste",
    "rowid": "1224146",
    "final_x": "3675975.18811",
    "final_y": "533671.092933",
    "longitude": "-90.08544173170021",
    "latitude": "29.961577056373546",
    "geocoded_column": {
      "latitude": "29.961577056373546",
      "longitude": "-90.08544173170021"
    }
  },
  {
    "service_request": "2025-1224145",
    "request_type": "Trash/Recycling",
    "request_reason": "Missed Trash Pick-Up",
    "date_created": "2025-09-05T13:15:12.000",
    "date_modified": "2025-09-05T14:33:56.000",
    "case_close_date": "2025-09-05T09:33:55.000",
    "request_status": "Closed",
    "responsible_agency": "Department of Sanitation",
    "final_address": "2715 Marigny St",
    "address_councildis": "D",
    "status": "Invalid Request",
    "contractor": "IV Waste",
    "contractor_action": "Invalid",
    "rowid": "1224145",
    "final_x": "3684939.14261",
    "final_y": "542751.136333",
    "longitude": "-90.05681568365402",
    "latitude": "29.98627253078469",
    "geocoded_column": {
      "latitude": "29.98627253078469",
      "longitude": "-90.05681568365402"
    }
  },
  {
    "service_request": "2025-1224144",
    "request_type": "Drainage",
    "request_reason": "Illegal Dumping (Catch Basin)",
    "date_created": "2025-09-05T13:12:53.000",
    "date_modified": "2025-09-05T13:13:17.000",
    "request_status": "Pending",
    "responsible_agency": "Sewerage & Water Board",
    "final_address": "1111 S Broad St",
    "address_councildis": "B",
    "rowid": "1224144",
    "final_x": "3672421.86177",
    "final_y": "531191.868674",
    "longitude": "-90.09674705348147",
    "latitude": "29.954865942196243",
    "geocoded_column": {
      "latitude": "29.954865942196243",
      "longitude": "-90.09674705348147"
    }
  },
  {
    "service_request": "2025-1224143",
    "request_type": "Drainage",
    "request_reason": "Drainage Manhole Cover Missing or Damaged",
    "date_created": "2025-09-05T13:07:38.000",
    "date_modified": "2025-09-05T13:07:40.000",
    "request_status": "Pending",
    "responsible_agency": "Sewerage & Water Board",
    "final_address": "312 S Dupre St",
    "address_councildis": "B",
    "status": "Pending",
    "rowid": "1224143",
    "final_x": "3674094.83412",
    "final_y": "534872.713478",
    "longitude": "-90.09133845404165",
    "latitude": "29.964937283410297",
    "geocoded_column": {
      "latitude": "29.964937283410297",
      "longitude": "-90.09133845404165"
    }
  },
  {
    "service_request": "2025-1224142",
    "request_type": "Streetlights",
    "request_reason": "Streetlight Outage/Malfunction",
    "date_created": "2025-09-05T13:06:22.000",
    "date_modified": "2025-09-05T13:06:25.000",
    "request_status": "Pending",
    "responsible_agency": "Department of Public Works",
    "final_address": "7759 Alabama St",
    "address_councildis": "D",
    "status": "Pending",
    "rowid": "1224142",
    "final_x": "3694736.23261",
    "final_y": "559207.257372",
    "longitude": "-90.0252772376606",
    "latitude": "30.031216997573104",
    "geocoded_column": {
      "latitude": "30.031216997573104",
      "longitude": "-90.0252772376606"
    }
  },
  {
    "service_request": "2025-1224141",
    "request_type": "Streetlights",
    "request_reason": "Streetlight Outage/Malfunction",
    "date_created": "2025-09-05T12:57:41.000",
    "date_modified": "2025-09-05T12:57:43.000",
    "request_status": "Pending",
    "responsible_agency": "Department of Public Works",
    "final_address": "5201 Timber Crest Dr",
    "address_councildis": "C",
    "status": "Pending",
    "rowid": "1224141",
    "final_x": "3703355.9075",
    "final_y": "511143.643504",
    "longitude": "-89.99980654585038",
    "latitude": "29.89878608488984",
    "geocoded_column": {
      "latitude": "29.89878608488984",
      "longitude": "-89.99980654585038"
    }
  },
  {
    "service_request": "2025-1224140",
    "request_type": "Trash/Recycling",
    "request_reason": "Repair Recycling Cart",
    "date_created": "2025-09-05T12:48:48.000",
    "date_modified": "2025-09-05T12:48:52.000",
    "request_status": "Pending",
    "responsible_agency": "Department of Sanitation",
    "final_address": "5319 Cameron Blvd",
    "address_councildis": "D",
    "status": "Pending",
    "rowid": "1224140",
    "final_x": "3682670.2029",
    "final_y": "552407.903446",
    "longitude": "-90.0636443925925",
    "latitude": "30.012894492796068",
    "geocoded_column": {
      "latitude": "30.012894492796068",
      "longitude": "-90.0636443925925"
    }
  },
  {
    "service_request": "2025-1224139",
    "request_type": "Property Maintenance",
    "request_reason": "Property Maintenance",
    "date_created": "2025-09-05T12:47:26.000",
    "date_modified": "2025-09-05T12:47:28.000",
    "request_status": "Pending",
    "responsible_agency": "Department of Code Enforcement",
    "final_address": "3131 Mansfield Ave",
    "address_councildis": "C",
    "status": "Pending",
    "rowid": "1224139",
    "final_x": "3709061.38737",
    "final_y": "518702.694583",
    "longitude": "-89.98151966312746",
    "latitude": "29.919387048023438",
    "geocoded_column": {
      "latitude": "29.919387048023438",
      "longitude": "-89.98151966312746"
    }
  },
  {
    "service_request": "2025-1224138",
    "request_type": "Abandoned Vehicles",
    "request_reason": "Abandoned/Junk Vehicles",
    "date_created": "2025-09-05T12:43:07.000",
    "date_modified": "2025-09-05T12:43:09.000",
    "request_status": "Pending",
    "responsible_agency": "Department of Public Works",
    "final_address": "3114 Orleans Ave",
    "address_councildis": "A",
    "status": "Pending",
    "rowid": "1224138",
    "final_x": "3675160.78465",
    "final_y": "538154.806729",
    "longitude": "-90.08785958475377",
    "latitude": "29.973930113787738",
    "geocoded_column": {
      "latitude": "29.973930113787738",
      "longitude": "-90.08785958475377"
    }
  },
  {
    "service_request": "2025-1224136",
    "request_type": "Trash/Recycling",
    "request_reason": "Request a Large Item Pick Up",
    "date_created": "2025-09-05T12:41:55.000",
    "date_modified": "2025-09-05T12:41:57.000",
    "request_status": "Pending",
    "responsible_agency": "Department of Sanitation",
    "final_address": "4441 Eastview Dr",
    "address_councildis": "E",
    "status": "Assigned to Contractor",
    "contractor": "Waste Pro",
    "rowid": "1224136",
    "final_x": "3705310.42199",
    "final_y": "553668.028119",
    "longitude": "-89.99206756791003",
    "latitude": "30.015650112467114",
    "geocoded_column": {
      "latitude": "30.015650112467114",
      "longitude": "-89.99206756791003"
    }
  },
  {
    "service_request": "2025-1224135",
    "request_type": "Trash/Recycling",
    "request_reason": "Request a Large Item Pick Up",
    "date_created": "2025-09-05T12:37:22.000",
    "date_modified": "2025-09-05T13:43:11.000",
    "case_close_date": "2025-09-05T08:43:11.000",
    "request_status": "Closed",
    "responsible_agency": "Department of Sanitation",
    "final_address": "501 S Cortez St",
    "address_councildis": "B",
    "status": "Invalid Request",
    "contractor": "IV Waste",
    "contractor_action": "Invalid",
    "rowid": "1224135",
    "final_x": "3671042.87502",
    "final_y": "536310.541127",
    "longitude": "-90.10092754119889",
    "latitude": "29.96898143561401",
    "geocoded_column": {
      "latitude": "29.96898143561401",
      "longitude": "-90.10092754119889"
    }
  },
  {
    "service_request": "2025-1224134",
    "request_type": "Abandoned Vehicles",
    "request_reason": "Abandoned/Junk Vehicles",
    "date_created": "2025-09-05T12:31:34.000",
    "date_modified": "2025-09-05T12:31:36.000",
    "request_status": "Pending",
    "responsible_agency": "Department of Public Works",
    "final_address": "1131 Dufossat St",
    "address_councildis": "B",
    "status": "Pending",
    "rowid": "1224134",
    "final_x": "3668117.46957",
    "final_y": "519620.284088",
    "longitude": "-90.11072859952482",
    "latitude": "29.923174837623414",
    "geocoded_column": {
      "latitude": "29.923174837623414",
      "longitude": "-90.11072859952482"
    }
  },
  {
    "service_request": "2025-1224133",
    "request_type": "Trash/Recycling",
    "request_reason": "Request a Large Item Pick Up",
    "date_created": "2025-09-05T12:27:20.000",
    "date_modified": "2025-09-05T12:27:21.000",
    "request_status": "Pending",
    "responsible_agency": "Department of Sanitation",
    "final_address": "3418 London Ave",
    "address_councildis": "D",
    "status": "Assigned to Contractor",
    "contractor": "IV Waste",
    "rowid": "1224133",
    "final_x": "3681206.5076",
    "final_y": "545070.291983",
    "longitude": "-90.06852477093578",
    "latitude": "29.99276320286794",
    "geocoded_column": {
      "latitude": "29.99276320286794",
      "longitude": "-90.06852477093578"
    }
  },
  {
    "service_request": "2025-1224132",
    "request_type": "Traffic Signals",
    "request_reason": "Traffic Signal Malfunctioning or Damaged",
    "date_created": "2025-09-05T12:27:03.000",
    "date_modified": "2025-09-05T12:27:05.000",
    "request_status": "Pending",
    "responsible_agency": "Department of Public Works",
    "final_address": "ST CLAUDE AVE & FORSTALL ST",
    "address_councildis": "E",
    "status": "Pending",
    "rowid": "1224132",
    "final_x": "3696261.2",
    "final_y": "534265.58",
    "longitude": "-90.02136074717859",
    "latitude": "29.962588618515763",
    "geocoded_column": {
      "latitude": "29.962588618515763",
      "longitude": "-90.02136074717859"
    }
  },
  {
    "service_request": "2025-1224131",
    "request_type": "Roads and Streets",
    "request_reason": "Abandoned Service Cut",
    "date_created": "2025-09-05T12:26:05.000",
    "date_modified": "2025-09-05T12:26:06.000",
    "request_status": "Pending",
    "responsible_agency": "Department of Public Works",
    "final_address": "1400 Annunciation St",
    "address_councildis": "B",
    "status": "Pending",
    "rowid": "1224131",
    "final_x": "3681332.43445",
    "final_y": "524542.822332",
    "longitude": "-90.0688425602231",
    "latitude": "29.936315870415534",
    "geocoded_column": {
      "latitude": "29.936315870415534",
      "longitude": "-90.0688425602231"
    }
  },
  {
    "service_request": "2025-1224129",
    "request_type": "Trash/Recycling",
    "request_reason": "Order Trash Cart",
    "date_created": "2025-09-05T12:23:19.000",
    "date_modified": "2025-09-05T12:23:25.000",
    "request_status": "Pending",
    "responsible_agency": "Department of Sanitation",
    "final_address": "3418 London Ave",
    "address_councildis": "D",
    "status": "Assigned to Contractor",
    "contractor": "IV Waste",
    "rowid": "1224129",
    "final_x": "3681206.5076",
    "final_y": "545070.291983",
    "longitude": "-90.06852477093578",
    "latitude": "29.99276320286794",
    "geocoded_column": {
      "latitude": "29.99276320286794",
      "longitude": "-90.06852477093578"
    }
  },
  {
    "service_request": "2025-1224130",
    "request_type": "Trash/Recycling",
    "request_reason": "Request a Large Item Pick Up",
    "date_created": "2025-09-05T12:23:19.000",
    "date_modified": "2025-09-05T12:23:21.000",
    "request_status": "Pending",
    "responsible_agency": "Department of Sanitation",
    "final_address": "4524 Baudin St",
    "address_councildis": "A",
    "status": "Assigned to Contractor",
    "contractor": "IV Waste",
    "rowid": "1224130",
    "final_x": "3668485.79886",
    "final_y": "538264.270473",
    "longitude": "-90.10893705383815",
    "latitude": "29.974428912348138",
    "geocoded_column": {
      "latitude": "29.974428912348138",
      "longitude": "-90.10893705383815"
    }
  },