[
  {
    "service_request": "2023-1007622",
    "request_type": "Health Related Request",
    "request_reason": "Noise Ordinance Complaint",
    "date_created": "2023-06-11T01:56:20.000",
    "date_modified": "2023-06-11T01:56:20.000",
    "request_status": "Pending",
    "responsible_agency": "Health Department",
    "final_address": "1019 N Claiborne Ave, New Orleans, Louisiana, 70116",
    "address_councildis": "D",
    "status": "Pending",
    "rowid": "1007622",
    "final_x": "3680461.15387",
    "final_y": "535691.880839",
    "longitude": "-90.07120552016785",
    "latitude": "29.966998435791684",
    "geocoded_column": {
      "latitude": "29.966998435791684",
      "longitude": "-90.07120552016785"
    }
  },
  {
    "service_request": "2023-1007621",
    "request_type": "Health Related Request",
    "request_reason": "Noise Ordinance Complaint",
    "date_created": "2023-06-11T01:42:17.000",
    "date_modified": "2023-06-11T01:42:17.000",
    "request_status": "Pending",
    "responsible_agency": "Health Department",
    "final_address": "4009 Octavia St, New Orleans, Louisiana, 70125",
    "address_councildis": "B",
    "status": "Pending",
    "rowid": "1007621",
    "final_x": "3668966.96218",
    "final_y": "530092.333889",
    "longitude": "-90.10769348395522",
    "latitude": "29.95194465157315",
    "geocoded_column": {
      "latitude": "29.95194465157315",
      "longitude": "-90.10769348395522"
    }
  },
  {
    "service_request": "2023-1007620",
    "request_type": "Abandoned Vehicles",
    "request_reason": "Abandoned/Junk Vehicles",
    "date_created": "2023-06-11T00:27:40.000",
    "date_modified": "2023-06-11T00:27:40.000",
    "request_status": "Pending",
    "responsible_agency": "Department of Public Works",
    "final_address": "2124 DAbadie St",
    "address_councildis": "D",
    "status": "Pending",
    "rowid": "1007620",
    "final_x": "3681011.55419",
    "final_y": "539566.018634",
    "longitude": "-90.06933239297534",
    "latitude": "29.977634295710686",
    "geocoded_column": {
      "latitude": "29.977634295710686",
      "longitude": "-90.06933239297534"
    }
  },
  {
    "service_request": "2023-1007619",
    "request_type": "Health Related Request",
    "request_reason": "Noise Ordinance Complaint",
    "date_created": "2023-06-11T00:14:22.000",
    "date_modified": "2023-06-11T00:14:22.000",
    "request_status": "Pending",
    "responsible_agency": "Health Department",
    "final_address": "1017 N Claiborne Ave, New Orleans, Louisiana, 70116",
    "status": "Pending",
    "rowid": "1007619",
    "longitude": "0.0",
    "latitude": "0.0",
    "geocoded_column": {
      "latitude": "0.0",
      "longitude": "0.0"
    }
  },
  {
    "service_request": "2023-1007618",
    "request_type": "Health Related Request",
    "request_reason": "Noise Ordinance Complaint",
    "date_created": "2023-06-11T00:04:07.000",
    "date_modified": "2023-06-11T00:04:07.000",
    "request_status": "Pending",
    "responsible_agency": "Health Department",
    "final_address": "1017 N Claiborne Ave, New Orleans, Louisiana, 70116",
    "status": "Pending",
    "rowid": "1007618",
    "longitude": "0.0",
    "latitude": "0.0",
    "geocoded_column": {
      "latitude": "0.0",
      "longitude": "0.0"
    }
  },
  {
    "service_request": "2023-1007617",
    "request_type": "Health Related Request",
    "request_reason": "Noise Ordinance Complaint",
    "date_created": "2023-06-10T22:20:11.000",
    "date_modified": "2023-06-10T22:20:11.000",
    "request_status": "Pending",
    "responsible_agency": "Health Department",
    "final_address": "600 BLK N Broad St",
    "address_councildis": "D",
    "status": "Pending",
    "rowid": "1007617",
    "final_x": "3676411.44045",
    "final_y": "536496.197136",
    "longitude": "-90.08396684646866",
    "latitude": "29.96933206503225",
    "geocoded_column": {
      "latitude": "29.96933206503225",
      "longitude": "-90.08396684646866"
    }
  },
  {
    "service_request": "2023-1007616",
    "request_type": "Trash/Recycling",
    "request_reason": "Request a Large Item Pick Up",
    "date_created": "2023-06-10T22:05:02.000",
    "date_modified": "2023-06-10T22:05:02.000",
    "request_status": "Pending",
    "responsible_agency": "Department of Sanitation",
    "final_address": "725 Ursulines Ave",
    "address_councildis": "C",
    "status": "Assigned to Contractor",
    "contractor": "Empire Services",
    "rowid": "1007616",
    "final_x": "3683297.887",
    "final_y": "533771.517253",
    "longitude": "-90.06231438732512",
    "latitude": "29.9616318751545",
    "geocoded_column": {
      "latitude": "29.9616318751545",
      "longitude": "-90.06231438732512"
    }
  },
  {
    "service_request": "2023-1007615",
    "request_type": "Property Maintenance",
    "request_reason": "Property Maintenance",
    "date_created": "2023-06-10T21:18:31.000",
    "date_modified": "2023-06-10T21:18:32.000",
    "request_status": "Pending",
    "responsible_agency": "Department of Code Enforcement",
    "final_address": "5541 Providence Pl",
    "address_councildis": "D",
    "status": "Pending",
    "rowid": "1007615",
    "final_x": "3688391.04156",
    "final_y": "553784.676183",
    "longitude": "-90.04552081099665",
    "latitude": "30.01650456468238",
    "geocoded_column": {
      "latitude": "30.01650456468238",
      "longitude": "-90.04552081099665"
    }
  },
  {
    "service_request": "2023-1007614",
    "request_type": "Traffic Signals/Signs/Striping/Streetlights",
    "request_reason": "Street Light Outage/Malfunction",
    "date_created": "2023-06-10T20:54:22.000",
    "date_modified": "2023-06-10T20:54:23.000",
    "request_status": "Pending",
    "responsible_agency": "Department of Public Works",
    "final_address": "7040 E Renaissance Ct",
    "address_councildis": "E",
    "status": "Assigned to Contractor",
    "contractor": "Legacy Professional Services",
    "rowid": "1007614",
    "final_x": "3717428.9182",
    "final_y": "567408.516196",
    "longitude": "-89.95325622446245",
    "latitude": "30.053035301464238",
    "geocoded_column": {
      "latitude": "30.053035301464238",
      "longitude": "-89.95325622446245"
    }
  },
  {
    "service_request": "2023-1007613",
    "request_type": "Trash/Recycling",
    "request_reason": "Start Trash Service",
    "date_created": "2023-06-10T20:46:44.000",
    "date_modified": "2023-06-10T20:46:45.000",
    "request_status": "Pending",
    "responsible_agency": "Department of Sanitation",
    "final_address": "1005 Atlantic Ave",
    "address_councildis": "C",
    "status": "Assigned to Contractor",
    "contractor": "Richards Disposal",
    "rowid": "1007613",
    "final_x": "3688656.47619",
    "final_y": "527849.843711",
    "longitude": "-90.04560305265626",
    "latitude": "29.945184784268843",
    "geocoded_column": {
      "latitude": "29.945184784268843",
      "longitude": "-90.04560305265626"
    }
  },
  {
    "service_request": "2023-1007612",
    "request_type": "Health Related Request",
    "request_reason": "Noise Ordinance Complaint",
    "date_created": "2023-06-10T20:31:21.000",
    "date_modified": "2023-06-10T20:31:22.000",
    "request_status": "Pending",
    "responsible_agency": "Health Department",
    "final_address": "717 Franklin Ave",
    "address_councildis": "C",
    "status": "Pending",
    "rowid": "1007612",
    "final_x": "3686809.32879",
    "final_y": "535100.793606",
    "longitude": "-90.05117889261335",
    "latitude": "29.96517935656724",
    "geocoded_column": {
      "latitude": "29.96517935656724",
      "longitude": "-90.05117889261335"
    }
  },
  {
    "service_request": "2023-1007611",
    "request_type": "Trash/Recycling",
    "request_reason": "Request a Large Item Pick Up",
    "date_created": "2023-06-10T20:14:19.000",
    "date_modified": "2023-06-10T20:14:20.000",
    "request_status": "Pending",
    "responsible_agency": "Department of Sanitation",
    "final_address": "7 Richmond Pl",
    "address_councildis": "A",
    "status": "Assigned to Contractor",
    "contractor": "Richards Disposal",
    "rowid": "1007611",
    "final_x": "3666562.78925",
    "final_y": "523565.468667",
    "longitude": "-90.11550379053458",
    "latitude": "29.934068366285565",
    "geocoded_column": {
      "latitude": "29.934068366285565",
      "longitude": "-90.11550379053458"
    }
  },
  {
    "service_request": "2023-1007610",
    "request_type": "Trash/Recycling",
    "request_reason": "Replace Trash Cart",
    "date_created": "2023-06-10T19:31:10.000",
    "date_modified": "2023-06-10T19:31:11.000",
    "request_status": "Pending",
    "responsible_agency": "Department of Sanitation",
    "final_address": "1524 Euterpe St",
    "address_councildis": "B",
    "status": "Assigned to Contractor",
    "contractor": "Richards Disposal",
    "rowid": "1007610",
    "final_x": "3679110.07138",
    "final_y": "524831.1879",
    "longitude": "-90.075848643482",
    "latitude": "29.937176028726743",
    "geocoded_column": {
      "latitude": "29.937176028726743",
      "longitude": "-90.075848643482"
    }
  },
  {
    "service_request": "2023-1007609",
    "request_type": "Trash/Recycling",
    "request_reason": "Order Recycling Cart",
    "date_created": "2023-06-10T17:54:56.000",
    "date_modified": "2023-06-10T17:54:56.000",
    "request_status": "Pending",
    "responsible_agency": "Department of Sanitation",
    "final_address": "744 Toledano St",
    "address_councildis": "B",
    "status": "Pending",
    "rowid": "1007609",
    "final_x": "3675852.53358",
    "final_y": "518652.652855",
    "longitude": "-90.08634517637178",
    "latitude": "29.92028495898319",
    "geocoded_column": {
      "latitude": "29.92028495898319",
      "longitude": "-90.08634517637178"
    }
  },
  {
    "service_request": "2023-1007608",
    "request_type": "Trash/Recycling",
    "request_reason": "Request a Large Item Pick Up",
    "date_created": "2023-06-10T17:44:25.000",
    "date_modified": "2023-06-10T17:44:26.000",
    "request_status": "Pending",
    "responsible_agency": "Department of Sanitation",
    "final_address": "1412 St Roch Ave",
    "address_councildis": "C",
    "status": "Assigned to Contractor",
    "contractor": "IV Waste",
    "rowid": "1007608",
    "final_x": "3686304.09122",
    "final_y": "537645.991688",
    "longitude": "-90.05268457010129",
    "latitude": "29.97219330021748",
    "geocoded_column": {
      "latitude": "29.97219330021748",
      "longitude": "-90.05268457010129"
    }
  },
  {
    "service_request": "2023-1007607",
    "request_type": "Abandoned Vehicles",
    "request_reason": "Abandoned/Junk Vehicles",
    "date_created": "2023-06-10T17:33:36.000",
    "date_modified": "2023-06-10T17:33:36.000",
    "request_status": "Pending",
    "responsible_agency": "Department of Public Works",
    "final_address": "2600 Elder St",
    "address_councildis": "D",
    "status": "Pending",
    "rowid": "1007607",
    "final_x": "3687338.37129",
    "final_y": "545746.761936",
    "longitude": "-90.04913141957793",
    "latitude": "29.994435717073912",
    "geocoded_column": {
      "latitude": "29.994435717073912",
      "longitude": "-90.04913141957793"
    }
  },
  {
    "service_request": "2023-1007606",
    "request_type": "Trash/Recycling",
    "request_reason": "Order Recycling Cart",
    "date_created": "2023-06-10T17:22:31.000",
    "date_modified": "2023-06-10T17:22:31.000",
    "request_status": "Pending",
    "responsible_agency": "Department of Sanitation",
    "final_address": "2528 Cadiz St",
    "address_councildis": "B",
    "status": "Pending",
    "rowid": "1007606",
    "final_x": "3669716.9307",
    "final_y": "524210.785596",
    "longitude": "-90.10552442762126",
    "latitude": "29.935750225984933",
    "geocoded_column": {
      "latitude": "29.935750225984933",
      "longitude": "-90.10552442762126"
    }
  },
  {
    "service_request": "2023-1007605",
    "request_type": "Trash/Recycling",
    "request_reason": "Dead Animal Pick Up",
    "date_created": "2023-06-10T17:21:31.000",
    "date_modified": "2023-06-10T17:21:32.000",
    "request_status": "Pending",
    "responsible_agency": "Department of Sanitation",
    "final_address": "DELACHAISE ST & S CLAIBORNE AVE",
    "address_councildis": "B",
    "status": "Assigned to Contractor",
    "contractor": "Richards Disposal",
    "rowid": "1007605",
    "final_x": "3671882.1",
    "final_y": "526083.18",
    "longitude": "-90.09862524380412",
    "latitude": "29.94083473119513",
    "geocoded_column": {
      "latitude": "29.94083473119513",
      "longitude": "-90.09862524380412"
    }
  },
  {
    "service_request": "2023-1007604",
    "request_type": "Trash/Recycling",
    "request_reason": "Request a Large Item Pick Up",
    "date_created": "2023-06-10T16:17:37.000",
    "date_modified": "2023-06-10T16:17:38.000",
    "request_status": "Pending",
    "responsible_agency": "Department of Sanitation",
    "final_address": "140 S Pierce St",
    "address_councildis": "A",
    "status": "Assigned to Contractor",
    "contractor": "Richards Disposal",
    "rowid": "1007604",
    "final_x": "3671306.99726",
    "final_y": "537708.210632",
    "longitude": "-90.1000459156391",
    "latitude": "29.972816742446327",
    "geocoded_column": {
      "latitude": "29.972816742446327",
      "longitude": "-90.1000459156391"
    }
  },
  {
    "service_request": "2023-1007603",
    "request_type": "Traffic Signals/Signs/Striping/Streetlights",
    "request_reason": "Traffic Signal Malfunctioning/Damaged",
    "date_created": "2023-06-10T15:38:40.000",
    "date_modified": "2023-06-10T15:38:41.000",
    "request_status": "Pending",
    "responsible_agency": "Department of Public Works",
    "final_address": "POYDRAS ST & CAMP ST",
    "address_councildis": "B",
    "status": "Pending",
    "rowid": "1007603",
    "final_x": "3681111.4",
    "final_y": "529242.58",
    "longitude": "-90.0693767053642",
    "latitude": "29.94924533968395",
    "geocoded_column": {
      "latitude": "29.94924533968395",
      "longitude": "-90.0693767053642"
    }
  },
  {
    "service_request": "2023-1007602",
    "request_type": "Trash/Recycling",
    "request_reason": "Request a Large Item Pick Up",
    "date_created": "2023-06-10T15:24:39.000",
    "date_modified": "2023-06-10T15:24:40.000",
    "request_status": "Pending",
    "responsible_agency": "Department of Sanitation",
    "final_address": "7929 Freret St",
    "address_councildis": "A",
    "status": "Assigned to Contractor",
    "contractor": "Richards Disposal",
    "rowid": "1007602",
    "final_x": "3661926.85114",
    "final_y": "527522.518655",
    "longitude": "-90.13000815603785",
    "latitude": "29.9450836666227",
    "geocoded_column": {
      "latitude": "29.9450836666227",
      "longitude": "-90.13000815603785"
    }
  },
  {
    "service_request": "2023-1007601",
    "request_type": "Roads/Drainage",
    "request_reason": "Street Flooding / Drainage",
    "date_created": "2023-06-10T15:22:34.000",
    "date_modified": "2023-06-10T15:22:34.000",
    "request_status": "Pending",
    "responsible_agency": "Department of Public Works",
    "final_address": "11306 Curran Rd",
    "address_councildis": "E",
    "status": "Pending",
    "rowid": "1007601",
    "final_x": "3711306.68632",
    "final_y": "566558.198307",
    "longitude": "-89.97263866145565",
    "latitude": "30.05089860076794",
    "geocoded_column": {
      "latitude": "30.05089860076794",
      "longitude": "-89.97263866145565"
    }
  },
  {
    "service_request": "2023-1007600",
    "request_type": "Traffic Signals/Signs/Striping/Streetlights",
    "request_reason": "Traffic Sign Missing/Damaged",
    "date_created": "2023-06-10T15:06:16.000",
    "date_modified": "2023-06-10T15:06:57.000",
    "request_status": "Pending",
    "responsible_agency": "Department of Public Works",
    "final_address": "1100 BLK Pleasant St",
    "address_councildis": "B",
    "status": "Pending",
    "rowid": "1007600",
    "final_x": "3675466.43414",
    "final_y": "520035.205452",
    "longitude": "-90.08751646236611",
    "latitude": "29.92409808174568",
    "geocoded_column": {
      "latitude": "29.92409808174568",
      "longitude": "-90.08751646236611"
    }
  },
  {
    "service_request": "2023-1007599",
    "request_type": "Health Related Request",
    "request_reason": "Noise Ordinance Complaint",
    "date_created": "2023-06-10T14:52:13.000",
    "date_modified": "2023-06-10T14:52:13.000",
    "request_status": "Pending",
    "responsible_agency": "Health Department",
    "final_address": "8420 Willow St",
    "address_councildis": "A",
    "status": "Pending",
    "rowid": "1007599",
    "final_x": "3661494.10554",
    "final_y": "529701.955329",
    "longitude": "-90.13130228926681",
    "latitude": "29.951088909112112",
    "geocoded_column": {
      "latitude": "29.951088909112112",
      "longitude": "-90.13130228926681"
    }
  },
  {
    "service_request": "2023-1007598",
    "request_type": "Trash/Recycling",
    "request_reason": "Request a Large Item Pick Up",
    "date_created": "2023-06-10T14:46:47.000",
    "date_modified": "2023-06-10T14:46:48.000",
    "request_status": "Pending",
    "responsible_agency": "Department of Sanitation",
    "final_address": "20 Fontainebleau Dr",
    "address_councildis": "A",
    "status": "Assigned to Contractor",
    "contractor": "Richards Disposal",
    "rowid": "1007598",
    "final_x": "3665772.952",
    "final_y": "531642.683075",
    "longitude": "-90.11772676601629",
    "latitude": "29.956301161428733",
    "geocoded_column": {
      "latitude": "29.956301161428733",
      "longitude": "-90.11772676601629"
    }
  },
  {
    "service_request": "2023-1007597",
    "request_type": "Roads/Drainage",
    "request_reason": "Street Subsidence (Sinking)",
    "date_created": "2023-06-10T14:42:55.000",
    "date_modified": "2023-06-10T14:42:56.000",
    "request_status": "Pending",
    "responsible_agency": "Department of Public Works",
    "final_address": "ST PHILIP ST & N RAMPART ST",
    "address_councildis": "C",
    "status": "Pending",
    "rowid": "1007597",
    "final_x": "3682035.2",
    "final_y": "534261.38",
    "longitude": "-90.06628463453893",
    "latitude": "29.963017282250515",
    "geocoded_column": {
      "latitude": "29.963017282250515",
      "longitude": "-90.06628463453893"
    }
  },
  {
    "service_request": "2023-1007596",
    "request_type": "Property Maintenance",
    "request_reason": "Property Maintenance",
    "date_created": "2023-06-10T14:28:16.000",
    "date_modified": "2023-06-10T14:31:09.000",
    "request_status": "Pending",
    "responsible_agency": "Department of Code Enforcement",
    "final_address": "1708 France St",
    "address_councildis": "D",
    "status": "Pending",
    "rowid": "1007596",
    "final_x": "3692933.74608",
    "final_y": "537504.946312",
    "longitude": "-90.03175215239331",
    "latitude": "29.971600070768535",
    "geocoded_column": {
      "latitude": "29.971600070768535",
      "longitude": "-90.03175215239331"
    }
  },
  {
    "service_request": "2023-1007595",
    "request_type": "Abandoned Vehicles",
    "request_reason": "Abandoned/Junk Vehicles",
    "date_created": "2023-06-10T14:21:46.000",
    "date_modified": "2023-06-10T14:21:46.000",
    "request_status": "Pending",
    "responsible_agency": "Department of Public Works",
    "final_address": "1708 S Rampart St",
    "address_councildis": "B",
    "status": "Pending",
    "rowid": "1007595",
    "final_x": "3677410.83637",
    "final_y": "525823.498557",
    "longitude": "-90.08117899932776",
    "latitude": "29.93995572268441",
    "geocoded_column": {
      "latitude": "29.93995572268441",
      "longitude": "-90.08117899932776"
    }
  },
  {
    "service_request": "2023-1007594",
    "request_type": "Trash/Recycling",
    "request_reason": "Replace Trash Cart",
    "date_created": "2023-06-10T14:16:42.000",
    "date_modified": "2023-06-10T14:16:42.000",
    "request_status": "Pending",
    "responsible_agency": "Department of Sanitation",
    "final_address": "2026 Lawrence St",
    "address_councildis": "C",
    "status": "Assigned to Contractor",
    "contractor": "Richards Disposal",
    "rowid": "1007594",
    "final_x": "3691571.43753",
    "final_y": "525581.251197",
    "longitude": "-90.03648070646157",
    "latitude": "29.93885653314301",
    "geocoded_column": {
      "latitude": "29.93885653314301",
      "longitude": "-90.03648070646157"
    }
  },
  {
    "service_request": "2023-1007593",
    "request_type": "Trash/Recycling",
    "request_reason": "Request a Large Item Pick Up",
    "date_created": "2023-06-10T14:13:21.000",
    "date_modified": "2023-06-10T14:13:21.000",
    "request_status": "Pending",
    "responsible_agency": "Department of Sanitation",
    "final_address": "7101 Edgefield Dr",
    "address_councildis": "E",
    "status": "Assigned to Contractor",
    "contractor": "Waste Pro",
    "rowid": "1007593",
    "final_x": "3718555.95257",
    "final_y": "569568.310566",
    "longitude": "-89.9496115815747",
    "latitude": "30.058936468974547",
    "geocoded_column": {
      "latitude": "30.058936468974547",
      "longitude": "-89.9496115815747"
    }
  },
  {
    "service_request": "2023-1007592",
    "request_type": "Trash/Recycling",
    "request_reason": "Request a Large Item Pick Up",
    "date_created": "2023-06-10T13:57:53.000",
    "date_modified": "2023-06-10T13:57:54.000",
    "request_status": "Pending",
    "responsible_agency": "Department of Sanitation",
    "final_address": "11200 Morrison Rd",
    "address_councildis": "E",
    "status": "Assigned to Contractor",
    "contractor": "Waste Pro",
    "rowid": "1007592",
    "final_x": "3711852.75493",
    "final_y": "565315.630818",
    "longitude": "-89.97095943603192",
    "latitude": "30.047464202046733",
    "geocoded_column": {
      "latitude": "30.047464202046733",
      "longitude": "-89.97095943603192"
    }
  },
  {
    "service_request": "2023-1007591",
    "request_type": "Trash/Recycling",
    "request_reason": "MIssed Recycling Pick-Up",
    "date_created": "2023-06-10T13:53:26.000",
    "date_modified": "2023-06-10T13:53:27.000",
    "request_status": "Pending",
    "responsible_agency": "Department of Sanitation",
    "final_address": "840 Jourdan Ave",
    "address_councildis": "E",
    "status": "Assigned to Contractor",
    "contractor": "Waste Pro",
    "rowid": "1007591",
    "final_x": "3694733.04618",
    "final_y": "533699.950085",
    "longitude": "-90.02620680251991",
    "latitude": "29.961081358494116",
    "geocoded_column": {
      "latitude": "29.961081358494116",
      "longitude": "-90.02620680251991"
    }
  },
  {
    "service_request": "2023-1007590",
    "request_type": "Health Related Request",
    "request_reason": "Noise Ordinance Complaint",
    "date_created": "2023-06-10T13:53:20.000",
    "date_modified": "2023-06-10T13:53:20.000",
    "request_status": "Pending",
    "responsible_agency": "Health Department",
    "final_address": "1323 Joliet St",
    "address_councildis": "A",
    "status": "Pending",
    "rowid": "1007590",
    "final_x": "3661311.42669",
    "final_y": "529719.746433",
    "longitude": "-90.13187851185404",
    "latitude": "29.951143097062907",
    "geocoded_column": {
      "latitude": "29.951143097062907",
      "longitude": "-90.13187851185404"
    }
  },
  {
    "service_request": "2023-1007589",
    "request_type": "Trash/Recycling",
    "request_reason": "Missed Trash Pick-Up",
    "date_created": "2023-06-10T13:48:07.000",
    "date_modified": "2023-06-10T13:48:07.000",
    "request_status": "Pending",
    "responsible_agency": "Department of Sanitation",
    "final_address": "8313 Nelson St",
    "address_councildis": "A",
    "status": "Assigned to Contractor",
    "contractor": "Richards Disposal",
    "rowid": "1007589",
    "final_x": "3664519.27258",
    "final_y": "532443.477059",
    "longitude": "-90.12165874412605",
    "latitude": "29.958539595219683",
    "geocoded_column": {
      "latitude": "29.958539595219683",
      "longitude": "-90.12165874412605"
    }
  },
  {
    "service_request": "2023-1007588",
    "request_type": "Trash/Recycling",
    "request_reason": "Request a Large Item Pick Up",
    "date_created": "2023-06-10T13:10:33.000",
    "date_modified": "2023-06-10T13:10:34.000",
    "request_status": "Pending",
    "responsible_agency": "Department of Sanitation",
    "final_address": "4959 St Roch Ave",
    "address_councildis": "D",
    "status": "Assigned to Contractor",
    "contractor": "IV Waste",
    "rowid": "1007588",
    "final_x": "3685327.21756",
    "final_y": "551267.170325",
    "longitude": "-90.05528988359264",
    "latitude": "30.009676670616184",
    "geocoded_column": {
      "latitude": "30.009676670616184",
      "longitude": "-90.05528988359264"
    }
  },
  {
    "service_request": "2023-1007587",
    "request_type": "Trash/Recycling",
    "request_reason": "Replace Trash Cart",
    "date_created": "2023-06-10T13:09:57.000",
    "date_modified": "2023-06-10T13:09:58.000",
    "request_status": "Pending",
    "responsible_agency": "Department of Sanitation",
    "final_address": "5601 Abbey Dr",
    "address_councildis": "C",
    "status": "Assigned to Contractor",
    "contractor": "Richards Disposal",
    "rowid": "1007587",
    "final_x": "3704274.44119",
    "final_y": "521193.142777",
    "longitude": "-89.99653781871095",
    "latitude": "29.92638933511265",
    "geocoded_column": {
      "latitude": "29.92638933511265",
      "longitude": "-89.99653781871095"
    }
  },
  {
    "service_request": "2023-1007586",
    "request_type": "Roads/Drainage",
    "request_reason": "Street Flooding / Drainage",
    "date_created": "2023-06-10T13:06:01.000",
    "date_modified": "2023-06-10T13:06:01.000",
    "request_status": "Pending",
    "responsible_agency": "Department of Public Works",
    "final_address": "619 France St",
    "address_councildis": "C",
    "status": "Pending",
    "rowid": "1007586",
    "final_x": "3691998.15101",
    "final_y": "533471.067268",
    "longitude": "-90.03485125658023",
    "latitude": "29.960537512724287",
    "geocoded_column": {
      "latitude": "29.960537512724287",
      "longitude": "-90.03485125658023"
    }
  },
  {
    "service_request": "2023-1007585",
    "request_type": "Trash/Recycling",
    "request_reason": "Request a Large Item Pick Up",
    "date_created": "2023-06-10T13:00:57.000",
    "date_modified": "2023-06-10T13:00:57.000",
    "request_status": "Pending",
    "responsible_agency": "Department of Sanitation",
    "final_address": "2933 Elmwood Park Dr",
    "address_councildis": "C",
    "status": "Assigned to Contractor",
    "contractor": "Richards Disposal",
    "rowid": "1007585",
    "final_x": "3693437.84784",
    "final_y": "519608.648312",
    "longitude": "-90.03080260975871",
    "latitude": "29.922375689986517",
    "geocoded_column": {
      "latitude": "29.922375689986517",
      "longitude": "-90.03080260975871"
    }
  },
  {
    "service_request": "2023-1007584",
    "request_type": "Trash/Recycling",
    "request_reason": "Illegal Dumping",
    "date_created": "2023-06-10T12:59:58.000",
    "date_modified": "2023-06-10T12:59:58.000",
    "request_status": "Pending",
    "responsible_agency": "Department of Sanitation",
    "final_address": "898 Baronne St",
    "address_councildis": "B",
    "status": "Pending",
    "rowid": "1007584",
    "final_x": "3679513.39362",
    "final_y": "527697.883967",
    "longitude": "-90.07447590108141",
    "latitude": "29.945046314433363",
    "geocoded_column": {
      "latitude": "29.945046314433363",
      "longitude": "-90.07447590108141"
    }
  },
  {
    "service_request": "2023-1007583",
    "request_type": "Trash/Recycling",
    "request_reason": "Replace Recycling Cart",
    "date_created": "2023-06-10T12:49:31.000",
    "date_modified": "2023-06-10T12:49:31.000",
    "request_status": "Pending",
    "responsible_agency": "Department of Sanitation",
    "final_address": "574 Walnut St",
    "address_councildis": "A",
    "status": "Pending",
    "rowid": "1007583",
    "final_x": "3663149.51603",
    "final_y": "524078.16326",
    "longitude": "-90.12626236535993",
    "latitude": "29.935577423330315",
    "geocoded_column": {
      "latitude": "29.935577423330315",
      "longitude": "-90.12626236535993"
    }
  },
  {
    "service_request": "2023-1007582",
    "request_type": "Trash/Recycling",
    "request_reason": "Request a Large Item Pick Up",
    "date_created": "2023-06-10T12:44:12.000",
    "date_modified": "2023-06-10T12:44:12.000",
    "request_status": "Pending",
    "responsible_agency": "Department of Sanitation",
    "final_address": "2624 Short St",
    "address_councildis": "A",
    "status": "Assigned to Contractor",
    "contractor": "Richards Disposal",
    "rowid": "1007582",
    "final_x": "3665773.40596",
    "final_y": "531999.958851",
    "longitude": "-90.11771336394101",
    "latitude": "29.957283539856437",
    "geocoded_column": {
      "latitude": "29.957283539856437",
      "longitude": "-90.11771336394101"
    }
  },
  {
    "service_request": "2023-1007581",
    "request_type": "Trash/Recycling",
    "request_reason": "Replace Trash Cart",
    "date_created": "2023-06-10T12:41:49.000",
    "date_modified": "2023-06-10T12:41:49.000",
    "request_status": "Pending",
    "responsible_agency": "Department of Sanitation",
    "final_address": "1707 Second St",
    "address_councildis": "B",
    "status": "Assigned to Contractor",
    "contractor": "Richards Disposal",
    "rowid": "1007581",
    "final_x": "3676472.56641",
    "final_y": "523445.595643",
    "longitude": "-90.08422309921652",
    "latitude": "29.933445428973386",
    "geocoded_column": {
      "latitude": "29.933445428973386",
      "longitude": "-90.08422309921652"
    }
  },
  {
    "service_request": "2023-1007580",
    "request_type": "Traffic Signals/Signs/Striping/Streetlights",
    "request_reason": "Street Light Outage/Malfunction",
    "date_created": "2023-06-10T12:25:01.000",
    "date_modified": "2023-06-10T12:25:02.000",
    "request_status": "Pending",
    "responsible_agency": "Department of Public Works",
    "final_address": "330 Newton St",
    "address_councildis": "C",
    "status": "Assigned to Contractor",
    "contractor": "Legacy Professional Services",
    "rowid": "1007580",
    "final_x": "3686453.95266",
    "final_y": "527970.608319",
    "longitude": "-90.05255283301311",
    "latitude": "29.94558472359371",
    "geocoded_column": {
      "latitude": "29.94558472359371",
      "longitude": "-90.05255283301311"
    }
  },
  {
    "service_request": "2023-1007579",
    "request_type": "Abandoned Vehicles",
    "request_reason": "Abandoned/Junk Vehicles",
    "date_created": "2023-06-10T12:06:02.000",
    "date_modified": "2023-06-10T12:06:02.000",
    "request_status": "Pending",
    "responsible_agency": "Department of Public Works",
    "final_address": "601 Seguin St",
    "address_councildis": "C",
    "status": "Pending",
    "rowid": "1007579",
    "final_x": "3686638.85916",
    "final_y": "529608.322177",
    "longitude": "-90.0519111979024",
    "latitude": "29.95008219471011",
    "geocoded_column": {
      "latitude": "29.95008219471011",
      "longitude": "-90.0519111979024"
    }
  },
  {
    "service_request": "2023-1007578",
    "request_type": "Property Maintenance",
    "request_reason": "Property Maintenance",
    "date_created": "2023-06-10T12:03:38.000",
    "date_modified": "2023-06-10T12:03:38.000",
    "request_status": "Pending",
    "responsible_agency": "Department of Code Enforcement",
    "final_address": "701 Rosedale Dr",
    "address_councildis": "A",
    "status": "Pending",
    "rowid": "1007578",
    "final_x": "3668389.73684",
    "final_y": "542065.934028",
    "longitude": "-90.10911216284177",
    "latitude": "29.984885025055412",
    "geocoded_column": {
      "latitude": "29.984885025055412",
      "longitude": "-90.10911216284177"
    }
  },
  {
    "service_request": "2023-1007577",
    "request_type": "Property Maintenance",
    "request_reason": "Property Maintenance",
    "date_created": "2023-06-10T11:54:55.000",
    "date_modified": "2023-06-10T11:54:55.000",
    "request_status": "Pending",
    "responsible_agency": "Department of Code Enforcement",
    "final_address": "5201 Canal Blvd",
    "address_councildis": "A",
    "status": "Pending",
    "rowid": "1007577",
    "final_x": "3668099.38842",
    "final_y": "542064.352268",
    "longitude": "-90.1100293050557",
    "latitude": "29.98488920224858",
    "geocoded_column": {
      "latitude": "29.98488920224858",
      "longitude": "-90.1100293050557"
    }
  },
  {
    "service_request": "2023-1007576",
    "request_type": "Trash/Recycling",
    "request_reason": "Request a Large Item Pick Up",
    "date_created": "2023-06-10T11:52:37.000",
    "date_modified": "2023-06-10T11:52:38.000",
    "request_status": "Pending",
    "responsible_agency": "Department of Sanitation",
    "final_address": "7090 Pinebrook Dr",
    "address_councildis": "E",
    "status": "Assigned to Contractor",
    "contractor": "Waste Pro",
    "rowid": "1007576",
    "final_x": "3719343.8894",
    "final_y": "569943.523878",
    "longitude": "-89.94710666277481",
    "latitude": "30.05994196274105",
    "geocoded_column": {
      "latitude": "30.05994196274105",
      "longitude": "-89.94710666277481"
    }
  },
  {
    "service_request": "2023-1007575",
    "request_type": "Trash/Recycling",
    "request_reason": "Illegal Dumping",
    "date_created": "2023-06-10T11:47:07.000",
    "date_modified": "2023-06-10T11:47:07.000",
    "request_status": "Pending",
    "responsible_agency": "Department of Sanitation",
    "final_address": "6300 BLK Milne Blvd",
    "address_councildis": "A",
    "status": "Pending",
    "rowid": "1007575",
    "final_x": "3667217.47688",
    "final_y": "549659.926714",
    "longitude": "-90.11255929331922",
    "latitude": "30.00580028386808",
    "geocoded_column": {
      "latitude": "30.00580028386808",
      "longitude": "-90.11255929331922"
    }
  },
  {
    "service_request": "2023-1007573",
    "request_type": "Roads/Drainage",
    "request_reason": "Debris in Roadway",
    "date_created": "2023-06-10T11:39:22.000",
    "date_modified": "2023-06-10T11:39:23.000",
    "request_status": "Pending",
    "responsible_agency": "Department of Public Works",
    "final_address": "2638 Lapeyrouse St",
    "address_councildis": "D",
    "status": "Pending",
    "rowid": "1007573",
    "final_x": "3678799.96034",
    "final_y": "540326.247435",
    "longitude": "-90.07629101954583",
    "latitude": "29.979791558650504",
    "geocoded_column": {
      "latitude": "29.979791558650504",
      "longitude": "-90.07629101954583"
    }
  },
  {
    "service_request": "2023-1007572",
    "request_type": "Traffic Signals/Signs/Striping/Streetlights",
    "request_reason": "Street Light Outage/Malfunction",
    "date_created": "2023-06-10T11:35:12.000",
    "date_modified": "2023-06-10T11:38:10.000",
    "request_status": "Pending",
    "responsible_agency": "Department of Public Works",
    "final_address": "666 Gravier St",
    "address_councildis": "B",
    "status": "Assigned to Contractor",
    "contractor": "Legacy Professional Services",
    "rowid": "1007572",
    "final_x": "3680936.55682",
    "final_y": "530012.706433",
    "longitude": "-90.0699019505673",
    "latitude": "29.951368230146713",
    "geocoded_column": {
      "latitude": "29.951368230146713",
      "longitude": "-90.0699019505673"
    }
  },
  {
    "service_request": "2023-1007571",
    "request_type": "Trash/Recycling",
    "request_reason": "Request a Large Item Pick Up",
    "date_created": "2023-06-10T11:28:54.000",
    "date_modified": "2023-06-10T11:28:54.000",
    "request_status": "Pending",
    "responsible_agency": "Department of Sanitation",
    "final_address": "2010 Palmer Ave",
    "address_councildis": "A",
    "status": "Assigned to Contractor",
    "contractor": "Richards Disposal",
    "rowid": "1007571",
    "final_x": "3665783.60954",
    "final_y": "524427.199292",
    "longitude": "-90.11793478513788",
    "latitude": "29.93646059890064",
    "geocoded_column": {
      "latitude": "29.93646059890064",
      "longitude": "-90.11793478513788"
    }
  },
  {
    "service_request": "2023-1007570",
    "request_type": "Trash/Recycling",
    "request_reason": "Request a Large Item Pick Up",
    "date_created": "2023-06-10T11:24:57.000",
    "date_modified": "2023-06-10T11:24:58.000",
    "request_status": "Pending",
    "responsible_agency": "Department of Sanitation",
    "final_address": "7709 St Charles Ave",
    "address_councildis": "A",
    "status": "Assigned to Contractor",
    "contractor": "Richards Disposal",
    "rowid": "1007570",
    "final_x": "3661640.03782",
    "final_y": "525947.954045",
    "longitude": "-90.13096588593692",
    "latitude": "29.94076239381536",
    "geocoded_column": {
      "latitude": "29.94076239381536",
      "longitude": "-90.13096588593692"
    }
  },
  {
    "service_request": "2023-1007569",
    "request_type": "Trash/Recycling",
    "request_reason": "Request a Large Item Pick Up",
    "date_created": "2023-06-10T11:24:14.000",
    "date_modified": "2023-06-10T11:24:14.000",
    "request_status": "Pending",
    "responsible_agency": "Department of Sanitation",
    "final_address": "2010 Palmer Ave",
    "address_councildis": "A",
    "status": "Assigned to Contractor",
    "contractor": "Richards Disposal",
    "rowid": "1007569",
    "final_x": "3665783.60954",
    "final_y": "524427.199292",
    "longitude": "-90.11793478513788",
    "latitude": "29.93646059890064",
    "geocoded_column": {
      "latitude": "29.93646059890064",
      "longitude": "-90.11793478513788"
    }
  },
  {
    "service_request": "2023-1007568",
    "request_type": "Property Maintenance",
    "request_reason": "Property Maintenance",
    "date_created": "2023-06-10T11:06:17.000",
    "date_modified": "2023-06-10T11:06:17.000",
    "request_status": "Pending",
    "responsible_agency": "Department of Code Enforcement",
    "final_address": "418 Evelina St",
    "address_councildis": "C",
    "status": "Pending",
    "rowid": "1007568",
    "final_x": "3686968.48662",
    "final_y": "529488.894273",
    "longitude": "-90.05087463250685",
    "latitude": "29.94974366854969",
    "geocoded_column": {
      "latitude": "29.94974366854969",
      "longitude": "-90.05087463250685"
    }
  },
  {
    "service_request": "2023-1007567",
    "request_type": "Trash/Recycling",
    "request_reason": "Request a Large Item Pick Up",
    "date_created": "2023-06-10T11:03:03.000",
    "date_modified": "2023-06-10T11:03:03.000",
    "request_status": "Pending",
    "responsible_agency": "Department of Sanitation",
    "final_address": "4227 Marais St",
    "address_councildis": "D",
    "status": "Assigned to Contractor",
    "contractor": "IV Waste",
    "rowid": "1007567",
    "final_x": "3692702.19465",
    "final_y": "535486.90535",
    "longitude": "-90.03255577380642",
    "latitude": "29.966058402258863",
    "geocoded_column": {
      "latitude": "29.966058402258863",
      "longitude": "-90.03255577380642"
    }
  },
  {
    "service_request": "2023-1007566",
    "request_type": "Trash/Recycling",
    "request_reason": "Request a Large Item Pick Up",
    "date_created": "2023-06-10T10:56:54.000",
    "date_modified": "2023-06-10T10:56:55.000",
    "request_status": "Pending",
    "responsible_agency": "Department of Sanitation",
    "final_address": "3300 BLK Saint Anthony Ave",
    "address_councildis": "D",
    "status": "Assigned to Contractor",
    "contractor": "IV Waste",
    "rowid": "1007566",
    "final_x": "3682782.41655",
    "final_y": "544834.604344",
    "longitude": "-90.06355501459039",
    "latitude": "29.99206722045152",
    "geocoded_column": {
      "latitude": "29.99206722045152",
      "longitude": "-90.06355501459039"
    }
  },
  {
    "service_request": "2023-1007565",
    "request_type": "Traffic Signals/Signs/Striping/Streetlights",
    "request_reason": "Street Name Sign Damaged or Missing",
    "date_created": "2023-06-10T10:44:30.000",
    "date_modified": "2023-06-10T10:44:31.000",
    "request_status": "Pending",
    "responsible_agency": "Department of Public Works",
    "final_address": "ST JAMES ST & ST THOMAS ST",
    "address_councildis": "B",
    "status": "Pending",
    "rowid": "1007565",
    "final_x": "3681352.0",
    "final_y": "522034.68",
    "longitude": "-90.06886817155333",
    "latitude": "29.92941871423925",
    "geocoded_column": {
      "latitude": "29.92941871423925",
      "longitude": "-90.06886817155333"
    }
  },
  {
    "service_request": "2023-1007564",
    "request_type": "Traffic Signals/Signs/Striping/Streetlights",
    "request_reason": "Traffic Sign Missing/Damaged",
    "date_created": "2023-06-10T10:43:09.000",
    "date_modified": "2023-06-10T10:43:10.000",
    "request_status": "Pending",
    "responsible_agency": "Department of Public Works",
    "final_address": "ST JAMES ST & ST THOMAS ST",
    "address_councildis": "B",
    "status": "Pending",
    "rowid": "1007564",
    "final_x": "3681352.0",
    "final_y": "522034.68",
    "longitude": "-90.06886817155333",
    "latitude": "29.92941871423925",
    "geocoded_column": {
      "latitude": "29.92941871423925",
      "longitude": "-90.06886817155333"
    }
  },
  {
    "service_request": "2023-1007563",
    "request_type": "Trash/Recycling",
    "request_reason": "Replace Trash Cart",
    "date_created": "2023-06-10T10:29:57.000",
    "date_modified": "2023-06-10T10:29:58.000",
    "request_status": "Pending",
    "responsible_agency": "Department of Sanitation",
    "final_address": "6033 Laurel St",
    "address_councildis": "A",
    "status": "Assigned to Contractor",
    "contractor": "Richards Disposal",
    "rowid": "1007563",
    "final_x": "3664165.76768",
    "final_y": "518349.288182",
    "longitude": "-90.12324503697523",
    "latitude": "29.91979534303215",
    "geocoded_column": {
      "latitude": "29.91979534303215",
      "longitude": "-90.12324503697523"
    }
  },
  {
    "service_request": "2023-1007562",
    "request_type": "Abandoned Vehicles",
    "request_reason": "Abandoned/Junk Vehicles",
    "date_created": "2023-06-10T10:28:23.000",
    "date_modified": "2023-06-10T10:28:23.000",
    "request_status": "Pending",
    "responsible_agency": "Department of Public Works",
    "final_address": "1121 Sumner St",
    "address_councildis": "C",
    "status": "Pending",
    "rowid": "1007562",
    "final_x": "3691041.79536",
    "final_y": "527235.782015",
    "longitude": "-90.03809379482863",
    "latitude": "29.943422399556457",
    "geocoded_column": {
      "latitude": "29.943422399556457",
      "longitude": "-90.03809379482863"
    }
  },
  {
    "service_request": "2023-1007561",
    "request_type": "Trash/Recycling",
    "request_reason": "Request a Large Item Pick Up",
    "date_created": "2023-06-10T10:23:00.000",
    "date_modified": "2023-06-10T10:23:01.000",
    "request_status": "Pending",
    "responsible_agency": "Department of Sanitation",
    "final_address": "5938 Baccich St",
    "address_councildis": "D",
    "status": "Assigned to Contractor",
    "contractor": "IV Waste",
    "rowid": "1007561",
    "final_x": "3687456.06319",
    "final_y": "555215.957337",
    "longitude": "-90.04842422364575",
    "latitude": "30.020468919082784",
    "geocoded_column": {
      "latitude": "30.020468919082784",
      "longitude": "-90.04842422364575"
    }
  },
  {
    "service_request": "2023-1007560",
    "request_type": "Property Maintenance",
    "request_reason": "Property Maintenance",
    "date_created": "2023-06-10T10:11:56.000",
    "date_modified": "2023-06-10T10:11:56.000",
    "request_status": "Pending",
    "responsible_agency": "Department of Code Enforcement",
    "final_address": "2360 Rousseau St",
    "address_councildis": "B",
    "status": "Pending",
    "rowid": "1007560",
    "final_x": "3679426.82946",
    "final_y": "519643.92332",
    "longitude": "-90.07502845778865",
    "latitude": "29.922903189666282",
    "geocoded_column": {
      "latitude": "29.922903189666282",
      "longitude": "-90.07502845778865"
    }
  },
  {
    "service_request": "2023-1007559",
    "request_type": "Trash/Recycling",
    "request_reason": "Request a Large Item Pick Up",
    "date_created": "2023-06-10T10:10:50.000",
    "date_modified": "2023-06-10T10:10:50.000",
    "request_status": "Pending",
    "responsible_agency": "Department of Sanitation",
    "final_address": "4650 Wilson Ave",
    "address_councildis": "E",
    "status": "Assigned to Contractor",
    "contractor": "Waste Pro",
    "rowid": "1007559",
    "final_x": "3702958.54321",
    "final_y": "554504.240856",
    "longitude": "-89.99946762240066",
    "latitude": "30.01802486507468",
    "geocoded_column": {
      "latitude": "30.01802486507468",
      "longitude": "-89.99946762240066"
    }
  },
  {
    "service_request": "2023-1007558",
    "request_type": "Roads/Drainage",
    "request_reason": "Pothole",
    "date_created": "2023-06-10T10:07:56.000",
    "date_modified": "2023-06-10T10:07:56.000",
    "request_status": "Pending",
    "responsible_agency": "Department of Public Works",
    "final_address": "I 10 W ONRAMP & S CLAIBORNE AV OVERPASS & POYDRAS EXIT",
    "address_councildis": "B",
    "status": "Pending",
    "rowid": "1007558",
    "final_x": "3676338.4",
    "final_y": "530009.38",
    "longitude": "-90.08442080059783",
    "latitude": "29.95149769161262",
    "geocoded_column": {
      "latitude": "29.95149769161262",
      "longitude": "-90.08442080059783"
    }
  },
  {
    "service_request": "2023-1007557",
    "request_type": "Roads/Drainage",
    "request_reason": "Pothole",
    "date_created": "2023-06-10T10:05:06.000",
    "date_modified": "2023-06-10T10:05:06.000",
    "request_status": "Pending",
    "responsible_agency": "Department of Public Works",
    "final_address": "1500 BLK Poydras St",
    "address_councildis": "B",
    "status": "Pending",
    "rowid": "1007557",
    "final_x": "3677756.93612",
    "final_y": "530316.428",
    "longitude": "-90.07993114665211",
    "latitude": "29.95229938102927",
    "geocoded_column": {
      "latitude": "29.95229938102927",
      "longitude": "-90.07993114665211"
    }
  },
  {
    "service_request": "2023-1007556",
    "request_type": "Traffic Signals/Signs/Striping/Streetlights",
    "request_reason": "Traffic Signal Malfunctioning/Damaged",
    "date_created": "2023-06-10T10:02:56.000",
    "date_modified": "2023-06-10T10:02:56.000",
    "request_status": "Pending",
    "responsible_agency": "Department of Public Works",
    "final_address": "COMMON ST & CAMP ST",
    "address_councildis": "B",
    "status": "Pending",
    "rowid": "1007556",
    "final_x": "3681332.9",
    "final_y": "530132.78",
    "longitude": "-90.06864630952465",
    "latitude": "29.95168636947479",
    "geocoded_column": {
      "latitude": "29.95168636947479",
      "longitude": "-90.06864630952465"
    }
  },
  {
    "service_request": "2023-1007555",
    "request_type": "Property Maintenance",
    "request_reason": "Property Maintenance",
    "date_created": "2023-06-10T09:58:07.000",
    "date_modified": "2023-06-10T09:58:08.000",
    "request_status": "Pending",
    "responsible_agency": "Department of Code Enforcement",
    "final_address": "2401 Magnolia St",
    "address_councildis": "B",
    "status": "Pending",
    "rowid": "1007555",
    "final_x": "3674726.14312",
    "final_y": "526516.920254",
    "longitude": "-90.08963122330282",
    "latitude": "29.94194280129223",
    "geocoded_column": {
      "latitude": "29.94194280129223",
      "longitude": "-90.08963122330282"
    }
  },
  {
    "service_request": "2023-1007554",
    "request_type": "Trash/Recycling",
    "request_reason": "Return Trash Cart",
    "date_created": "2023-06-10T09:50:05.000",
    "date_modified": "2023-06-10T09:50:06.000",
    "request_status": "Pending",
    "responsible_agency": "Department of Sanitation",
    "final_address": "926 Valence St",
    "address_councildis": "B",
    "status": "Assigned to Contractor",
    "contractor": "Richards Disposal",
    "rowid": "1007554",
    "final_x": "3669881.22183",
    "final_y": "518898.658295",
    "longitude": "-90.1051855078629",
    "latitude": "29.921138731228535",
    "geocoded_column": {
      "latitude": "29.921138731228535",
      "longitude": "-90.1051855078629"
    }
  },
  {
    "service_request": "2023-1007553",
    "request_type": "Roads/Drainage",
    "request_reason": "Street Subsidence (Sinking)",
    "date_created": "2023-06-10T09:48:13.000",
    "date_modified": "2023-06-10T09:48:14.000",
    "request_status": "Pending",
    "responsible_agency": "Department of Public Works",
    "final_address": "4931 Dreux Ave",
    "address_councildis": "D",
    "status": "Pending",
    "rowid": "1007553",
    "final_x": "3691561.66268",
    "final_y": "553345.354967",
    "longitude": "-90.03551876664223",
    "latitude": "30.015198231424765",
    "geocoded_column": {
      "latitude": "30.015198231424765",
      "longitude": "-90.03551876664223"
    }
  },
  {
    "service_request": "2023-1007552",
    "request_type": "Trash/Recycling",
    "request_reason": "Replace Trash Cart",
    "date_created": "2023-06-10T09:11:04.000",
    "date_modified": "2023-06-10T09:11:04.000",
    "request_status": "Pending",
    "responsible_agency": "Department of Sanitation",
    "final_address": "6154 Stratford Pl",
    "address_councildis": "C",
    "status": "Assigned to Contractor",
    "contractor": "Richards Disposal",
    "rowid": "1007552",
    "final_x": "3706803.59249",
    "final_y": "516237.138932",
    "longitude": "-89.98873765059044",
    "latitude": "29.91268067264525",
    "geocoded_column": {
      "latitude": "29.91268067264525",
      "longitude": "-89.98873765059044"
    }
  },
  {
    "service_request": "2023-1007551",
    "request_type": "Trash/Recycling",
    "request_reason": "Dead Animal Pick Up",
    "date_created": "2023-06-10T09:05:34.000",
    "date_modified": "2023-06-10T13:54:24.000",
    "case_close_date": "2023-06-10T08:54:24.000",
    "request_status": "Closed",
    "responsible_agency": "Department of Sanitation",
    "final_address": "6123 Baccich St",
    "address_councildis": "D",
    "status": "Assigned to Contractor",
    "contractor": "IV Waste",
    "contractor_action": "Invalid Pick-Up",
    "rowid": "1007551",
    "final_x": "3687484.18396",
    "final_y": "555847.616985",
    "longitude": "-90.0483129879734",
    "latitude": "30.022204881556583",
    "geocoded_column": {
      "latitude": "30.022204881556583",
      "longitude": "-90.0483129879734"
    }
  },
  {
    "service_request": "2023-1007550",
    "request_type": "Trash/Recycling",
    "request_reason": "Replace Trash Cart",
    "date_created": "2023-06-10T09:02:31.000",
    "date_modified": "2023-06-10T09:02:32.000",
    "request_status": "Pending",
    "responsible_agency": "Department of Sanitation",
    "final_address": "4613 Anson St",
    "address_councildis": "C",
    "status": "Assigned to Contractor",
    "contractor": "Richards Disposal",
    "rowid": "1007550",
    "final_x": "3702030.37169",
    "final_y": "521561.368761",
    "longitude": "-90.00360817649022",
    "latitude": "29.92747362590524",
    "geocoded_column": {
      "latitude": "29.92747362590524",
      "longitude": "-90.00360817649022"
    }
  },
  {
    "service_request": "2023-1007549",
    "request_type": "Roads/Drainage",
    "request_reason": "Leaking Hydrant",
    "date_created": "2023-06-10T08:56:37.000",
    "date_modified": "2023-06-10T08:56:37.000",
    "request_status": "Pending",
    "responsible_agency": "Department of Public Works",
    "final_address": "Gentilly in front of Boudreauxs Automotive and Maurepas, across from Stallings Park",
    "status": "Pending",
    "rowid": "1007549",
    "longitude": "0.0",
    "latitude": "0.0",
    "geocoded_column": {
      "latitude": "0.0",
      "longitude": "0.0"
    }
  },
  {
    "service_request": "2023-1007548",
    "request_type": "Trash/Recycling",
    "request_reason": "Missed Trash Pick-Up",
    "date_created": "2023-06-10T08:38:56.000",
    "date_modified": "2023-06-10T08:38:57.000",
    "request_status": "Pending",
    "responsible_agency": "Department of Sanitation",
    "final_address": "2608 Magnolia St",
    "address_councildis": "B",
    "status": "Assigned to Contractor",
    "contractor": "Richards Disposal",
    "rowid": "1007548",
    "final_x": "3674205.35803",
    "final_y": "526080.457854",
    "longitude": "-90.091290391251",
    "latitude": "29.940758205316882",
    "geocoded_column": {
      "latitude": "29.940758205316882",
      "longitude": "-90.091290391251"
    }
  },
  {
    "service_request": "2023-1007547",
    "request_type": "Trash/Recycling",
    "request_reason": "MIssed Recycling Pick-Up",
    "date_created": "2023-06-10T08:38:55.000",
    "date_modified": "2023-06-10T08:38:55.000",
    "request_status": "Pending",
    "responsible_agency": "Department of Sanitation",
    "final_address": "2831 Audubon St",
    "address_councildis": "B",
    "status": "Assigned to Contractor",
    "contractor": "Richards Disposal",
    "rowid": "1007547",
    "final_x": "3667694.17434",
    "final_y": "531295.870018",
    "longitude": "-90.11167184375363",
    "latitude": "29.955291355719048",
    "geocoded_column": {
      "latitude": "29.955291355719048",
      "longitude": "-90.11167184375363"
    }
  },
  {
    "service_request": "2023-1007546",
    "request_type": "Trash/Recycling",
    "request_reason": "Request a Large Item Pick Up",
    "date_created": "2023-06-10T08:21:48.000",
    "date_modified": "2023-06-10T08:21:49.000",
    "request_status": "Pending",
    "responsible_agency": "Department of Sanitation",
    "final_address": "1906 Pauline St",
    "address_councildis": "D",
    "status": "Assigned to Contractor",
    "contractor": "IV Waste",
    "rowid": "1007546",
    "final_x": "3691933.81744",
    "final_y": "538539.295433",
    "longitude": "-90.03487304698132",
    "latitude": "29.974475357571343",
    "geocoded_column": {
      "latitude": "29.974475357571343",
      "longitude": "-90.03487304698132"
    }
  },
  {
    "service_request": "2023-1007544",
    "request_type": "Abandoned Vehicles",
    "request_reason": "Abandoned/Junk Vehicles",
    "date_created": "2023-06-10T07:52:51.000",
    "date_modified": "2023-06-10T07:52:51.000",
    "request_status": "Pending",
    "responsible_agency": "Department of Public Works",
    "final_address": "107 Westpark Ct",
    "address_councildis": "C",
    "status": "Pending",
    "rowid": "1007544",
    "final_x": "3695767.61514",
    "final_y": "521919.259642",
    "longitude": "-90.02336513818146",
    "latitude": "29.928656058657772",
    "geocoded_column": {
      "latitude": "29.928656058657772",
      "longitude": "-90.02336513818146"
    }
  },
  {
    "service_request": "2023-1007543",
    "request_type": "Trash/Recycling",
    "request_reason": "Replace Trash Cart",
    "date_created": "2023-06-10T07:47:38.000",
    "date_modified": "2023-06-10T07:47:39.000",
    "request_status": "Pending",
    "responsible_agency": "Department of Sanitation",
    "final_address": "1635 N Galvez St, New Orleans, Louisiana, 70119",
    "address_councildis": "D",
    "status": "Assigned to Contractor",
    "contractor": "IV Waste",
    "rowid": "1007543",
    "final_x": "3680915.21128",
    "final_y": "539115.183306",
    "longitude": "-90.06965237980765",
    "latitude": "29.976397576937067",
    "geocoded_column": {
      "latitude": "29.976397576937067",
      "longitude": "-90.06965237980765"
    }
  },
  {
    "service_request": "2023-1007542",
    "request_type": "Abandoned Vehicles",
    "request_reason": "Abandoned/Junk Vehicles",
    "date_created": "2023-06-10T07:02:56.000",
    "date_modified": "2023-06-10T07:02:56.000",
    "request_status": "Pending",
    "responsible_agency": "Department of Public Works",
    "final_address": "2204 Octavia St",
    "address_councildis": "A",
    "status": "Pending",
    "rowid": "1007542",
    "final_x": "3667456.33172",
    "final_y": "523772.683899",
    "longitude": "-90.11267593212925",
    "latitude": "29.934611998580188",
    "geocoded_column": {
      "latitude": "29.934611998580188",
      "longitude": "-90.11267593212925"
    }
  },
  {
    "service_request": "2023-1007538",
    "request_type": "Traffic Signals/Signs/Striping/Streetlights",
    "request_reason": "Street Light Outage/Malfunction",
    "date_created": "2023-06-10T01:31:02.000",
    "date_modified": "2023-06-10T01:31:03.000",
    "request_status": "Pending",
    "responsible_agency": "Department of Public Works",
    "final_address": "755 Jewel St",
    "address_councildis": "D",
    "status": "Assigned to Contractor",
    "contractor": "Legacy Professional Services",
    "rowid": "1007538",
    "final_x": "3669855.89735",
    "final_y": "555970.782361",
    "longitude": "-90.10400998600407",
    "latitude": "30.023075350535507",
    "geocoded_column": {
      "latitude": "30.023075350535507",
      "longitude": "-90.10400998600407"
    }
  },
  {
    "service_request": "2023-1007537",
    "request_type": "Traffic Signals/Signs/Striping/Streetlights",
    "request_reason": "Street Light Outage/Malfunction",
    "date_created": "2023-06-10T01:11:21.000",
    "date_modified": "2023-06-10T01:11:22.000",
    "request_status": "Pending",
    "responsible_agency": "Department of Public Works",
    "final_address": "1155 N Rampart St",
    "address_councildis": "C",
    "status": "Assigned to Contractor",
    "contractor": "Legacy Professional Services",
    "rowid": "1007537",
    "final_x": "3682410.8166",
    "final_y": "534790.225542",
    "longitude": "-90.06507999990906",
    "latitude": "29.96446000003389",
    "geocoded_column": {
      "latitude": "29.96446000003389",
      "longitude": "-90.06507999990906"
    }
  },
  {
    "service_request": "2023-1007536",
    "request_type": "Property Maintenance",
    "request_reason": "Property Maintenance",
    "date_created": "2023-06-10T00:21:53.000",
    "date_modified": "2023-06-10T00:21:53.000",
    "request_status": "Pending",
    "responsible_agency": "Department of Code Enforcement",
    "final_address": "3232 General Meyer Ave",
    "address_councildis": "C",
    "status": "Pending",
    "rowid": "1007536",
    "final_x": "3696228.68381",
    "final_y": "526194.229374",
    "longitude": "-90.02175517706966",
    "latitude": "29.94039625392122",
    "geocoded_column": {
      "latitude": "29.94039625392122",
      "longitude": "-90.02175517706966"
    }
  },
  {
    "service_request": "2023-1007535",
    "request_type": "Mosquito, Termite & Rodent Control",
    "request_reason": "Mosquito Complaint",
    "date_created": "2023-06-10T00:16:04.000",
    "date_modified": "2023-06-10T00:16:04.000",
    "request_status": "Pending",
    "responsible_agency": "Mosquito, Termite & Rodent Control Board",
    "final_address": "3232 General Meyer Ave",
    "address_councildis": "C",
    "status": "Pending",
    "rowid": "1007535",
    "final_x": "3696228.68381",
    "final_y": "526194.229374",
    "longitude": "-90.02175517706966",
    "latitude": "29.94039625392122",
    "geocoded_column": {
      "latitude": "29.94039625392122",
      "longitude": "-90.02175517706966"
    }
  },
  {
    "service_request": "2023-1007534",
    "request_type": "Traffic Signals/Signs/Striping/Streetlights",
    "request_reason": "Street Light Outage/Malfunction",
    "date_created": "2023-06-09T22:31:45.000",
    "date_modified": "2023-06-09T22:31:46.000",
    "request_status": "Pending",
    "responsible_agency": "Department of Public Works",
    "final_address": "213 River Oaks Dr",
    "address_councildis": "C",
    "status": "Assigned to Contractor",
    "contractor": "Legacy Professional Services",
    "rowid": "1007534",
    "final_x": "3701536.04279",
    "final_y": "523051.275515",
    "longitude": "-90.00511412157888",
    "latitude": "29.931586117539354",
    "geocoded_column": {
      "latitude": "29.931586117539354",
      "longitude": "-90.00511412157888"
    }
  },
  {
    "service_request": "2023-1007532",
    "request_type": "Traffic Signals/Signs/Striping/Streetlights",
    "request_reason": "Street Light Outage/Malfunction",
    "date_created": "2023-06-09T21:54:03.000",
    "date_modified": "2023-06-09T21:54:03.000",
    "request_status": "Pending",
    "responsible_agency": "Department of Public Works",
    "final_address": "5565 Rosemary Pl",
    "address_councildis": "A",
    "status": "Assigned to Contractor",
    "contractor": "Legacy Professional Services",
    "rowid": "1007532",
    "final_x": "3667187.90017",
    "final_y": "544505.769999",
    "longitude": "-90.11282617600882",
    "latitude": "29.991628995767847",
    "geocoded_column": {
      "latitude": "29.991628995767847",
      "longitude": "-90.11282617600882"
    }
  },
  {
    "service_request": "2023-1007531",
    "request_type": "Traffic Signals/Signs/Striping/Streetlights",
    "request_reason": "Street Light Outage/Malfunction",
    "date_created": "2023-06-09T21:53:04.000",
    "date_modified": "2023-06-09T21:53:04.000",
    "request_status": "Pending",
    "responsible_agency": "Department of Public Works",
    "final_address": "5565 Rosemary Pl",
    "address_councildis": "A",
    "status": "Assigned to Contractor",
    "contractor": "Legacy Professional Services",
    "rowid": "1007531",
    "final_x": "3667187.90017",
    "final_y": "544505.769999",
    "longitude": "-90.11282617600882",
    "latitude": "29.991628995767847",
    "geocoded_column": {
      "latitude": "29.991628995767847",
      "longitude": "-90.11282617600882"
    }
  },
  {
    "service_request": "2023-1007530",
    "request_type": "Traffic Signals/Signs/Striping/Streetlights",
    "request_reason": "Street Light Outage/Malfunction",
    "date_created": "2023-06-09T21:50:08.000",
    "date_modified": "2023-06-09T21:50:09.000",
    "request_status": "Pending",
    "responsible_agency": "Department of Public Works",
    "final_address": "620 Decatur St",
    "address_councildis": "C",
    "status": "Assigned to Contractor",
    "contractor": "Legacy Professional Services",
    "rowid": "1007530",
    "final_x": "3683130.68514",
    "final_y": "531874.971523",
    "longitude": "-90.06290878381887",
    "latitude": "29.956422121332647",
    "geocoded_column": {
      "latitude": "29.956422121332647",
      "longitude": "-90.06290878381887"
    }
  },
  {
    "service_request": "2023-1007529",
    "request_type": "Health Related Request",
    "request_reason": "Noise Ordinance Complaint",
    "date_created": "2023-06-09T21:47:28.000",
    "date_modified": "2023-06-09T21:47:28.000",
    "request_status": "Pending",
    "responsible_agency": "Health Department",
    "final_address": "600 BLK N Broad St",
    "address_councildis": "D",
    "status": "Pending",
    "rowid": "1007529",
    "final_x": "3676411.44045",
    "final_y": "536496.197136",
    "longitude": "-90.08396684646866",
    "latitude": "29.96933206503225",
    "geocoded_column": {
      "latitude": "29.96933206503225",
      "longitude": "-90.08396684646866"
    }
  },
  {
    "service_request": "2023-1007528",
    "request_type": "Trash/Recycling",
    "request_reason": "MIssed Recycling Pick-Up",
    "date_created": "2023-06-09T21:35:34.000",
    "date_modified": "2023-06-09T21:35:35.000",
    "request_status": "Pending",
    "responsible_agency": "Department of Sanitation",
    "final_address": "7416 Edward St",
    "address_councildis": "E",
    "status": "Assigned to Contractor",
    "contractor": "Waste Pro",
    "rowid": "1007528",
    "final_x": "3701192.91805",
    "final_y": "560327.220893",
    "longitude": "-90.00483297536326",
    "latitude": "30.03409221390936",
    "geocoded_column": {
      "latitude": "30.03409221390936",
      "longitude": "-90.00483297536326"
    }
  },
  {
    "service_request": "2023-1007526",
    "request_type": "Roads/Drainage",
    "request_reason": "Catch Basin - Clogged",
    "date_created": "2023-06-09T21:31:03.000",
    "date_modified": "2023-06-09T21:31:03.000",
    "request_status": "Pending",
    "responsible_agency": "Department of Public Works",
    "final_address": "2431 Milan St",
    "address_councildis": "B",
    "status": "Pending",
    "rowid": "1007526",
    "final_x": "3671333.8066",
    "final_y": "524039.28454",
    "longitude": "-90.10042573942604",
    "latitude": "29.935230915296785",
    "geocoded_column": {
      "latitude": "29.935230915296785",
      "longitude": "-90.10042573942604"
    }
  },
  {
    "service_request": "2023-1007524",
    "request_type": "Trash/Recycling",
    "request_reason": "Request a Large Item Pick Up",
    "date_created": "2023-06-09T21:08:18.000",
    "date_modified": "2023-06-09T21:08:19.000",
    "request_status": "Pending",
    "responsible_agency": "Department of Sanitation",
    "final_address": "5000 BLK Perrier St",
    "address_councildis": "B",
    "status": "Assigned to Contractor",
    "contractor": "Richards Disposal",
    "rowid": "1007524",
    "final_x": "3668533.44964",
    "final_y": "519893.863215",
    "longitude": "-90.10940628097809",
    "latitude": "29.923914882660526",
    "geocoded_column": {
      "latitude": "29.923914882660526",
      "longitude": "-90.10940628097809"
    }
  },
  {
    "service_request": "2023-1007523",
    "request_type": "Property Maintenance",
    "request_reason": "Property Maintenance",
    "date_created": "2023-06-09T20:50:38.000",
    "date_modified": "2023-06-09T20:50:38.000",
    "request_status": "Pending",
    "responsible_agency": "Department of Code Enforcement",
    "final_address": "8125 Birch St",
    "address_councildis": "A",
    "status": "Pending",
    "rowid": "1007523",
    "final_x": "3662776.33722",
    "final_y": "529594.733569",
    "longitude": "-90.12725718592743",
    "latitude": "29.950757035418718",
    "geocoded_column": {
      "latitude": "29.950757035418718",
      "longitude": "-90.12725718592743"
    }
  },
  {
    "service_request": "2023-1007522",
    "request_type": "Trash/Recycling",
    "request_reason": "Replace Trash Cart",
    "date_created": "2023-06-09T20:45:25.000",
    "date_modified": "2023-06-09T20:45:26.000",
    "request_status": "Pending",
    "responsible_agency": "Department of Sanitation",
    "final_address": "800 Pelican Ave",
    "address_councildis": "C",
    "status": "Assigned to Contractor",
    "contractor": "Richards Disposal",
    "rowid": "1007522",
    "final_x": "3687938.65775",
    "final_y": "530802.250818",
    "longitude": "-90.04776484071024",
    "latitude": "29.953325055858134",
    "geocoded_column": {
      "latitude": "29.953325055858134",
      "longitude": "-90.04776484071024"
    }
  },
  {
    "service_request": "2023-1007521",
    "request_type": "Property Maintenance",
    "request_reason": "Property Maintenance",
    "date_created": "2023-06-09T20:27:40.000",
    "date_modified": "2023-06-09T20:27:40.000",
    "request_status": "Pending",
    "responsible_agency": "Department of Code Enforcement",
    "final_address": "11230 S Parkwood Ct",
    "address_councildis": "E",
    "status": "Pending",
    "rowid": "1007521",
    "final_x": "3716782.30412",
    "final_y": "558963.209116",
    "longitude": "-89.95562092073904",
    "latitude": "30.02983553403715",
    "geocoded_column": {
      "latitude": "30.02983553403715",
      "longitude": "-89.95562092073904"
    }
  },
  {
    "service_request": "2023-1007520",
    "request_type": "Traffic Signals/Signs/Striping/Streetlights",
    "request_reason": "Street Light Outage/Malfunction",
    "date_created": "2023-06-09T20:17:12.000",
    "date_modified": "2023-06-09T20:17:12.000",
    "request_status": "Pending",
    "responsible_agency": "Department of Public Works",
    "final_address": "N DERBIGNY ST & CLOUET ST",
    "address_councildis": "D",
    "status": "Assigned to Contractor",
    "contractor": "Legacy Professional Services",
    "rowid": "1007520",
    "final_x": "3689557.0",
    "final_y": "538243.18",
    "longitude": "-90.04239012071231",
    "latitude": "29.97373498968679",
    "geocoded_column": {
      "latitude": "29.97373498968679",
      "longitude": "-90.04239012071231"
    }
  },
  {
    "service_request": "2023-1007518",
    "request_type": "Abandoned Vehicles",
    "request_reason": "Vehicle Blocking Your Driveway",
    "date_created": "2023-06-09T20:01:02.000",
    "date_modified": "2023-06-09T20:01:02.000",
    "request_status": "Pending",
    "responsible_agency": "Department of Public Works",
    "final_address": "212 David St, New Orleans, Louisiana, 70119",
    "address_councildis": "A",
    "status": "Pending",
    "rowid": "1007518",
    "final_x": "3671268.22561",
    "final_y": "538936.073546",
    "longitude": "-90.10012662913783",
    "latitude": "29.976194097755297",
    "geocoded_column": {
      "latitude": "29.976194097755297",
      "longitude": "-90.10012662913783"
    }
  },
  {
    "service_request": "2023-1007517",
    "request_type": "Trash/Recycling",
    "request_reason": "Repair Trash Cart",
    "date_created": "2023-06-09T19:59:50.000",
    "date_modified": "2023-06-09T19:59:51.000",
    "request_status": "Pending",
    "responsible_agency": "Department of Sanitation",
    "final_address": "7151 E Renaissance Ct",
    "address_councildis": "E",
    "status": "Assigned to Contractor",
    "contractor": "Waste Pro",
    "rowid": "1007517",
    "final_x": "3717234.4046",
    "final_y": "568046.991781",
    "longitude": "-89.95384672649836",
    "latitude": "30.054797286422193",
    "geocoded_column": {
      "latitude": "30.054797286422193",
      "longitude": "-89.95384672649836"
    }
  },
  {
    "service_request": "2023-1007516",
    "request_type": "Property Maintenance",
    "request_reason": "Property Maintenance",
    "date_created": "2023-06-09T19:56:33.000",
    "date_modified": "2023-06-09T19:56:33.000",
    "request_status": "Pending",
    "responsible_agency": "Department of Code Enforcement",
    "final_address": "11230 S Parkwood Ct",
    "address_councildis": "E",
    "status": "Pending",
    "rowid": "1007516",
    "final_x": "3716782.30412",
    "final_y": "558963.209116",
    "longitude": "-89.95562092073904",
    "latitude": "30.02983553403715",
    "geocoded_column": {
      "latitude": "30.02983553403715",
      "longitude": "-89.95562092073904"
    }
  },
  {
    "service_request": "2023-1007515",
    "request_type": "Traffic Signals/Signs/Striping/Streetlights",
    "request_reason": "Street Light Outage/Malfunction",
    "date_created": "2023-06-09T19:51:17.000",
    "date_modified": "2023-06-09T19:51:17.000",
    "request_status": "Pending",
    "responsible_agency": "Department of Public Works",
    "final_address": "1124 St Charles Ave",
    "address_councildis": "B",
    "status": "Assigned to Contractor",
    "contractor": "Legacy Professional Services",
    "rowid": "1007515",
    "final_x": "3679882.49973",
    "final_y": "526445.416574",
    "longitude": "-90.07335400248864",
    "latitude": "29.94159129094358",
    "geocoded_column": {
      "latitude": "29.94159129094358",
      "longitude": "-90.07335400248864"
    }
  },
  {
    "service_request": "2023-1007514",
    "request_type": "Property Maintenance",
    "request_reason": "Property Maintenance",
    "date_created": "2023-06-09T19:36:41.000",
    "date_modified": "2023-06-09T19:36:41.000",
    "request_status": "Pending",
    "responsible_agency": "Department of Code Enforcement",
    "final_address": "1338 Madrid St",
    "address_councildis": "D",
    "status": "Pending",
    "rowid": "1007514",
    "final_x": "3677085.84686",
    "final_y": "554614.362456",
    "longitude": "-90.08121175904456",
    "latitude": "30.019130424296463",
    "geocoded_column": {
      "latitude": "30.019130424296463",
      "longitude": "-90.08121175904456"
    }
  },
  {
    "service_request": "2023-1007513",
    "request_type": "Trash/Recycling",
    "request_reason": "Replace Trash Cart",
    "date_created": "2023-06-09T19:33:47.000",
    "date_modified": "2023-06-09T19:33:48.000",
    "request_status": "Pending",
    "responsible_agency": "Department of Sanitation",
    "final_address": "4610 Anson St",
    "address_councildis": "C",
    "status": "Assigned to Contractor",
    "contractor": "Richards Disposal",
    "rowid": "1007513",
    "final_x": "3701979.40145",
    "final_y": "521680.839865",
    "longitude": "-90.00376469971505",
    "latitude": "29.927803756396905",
    "geocoded_column": {
      "latitude": "29.927803756396905",
      "longitude": "-90.00376469971505"
    }
  },
  {
    "service_request": "2023-1007512",
    "request_type": "Trash/Recycling",
    "request_reason": "Replace Trash Cart",
    "date_created": "2023-06-09T19:29:32.000",
    "date_modified": "2023-06-09T19:29:33.000",
    "request_status": "Pending",
    "responsible_agency": "Department of Sanitation",
    "final_address": "4610 Anson St",
    "address_councildis": "C",
    "status": "Assigned to Contractor",
    "contractor": "Richards Disposal",
    "rowid": "1007512",
    "final_x": "3701979.40145",
    "final_y": "521680.839865",
    "longitude": "-90.00376469971505",
    "latitude": "29.927803756396905",
    "geocoded_column": {
      "latitude": "29.927803756396905",
      "longitude": "-90.00376469971505"
    }
  },
  {
    "service_request": "2023-1007511",
    "request_type": "Trash/Recycling",
    "request_reason": "Missed Trash Pick-Up",
    "date_created": "2023-06-09T19:19:19.000",
    "date_modified": "2023-06-09T19:19:19.000",
    "request_status": "Pending",
    "responsible_agency": "Department of Sanitation",
    "final_address": "931 Louisa St",
    "address_councildis": "C",
    "status": "Assigned to Contractor",
    "contractor": "IV Waste",
    "rowid": "1007511",
    "final_x": "3689452.56457",
    "final_y": "535312.530118",
    "longitude": "-90.04282419136239",
    "latitude": "29.96567996700375",
    "geocoded_column": {
      "latitude": "29.96567996700375",
      "longitude": "-90.04282419136239"
    }
  },
  {
    "service_request": "2023-1007510",
    "request_type": "Roads/Drainage",
    "request_reason": "Pothole",
    "date_created": "2023-06-09T19:18:53.000",
    "date_modified": "2023-06-09T19:18:53.000",
    "request_status": "Pending",
    "responsible_agency": "Department of Public Works",
    "final_address": "MILNE BLVD & WALKER ST",
    "address_councildis": "A",
    "status": "Pending",
    "rowid": "1007510",
    "final_x": "3667652.66",
    "final_y": "554121.86",
    "longitude": "-90.11103407489964",
    "latitude": "30.01805628011682",
    "geocoded_column": {
      "latitude": "30.01805628011682",
      "longitude": "-90.11103407489964"
    }
  },
  {
    "service_request": "2023-1007509",
    "request_type": "Trash/Recycling",
    "request_reason": "Request a Large Item Pick Up",
    "date_created": "2023-06-09T19:09:02.000",
    "date_modified": "2023-06-09T19:09:03.000",
    "request_status": "Pending",
    "responsible_agency": "Department of Sanitation",
    "final_address": "9554 Stroelitz St",
    "address_councildis": "A",
    "status": "Assigned to Contractor",
    "contractor": "Richards Disposal",
    "rowid": "1007509",
    "final_x": "3663967.11987",
    "final_y": "538532.916233",
    "longitude": "-90.12319922646519",
    "latitude": "29.97529959156627",
    "geocoded_column": {
      "latitude": "29.97529959156627",
      "longitude": "-90.12319922646519"
    }
  },
  {
    "service_request": "2023-1007508",
    "request_type": "Trash/Recycling",
    "request_reason": "Request a Large Item Pick Up",
    "date_created": "2023-06-09T19:07:16.000",
    "date_modified": "2023-06-09T19:07:17.000",
    "request_status": "Pending",
    "responsible_agency": "Department of Sanitation",
    "final_address": "9550 Stroelitz St",
    "address_councildis": "A",
    "status": "Assigned to Contractor",
    "contractor": "Richards Disposal",
    "rowid": "1007508",
    "final_x": "3663982.48845",
    "final_y": "538493.408777",
    "longitude": "-90.12315200598832",
    "latitude": "29.97519051289343",
    "geocoded_column": {
      "latitude": "29.97519051289343",
      "longitude": "-90.12315200598832"
    }
  },
  {
    "service_request": "2023-1007507",
    "request_type": "Mosquito, Termite & Rodent Control",
    "request_reason": "Non-Rodent Complaint (Mice, Possums, Snakes)",
    "date_created": "2023-06-09T19:00:07.000",
    "date_modified": "2023-06-09T19:00:07.000",
    "request_status": "Pending",
    "responsible_agency": "Mosquito, Termite & Rodent Control Board",
    "final_address": "4638 Magnolia St",
    "address_councildis": "B",
    "status": "Pending",
    "rowid": "1007507",
    "final_x": "3669404.68148",
    "final_y": "524601.686204",
    "longitude": "-90.10649699292145",
    "latitude": "29.936834273152225",
    "geocoded_column": {
      "latitude": "29.936834273152225",
      "longitude": "-90.10649699292145"
    }
  },
  {
    "service_request": "2023-1007506",
    "request_type": "Roads/Drainage",
    "request_reason": "Pothole",
    "date_created": "2023-06-09T18:45:15.000",
    "date_modified": "2023-06-09T18:45:15.000",
    "request_status": "Pending",
    "responsible_agency": "Department of Public Works",
    "final_address": "6242 Berkley Dr",
    "address_councildis": "C",
    "status": "Pending",
    "rowid": "1007506",
    "final_x": "3707278.19908",
    "final_y": "518227.177334",
    "longitude": "-89.98716587737329",
    "latitude": "29.918137266129843",
    "geocoded_column": {
      "latitude": "29.918137266129843",
      "longitude": "-89.98716587737329"
    }
  },
  {
    "service_request": "2023-1007504",
    "request_type": "Roads/Drainage",
    "request_reason": "Street Subsidence (Sinking)",
    "date_created": "2023-06-09T18:41:01.000",
    "date_modified": "2023-06-09T18:41:01.000",
    "request_status": "Pending",
    "responsible_agency": "Department of Public Works",
    "final_address": "6242 Berkley Dr",
    "address_councildis": "C",
    "status": "Pending",
    "rowid": "1007504",
    "final_x": "3707278.19908",
    "final_y": "518227.177334",
    "longitude": "-89.98716587737329",
    "latitude": "29.918137266129843",
    "geocoded_column": {
      "latitude": "29.918137266129843",
      "longitude": "-89.98716587737329"
    }
  },
  {
    "service_request": "2023-1007503",
    "request_type": "Roads/Drainage",
    "request_reason": "Damaged Sidewalk",
    "date_created": "2023-06-09T18:35:47.000",
    "date_modified": "2023-06-09T18:35:47.000",
    "request_status": "Pending",
    "responsible_agency": "Department of Public Works",
    "final_address": "6242 Berkley Dr",
    "address_councildis": "C",
    "status": "Pending",
    "rowid": "1007503",
    "final_x": "3707278.19908",
    "final_y": "518227.177334",
    "longitude": "-89.98716587737329",
    "latitude": "29.918137266129843",
    "geocoded_column": {
      "latitude": "29.918137266129843",
      "longitude": "-89.98716587737329"
    }
  },
  {
    "service_request": "2023-1007502",
    "request_type": "Trash/Recycling",
    "request_reason": "Order Recycling Cart",
    "date_created": "2023-06-09T18:31:41.000",
    "date_modified": "2023-06-09T18:31:41.000",
    "request_status": "Pending",
    "responsible_agency": "Department of Sanitation",
    "final_address": "6242 Berkley Dr",
    "address_councildis": "C",
    "status": "Pending",
    "rowid": "1007502",
    "final_x": "3707278.19908",
    "final_y": "518227.177334",
    "longitude": "-89.98716587737329",
    "latitude": "29.918137266129843",
    "geocoded_column": {
      "latitude": "29.918137266129843",
      "longitude": "-89.98716587737329"
    }
  },
  {
    "service_request": "2023-1007501",
    "request_type": "Trash/Recycling",
    "request_reason": "Request a Large Item Pick Up",
    "date_created": "2023-06-09T18:27:36.000",
    "date_modified": "2023-06-09T18:27:36.000",
    "request_status": "Pending",
    "responsible_agency": "Department of Sanitation",
    "final_address": "103 Brunswick Ct",
    "address_councildis": "C",
    "status": "Assigned to Contractor",
    "contractor": "Richards Disposal",
    "rowid": "1007501",
    "final_x": "3705644.50187",
    "final_y": "516978.327925",
    "longitude": "-89.99236866388182",
    "latitude": "29.91475603556388",
    "geocoded_column": {
      "latitude": "29.91475603556388",
      "longitude": "-89.99236866388182"
    }
  },
  {
    "service_request": "2023-1007500",
    "request_type": "Abandoned Vehicles",
    "request_reason": "Abandoned/Junk Vehicles",
    "date_created": "2023-06-09T18:23:25.000",
    "date_modified": "2023-06-09T18:23:25.000",
    "request_status": "Pending",
    "responsible_agency": "Department of Public Works",
    "final_address": "1206 Third St",
    "address_councildis": "B",
    "status": "Pending",
    "rowid": "1007500",
    "final_x": "3677302.18427",
    "final_y": "521513.263353",
    "longitude": "-90.08167067835261",
    "latitude": "29.928107252062958",
    "geocoded_column": {
      "latitude": "29.928107252062958",
      "longitude": "-90.08167067835261"
    }
  },
  {
    "service_request": "2023-1007499",
    "request_type": "Trash/Recycling",
    "request_reason": "Repair Trash Cart",
    "date_created": "2023-06-09T17:50:59.000",
    "date_modified": "2023-06-09T17:51:00.000",
    "request_status": "Pending",
    "responsible_agency": "Department of Sanitation",
    "final_address": "6734 Memphis St",
    "address_councildis": "A",
    "status": "Assigned to Contractor",
    "contractor": "IV Waste",
    "rowid": "1007499",
    "final_x": "3669591.509",
    "final_y": "552297.690902",
    "longitude": "-90.10496981778806",
    "latitude": "30.012983449213557",
    "geocoded_column": {
      "latitude": "30.012983449213557",
      "longitude": "-90.10496981778806"
    }
  },
  {
    "service_request": "2023-1007498",
    "request_type": "Trash/Recycling",
    "request_reason": "Request a Large Item Pick Up",
    "date_created": "2023-06-09T17:36:48.000",
    "date_modified": "2023-06-09T17:36:49.000",
    "request_status": "Pending",
    "responsible_agency": "Department of Sanitation",
    "final_address": "4725 Wright Rd",
    "address_councildis": "E",
    "status": "Assigned to Contractor",
    "contractor": "Waste Pro",
    "rowid": "1007498",
    "final_x": "3716789.89797",
    "final_y": "556953.694618",
    "longitude": "-89.95567327179013",
    "latitude": "30.024309920999904",
    "geocoded_column": {
      "latitude": "30.024309920999904",
      "longitude": "-89.95567327179013"
    }
  },
  {
    "service_request": "2023-1007497",
    "request_type": "Trash/Recycling",
    "request_reason": "Repair Trash Cart",
    "date_created": "2023-06-09T17:36:34.000",
    "date_modified": "2023-06-09T17:36:34.000",
    "request_status": "Pending",
    "responsible_agency": "Department of Sanitation",
    "final_address": "233 Nashville Ave",
    "address_councildis": "A",
    "status": "Assigned to Contractor",
    "contractor": "Richards Disposal",
    "rowid": "1007497",
    "final_x": "3665177.39277",
    "final_y": "517156.584565",
    "longitude": "-90.12009168063697",
    "latitude": "29.916486365289625",
    "geocoded_column": {
      "latitude": "29.916486365289625",
      "longitude": "-90.12009168063697"
    }
  },
  {
    "service_request": "2023-1007496",
    "request_type": "Trash/Recycling",
    "request_reason": "Replace Trash Cart",
    "date_created": "2023-06-09T17:30:40.000",
    "date_modified": "2023-06-09T17:30:41.000",
    "request_status": "Pending",
    "responsible_agency": "Department of Sanitation",
    "final_address": "2761 St Peter St",
    "address_councildis": "A",
    "status": "Assigned to Contractor",
    "contractor": "Richards Disposal",
    "rowid": "1007496",
    "final_x": "3676267.98824",
    "final_y": "537201.096136",
    "longitude": "-90.08439561587547",
    "latitude": "29.97127459730918",
    "geocoded_column": {
      "latitude": "29.97127459730918",
      "longitude": "-90.08439561587547"
    }
  },
  {
    "service_request": "2023-1007495",
    "request_type": "Trash/Recycling",
    "request_reason": "Missed Trash Pick-Up",
    "date_created": "2023-06-09T17:29:37.000",
    "date_modified": "2023-06-09T17:29:38.000",
    "request_status": "Pending",
    "responsible_agency": "Department of Sanitation",
    "final_address": "1115 Arabella St",
    "address_councildis": "A",
    "status": "Assigned to Contractor",
    "contractor": "Richards Disposal",
    "rowid": "1007495",
    "final_x": "3666117.66861",
    "final_y": "520060.285368",
    "longitude": "-90.11702648760547",
    "latitude": "29.924443223132393",
    "geocoded_column": {
      "latitude": "29.924443223132393",
      "longitude": "-90.11702648760547"
    }
  },
  {
    "service_request": "2023-1007494",
    "request_type": "Roads/Drainage",
    "request_reason": "Street Subsidence (Sinking)",
    "date_created": "2023-06-09T17:07:10.000",
    "date_modified": "2023-06-09T17:07:10.000",
    "request_status": "Pending",
    "responsible_agency": "Department of Public Works",
    "final_address": "960 Felicity St",
    "address_councildis": "B",
    "status": "Pending",
    "rowid": "1007494",
    "final_x": "3680152.69768",
    "final_y": "522830.247035",
    "longitude": "-90.07262651380583",
    "latitude": "29.931642598493752",
    "geocoded_column": {
      "latitude": "29.931642598493752",
      "longitude": "-90.07262651380583"
    }
  },
  {
    "service_request": "2023-1007493",
    "request_type": "Trash/Recycling",
    "request_reason": "Request a Large Item Pick Up",
    "date_created": "2023-06-09T17:04:16.000",
    "date_modified": "2023-06-09T17:04:17.000",
    "request_status": "Pending",
    "responsible_agency": "Department of Sanitation",
    "final_address": "7823 Fig St",
    "address_councildis": "B",
    "status": "Assigned to Contractor",
    "contractor": "Richards Disposal",
    "rowid": "1007493",
    "final_x": "3667031.82823",
    "final_y": "532540.553284",
    "longitude": "-90.1137214645969",
    "latitude": "29.958733227525162",
    "geocoded_column": {
      "latitude": "29.958733227525162",
      "longitude": "-90.1137214645969"
    }
  },
  {
    "service_request": "2023-1007492",
    "request_type": "Trash/Recycling",
    "request_reason": "Order Trash Cart",
    "date_created": "2023-06-09T17:04:14.000",
    "date_modified": "2023-06-09T17:04:14.000",
    "request_status": "Pending",
    "responsible_agency": "Department of Sanitation",
    "final_address": "311 Exchange Pl",
    "address_councildis": "C",
    "status": "Assigned to Contractor",
    "contractor": "Empire Services",
    "rowid": "1007492",
    "final_x": "3681859.73013",
    "final_y": "531293.770818",
    "longitude": "-90.06694231929451",
    "latitude": "29.95486270212838",
    "geocoded_column": {
      "latitude": "29.95486270212838",
      "longitude": "-90.06694231929451"
    }
  },
  {
    "service_request": "2023-1007491",
    "request_type": "Abandoned Vehicles",
    "request_reason": "Vehicle Blocking Your Driveway",
    "date_created": "2023-06-09T16:55:24.000",
    "date_modified": "2023-06-09T16:55:24.000",
    "request_status": "Pending",
    "responsible_agency": "Department of Public Works",
    "final_address": "3332 Marigny St",
    "address_councildis": "D",
    "status": "Pending",
    "rowid": "1007491",
    "final_x": "3684607.49346",
    "final_y": "545074.737743",
    "longitude": "-90.05778153172227",
    "latitude": "29.992671764325628",
    "geocoded_column": {
      "latitude": "29.992671764325628",
      "longitude": "-90.05778153172227"
    }
  },
  {
    "service_request": "2023-1007490",
    "request_type": "Trash/Recycling",
    "request_reason": "Missed Trash Pick-Up",
    "date_created": "2023-06-09T16:48:53.000",
    "date_modified": "2023-06-09T16:48:54.000",
    "request_status": "Pending",
    "responsible_agency": "Department of Sanitation",
    "final_address": "2241 Flood St",
    "address_councildis": "E",
    "status": "Assigned to Contractor",
    "contractor": "Waste Pro",
    "rowid": "1007490",
    "final_x": "3698940.34685",
    "final_y": "538272.333513",
    "longitude": "-90.0127545939845",
    "latitude": "29.97352113273518",
    "geocoded_column": {
      "latitude": "29.97352113273518",
      "longitude": "-90.0127545939845"
    }
  },
  {
    "service_request": "2023-1007489",
    "request_type": "Property Maintenance",
    "request_reason": "Property Maintenance",
    "date_created": "2023-06-09T16:46:29.000",
    "date_modified": "2023-06-09T16:46:29.000",
    "request_status": "Pending",
    "responsible_agency": "Department of Code Enforcement",
    "final_address": "2525 Lafitte Ave",
    "address_councildis": "D",
    "status": "Pending",
    "rowid": "1007489",
    "final_x": "3677271.818",
    "final_y": "536348.462279",
    "longitude": "-90.08125480383222",
    "latitude": "29.968900021604636",
    "geocoded_column": {
      "latitude": "29.968900021604636",
      "longitude": "-90.08125480383222"
    }
  },
  {
    "service_request": "2023-1007488",
    "request_type": "Property Maintenance",
    "request_reason": "Property Maintenance",
    "date_created": "2023-06-09T16:41:28.000",
    "date_modified": "2023-06-09T16:41:29.000",
    "request_status": "Pending",
    "responsible_agency": "Department of Code Enforcement",
    "final_address": "3227 Toulouse St",
    "address_councildis": "A",
    "status": "Pending",
    "rowid": "1007488",
    "final_x": "3674518.60744",
    "final_y": "538059.226121",
    "longitude": "-90.08989100241621",
    "latitude": "29.973686477071116",
    "geocoded_column": {
      "latitude": "29.973686477071116",
      "longitude": "-90.08989100241621"
    }
  },
  {
    "service_request": "2023-1007487",
    "request_type": "Trash/Recycling",
    "request_reason": "Replace Trash Cart",
    "date_created": "2023-06-09T16:41:18.000",
    "date_modified": "2023-06-09T16:41:19.000",
    "request_status": "Pending",
    "responsible_agency": "Department of Sanitation",
    "final_address": "1127 Port St",
    "address_councildis": "C",
    "status": "Assigned to Contractor",
    "contractor": "IV Waste",
    "rowid": "1007487",
    "final_x": "3687522.52329",
    "final_y": "536671.367943",
    "longitude": "-90.0488710702822",
    "latitude": "29.96947592564706",
    "geocoded_column": {
      "latitude": "29.96947592564706",
      "longitude": "-90.0488710702822"
    }
  },
  {
    "service_request": "2023-1007486",
    "request_type": "Trash/Recycling",
    "request_reason": "Order Recycling Cart",
    "date_created": "2023-06-09T16:35:39.000",
    "date_modified": "2023-06-09T16:35:39.000",
    "request_status": "Pending",
    "responsible_agency": "Department of Sanitation",
    "final_address": "2612 N Rampart St",
    "address_councildis": "C",
    "status": "Pending",
    "rowid": "1007486",
    "final_x": "3687119.63913",
    "final_y": "535975.541959",
    "longitude": "-90.05016801688076",
    "latitude": "29.967575058917394",
    "geocoded_column": {
      "latitude": "29.967575058917394",
      "longitude": "-90.05016801688076"
    }
  },
  {
    "service_request": "2023-1007485",
    "request_type": "Trash/Recycling",
    "request_reason": "Repair Trash Cart",
    "date_created": "2023-06-09T16:34:17.000",
    "date_modified": "2023-06-09T16:34:18.000",
    "request_status": "Pending",
    "responsible_agency": "Department of Sanitation",
    "final_address": "3531 Bennett St",
    "address_councildis": "C",
    "status": "Assigned to Contractor",
    "contractor": "Richards Disposal",
    "rowid": "1007485",
    "final_x": "3710323.30251",
    "final_y": "517653.360246",
    "longitude": "-89.97757565974277",
    "latitude": "29.916460750031668",
    "geocoded_column": {
      "latitude": "29.916460750031668",
      "longitude": "-89.97757565974277"
    }
  },
  {
    "service_request": "2023-1007484",
    "request_type": "Trash/Recycling",
    "request_reason": "Replace Trash Cart",
    "date_created": "2023-06-09T16:31:30.000",
    "date_modified": "2023-06-09T16:31:31.000",
    "request_status": "Pending",
    "responsible_agency": "Department of Sanitation",
    "final_address": "3531 Bennett St, New Orleans, Louisiana, 70131",
    "address_councildis": "C",
    "status": "Assigned to Contractor",
    "contractor": "Richards Disposal",
    "rowid": "1007484",
    "final_x": "3710323.30251",
    "final_y": "517653.360246",
    "longitude": "-89.97757565974277",
    "latitude": "29.916460750031668",
    "geocoded_column": {
      "latitude": "29.916460750031668",
      "longitude": "-89.97757565974277"
    }
  },
  {
    "service_request": "2023-1007483",
    "request_type": "Trash/Recycling",
    "request_reason": "Missed Trash Pick-Up",
    "date_created": "2023-06-09T16:29:13.000",
    "date_modified": "2023-06-09T16:29:14.000",
    "request_status": "Pending",
    "responsible_agency": "Department of Sanitation",
    "final_address": "4814 Walmsley Ave",
    "address_councildis": "B",
    "status": "Assigned to Contractor",
    "contractor": "Richards Disposal",
    "rowid": "1007483",
    "final_x": "3668219.68052",
    "final_y": "530542.170818",
    "longitude": "-90.11003789024738",
    "latitude": "29.953203513614355",
    "geocoded_column": {
      "latitude": "29.953203513614355",
      "longitude": "-90.11003789024738"
    }
  },
  {
    "service_request": "2023-1007482",
    "request_type": "Trash/Recycling",
    "request_reason": "Illegal Dumping",
    "date_created": "2023-06-09T16:28:54.000",
    "date_modified": "2023-06-09T16:28:55.000",
    "request_status": "Pending",
    "responsible_agency": "Department of Sanitation",
    "final_address": "2100 BLK Touro St",
    "address_councildis": "D",
    "status": "Pending",
    "rowid": "1007482",
    "final_x": "3683922.14098",
    "final_y": "540109.957954",
    "longitude": "-90.06012069278317",
    "latitude": "29.979041333449995",
    "geocoded_column": {
      "latitude": "29.979041333449995",
      "longitude": "-90.06012069278317"
    }
  },
  {
    "service_request": "2023-1007481",
    "request_type": "Trash/Recycling",
    "request_reason": "Missed Trash Pick-Up",
    "date_created": "2023-06-09T16:27:01.000",
    "date_modified": "2023-06-09T16:27:01.000",
    "request_status": "Pending",
    "responsible_agency": "Department of Sanitation",
    "final_address": "4814 Walmsley Ave",
    "address_councildis": "B",
    "status": "Assigned to Contractor",
    "contractor": "Richards Disposal",
    "rowid": "1007481",
    "final_x": "3668219.68052",
    "final_y": "530542.170818",
    "longitude": "-90.11003789024738",
    "latitude": "29.953203513614355",
    "geocoded_column": {
      "latitude": "29.953203513614355",
      "longitude": "-90.11003789024738"
    }
  },
  {
    "service_request": "2023-1007480",
    "request_type": "Traffic Signals/Signs/Striping/Streetlights",
    "request_reason": "Street Light Outage/Malfunction",
    "date_created": "2023-06-09T16:21:13.000",
    "date_modified": "2023-06-09T16:21:13.000",
    "request_status": "Pending",
    "responsible_agency": "Department of Public Works",
    "final_address": "7901 Parry St",
    "address_councildis": "E",
    "status": "Assigned to Contractor",
    "contractor": "Legacy Professional Services",
    "rowid": "1007480",
    "final_x": "3713876.31749",
    "final_y": "569295.759014",
    "longitude": "-89.96441364651923",
    "latitude": "30.05834161820311",
    "geocoded_column": {
      "latitude": "30.05834161820311",
      "longitude": "-89.96441364651923"
    }
  },
  {
    "service_request": "2023-1007479",
    "request_type": "Property Maintenance",
    "request_reason": "Property Maintenance",
    "date_created": "2023-06-09T16:16:28.000",
    "date_modified": "2023-06-09T16:16:28.000",
    "request_status": "Pending",
    "responsible_agency": "Department of Code Enforcement",
    "final_address": "517 Warrington Dr",
    "address_councildis": "D",
    "status": "Pending",
    "rowid": "1007479",
    "final_x": "3681277.24021",
    "final_y": "548735.258771",
    "longitude": "-90.06817351446739",
    "latitude": "30.002838410286635",
    "geocoded_column": {
      "latitude": "30.002838410286635",
      "longitude": "-90.06817351446739"
    }
  },
  {
    "service_request": "2023-1007478",
    "request_type": "Parks & Parkways",
    "request_reason": "Request Tree Service (Right of Way/Public Property)",
    "date_created": "2023-06-09T16:16:22.000",
    "date_modified": "2023-06-09T16:16:23.000",
    "request_status": "Pending",
    "responsible_agency": "Department of Parks & Parkway",
    "final_address": "1529 Mithra St",
    "address_councildis": "D",
    "status": "Pending",
    "rowid": "1007478",
    "final_x": "3678925.3773",
    "final_y": "552292.741846",
    "longitude": "-90.07548000367589",
    "latitude": "30.01269140691487",
    "geocoded_column": {
      "latitude": "30.01269140691487",
      "longitude": "-90.07548000367589"
    }
  },
  {
    "service_request": "2023-1007477",
    "request_type": "Trash/Recycling",
    "request_reason": "Order Trash Cart",
    "date_created": "2023-06-09T16:14:51.000",
    "date_modified": "2023-06-09T16:14:51.000",
    "request_status": "Pending",
    "responsible_agency": "Department of Sanitation",
    "final_address": "1930 Marigny St",
    "address_councildis": "D",
    "status": "Assigned to Contractor",
    "contractor": "IV Waste",
    "rowid": "1007477",
    "final_x": "3685098.19375",
    "final_y": "539531.47649",
    "longitude": "-90.05642663245726",
    "latitude": "29.97741472807802",
    "geocoded_column": {
      "latitude": "29.97741472807802",
      "longitude": "-90.05642663245726"
    }
  },
  {
    "service_request": "2023-1007476",
    "request_type": "Property Maintenance",
    "request_reason": "Property Maintenance",
    "date_created": "2023-06-09T16:14:33.000",
    "date_modified": "2023-06-09T16:14:33.000",
    "request_status": "Pending",
    "responsible_agency": "Department of Code Enforcement",
    "final_address": "524 Warrington Dr",
    "address_councildis": "D",
    "status": "Pending",
    "rowid": "1007476",
    "final_x": "3681113.20303",
    "final_y": "548771.125651",
    "longitude": "-90.06869047978928",
    "latitude": "30.002942010471997",
    "geocoded_column": {
      "latitude": "30.002942010471997",
      "longitude": "-90.06869047978928"
    }
  },
  {
    "service_request": "2023-1007475",
    "request_type": "Trash/Recycling",
    "request_reason": "Illegal Dumping",
    "date_created": "2023-06-09T16:08:43.000",
    "date_modified": "2023-06-09T16:09:53.000",
    "request_status": "Pending",
    "responsible_agency": "Department of Sanitation",
    "final_address": "Pontchartrain Expressway & South Carrollton Avenue",
    "address_councildis": "A",
    "status": "Pending",
    "rowid": "1007475",
    "final_x": "3668882.68372",
    "final_y": "535895.838087",
    "longitude": "-90.10776359827379",
    "latitude": "29.96790484911379",
    "geocoded_column": {
      "latitude": "29.96790484911379",
      "longitude": "-90.10776359827379"
    }
  },