[
  {
    "service_request": "2024-1123627",
    "request_type": "Trash/Recycling",
    "request_reason": "Request a Large Item Pick Up",
    "date_created": "2024-08-20T23:12:12.000",
    "date_modified": "2024-08-20T23:12:13.000",
    "request_status": "Pending",
    "responsible_agency": "Department of Sanitation",
    "final_address": "11 Sullivan Pl",
    "address_councildis": "C",
    "status": "Assigned to Contractor",
    "contractor": "Richards Disposal",
    "rowid": "1123627",
    "final_x": "3702048.09597",
    "final_y": "522071.865146",
    "longitude": "-90.00353352343106",
    "latitude": "29.928876748469275",
    "geocoded_column": {
      "latitude": "29.928876748469275",
      "longitude": "-90.00353352343106"
    }
  },
  {
    "service_request": "2024-1123626",
    "request_type": "Trash/Recycling",
    "request_reason": "Request a Large Item Pick Up",
    "date_created": "2024-08-20T23:00:45.000",
    "date_modified": "2024-08-20T23:00:46.000",
    "request_status": "Pending",
    "responsible_agency": "Department of Sanitation",
    "final_address": "4842 Gabriel Dr",
    "address_councildis": "E",
    "status": "Assigned to Contractor",
    "contractor": "Waste Pro",
    "rowid": "1123626",
    "final_x": "3708759.61144",
    "final_y": "556382.21609",
    "longitude": "-89.98106859726059",
    "latitude": "30.023001607871134",
    "geocoded_column": {
      "latitude": "30.023001607871134",
      "longitude": "-89.98106859726059"
    }
  },
  {
    "service_request": "2024-1123625",
    "request_type": "Traffic Signals/Signs/Striping/Streetlights",
    "request_reason": "Traffic Sign Missing/Damaged",
    "date_created": "2024-08-20T22:33:07.000",
    "date_modified": "2024-08-20T22:33:07.000",
    "request_status": "Pending",
    "responsible_agency": "Department of Public Works",
    "final_address": "S DIAMOND ST & S PETERS ST",
    "address_councildis": "B",
    "status": "Pending",
    "rowid": "1123625",
    "final_x": "3682275.3",
    "final_y": "526725.28",
    "longitude": "-90.06578968616289",
    "latitude": "29.942288256937402",
    "geocoded_column": {
      "latitude": "29.942288256937402",
      "longitude": "-90.06578968616289"
    }
  },
  {
    "service_request": "2024-1123624",
    "request_type": "Traffic Signals/Signs/Striping/Streetlights",
    "request_reason": "Street Light Outage/Malfunction",
    "date_created": "2024-08-20T22:29:54.000",
    "date_modified": "2024-08-20T22:29:55.000",
    "request_status": "Pending",
    "responsible_agency": "Department of Public Works",
    "final_address": "333 N Diamond St",
    "address_councildis": "B",
    "status": "Assigned to Contractor",
    "contractor": "Legacy Professional Services",
    "rowid": "1123624",
    "final_x": "3681950.65077",
    "final_y": "526921.360062",
    "longitude": "-90.06680783230718",
    "latitude": "29.9428372824241",
    "geocoded_column": {
      "latitude": "29.9428372824241",
      "longitude": "-90.06680783230718"
    }
  },
  {
    "service_request": "2024-1123622",
    "request_type": "Property Maintenance",
    "request_reason": "Property Maintenance",
    "date_created": "2024-08-20T22:19:15.000",
    "date_modified": "2024-08-20T22:19:15.000",
    "request_status": "Pending",
    "responsible_agency": "Department of Code Enforcement",
    "final_address": "8803 Belfast St",
    "address_councildis": "A",
    "status": "Pending",
    "rowid": "1123622",
    "final_x": "3663748.57818",
    "final_y": "534089.236997",
    "longitude": "-90.12403755808413",
    "latitude": "29.963087284099572",
    "geocoded_column": {
      "latitude": "29.963087284099572",
      "longitude": "-90.12403755808413"
    }
  },
  {
    "service_request": "2024-1123621",
    "request_type": "Trash/Recycling",
    "request_reason": "Replace Trash Cart",
    "date_created": "2024-08-20T22:18:15.000",
    "date_modified": "2024-08-20T22:18:16.000",
    "request_status": "Pending",
    "responsible_agency": "Department of Sanitation",
    "final_address": "342 S Diamond St Unit A",
    "address_councildis": "B",
    "status": "Assigned to Contractor",
    "contractor": "Empire Services",
    "rowid": "1123621",
    "final_x": "3681924.70178",
    "final_y": "526775.991998",
    "longitude": "-90.06689483208083",
    "latitude": "29.942438357520558",
    "geocoded_column": {
      "latitude": "29.942438357520558",
      "longitude": "-90.06689483208083"
    }
  },
  {
    "service_request": "2024-1123620",
    "request_type": "Roads/Drainage",
    "request_reason": "Accessibility Ramps, Curbs and Sidewalk Repair",
    "date_created": "2024-08-20T21:40:12.000",
    "date_modified": "2024-08-20T21:40:12.000",
    "request_status": "Pending",
    "responsible_agency": "Department of Public Works",
    "final_address": "2322 Annunciation St",
    "address_councildis": "B",
    "status": "Pending",
    "rowid": "1123620",
    "final_x": "3679063.3837",
    "final_y": "520822.340601",
    "longitude": "-90.07613490088457",
    "latitude": "29.9261544229551",
    "geocoded_column": {
      "latitude": "29.9261544229551",
      "longitude": "-90.07613490088457"
    }
  },
  {
    "service_request": "2024-1123619",
    "request_type": "Roads/Drainage",
    "request_reason": "Accessibility Ramps, Curbs and Sidewalk Repair",
    "date_created": "2024-08-20T21:38:07.000",
    "date_modified": "2024-08-20T21:38:07.000",
    "request_status": "Pending",
    "responsible_agency": "Department of Public Works",
    "final_address": "2355 Chippewa St",
    "address_councildis": "B",
    "status": "Pending",
    "rowid": "1123619",
    "final_x": "3679033.04315",
    "final_y": "520413.356344",
    "longitude": "-90.07624484117326",
    "latitude": "29.92503076486207",
    "geocoded_column": {
      "latitude": "29.92503076486207",
      "longitude": "-90.07624484117326"
    }
  },
  {
    "service_request": "2024-1123618",
    "request_type": "Roads/Drainage",
    "request_reason": "Accessibility Ramps, Curbs and Sidewalk Repair",
    "date_created": "2024-08-20T21:36:25.000",
    "date_modified": "2024-08-20T21:36:25.000",
    "request_status": "Pending",
    "responsible_agency": "Department of Public Works",
    "final_address": "2343 Chippewa St",
    "address_councildis": "B",
    "status": "Pending",
    "rowid": "1123618",
    "final_x": "3679095.84527",
    "final_y": "520464.238776",
    "longitude": "-90.07604483278882",
    "latitude": "29.925168780310987",
    "geocoded_column": {
      "latitude": "29.925168780310987",
      "longitude": "-90.07604483278882"
    }
  },
  {
    "service_request": "2024-1123617",
    "request_type": "Roads/Drainage",
    "request_reason": "Accessibility Ramps, Curbs and Sidewalk Repair",
    "date_created": "2024-08-20T21:34:41.000",
    "date_modified": "2024-08-20T21:34:41.000",
    "request_status": "Pending",
    "responsible_agency": "Department of Public Works",
    "final_address": "2337 Chippewa St",
    "address_councildis": "B",
    "status": "Pending",
    "rowid": "1123617",
    "final_x": "3679153.28981",
    "final_y": "520506.315064",
    "longitude": "-90.07586204110785",
    "latitude": "29.92528274309662",
    "geocoded_column": {
      "latitude": "29.92528274309662",
      "longitude": "-90.07586204110785"
    }
  },
  {
    "service_request": "2024-1123616",
    "request_type": "Roads/Drainage",
    "request_reason": "Accessibility Ramps, Curbs and Sidewalk Repair",
    "date_created": "2024-08-20T21:33:03.000",
    "date_modified": "2024-08-20T21:33:03.000",
    "request_status": "Pending",
    "responsible_agency": "Department of Public Works",
    "final_address": "729 Soraparu St",
    "address_councildis": "B",
    "status": "Pending",
    "rowid": "1123616",
    "final_x": "3679024.92392",
    "final_y": "520660.351865",
    "longitude": "-90.07626191723749",
    "latitude": "29.925710166985333",
    "geocoded_column": {
      "latitude": "29.925710166985333",
      "longitude": "-90.07626191723749"
    }
  },
  {
    "service_request": "2024-1123615",
    "request_type": "Roads/Drainage",
    "request_reason": "Accessibility Ramps, Curbs and Sidewalk Repair",
    "date_created": "2024-08-20T21:32:06.000",
    "date_modified": "2024-08-20T21:32:06.000",
    "request_status": "Pending",
    "responsible_agency": "Department of Public Works",
    "final_address": "2338 Annunciation St",
    "address_councildis": "B",
    "status": "Pending",
    "rowid": "1123615",
    "final_x": "3678957.2116",
    "final_y": "520740.058873",
    "longitude": "-90.0764729046868",
    "latitude": "29.925931377708757",
    "geocoded_column": {
      "latitude": "29.925931377708757",
      "longitude": "-90.0764729046868"
    }
  },
  {
    "service_request": "2024-1123614",
    "request_type": "Roads/Drainage",
    "request_reason": "Accessibility Ramps, Curbs and Sidewalk Repair",
    "date_created": "2024-08-20T21:30:28.000",
    "date_modified": "2024-08-20T21:30:28.000",
    "request_status": "Pending",
    "responsible_agency": "Department of Public Works",
    "final_address": "2342 Annunciation St",
    "address_councildis": "B",
    "status": "Pending",
    "rowid": "1123614",
    "final_x": "3678911.9323",
    "final_y": "520695.897721",
    "longitude": "-90.07661736700915",
    "latitude": "29.925811314520725",
    "geocoded_column": {
      "latitude": "29.925811314520725",
      "longitude": "-90.07661736700915"
    }
  },
  {
    "service_request": "2024-1123613",
    "request_type": "Trash/Recycling",
    "request_reason": "Request a Large Item Pick Up",
    "date_created": "2024-08-20T21:20:22.000",
    "date_modified": "2024-08-20T21:20:23.000",
    "request_status": "Pending",
    "responsible_agency": "Department of Sanitation",
    "final_address": "2508 Painters St",
    "address_councildis": "D",
    "status": "Assigned to Contractor",
    "contractor": "IV Waste",
    "rowid": "1123613",
    "final_x": "3687109.55938",
    "final_y": "541754.356748",
    "longitude": "-90.04999545378875",
    "latitude": "29.983465077769644",
    "geocoded_column": {
      "latitude": "29.983465077769644",
      "longitude": "-90.04999545378875"
    }
  },
  {
    "service_request": "2024-1123611",
    "request_type": "Property Maintenance",
    "request_reason": "Property Maintenance",
    "date_created": "2024-08-20T21:03:45.000",
    "date_modified": "2024-08-20T21:03:45.000",
    "request_status": "Pending",
    "responsible_agency": "Department of Code Enforcement",
    "final_address": "6900 Dorian St",
    "address_councildis": "D",
    "status": "Pending",
    "rowid": "1123611",
    "final_x": "3696272.60106",
    "final_y": "556205.904538",
    "longitude": "-90.02053094464333",
    "latitude": "30.02291610719101",
    "geocoded_column": {
      "latitude": "30.02291610719101",
      "longitude": "-90.02053094464333"
    }
  },
  {
    "service_request": "2024-1123610",
    "request_type": "Property Maintenance",
    "request_reason": "Property Maintenance",
    "date_created": "2024-08-20T20:56:00.000",
    "date_modified": "2024-08-20T20:56:00.000",
    "request_status": "Pending",
    "responsible_agency": "Department of Code Enforcement",
    "final_address": "6910 Virgilian St",
    "address_councildis": "D",
    "status": "Pending",
    "rowid": "1123610",
    "final_x": "3696856.96336",
    "final_y": "556476.305882",
    "longitude": "-90.01867469871466",
    "latitude": "30.02364118609714",
    "geocoded_column": {
      "latitude": "30.02364118609714",
      "longitude": "-90.01867469871466"
    }
  },
  {
    "service_request": "2024-1123609",
    "request_type": "Trash/Recycling",
    "request_reason": "Replace Trash Cart",
    "date_created": "2024-08-20T20:37:35.000",
    "date_modified": "2024-08-20T20:37:36.000",
    "request_status": "Pending",
    "responsible_agency": "Department of Sanitation",
    "final_address": "86 Yosemite Dr",
    "address_councildis": "C",
    "status": "Assigned to Contractor",
    "contractor": "Richards Disposal",
    "rowid": "1123609",
    "final_x": "3699462.89853",
    "final_y": "515863.045556",
    "longitude": "-90.01192044980309",
    "latitude": "29.91188685848813",
    "geocoded_column": {
      "latitude": "29.91188685848813",
      "longitude": "-90.01192044980309"
    }
  },
  {
    "service_request": "2024-1123608",
    "request_type": "Health Related Request",
    "request_reason": "Noise Ordinance Complaint",
    "date_created": "2024-08-20T20:36:33.000",
    "date_modified": "2024-08-20T20:36:33.000",
    "request_status": "Pending",
    "responsible_agency": "Health Department",
    "final_address": "5134 Paris Ave",
    "address_councildis": "D",
    "status": "Pending",
    "rowid": "1123608",
    "final_x": "3679142.41999",
    "final_y": "551128.688597",
    "longitude": "-90.07483466163104",
    "latitude": "30.009484126134296",
    "geocoded_column": {
      "latitude": "30.009484126134296",
      "longitude": "-90.07483466163104"
    }
  },
  {
    "service_request": "2024-1123607",
    "request_type": "Roads/Drainage",
    "request_reason": "Pothole",
    "date_created": "2024-08-20T20:05:27.000",
    "date_modified": "2024-08-20T20:05:27.000",
    "request_status": "Pending",
    "responsible_agency": "Department of Public Works",
    "final_address": "5510 Glouster Rd",
    "address_councildis": "E",
    "status": "Pending",
    "rowid": "1123607",
    "final_x": "3707412.77016",
    "final_y": "557984.524699",
    "longitude": "-89.9852647133697",
    "latitude": "30.027450967090672",
    "geocoded_column": {
      "latitude": "30.027450967090672",
      "longitude": "-89.9852647133697"
    }
  },
  {
    "service_request": "2024-1123606",
    "request_type": "Roads/Drainage",
    "request_reason": "Catch Basin - Clogged",
    "date_created": "2024-08-20T20:03:29.000",
    "date_modified": "2024-08-20T20:03:29.000",
    "request_status": "Pending",
    "responsible_agency": "Department of Public Works",
    "final_address": "1518 First St",
    "address_councildis": "B",
    "status": "Pending",
    "rowid": "1123606",
    "final_x": "3677116.83842",
    "final_y": "522905.006971",
    "longitude": "-90.08220780251573",
    "latitude": "29.93193965915099",
    "geocoded_column": {
      "latitude": "29.93193965915099",
      "longitude": "-90.08220780251573"
    }
  },
  {
    "service_request": "2024-1123605",
    "request_type": "Trash/Recycling",
    "request_reason": "Request a Large Item Pick Up",
    "date_created": "2024-08-20T20:00:03.000",
    "date_modified": "2024-08-20T20:00:04.000",
    "request_status": "Pending",
    "responsible_agency": "Department of Sanitation",
    "final_address": "4013 Lennox Blvd",
    "address_councildis": "C",
    "status": "Assigned to Contractor",
    "contractor": "Richards Disposal",
    "rowid": "1123605",
    "final_x": "3700721.20106",
    "final_y": "515977.5733",
    "longitude": "-90.00794476433357",
    "latitude": "29.912161810227953",
    "geocoded_column": {
      "latitude": "29.912161810227953",
      "longitude": "-90.00794476433357"
    }
  },
  {
    "service_request": "2024-1123604",
    "request_type": "Trash/Recycling",
    "request_reason": "Request a Large Item Pick Up",
    "date_created": "2024-08-20T19:58:07.000",
    "date_modified": "2024-08-20T19:58:07.000",
    "request_status": "Pending",
    "responsible_agency": "Department of Sanitation",
    "final_address": "4013 Lennox Blvd",
    "address_councildis": "C",
    "status": "Assigned to Contractor",
    "contractor": "Richards Disposal",
    "rowid": "1123604",
    "final_x": "3700721.20106",
    "final_y": "515977.5733",
    "longitude": "-90.00794476433357",
    "latitude": "29.912161810227953",
    "geocoded_column": {
      "latitude": "29.912161810227953",
      "longitude": "-90.00794476433357"
    }
  },
  {
    "service_request": "2024-1123603",
    "request_type": "Trash/Recycling",
    "request_reason": "Request a Large Item Pick Up",
    "date_created": "2024-08-20T19:51:59.000",
    "date_modified": "2024-08-20T19:52:00.000",
    "request_status": "Pending",
    "responsible_agency": "Department of Sanitation",
    "final_address": "3162 Toulouse St",
    "address_councildis": "A",
    "status": "Assigned to Contractor",
    "contractor": "IV Waste",
    "rowid": "1123603",
    "final_x": "3674779.4596",
    "final_y": "537782.166984",
    "longitude": "-90.08907667563817",
    "latitude": "29.97291687270167",
    "geocoded_column": {
      "latitude": "29.97291687270167",
      "longitude": "-90.08907667563817"
    }
  },
  {
    "service_request": "2024-1123602",
    "request_type": "Safety & Permits",
    "request_reason": "Safety & Permits Request (Cyber Incident Back Up)",
    "date_created": "2024-08-20T19:39:57.000",
    "date_modified": "2024-08-20T19:39:57.000",
    "request_status": "Pending",
    "responsible_agency": "Safety and Permits",
    "final_address": "8318 Oleander St",
    "address_councildis": "A",
    "status": "Pending",
    "rowid": "1123602",
    "final_x": "3666079.28628",
    "final_y": "534237.239045",
    "longitude": "-90.11667246993777",
    "latitude": "29.963426399472482",
    "geocoded_column": {
      "latitude": "29.963426399472482",
      "longitude": "-90.11667246993777"
    }
  },
  {
    "service_request": "2024-1123601",
    "request_type": "Trash/Recycling",
    "request_reason": "Request a Large Item Pick Up",
    "date_created": "2024-08-20T19:26:47.000",
    "date_modified": "2024-08-20T19:26:47.000",
    "request_status": "Pending",
    "responsible_agency": "Department of Sanitation",
    "final_address": "4766 Galahad Dr",
    "address_councildis": "E",
    "status": "Assigned to Contractor",
    "contractor": "Waste Pro",
    "rowid": "1123601",
    "final_x": "3707120.49803",
    "final_y": "555640.954841",
    "longitude": "-89.98627532054213",
    "latitude": "30.02101651445104",
    "geocoded_column": {
      "latitude": "30.02101651445104",
      "longitude": "-89.98627532054213"
    }
  },
  {
    "service_request": "2024-1123600",
    "request_type": "Parks & Parkways",
    "request_reason": "Request Tree Service (Right of Way/Public Property)",
    "date_created": "2024-08-20T19:02:46.000",
    "date_modified": "2024-08-20T19:02:46.000",
    "request_status": "Pending",
    "responsible_agency": "Department of Parks & Parkway",
    "final_address": "4600 BLK Earhart Blvd",
    "address_councildis": "B",
    "status": "Pending",
    "rowid": "1123600",
    "final_x": "3670038.97911",
    "final_y": "531954.513963",
    "longitude": "-90.10424548095935",
    "latitude": "29.957033460394086",
    "geocoded_column": {
      "latitude": "29.957033460394086",
      "longitude": "-90.10424548095935"
    }
  },
  {
    "service_request": "2024-1123599",
    "request_type": "Property Maintenance",
    "request_reason": "Property Maintenance",
    "date_created": "2024-08-20T18:50:19.000",
    "date_modified": "2024-08-20T18:50:19.000",
    "request_status": "Pending",
    "responsible_agency": "Department of Code Enforcement",
    "final_address": "7320 Shubrick Ave",
    "address_councildis": "E",
    "status": "Pending",
    "rowid": "1123599",
    "final_x": "3707142.78846",
    "final_y": "562915.41904",
    "longitude": "-89.98593460624575",
    "latitude": "30.041017714375638",
    "geocoded_column": {
      "latitude": "30.041017714375638",
      "longitude": "-89.98593460624575"
    }
  },
  {
    "service_request": "2024-1123598",
    "request_type": "Property Maintenance",
    "request_reason": "Property Maintenance",
    "date_created": "2024-08-20T18:43:47.000",
    "date_modified": "2024-08-20T18:43:47.000",
    "request_status": "Pending",
    "responsible_agency": "Department of Code Enforcement",
    "final_address": "7320 Shubrick Ave",
    "address_councildis": "E",
    "status": "Pending",
    "rowid": "1123598",
    "final_x": "3707142.78846",
    "final_y": "562915.41904",
    "longitude": "-89.98593460624575",
    "latitude": "30.041017714375638",
    "geocoded_column": {
      "latitude": "30.041017714375638",
      "longitude": "-89.98593460624575"
    }
  },
  {
    "service_request": "2024-1123597",
    "request_type": "Trash/Recycling",
    "request_reason": "Request a Large Item Pick Up",
    "date_created": "2024-08-20T18:37:20.000",
    "date_modified": "2024-08-20T18:37:21.000",
    "request_status": "Pending",
    "responsible_agency": "Department of Sanitation",
    "final_address": "2131 Joseph St",
    "address_councildis": "A",
    "status": "Assigned to Contractor",
    "contractor": "IV Waste",
    "rowid": "1123597",
    "final_x": "3667303.17242",
    "final_y": "523996.552956",
    "longitude": "-90.1131519285362",
    "latitude": "29.93523205238563",
    "geocoded_column": {
      "latitude": "29.93523205238563",
      "longitude": "-90.1131519285362"
    }
  },
  {
    "service_request": "2024-1123596",
    "request_type": "Parks & Parkways",
    "request_reason": "Request Tree Service (Right of Way/Public Property)",
    "date_created": "2024-08-20T18:31:13.000",
    "date_modified": "2024-08-20T18:31:13.000",
    "request_status": "Pending",
    "responsible_agency": "Department of Parks & Parkway",
    "final_address": "6124 Canal Blvd",
    "address_councildis": "A",
    "status": "Pending",
    "rowid": "1123596",
    "final_x": "3668428.16647",
    "final_y": "548158.802834",
    "longitude": "-90.10878511280218",
    "latitude": "30.00163719298222",
    "geocoded_column": {
      "latitude": "30.00163719298222",
      "longitude": "-90.10878511280218"
    }
  },
  {
    "service_request": "2024-1123595",
    "request_type": "Trash/Recycling",
    "request_reason": "Request a Large Item Pick Up",
    "date_created": "2024-08-20T18:12:30.000",
    "date_modified": "2024-08-20T18:12:30.000",
    "request_status": "Pending",
    "responsible_agency": "Department of Sanitation",
    "final_address": "729 Milan St",
    "address_councildis": "B",
    "status": "Assigned to Contractor",
    "contractor": "IV Waste",
    "rowid": "1123595",
    "final_x": "3671886.04161",
    "final_y": "518367.984246",
    "longitude": "-90.09887522022899",
    "latitude": "29.919620308353295",
    "geocoded_column": {
      "latitude": "29.919620308353295",
      "longitude": "-90.09887522022899"
    }
  },
  {
    "service_request": "2024-1123594",
    "request_type": "Property Maintenance",
    "request_reason": "Property Maintenance",
    "date_created": "2024-08-20T18:02:46.000",
    "date_modified": "2024-08-20T18:02:46.000",
    "request_status": "Pending",
    "responsible_agency": "Department of Code Enforcement",
    "final_address": "814 Thayer St",
    "address_councildis": "C",
    "status": "Pending",
    "rowid": "1123594",
    "final_x": "3689506.23126",
    "final_y": "528511.252736",
    "longitude": "-90.04289659984153",
    "latitude": "29.94697714659683",
    "geocoded_column": {
      "latitude": "29.94697714659683",
      "longitude": "-90.04289659984153"
    }
  },
  {
    "service_request": "2024-1123593",
    "request_type": "Trash/Recycling",
    "request_reason": "Order Trash Cart",
    "date_created": "2024-08-20T17:55:31.000",
    "date_modified": "2024-08-20T17:55:32.000",
    "request_status": "Pending",
    "responsible_agency": "Department of Sanitation",
    "final_address": "10820 Willowbrae Dr",
    "address_councildis": "E",
    "status": "Assigned to Contractor",
    "contractor": "Waste Pro",
    "rowid": "1123593",
    "final_x": "3711023.76926",
    "final_y": "564250.450017",
    "longitude": "-89.9736194117915",
    "latitude": "30.044562459290557",
    "geocoded_column": {
      "latitude": "30.044562459290557",
      "longitude": "-89.9736194117915"
    }
  },
  {
    "service_request": "2024-1123592",
    "request_type": "Property Maintenance",
    "request_reason": "Property Maintenance",
    "date_created": "2024-08-20T17:53:59.000",
    "date_modified": "2024-08-20T17:53:59.000",
    "request_status": "Pending",
    "responsible_agency": "Department of Code Enforcement",
    "final_address": "2220 Short St",
    "address_councildis": "A",
    "status": "Pending",
    "rowid": "1123592",
    "final_x": "3664746.11552",
    "final_y": "530824.815618",
    "longitude": "-90.12099651024916",
    "latitude": "29.954082205659414",
    "geocoded_column": {
      "latitude": "29.954082205659414",
      "longitude": "-90.12099651024916"
    }
  },
  {
    "service_request": "2024-1123591",
    "request_type": "Traffic Signals/Signs/Striping/Streetlights",
    "request_reason": "Street Light Outage/Malfunction",
    "date_created": "2024-08-20T17:45:31.000",
    "date_modified": "2024-08-20T17:45:32.000",
    "request_status": "Pending",
    "responsible_agency": "Department of Public Works",
    "final_address": "4118 Grand Ave",
    "address_councildis": "E",
    "status": "Assigned to Contractor",
    "contractor": "Legacy Professional Services",
    "rowid": "1123591",
    "final_x": "3717541.15346",
    "final_y": "554131.961432",
    "longitude": "-89.95340684569862",
    "latitude": "30.016526418546004",
    "geocoded_column": {
      "latitude": "30.016526418546004",
      "longitude": "-89.95340684569862"
    }
  },
  {
    "service_request": "2024-1123590",
    "request_type": "Trash/Recycling",
    "request_reason": "Illegal Dumping",
    "date_created": "2024-08-20T17:23:40.000",
    "date_modified": "2024-08-20T17:23:40.000",
    "request_status": "Pending",
    "responsible_agency": "Department of Sanitation",
    "final_address": "514 David St",
    "address_councildis": "A",
    "status": "Pending",
    "rowid": "1123590",
    "final_x": "3671940.61844",
    "final_y": "539743.45057",
    "longitude": "-90.09797551815768",
    "latitude": "29.978394194975806",
    "geocoded_column": {
      "latitude": "29.978394194975806",
      "longitude": "-90.09797551815768"
    }
  },
  {
    "service_request": "2024-1123589",
    "request_type": "Trash/Recycling",
    "request_reason": "Request a Large Item Pick Up",
    "date_created": "2024-08-20T16:54:46.000",
    "date_modified": "2024-08-20T16:54:46.000",
    "request_status": "Pending",
    "responsible_agency": "Department of Sanitation",
    "final_address": "401 Elmira Ave",
    "address_councildis": "C",
    "status": "Assigned to Contractor",
    "contractor": "Richards Disposal",
    "rowid": "1123589",
    "final_x": "3688188.60598",
    "final_y": "530288.369409",
    "longitude": "-90.04699382929253",
    "latitude": "29.95190434538229",
    "geocoded_column": {
      "latitude": "29.95190434538229",
      "longitude": "-90.04699382929253"
    }
  },
  {
    "service_request": "2024-1123588",
    "request_type": "Parks & Parkways",
    "request_reason": "Request Grass Cutting Service (City Owned Property)",
    "date_created": "2024-08-20T16:51:04.000",
    "date_modified": "2024-08-20T16:51:05.000",
    "request_status": "Pending",
    "responsible_agency": "Department of Parks & Parkway",
    "final_address": "1209 Forstall St",
    "address_councildis": "E",
    "status": "Pending",
    "rowid": "1123588",
    "final_x": "3696402.84522",
    "final_y": "534626.22119",
    "longitude": "-90.02090040886098",
    "latitude": "29.963575793658144",
    "geocoded_column": {
      "latitude": "29.963575793658144",
      "longitude": "-90.02090040886098"
    }
  },
  {
    "service_request": "2024-1123587",
    "request_type": "Trash/Recycling",
    "request_reason": "MIssed Recycling Pick-Up",
    "date_created": "2024-08-20T16:46:42.000",
    "date_modified": "2024-08-20T16:46:43.000",
    "request_status": "Pending",
    "responsible_agency": "Department of Sanitation",
    "final_address": "3521 Indiana St",
    "address_councildis": "C",
    "status": "Assigned to Contractor",
    "contractor": "Richards Disposal",
    "rowid": "1123587",
    "final_x": "3693491.56701",
    "final_y": "520253.625272",
    "longitude": "-90.03060989423149",
    "latitude": "29.924147479849413",
    "geocoded_column": {
      "latitude": "29.924147479849413",
      "longitude": "-90.03060989423149"
    }
  },
  {
    "service_request": "2024-1123586",
    "request_type": "Trash/Recycling",
    "request_reason": "Request a Large Item Pick Up",
    "date_created": "2024-08-20T16:45:25.000",
    "date_modified": "2024-08-20T16:45:25.000",
    "request_status": "Pending",
    "responsible_agency": "Department of Sanitation",
    "final_address": "918 Fats Domino Ave",
    "address_councildis": "E",
    "status": "Assigned to Contractor",
    "contractor": "Waste Pro",
    "rowid": "1123586",
    "final_x": "3697794.97168",
    "final_y": "533166.429572",
    "longitude": "-90.01655721970569",
    "latitude": "29.95951796801149",
    "geocoded_column": {
      "latitude": "29.95951796801149",
      "longitude": "-90.01655721970569"
    }
  },
  {
    "service_request": "2024-1123585",
    "request_type": "Roads/Drainage",
    "request_reason": "Damaged Sidewalk",
    "date_created": "2024-08-20T16:44:58.000",
    "date_modified": "2024-08-20T16:44:59.000",
    "request_status": "Pending",
    "responsible_agency": "Department of Public Works",
    "final_address": "1450 Riviera Ave",
    "address_councildis": "D",
    "status": "Pending",
    "rowid": "1123585",
    "final_x": "3677902.67714",
    "final_y": "550782.665301",
    "longitude": "-90.07876341305794",
    "latitude": "30.00857006765453",
    "geocoded_column": {
      "latitude": "30.00857006765453",
      "longitude": "-90.07876341305794"
    }
  },
  {
    "service_request": "2024-1123584",
    "request_type": "Trash/Recycling",
    "request_reason": "Repair Trash Cart",
    "date_created": "2024-08-20T16:41:36.000",
    "date_modified": "2024-08-20T16:41:37.000",
    "request_status": "Pending",
    "responsible_agency": "Department of Sanitation",
    "final_address": "6061 Wingate Dr",
    "address_councildis": "D",
    "status": "Assigned to Contractor",
    "contractor": "IV Waste",
    "rowid": "1123584",
    "final_x": "3681228.67605",
    "final_y": "555373.867801",
    "longitude": "-90.06809535917066",
    "latitude": "30.021093657243597",
    "geocoded_column": {
      "latitude": "30.021093657243597",
      "longitude": "-90.06809535917066"
    }
  },
  {
    "service_request": "2024-1123583",
    "request_type": "Traffic Signals/Signs/Striping/Streetlights",
    "request_reason": "Street Light Outage/Malfunction",
    "date_created": "2024-08-20T16:37:37.000",
    "date_modified": "2024-08-20T16:37:38.000",
    "request_status": "Pending",
    "responsible_agency": "Department of Public Works",
    "final_address": "1450 Riviera Ave",
    "address_councildis": "D",
    "status": "Assigned to Contractor",
    "contractor": "Legacy Professional Services",
    "rowid": "1123583",
    "final_x": "3677902.67714",
    "final_y": "550782.665301",
    "longitude": "-90.07876341305794",
    "latitude": "30.00857006765453",
    "geocoded_column": {
      "latitude": "30.00857006765453",
      "longitude": "-90.07876341305794"
    }
  },
  {
    "service_request": "2024-1123582",
    "request_type": "Trash/Recycling",
    "request_reason": "Request a Large Item Pick Up",
    "date_created": "2024-08-20T16:35:55.000",
    "date_modified": "2024-08-20T16:35:55.000",
    "request_status": "Pending",
    "responsible_agency": "Department of Sanitation",
    "final_address": "4746 Rosalia Dr",
    "address_councildis": "E",
    "status": "Assigned to Contractor",
    "contractor": "Waste Pro",
    "rowid": "1123582",
    "final_x": "3711131.8483",
    "final_y": "555853.416281",
    "longitude": "-89.97359276039418",
    "latitude": "30.021470424003702",
    "geocoded_column": {
      "latitude": "30.021470424003702",
      "longitude": "-89.97359276039418"
    }
  },
  {
    "service_request": "2024-1123581",
    "request_type": "Roads/Drainage",
    "request_reason": "Pothole",
    "date_created": "2024-08-20T16:30:11.000",
    "date_modified": "2024-08-20T16:30:35.000",
    "case_close_date": "2024-08-20T11:30:35.000",
    "request_status": "Closed",
    "responsible_agency": "Department of Public Works",
    "final_address": "1400 BLK N Roman St",
    "address_councildis": "D",
    "status": "Resolved",
    "rowid": "1123581",
    "final_x": "3681044.36556",
    "final_y": "537477.772273",
    "longitude": "-90.06930152049866",
    "latitude": "29.971891345979213",
    "geocoded_column": {
      "latitude": "29.971891345979213",
      "longitude": "-90.06930152049866"
    }
  },
  {
    "service_request": "2024-1123580",
    "request_type": "Trash/Recycling",
    "request_reason": "Request a Large Item Pick Up",
    "date_created": "2024-08-20T16:28:31.000",
    "date_modified": "2024-08-20T16:28:33.000",
    "request_status": "Pending",
    "responsible_agency": "Department of Sanitation",
    "final_address": "926 Royal St",
    "address_councildis": "C",
    "status": "Assigned to Contractor",
    "contractor": "Empire Services",
    "rowid": "1123580",
    "final_x": "3683160.93026",
    "final_y": "533212.692228",
    "longitude": "-90.06276644110109",
    "latitude": "29.96009947429503",
    "geocoded_column": {
      "latitude": "29.96009947429503",
      "longitude": "-90.06276644110109"
    }
  },
  {
    "service_request": "2024-1123579",
    "request_type": "Trash/Recycling",
    "request_reason": "Request a Large Item Pick Up",
    "date_created": "2024-08-20T16:26:24.000",
    "date_modified": "2024-08-20T16:26:25.000",
    "request_status": "Pending",
    "responsible_agency": "Department of Sanitation",
    "final_address": "4608 Mithra St",
    "address_councildis": "D",
    "status": "Assigned to Contractor",
    "contractor": "IV Waste",
    "rowid": "1123579",
    "final_x": "3690888.47792",
    "final_y": "553389.579799",
    "longitude": "-90.03764412648434",
    "latitude": "30.0153407812493",
    "geocoded_column": {
      "latitude": "30.0153407812493",
      "longitude": "-90.03764412648434"
    }
  },
  {
    "service_request": "2024-1123577",
    "request_type": "Property Maintenance",
    "request_reason": "Property Maintenance",
    "date_created": "2024-08-20T16:20:11.000",
    "date_modified": "2024-08-20T16:20:11.000",
    "request_status": "Pending",
    "responsible_agency": "Department of Code Enforcement",
    "final_address": "301 Spencer Ave",
    "address_councildis": "A",
    "status": "Pending",
    "rowid": "1123577",
    "final_x": "3665394.35213",
    "final_y": "553703.099927",
    "longitude": "-90.11818353198306",
    "latitude": "30.016970882475448",
    "geocoded_column": {
      "latitude": "30.016970882475448",
      "longitude": "-90.11818353198306"
    }
  },
  {
    "service_request": "2024-1123576",
    "request_type": "Traffic Signals/Signs/Striping/Streetlights",
    "request_reason": "Street Light Outage/Malfunction",
    "date_created": "2024-08-20T16:15:48.000",
    "date_modified": "2024-08-20T16:15:49.000",
    "request_status": "Pending",
    "responsible_agency": "Department of Public Works",
    "final_address": "3519 Magazine St",
    "address_councildis": "B",
    "status": "Assigned to Contractor",
    "contractor": "Legacy Professional Services",
    "rowid": "1123576",
    "final_x": "3674277.67086",
    "final_y": "519385.742583",
    "longitude": "-90.0912911961767",
    "latitude": "29.922347753059807",
    "geocoded_column": {
      "latitude": "29.922347753059807",
      "longitude": "-90.0912911961767"
    }
  },
  {
    "service_request": "2024-1123575",
    "request_type": "Trash/Recycling",
    "request_reason": "Order Trash Cart",
    "date_created": "2024-08-20T16:14:30.000",
    "date_modified": "2024-08-20T16:14:31.000",
    "request_status": "Pending",
    "responsible_agency": "Department of Sanitation",
    "final_address": "2531 Calhoun St",
    "address_councildis": "A",
    "status": "Assigned to Contractor",
    "contractor": "IV Waste",
    "rowid": "1123575",
    "final_x": "3666319.53805",
    "final_y": "526248.009534",
    "longitude": "-90.11618177091084",
    "latitude": "29.941451601954267",
    "geocoded_column": {
      "latitude": "29.941451601954267",
      "longitude": "-90.11618177091084"
    }
  },
  {
    "service_request": "2024-1123574",
    "request_type": "Trash/Recycling",
    "request_reason": "Request a Large Item Pick Up",
    "date_created": "2024-08-20T16:14:10.000",
    "date_modified": "2024-08-20T16:14:26.000",
    "request_status": "Pending",
    "responsible_agency": "Department of Sanitation",
    "final_address": "4767 Longfellow Dr",
    "address_councildis": "E",
    "status": "Assigned to Contractor",
    "contractor": "Waste Pro",
    "rowid": "1123574",
    "final_x": "3709667.01688",
    "final_y": "556046.050841",
    "longitude": "-89.97821398767468",
    "latitude": "30.02204780861513",
    "geocoded_column": {
      "latitude": "30.02204780861513",
      "longitude": "-89.97821398767468"
    }
  },
  {
    "service_request": "2024-1123573",
    "request_type": "Abandoned Vehicles",
    "request_reason": "Abandoned/Junk Vehicles",
    "date_created": "2024-08-20T16:12:35.000",
    "date_modified": "2024-08-20T16:12:36.000",
    "request_status": "Pending",
    "responsible_agency": "Department of Public Works",
    "final_address": "620 Philip St",
    "address_councildis": "B",
    "status": "Pending",
    "rowid": "1123573",
    "final_x": "3679510.37365",
    "final_y": "520523.865464",
    "longitude": "-90.07473423175934",
    "latitude": "29.925320220942282",
    "geocoded_column": {
      "latitude": "29.925320220942282",
      "longitude": "-90.07473423175934"
    }
  },
  {
    "service_request": "2024-1123572",
    "request_type": "Trash/Recycling",
    "request_reason": "Missed Trash Pick-Up",
    "date_created": "2024-08-20T16:04:28.000",
    "date_modified": "2024-08-20T16:04:29.000",
    "request_status": "Pending",
    "responsible_agency": "Department of Sanitation",
    "final_address": "3653 St Ferdinand St",
    "address_councildis": "D",
    "status": "Assigned to Contractor",
    "contractor": "IV Waste",
    "rowid": "1123572",
    "final_x": "3690017.33833",
    "final_y": "546752.952209",
    "longitude": "-90.0406330744457",
    "latitude": "29.99711954682713",
    "geocoded_column": {
      "latitude": "29.99711954682713",
      "longitude": "-90.0406330744457"
    }
  },
  {
    "service_request": "2024-1123571",
    "request_type": "Trash/Recycling",
    "request_reason": "Repair Trash Cart",
    "date_created": "2024-08-20T16:03:57.000",
    "date_modified": "2024-08-20T16:03:58.000",
    "request_status": "Pending",
    "responsible_agency": "Department of Sanitation",
    "final_address": "3653 St Ferdinand St",
    "address_councildis": "D",
    "status": "Assigned to Contractor",
    "contractor": "IV Waste",
    "rowid": "1123571",
    "final_x": "3690017.33833",
    "final_y": "546752.952209",
    "longitude": "-90.0406330744457",
    "latitude": "29.99711954682713",
    "geocoded_column": {
      "latitude": "29.99711954682713",
      "longitude": "-90.0406330744457"
    }
  },
  {
    "service_request": "2024-1123570",
    "request_type": "Trash/Recycling",
    "request_reason": "Request a Large Item Pick Up",
    "date_created": "2024-08-20T16:03:23.000",
    "date_modified": "2024-08-20T16:03:24.000",
    "request_status": "Pending",
    "responsible_agency": "Department of Sanitation",
    "final_address": "4129 Piedmont Dr",
    "address_councildis": "D",
    "status": "Assigned to Contractor",
    "contractor": "IV Waste",
    "rowid": "1123570",
    "final_x": "3685052.06863",
    "final_y": "547905.210002",
    "longitude": "-90.05627755475281",
    "latitude": "30.00044093272901",
    "geocoded_column": {
      "latitude": "30.00044093272901",
      "longitude": "-90.05627755475281"
    }
  },
  {
    "service_request": "2024-1123569",
    "request_type": "Property Maintenance",
    "request_reason": "Property Maintenance",
    "date_created": "2024-08-20T16:01:29.000",
    "date_modified": "2024-08-20T16:01:30.000",
    "request_status": "Pending",
    "responsible_agency": "Department of Code Enforcement",
    "final_address": "2918 Republic St",
    "address_councildis": "D",
    "status": "Pending",
    "rowid": "1123569",
    "final_x": "3680619.002",
    "final_y": "543148.175501",
    "longitude": "-90.07044751253854",
    "latitude": "29.987495877863672",
    "geocoded_column": {
      "latitude": "29.987495877863672",
      "longitude": "-90.07044751253854"
    }
  },
  {
    "service_request": "2024-1123568",
    "request_type": "Trash/Recycling",
    "request_reason": "Request a Large Item Pick Up",
    "date_created": "2024-08-20T16:00:08.000",
    "date_modified": "2024-08-20T16:00:08.000",
    "request_status": "Pending",
    "responsible_agency": "Department of Sanitation",
    "final_address": "4748 Venus St",
    "address_councildis": "D",
    "status": "Assigned to Contractor",
    "contractor": "IV Waste",
    "rowid": "1123568",
    "final_x": "3686405.06786",
    "final_y": "550662.411668",
    "longitude": "-90.05190594646528",
    "latitude": "30.007980704509915",
    "geocoded_column": {
      "latitude": "30.007980704509915",
      "longitude": "-90.05190594646528"
    }
  },
  {
    "service_request": "2024-1123567",
    "request_type": "Trash/Recycling",
    "request_reason": "Request a Large Item Pick Up",
    "date_created": "2024-08-20T15:54:32.000",
    "date_modified": "2024-08-20T15:54:33.000",
    "request_status": "Pending",
    "responsible_agency": "Department of Sanitation",
    "final_address": "3300 BLK Albert St",
    "address_councildis": "C",
    "status": "Assigned to Contractor",
    "contractor": "Richards Disposal",
    "rowid": "1123567",
    "final_x": "3711953.33852",
    "final_y": "518114.33331",
    "longitude": "-89.97241337726622",
    "latitude": "29.91767513167149",
    "geocoded_column": {
      "latitude": "29.91767513167149",
      "longitude": "-89.97241337726622"
    }
  },
  {
    "service_request": "2024-1123565",
    "request_type": "Trash/Recycling",
    "request_reason": "Replace Trash Cart",
    "date_created": "2024-08-20T15:51:06.000",
    "date_modified": "2024-08-20T15:51:07.000",
    "request_status": "Pending",
    "responsible_agency": "Department of Sanitation",
    "final_address": "1740 Kabel Dr",
    "address_councildis": "C",
    "status": "Assigned to Contractor",
    "contractor": "Richards Disposal",
    "rowid": "1123565",
    "final_x": "3700791.2538",
    "final_y": "521268.719225",
    "longitude": "-90.00753042913821",
    "latitude": "29.926708421941335",
    "geocoded_column": {
      "latitude": "29.926708421941335",
      "longitude": "-90.00753042913821"
    }
  },
  {
    "service_request": "2024-1123564",
    "request_type": "Trash/Recycling",
    "request_reason": "Replace Recycling Cart",
    "date_created": "2024-08-20T15:47:34.000",
    "date_modified": "2024-08-20T15:47:34.000",
    "request_status": "Pending",
    "responsible_agency": "Department of Sanitation",
    "final_address": "5406 S Rocheblave St",
    "address_councildis": "A",
    "status": "Pending",
    "rowid": "1123564",
    "final_x": "3668790.54926",
    "final_y": "528266.148224",
    "longitude": "-90.10831216134768",
    "latitude": "29.946928424308954",
    "geocoded_column": {
      "latitude": "29.946928424308954",
      "longitude": "-90.10831216134768"
    }
  },
  {
    "service_request": "2024-1123563",
    "request_type": "Trash/Recycling",
    "request_reason": "Request a Large Item Pick Up",
    "date_created": "2024-08-20T15:47:19.000",
    "date_modified": "2024-08-20T15:47:20.000",
    "request_status": "Pending",
    "responsible_agency": "Department of Sanitation",
    "final_address": "2514 First St",
    "address_councildis": "B",
    "status": "Assigned to Contractor",
    "contractor": "IV Waste",
    "rowid": "1123563",
    "final_x": "3675023.49448",
    "final_y": "526053.228222",
    "longitude": "-90.08870832295177",
    "latitude": "29.940658922635162",
    "geocoded_column": {
      "latitude": "29.940658922635162",
      "longitude": "-90.08870832295177"
    }
  },
  {
    "service_request": "2024-1123562",
    "request_type": "Trash/Recycling",
    "request_reason": "Repair Recycling Cart",
    "date_created": "2024-08-20T15:45:17.000",
    "date_modified": "2024-08-20T15:45:17.000",
    "request_status": "Pending",
    "responsible_agency": "Department of Sanitation",
    "final_address": "5406 S Rocheblave St",
    "address_councildis": "A",
    "status": "Pending",
    "rowid": "1123562",
    "final_x": "3668790.54926",
    "final_y": "528266.148224",
    "longitude": "-90.10831216134768",
    "latitude": "29.946928424308954",
    "geocoded_column": {
      "latitude": "29.946928424308954",
      "longitude": "-90.10831216134768"
    }
  },
  {
    "service_request": "2024-1123561",
    "request_type": "Property Maintenance",
    "request_reason": "Property Maintenance",
    "date_created": "2024-08-20T15:44:43.000",
    "date_modified": "2024-08-20T15:44:43.000",
    "request_status": "Pending",
    "responsible_agency": "Department of Code Enforcement",
    "final_address": "7351 Poitevent Ave",
    "address_councildis": "E",
    "status": "Pending",
    "rowid": "1123561",
    "final_x": "3707457.91595",
    "final_y": "563345.138336",
    "longitude": "-89.98492272100248",
    "latitude": "30.042189078808644",
    "geocoded_column": {
      "latitude": "30.042189078808644",
      "longitude": "-89.98492272100248"
    }
  },
  {
    "service_request": "2024-1123560",
    "request_type": "Roads/Drainage",
    "request_reason": "Catch Basin - Clogged",
    "date_created": "2024-08-20T15:40:08.000",
    "date_modified": "2024-08-20T15:40:09.000",
    "request_status": "Pending",
    "responsible_agency": "Department of Public Works",
    "final_address": "7400 Northgate Dr",
    "address_councildis": "E",
    "status": "Pending",
    "rowid": "1123560",
    "final_x": "3712991.86302",
    "final_y": "565881.855907",
    "longitude": "-89.96733792928251",
    "latitude": "30.04898380220225",
    "geocoded_column": {
      "latitude": "30.04898380220225",
      "longitude": "-89.96733792928251"
    }
  },
  {
    "service_request": "2024-1123559",
    "request_type": "Trash/Recycling",
    "request_reason": "Order Recycling Cart",
    "date_created": "2024-08-20T15:40:01.000",
    "date_modified": "2024-08-20T15:40:02.000",
    "request_status": "Pending",
    "responsible_agency": "Department of Sanitation",
    "final_address": "5437 Vermillion Blvd",
    "address_councildis": "D",
    "status": "Pending",
    "rowid": "1123559",
    "final_x": "3683333.88009",
    "final_y": "552857.965463",
    "longitude": "-90.06153175296278",
    "latitude": "30.014111761562408",
    "geocoded_column": {
      "latitude": "30.014111761562408",
      "longitude": "-90.06153175296278"
    }
  },
  {
    "service_request": "2024-1123558",
    "request_type": "Trash/Recycling",
    "request_reason": "Order Trash Cart",
    "date_created": "2024-08-20T15:30:43.000",
    "date_modified": "2024-08-20T15:30:44.000",
    "request_status": "Pending",
    "responsible_agency": "Department of Sanitation",
    "final_address": "4619 Rhodes Dr",
    "address_councildis": "E",
    "status": "Assigned to Contractor",
    "contractor": "Waste Pro",
    "rowid": "1123558",
    "final_x": "3702623.02961",
    "final_y": "553961.24284",
    "longitude": "-90.00054766577739",
    "latitude": "30.016542563190697",
    "geocoded_column": {
      "latitude": "30.016542563190697",
      "longitude": "-90.00054766577739"
    }
  },
  {
    "service_request": "2024-1123557",
    "request_type": "Roads/Drainage",
    "request_reason": "Man hole cover issue",
    "date_created": "2024-08-20T15:27:05.000",
    "date_modified": "2024-08-20T15:27:06.000",
    "request_status": "Pending",
    "responsible_agency": "Department of Public Works",
    "final_address": "3740 Plymouth Pl",
    "address_councildis": "C",
    "status": "Pending",
    "rowid": "1123557",
    "final_x": "3702788.69034",
    "final_y": "516667.998837",
    "longitude": "-90.0013939282926",
    "latitude": "29.913994325371736",
    "geocoded_column": {
      "latitude": "29.913994325371736",
      "longitude": "-90.0013939282926"
    }
  },
  {
    "service_request": "2024-1123556",
    "request_type": "Trash/Recycling",
    "request_reason": "Repair Recycling Cart",
    "date_created": "2024-08-20T15:27:01.000",
    "date_modified": "2024-08-20T15:27:01.000",
    "request_status": "Pending",
    "responsible_agency": "Department of Sanitation",
    "final_address": "4538 Toulouse St",
    "address_councildis": "A",
    "status": "Pending",
    "rowid": "1123556",
    "final_x": "3670494.16743",
    "final_y": "540994.676299",
    "longitude": "-90.10250150019665",
    "latitude": "29.981877441000393",
    "geocoded_column": {
      "latitude": "29.981877441000393",
      "longitude": "-90.10250150019665"
    }
  },
  {
    "service_request": "2024-1123555",
    "request_type": "Roads/Drainage",
    "request_reason": "Catch Basin - Clogged",
    "date_created": "2024-08-20T15:25:52.000",
    "date_modified": "2024-08-20T15:25:53.000",
    "request_status": "Pending",
    "responsible_agency": "Department of Public Works",
    "final_address": "3740 Plymouth Pl",
    "address_councildis": "C",
    "status": "Pending",
    "rowid": "1123555",
    "final_x": "3702788.69034",
    "final_y": "516667.998837",
    "longitude": "-90.0013939282926",
    "latitude": "29.913994325371736",
    "geocoded_column": {
      "latitude": "29.913994325371736",
      "longitude": "-90.0013939282926"
    }
  },
  {
    "service_request": "2024-1123554",
    "request_type": "Trash/Recycling",
    "request_reason": "Request a Large Item Pick Up",
    "date_created": "2024-08-20T15:24:42.000",
    "date_modified": "2024-08-20T15:24:43.000",
    "request_status": "Pending",
    "responsible_agency": "Department of Sanitation",
    "final_address": "3500 Calhoun St",
    "address_councildis": "A",
    "status": "Assigned to Contractor",
    "contractor": "IV Waste",
    "rowid": "1123554",
    "final_x": "3667686.80583",
    "final_y": "529467.214337",
    "longitude": "-90.11175666976867",
    "latitude": "29.950263366004663",
    "geocoded_column": {
      "latitude": "29.950263366004663",
      "longitude": "-90.11175666976867"
    }
  },
  {
    "service_request": "2024-1123553",
    "request_type": "Parks & Parkways",
    "request_reason": "Request Tree Service (Right of Way/Public Property)",
    "date_created": "2024-08-20T15:24:21.000",
    "date_modified": "2024-08-20T15:24:22.000",
    "request_status": "Pending",
    "responsible_agency": "Department of Parks & Parkway",
    "final_address": "3740 Plymouth Pl",
    "address_councildis": "C",
    "status": "Pending",
    "rowid": "1123553",
    "final_x": "3702788.69034",
    "final_y": "516667.998837",
    "longitude": "-90.0013939282926",
    "latitude": "29.913994325371736",
    "geocoded_column": {
      "latitude": "29.913994325371736",
      "longitude": "-90.0013939282926"
    }
  },
  {
    "service_request": "2024-1123552",
    "request_type": "Trash/Recycling",
    "request_reason": "Repair Trash Cart",
    "date_created": "2024-08-20T15:23:23.000",
    "date_modified": "2024-08-20T15:23:24.000",
    "request_status": "Pending",
    "responsible_agency": "Department of Sanitation",
    "final_address": "12341 Carmel Pl",
    "address_councildis": "E",
    "status": "Assigned to Contractor",
    "contractor": "Waste Pro",
    "rowid": "1123552",
    "final_x": "3715925.4341",
    "final_y": "566672.858979",
    "longitude": "-89.95803618355008",
    "latitude": "30.051062250920577",
    "geocoded_column": {
      "latitude": "30.051062250920577",
      "longitude": "-89.95803618355008"
    }
  },
  {
    "service_request": "2024-1123551",
    "request_type": "Traffic Signals/Signs/Striping/Streetlights",
    "request_reason": "Street Light Outage/Malfunction",
    "date_created": "2024-08-20T15:20:51.000",
    "date_modified": "2024-08-20T15:20:53.000",
    "request_status": "Pending",
    "responsible_agency": "Department of Public Works",
    "final_address": "2500 Joliet St",
    "address_councildis": "A",
    "status": "Assigned to Contractor",
    "contractor": "Legacy Professional Services",
    "rowid": "1123551",
    "final_x": "3664058.80148",
    "final_y": "532852.390724",
    "longitude": "-90.12309915884657",
    "latitude": "29.95967735525483",
    "geocoded_column": {
      "latitude": "29.95967735525483",
      "longitude": "-90.12309915884657"
    }
  },
  {
    "service_request": "2024-1123550",
    "request_type": "Roads/Drainage",
    "request_reason": "Damaged Sidewalk",
    "date_created": "2024-08-20T15:20:21.000",
    "date_modified": "2024-08-20T15:20:22.000",
    "request_status": "Pending",
    "responsible_agency": "Department of Public Works",
    "final_address": "6600 Peony St",
    "address_councildis": "C",
    "status": "Pending",
    "rowid": "1123550",
    "final_x": "3708071.22411",
    "final_y": "516465.260981",
    "longitude": "-89.98472820484612",
    "latitude": "29.9132669666957",
    "geocoded_column": {
      "latitude": "29.9132669666957",
      "longitude": "-89.98472820484612"
    }
  },
  {
    "service_request": "2024-1123549",
    "request_type": "Trash/Recycling",
    "request_reason": "Request a Large Item Pick Up",
    "date_created": "2024-08-20T15:18:38.000",
    "date_modified": "2024-08-20T15:18:39.000",
    "request_status": "Pending",
    "responsible_agency": "Department of Sanitation",
    "final_address": "1278 Casa Calvo St",
    "address_councildis": "C",
    "status": "Assigned to Contractor",
    "contractor": "Richards Disposal",
    "rowid": "1123549",
    "final_x": "3692115.61993",
    "final_y": "526321.146814",
    "longitude": "-90.03473619423914",
    "latitude": "29.94087404646885",
    "geocoded_column": {
      "latitude": "29.94087404646885",
      "longitude": "-90.03473619423914"
    }
  },
  {
    "service_request": "2024-1123548",
    "request_type": "Mosquito, Termite & Rodent Control",
    "request_reason": "Rodent Complaint (Rats)",
    "date_created": "2024-08-20T15:18:03.000",
    "date_modified": "2024-08-20T15:18:03.000",
    "request_status": "Pending",
    "responsible_agency": "Mosquito, Termite & Rodent Control Board",
    "final_address": "4800 BLK Redwood St",
    "address_councildis": "E",
    "status": "Pending",
    "rowid": "1123548",
    "final_x": "3712400.6621",
    "final_y": "557027.919524",
    "longitude": "-89.96953952493014",
    "latitude": "30.02465838409401",
    "geocoded_column": {
      "latitude": "30.02465838409401",
      "longitude": "-89.96953952493014"
    }
  },
  {
    "service_request": "2024-1123547",
    "request_type": "Trash/Recycling",
    "request_reason": "Repair Recycling Cart",
    "date_created": "2024-08-20T15:17:59.000",
    "date_modified": "2024-08-20T15:17:59.000",
    "request_status": "Pending",
    "responsible_agency": "Department of Sanitation",
    "final_address": "6755 Milne Blvd",
    "address_councildis": "A",
    "status": "Pending",
    "rowid": "1123547",
    "final_x": "3667640.90266",
    "final_y": "552594.728982",
    "longitude": "-90.11112269133247",
    "latitude": "30.013857552801333",
    "geocoded_column": {
      "latitude": "30.013857552801333",
      "longitude": "-90.11112269133247"
    }
  },
  {
    "service_request": "2024-1123546",
    "request_type": "Trash/Recycling",
    "request_reason": "Request a Large Item Pick Up",
    "date_created": "2024-08-20T15:17:36.000",
    "date_modified": "2024-08-20T15:17:37.000",
    "request_status": "Pending",
    "responsible_agency": "Department of Sanitation",
    "final_address": "7421 Prytania St",
    "address_councildis": "A",
    "status": "Assigned to Contractor",
    "contractor": "IV Waste",
    "rowid": "1123546",
    "final_x": "3661108.57197",
    "final_y": "523195.824123",
    "longitude": "-90.13273486698677",
    "latitude": "29.933210228661174",
    "geocoded_column": {
      "latitude": "29.933210228661174",
      "longitude": "-90.13273486698677"
    }
  },
  {
    "service_request": "2024-1123545",
    "request_type": "Property Maintenance",
    "request_reason": "Property Maintenance",
    "date_created": "2024-08-20T15:14:37.000",
    "date_modified": "2024-08-20T15:14:38.000",
    "request_status": "Pending",
    "responsible_agency": "Department of Code Enforcement",
    "final_address": "7210 Read Blvd",
    "address_councildis": "E",
    "status": "Pending",
    "rowid": "1123545",
    "final_x": "3709378.5123",
    "final_y": "562655.347808",
    "longitude": "-89.97887872289387",
    "latitude": "30.040230145298533",
    "geocoded_column": {
      "latitude": "30.040230145298533",
      "longitude": "-89.97887872289387"
    }
  },
  {
    "service_request": "2024-1123544",
    "request_type": "Property Maintenance",
    "request_reason": "Property Maintenance",
    "date_created": "2024-08-20T15:13:07.000",
    "date_modified": "2024-08-20T15:16:44.000",
    "request_status": "Pending",
    "responsible_agency": "Department of Code Enforcement",
    "final_address": "9900 E Wheaton Cir",
    "address_councildis": "E",
    "status": "Pending",
    "rowid": "1123544",
    "final_x": "3709202.15787",
    "final_y": "562631.75184",
    "longitude": "-89.97943693575642",
    "latitude": "30.040170996519738",
    "geocoded_column": {
      "latitude": "30.040170996519738",
      "longitude": "-89.97943693575642"
    }
  },
  {
    "service_request": "2024-1123543",
    "request_type": "Trash/Recycling",
    "request_reason": "Illegal Dumping",
    "date_created": "2024-08-20T15:11:02.000",
    "date_modified": "2024-08-20T15:12:39.000",
    "request_status": "Pending",
    "responsible_agency": "Department of Sanitation",
    "final_address": "3400 Pauger St",
    "address_councildis": "D",
    "status": "Pending",
    "rowid": "1123543",
    "final_x": "3683310.07407",
    "final_y": "542137.608333",
    "longitude": "-90.06198277762175",
    "latitude": "29.984635346616493",
    "geocoded_column": {
      "latitude": "29.984635346616493",
      "longitude": "-90.06198277762175"
    }
  },
  {
    "service_request": "2024-1123542",
    "request_type": "Trash/Recycling",
    "request_reason": "Return Trash Cart",
    "date_created": "2024-08-20T15:07:32.000",
    "date_modified": "2024-08-20T15:07:33.000",
    "request_status": "Pending",
    "responsible_agency": "Department of Sanitation",
    "final_address": "2008 Bodenger Blvd",
    "address_councildis": "C",
    "status": "Assigned to Contractor",
    "contractor": "Richards Disposal",
    "rowid": "1123542",
    "final_x": "3688496.73609",
    "final_y": "524388.890556",
    "longitude": "-90.0462301453908",
    "latitude": "29.935673272682905",
    "geocoded_column": {
      "latitude": "29.935673272682905",
      "longitude": "-90.0462301453908"
    }
  },
  {
    "service_request": "2024-1123541",
    "request_type": "Trash/Recycling",
    "request_reason": "Order Recycling Cart",
    "date_created": "2024-08-20T15:07:24.000",
    "date_modified": "2024-08-20T15:07:24.000",
    "request_status": "Pending",
    "responsible_agency": "Department of Sanitation",
    "final_address": "4104 Dale St",
    "address_councildis": "E",
    "status": "Pending",
    "rowid": "1123541",
    "final_x": "3699715.35824",
    "final_y": "551763.344533",
    "longitude": "-90.00981481862972",
    "latitude": "30.010591848220372",
    "geocoded_column": {
      "latitude": "30.010591848220372",
      "longitude": "-90.00981481862972"
    }
  },
  {
    "service_request": "2024-1123540",
    "request_type": "Trash/Recycling",
    "request_reason": "Order Recycling Cart",
    "date_created": "2024-08-20T15:07:05.000",
    "date_modified": "2024-08-20T15:07:05.000",
    "request_status": "Pending",
    "responsible_agency": "Department of Sanitation",
    "final_address": "4026 Dale St",
    "address_councildis": "E",
    "status": "Pending",
    "rowid": "1123540",
    "final_x": "3699722.86154",
    "final_y": "551482.158229",
    "longitude": "-90.00980137435833",
    "latitude": "30.00981845356199",
    "geocoded_column": {
      "latitude": "30.00981845356199",
      "longitude": "-90.00980137435833"
    }
  },
  {
    "service_request": "2024-1123539",
    "request_type": "Trash/Recycling",
    "request_reason": "Order Recycling Cart",
    "date_created": "2024-08-20T15:06:48.000",
    "date_modified": "2024-08-20T15:06:49.000",
    "request_status": "Pending",
    "responsible_agency": "Department of Sanitation",
    "final_address": "4024 Dale St",
    "address_councildis": "E",
    "status": "Pending",
    "rowid": "1123539",
    "final_x": "3699724.4154",
    "final_y": "551618.799189",
    "longitude": "-90.00979147872408",
    "latitude": "30.010194115359514",
    "geocoded_column": {
      "latitude": "30.010194115359514",
      "longitude": "-90.00979147872408"
    }
  },
  {
    "service_request": "2024-1123538",
    "request_type": "Abandoned Vehicles",
    "request_reason": "Abandoned/Junk Vehicles",
    "date_created": "2024-08-20T15:06:35.000",
    "date_modified": "2024-08-20T15:06:35.000",
    "request_status": "Pending",
    "responsible_agency": "Department of Public Works",
    "final_address": "2628 St Louis St",
    "address_councildis": "B",
    "status": "Pending",
    "rowid": "1123538",
    "final_x": "3676414.26971",
    "final_y": "536045.045063",
    "longitude": "-90.08397344636816",
    "latitude": "29.968091465394718",
    "geocoded_column": {
      "latitude": "29.968091465394718",
      "longitude": "-90.08397344636816"
    }
  },
  {
    "service_request": "2024-1123537",
    "request_type": "Trash/Recycling",
    "request_reason": "Repair Trash Cart",
    "date_created": "2024-08-20T15:05:53.000",
    "date_modified": "2024-08-20T15:05:54.000",
    "request_status": "Pending",
    "responsible_agency": "Department of Sanitation",
    "final_address": "4104 Dale St",
    "address_councildis": "E",
    "status": "Assigned to Contractor",
    "contractor": "Waste Pro",
    "rowid": "1123537",
    "final_x": "3699715.35824",
    "final_y": "551763.344533",
    "longitude": "-90.00981481862972",
    "latitude": "30.010591848220372",
    "geocoded_column": {
      "latitude": "30.010591848220372",
      "longitude": "-90.00981481862972"
    }
  },
  {
    "service_request": "2024-1123536",
    "request_type": "Healthy Homes",
    "request_reason": "Healthy Homes",
    "date_created": "2024-08-20T15:05:31.000",
    "date_modified": "2024-08-20T15:44:35.000",
    "case_close_date": "2024-08-20T10:44:35.000",
    "request_status": "Closed",
    "responsible_agency": "Department of Code Enforcement",
    "final_address": "14551 Duane Rd",
    "address_councildis": "E",
    "status": "Referred to Code Enforcement",
    "rowid": "1123536",
    "final_x": "3720770.77791",
    "final_y": "573472.192554",
    "longitude": "-89.94246101109844",
    "latitude": "30.069596775800445",
    "geocoded_column": {
      "latitude": "30.069596775800445",
      "longitude": "-89.94246101109844"
    }
  },
  {
    "service_request": "2024-1123535",
    "request_type": "Roads/Drainage",
    "request_reason": "Pothole",
    "date_created": "2024-08-20T15:04:27.000",
    "date_modified": "2024-08-20T15:04:27.000",
    "request_status": "Pending",
    "responsible_agency": "Department of Public Works",
    "final_address": "PALMETTO ST & S CARROLLTON AVE",
    "address_councildis": "A",
    "status": "Pending",
    "rowid": "1123535",
    "final_x": "3668226.4",
    "final_y": "535189.78",
    "longitude": "-90.10985997871852",
    "latitude": "29.96598270910578",
    "geocoded_column": {
      "latitude": "29.96598270910578",
      "longitude": "-90.10985997871852"
    }
  },
  {
    "service_request": "2024-1123534",
    "request_type": "Trash/Recycling",
    "request_reason": "Order Recycling Cart",
    "date_created": "2024-08-20T15:04:08.000",
    "date_modified": "2024-08-20T15:04:09.000",
    "request_status": "Pending",
    "responsible_agency": "Department of Sanitation",
    "final_address": "1321 Bartholomew St",
    "address_councildis": "D",
    "status": "Pending",
    "rowid": "1123534",
    "final_x": "3692070.79504",
    "final_y": "536205.545479",
    "longitude": "-90.03452398542987",
    "latitude": "29.96805410301657",
    "geocoded_column": {
      "latitude": "29.96805410301657",
      "longitude": "-90.03452398542987"
    }
  },
  {
    "service_request": "2024-1123533",
    "request_type": "Abandoned Vehicles",
    "request_reason": "Abandoned/Junk Vehicles",
    "date_created": "2024-08-20T15:02:29.000",
    "date_modified": "2024-08-20T15:02:29.000",
    "request_status": "Pending",
    "responsible_agency": "Department of Public Works",
    "final_address": "1217 Congress St",
    "address_councildis": "D",
    "status": "Pending",
    "rowid": "1123533",
    "final_x": "3690884.68675",
    "final_y": "536077.472583",
    "longitude": "-90.03827431753197",
    "latitude": "29.967738862117557",
    "geocoded_column": {
      "latitude": "29.967738862117557",
      "longitude": "-90.03827431753197"
    }
  },
  {
    "service_request": "2024-1123532",
    "request_type": "Trash/Recycling",
    "request_reason": "Order Recycling Cart",
    "date_created": "2024-08-20T15:00:52.000",
    "date_modified": "2024-08-20T15:00:52.000",
    "request_status": "Pending",
    "responsible_agency": "Department of Sanitation",
    "final_address": "4211 Prytania St",
    "address_councildis": "B",
    "status": "Pending",
    "rowid": "1123532",
    "final_x": "3671542.19854",
    "final_y": "520454.048504",
    "longitude": "-90.09988968417052",
    "latitude": "29.925366501597154",
    "geocoded_column": {
      "latitude": "29.925366501597154",
      "longitude": "-90.09988968417052"
    }
  },
  {
    "service_request": "2024-1123531",
    "request_type": "Abandoned Vehicles",
    "request_reason": "Abandoned/Junk Vehicles",
    "date_created": "2024-08-20T15:00:03.000",
    "date_modified": "2024-08-20T15:00:03.000",
    "request_status": "Pending",
    "responsible_agency": "Department of Public Works",
    "final_address": "1217 Congress St",
    "address_councildis": "D",
    "status": "Pending",
    "rowid": "1123531",
    "final_x": "3690884.68675",
    "final_y": "536077.472583",
    "longitude": "-90.03827431753197",
    "latitude": "29.967738862117557",
    "geocoded_column": {
      "latitude": "29.967738862117557",
      "longitude": "-90.03827431753197"
    }
  },
  {
    "service_request": "2024-1123530",
    "request_type": "Trash/Recycling",
    "request_reason": "Order Trash Cart",
    "date_created": "2024-08-20T14:59:40.000",
    "date_modified": "2024-08-20T14:59:41.000",
    "request_status": "Pending",
    "responsible_agency": "Department of Sanitation",
    "final_address": "4211 Prytania St",
    "address_councildis": "B",
    "status": "Assigned to Contractor",
    "contractor": "IV Waste",
    "rowid": "1123530",
    "final_x": "3671542.19854",
    "final_y": "520454.048504",
    "longitude": "-90.09988968417052",
    "latitude": "29.925366501597154",
    "geocoded_column": {
      "latitude": "29.925366501597154",
      "longitude": "-90.09988968417052"
    }
  },
  {
    "service_request": "2024-1123529",
    "request_type": "Trash/Recycling",
    "request_reason": "Order Trash Cart",
    "date_created": "2024-08-20T14:59:13.000",
    "date_modified": "2024-08-20T14:59:14.000",
    "request_status": "Pending",
    "responsible_agency": "Department of Sanitation",
    "final_address": "5930 Baccich St",
    "address_councildis": "D",
    "status": "Assigned to Contractor",
    "contractor": "IV Waste",
    "rowid": "1123529",
    "final_x": "3687454.61391",
    "final_y": "555156.432729",
    "longitude": "-90.04843091197368",
    "latitude": "30.020305293165784",
    "geocoded_column": {
      "latitude": "30.020305293165784",
      "longitude": "-90.04843091197368"
    }
  },
  {
    "service_request": "2024-1123528",
    "request_type": "Abandoned Vehicles",
    "request_reason": "Abandoned/Junk Vehicles",
    "date_created": "2024-08-20T14:58:46.000",
    "date_modified": "2024-08-20T14:58:46.000",
    "request_status": "Pending",
    "responsible_agency": "Department of Public Works",
    "final_address": "2133 Dumaine St",
    "address_councildis": "D",
    "status": "Pending",
    "rowid": "1123528",
    "final_x": "3678888.26613",
    "final_y": "536253.855751",
    "longitude": "-90.07615323460013",
    "latitude": "29.968591219268504",
    "geocoded_column": {
      "latitude": "29.968591219268504",
      "longitude": "-90.07615323460013"
    }
  },
  {
    "service_request": "2024-1123527",
    "request_type": "Trash/Recycling",
    "request_reason": "Request a Large Item Pick Up",
    "date_created": "2024-08-20T14:57:41.000",
    "date_modified": "2024-08-20T16:53:03.000",
    "case_close_date": "2024-08-20T11:53:03.000",
    "request_status": "Closed",
    "responsible_agency": "Department of Sanitation",
    "final_address": "9886 E Rockton Cir",
    "address_councildis": "E",
    "status": "Duplicate Request",
    "contractor": "Waste Pro",
    "contractor_action": "Duplicate",
    "rowid": "1123527",
    "final_x": "3708796.16235",
    "final_y": "563174.976864",
    "longitude": "-89.98069973426304",
    "latitude": "30.041677832891516",
    "geocoded_column": {
      "latitude": "30.041677832891516",
      "longitude": "-89.98069973426304"
    }
  },
  {
    "service_request": "2024-1123525",
    "request_type": "Utility Poles",
    "request_reason": "Utility Pole Leaning",
    "date_created": "2024-08-20T14:54:13.000",
    "date_modified": "2024-08-20T14:54:19.000",
    "request_status": "Pending",
    "responsible_agency": "Utility Company Collective",
    "final_address": "4443 Wilson Ave",
    "address_councildis": "E",
    "status": "Pending",
    "rowid": "1123525",
    "final_x": "3703234.64132",
    "final_y": "553145.246167",
    "longitude": "-89.99864527971475",
    "latitude": "30.01427930928578",
    "geocoded_column": {
      "latitude": "30.01427930928578",
      "longitude": "-89.99864527971475"
    }
  },
  {
    "service_request": "2024-1123524",
    "request_type": "Trash/Recycling",
    "request_reason": "Request a Large Item Pick Up",
    "date_created": "2024-08-20T14:53:36.000",
    "date_modified": "2024-08-20T14:53:37.000",
    "request_status": "Pending",
    "responsible_agency": "Department of Sanitation",
    "final_address": "12700 Hayne Blvd",
    "address_councildis": "E",
    "status": "Assigned to Contractor",
    "contractor": "Waste Pro",
    "rowid": "1123524",
    "final_x": "3714473.03461",
    "final_y": "570249.035047",
    "longitude": "-89.9624914571783",
    "latitude": "30.06094311903613",
    "geocoded_column": {
      "latitude": "30.06094311903613",
      "longitude": "-89.9624914571783"
    }
  },
  {
    "service_request": "2024-1123523",
    "request_type": "Trash/Recycling",
    "request_reason": "Order Trash Cart",
    "date_created": "2024-08-20T14:53:11.000",
    "date_modified": "2024-08-20T14:53:12.000",
    "request_status": "Pending",
    "responsible_agency": "Department of Sanitation",
    "final_address": "4903 Willow St",
    "address_councildis": "B",
    "status": "Assigned to Contractor",
    "contractor": "IV Waste",
    "rowid": "1123523",
    "final_x": "3669165.21889",
    "final_y": "525339.954557",
    "longitude": "-90.1072280502615",
    "latitude": "29.93887132088219",
    "geocoded_column": {
      "latitude": "29.93887132088219",
      "longitude": "-90.1072280502615"
    }
  },
  {
    "service_request": "2024-1123522",
    "request_type": "Trash/Recycling",
    "request_reason": "Request a Large Item Pick Up",
    "date_created": "2024-08-20T14:52:52.000",
    "date_modified": "2024-08-20T14:52:53.000",
    "request_status": "Pending",
    "responsible_agency": "Department of Sanitation",
    "final_address": "7311 Burthe St",
    "address_councildis": "A",
    "status": "Assigned to Contractor",
    "contractor": "IV Waste",
    "rowid": "1123522",
    "final_x": "3663260.4425",
    "final_y": "525868.498749",
    "longitude": "-90.125852606056",
    "latitude": "29.940497063725278",
    "geocoded_column": {
      "latitude": "29.940497063725278",
      "longitude": "-90.125852606056"
    }
  },
  {
    "service_request": "2024-1123521",
    "request_type": "Trash/Recycling",
    "request_reason": "Request a Large Item Pick Up",
    "date_created": "2024-08-20T14:52:07.000",
    "date_modified": "2024-08-20T16:51:30.000",
    "case_close_date": "2024-08-20T11:51:30.000",
    "request_status": "Closed",
    "responsible_agency": "Department of Sanitation",
    "final_address": "9886 E Rockton Cir",
    "address_councildis": "E",
    "status": "Duplicate Request",
    "contractor": "Waste Pro",
    "contractor_action": "Duplicate",
    "rowid": "1123521",
    "final_x": "3708796.16235",
    "final_y": "563174.976864",
    "longitude": "-89.98069973426304",
    "latitude": "30.041677832891516",
    "geocoded_column": {
      "latitude": "30.041677832891516",
      "longitude": "-89.98069973426304"
    }
  },
  {
    "service_request": "2024-1123520",
    "request_type": "Trash/Recycling",
    "request_reason": "Request a Large Item Pick Up",
    "date_created": "2024-08-20T14:51:07.000",
    "date_modified": "2024-08-20T14:51:08.000",
    "request_status": "Pending",
    "responsible_agency": "Department of Sanitation",
    "final_address": "9886 E Rockton Cir",
    "address_councildis": "E",
    "status": "Assigned to Contractor",
    "contractor": "Waste Pro",
    "rowid": "1123520",
    "final_x": "3708796.16235",
    "final_y": "563174.976864",
    "longitude": "-89.98069973426304",
    "latitude": "30.041677832891516",
    "geocoded_column": {
      "latitude": "30.041677832891516",
      "longitude": "-89.98069973426304"
    }
  },
  {
    "service_request": "2024-1123519",
    "request_type": "Trash/Recycling",
    "request_reason": "Request a Large Item Pick Up",
    "date_created": "2024-08-20T14:49:56.000",
    "date_modified": "2024-08-20T14:49:57.000",
    "request_status": "Pending",
    "responsible_agency": "Department of Sanitation",
    "final_address": "4818 Lancelot Dr",
    "address_councildis": "E",
    "status": "Assigned to Contractor",
    "contractor": "Waste Pro",
    "rowid": "1123519",
    "final_x": "3707318.23428",
    "final_y": "556089.75401",
    "longitude": "-89.98563385706647",
    "latitude": "30.022244144493765",
    "geocoded_column": {
      "latitude": "30.022244144493765",
      "longitude": "-89.98563385706647"
    }
  },
  {
    "service_request": "2024-1123518",
    "request_type": "Trash/Recycling",
    "request_reason": "Repair Trash Cart",
    "date_created": "2024-08-20T14:46:13.000",
    "date_modified": "2024-08-20T14:46:14.000",
    "request_status": "Pending",
    "responsible_agency": "Department of Sanitation",
    "final_address": "6990 Ridgefield Dr",
    "address_councildis": "E",
    "status": "Assigned to Contractor",
    "contractor": "Waste Pro",
    "rowid": "1123518",
    "final_x": "3719542.51103",
    "final_y": "569270.961638",
    "longitude": "-89.94650456857036",
    "latitude": "30.058086088281257",
    "geocoded_column": {
      "latitude": "30.058086088281257",
      "longitude": "-89.94650456857036"
    }
  },
  {
    "service_request": "2024-1123517",
    "request_type": "Trash/Recycling",
    "request_reason": "Repair Trash Cart",
    "date_created": "2024-08-20T14:41:22.000",
    "date_modified": "2024-08-20T14:41:22.000",
    "request_status": "Pending",
    "responsible_agency": "Department of Sanitation",
    "final_address": "3626 Dumaine St",
    "address_councildis": "A",
    "status": "Assigned to Contractor",
    "contractor": "IV Waste",
    "rowid": "1123517",
    "final_x": "3674219.11099",
    "final_y": "539706.149322",
    "longitude": "-90.090780474685",
    "latitude": "29.97822388736047",
    "geocoded_column": {
      "latitude": "29.97822388736047",
      "longitude": "-90.090780474685"
    }
  },
  {
    "service_request": "2024-1123516",
    "request_type": "Trash/Recycling",
    "request_reason": "Illegal Dumping",
    "date_created": "2024-08-20T14:37:05.000",
    "date_modified": "2024-08-20T14:37:06.000",
    "request_status": "Pending",
    "responsible_agency": "Department of Sanitation",
    "final_address": "GENERAL COLLINS AVE & MACARTHUR BLVD",
    "address_councildis": "C",
    "status": "Pending",
    "rowid": "1123516",
    "final_x": "3698350.8",
    "final_y": "520482.98",
    "longitude": "-90.0152627673337",
    "latitude": "29.92462532613899",
    "geocoded_column": {
      "latitude": "29.92462532613899",
      "longitude": "-90.0152627673337"
    }
  },
  {
    "service_request": "2024-1123515",
    "request_type": "Trash/Recycling",
    "request_reason": "Request a Large Item Pick Up",
    "date_created": "2024-08-20T14:36:55.000",
    "date_modified": "2024-08-20T14:36:56.000",
    "request_status": "Pending",
    "responsible_agency": "Department of Sanitation",
    "final_address": "1827 Euterpe St",
    "address_councildis": "B",
    "status": "Assigned to Contractor",
    "contractor": "IV Waste",
    "rowid": "1123515",
    "final_x": "3677935.22978",
    "final_y": "525650.211773",
    "longitude": "-90.07952939734396",
    "latitude": "29.939463473903686",
    "geocoded_column": {
      "latitude": "29.939463473903686",
      "longitude": "-90.07952939734396"
    }
  },
  {
    "service_request": "2024-1123514",
    "request_type": "Trash/Recycling",
    "request_reason": "Missed Trash Pick-Up",
    "date_created": "2024-08-20T14:34:27.000",
    "date_modified": "2024-08-20T15:55:42.000",
    "case_close_date": "2024-08-20T10:55:42.000",
    "request_status": "Closed",
    "responsible_agency": "Department of Sanitation",
    "final_address": "420 N Miro St",
    "address_councildis": "B",
    "status": "Invalid Request",
    "contractor": "IV Waste",
    "contractor_action": "Invalid",
    "rowid": "1123514",
    "final_x": "3677557.26235",
    "final_y": "535144.618758",
    "longitude": "-90.08039492341808",
    "latitude": "29.96558128211917",
    "geocoded_column": {
      "latitude": "29.96558128211917",
      "longitude": "-90.08039492341808"
    }
  },
  {
    "service_request": "2024-1123513",
    "request_type": "Abandoned Vehicles",
    "request_reason": "Abandoned/Junk Vehicles",
    "date_created": "2024-08-20T14:25:38.000",
    "date_modified": "2024-08-20T14:29:08.000",
    "request_status": "Pending",
    "responsible_agency": "Department of Public Works",
    "final_address": "3802 DHemecourt St",
    "address_councildis": "B",
    "status": "Pending",
    "rowid": "1123513",
    "final_x": "3670813.84686",
    "final_y": "536022.418759",
    "longitude": "-90.10166060991124",
    "latitude": "29.968195966990713",
    "geocoded_column": {
      "latitude": "29.968195966990713",
      "longitude": "-90.10166060991124"
    }
  },
  {
    "service_request": "2024-1123512",
    "request_type": "Property Maintenance",
    "request_reason": "Property Maintenance",
    "date_created": "2024-08-20T14:25:21.000",
    "date_modified": "2024-08-20T14:58:15.000",
    "case_close_date": "2024-08-20T09:58:15.000",
    "request_status": "Closed",
    "responsible_agency": "Department of Code Enforcement",
    "final_address": "4016 N Miro St",
    "address_councildis": "D",
    "status": "Referred to Code Enforcement",
    "rowid": "1123512",
    "final_x": "3692949.88496",
    "final_y": "539328.688842",
    "longitude": "-90.0316357529154",
    "latitude": "29.976614209235514",
    "geocoded_column": {
      "latitude": "29.976614209235514",
      "longitude": "-90.0316357529154"
    }
  },
  {
    "service_request": "2024-1123511",
    "request_type": "Trash/Recycling",
    "request_reason": "Request a Large Item Pick Up",
    "date_created": "2024-08-20T14:22:55.000",
    "date_modified": "2024-08-20T14:22:56.000",
    "request_status": "Pending",
    "responsible_agency": "Department of Sanitation",
    "final_address": "1017 Broadway St",
    "address_councildis": "A",
    "status": "Assigned to Contractor",
    "contractor": "IV Waste",
    "rowid": "1123511",
    "final_x": "3663901.7609",
    "final_y": "526007.700158",
    "longitude": "-90.12382320957343",
    "latitude": "29.94086122481862",
    "geocoded_column": {
      "latitude": "29.94086122481862",
      "longitude": "-90.12382320957343"
    }
  },
  {
    "service_request": "2024-1123510",
    "request_type": "Trash/Recycling",
    "request_reason": "Request a Large Item Pick Up",
    "date_created": "2024-08-20T14:21:19.000",
    "date_modified": "2024-08-20T14:21:19.000",
    "request_status": "Pending",
    "responsible_agency": "Department of Sanitation",
    "final_address": "3422 W St Roch Ave",
    "address_councildis": "D",
    "status": "Assigned to Contractor",
    "contractor": "IV Waste",
    "rowid": "1123510",
    "final_x": "3685498.33737",
    "final_y": "545453.41864",
    "longitude": "-90.05495417912233",
    "latitude": "29.99368570339816",
    "geocoded_column": {
      "latitude": "29.99368570339816",
      "longitude": "-90.05495417912233"
    }
  },
  {
    "service_request": "2024-1123509",
    "request_type": "Roads/Drainage",
    "request_reason": "Pothole",
    "date_created": "2024-08-20T14:20:52.000",
    "date_modified": "2024-08-20T14:21:19.000",
    "case_close_date": "2024-08-20T09:21:19.000",
    "request_status": "Closed",
    "responsible_agency": "Department of Public Works",
    "final_address": "701 Rosedale Dr",
    "address_councildis": "A",
    "status": "Resolved",
    "rowid": "1123509",
    "final_x": "3668389.73684",
    "final_y": "542065.934028",
    "longitude": "-90.10911216284177",
    "latitude": "29.984885025055412",
    "geocoded_column": {
      "latitude": "29.984885025055412",
      "longitude": "-90.10911216284177"
    }
  },
  {
    "service_request": "2024-1123508",
    "request_type": "Trash/Recycling",
    "request_reason": "Request a Large Item Pick Up",
    "date_created": "2024-08-20T14:20:48.000",
    "date_modified": "2024-08-20T14:20:49.000",
    "request_status": "Pending",
    "responsible_agency": "Department of Sanitation",
    "final_address": "2334 Dreux Ave",
    "address_councildis": "D",
    "status": "Assigned to Contractor",
    "contractor": "IV Waste",
    "rowid": "1123508",
    "final_x": "3684906.50703",
    "final_y": "552006.48175",
    "longitude": "-90.0565930294746",
    "latitude": "30.01172240362775",
    "geocoded_column": {
      "latitude": "30.01172240362775",
      "longitude": "-90.0565930294746"
    }
  },
  {
    "service_request": "2024-1123507",
    "request_type": "Trash/Recycling",
    "request_reason": "Replace Trash Cart",
    "date_created": "2024-08-20T14:19:26.000",
    "date_modified": "2024-08-20T14:19:27.000",
    "request_status": "Pending",
    "responsible_agency": "Department of Sanitation",
    "final_address": "2225 Soniat St",
    "address_councildis": "B",
    "status": "Assigned to Contractor",
    "contractor": "IV Waste",
    "rowid": "1123507",
    "final_x": "3668550.58042",
    "final_y": "523773.578875",
    "longitude": "-90.10922137051274",
    "latitude": "29.93458236125859",
    "geocoded_column": {
      "latitude": "29.93458236125859",
      "longitude": "-90.10922137051274"
    }
  },
  {
    "service_request": "2024-1123506",
    "request_type": "Trash/Recycling",
    "request_reason": "Replace Trash Cart",
    "date_created": "2024-08-20T14:18:38.000",
    "date_modified": "2024-08-20T14:18:39.000",
    "request_status": "Pending",
    "responsible_agency": "Department of Sanitation",
    "final_address": "2219 Soniat St",
    "address_councildis": "B",
    "status": "Assigned to Contractor",
    "contractor": "IV Waste",
    "rowid": "1123506",
    "final_x": "3668550.86881",
    "final_y": "523731.250363",
    "longitude": "-90.10922188765346",
    "latitude": "29.93446596294852",
    "geocoded_column": {
      "latitude": "29.93446596294852",
      "longitude": "-90.10922188765346"
    }
  },
  {
    "service_request": "2024-1123504",
    "request_type": "Trash/Recycling",
    "request_reason": "Illegal Dumping",
    "date_created": "2024-08-20T14:17:19.000",
    "date_modified": "2024-08-20T14:17:20.000",
    "request_status": "Pending",
    "responsible_agency": "Department of Sanitation",
    "final_address": "717 River Oaks Dr",
    "address_councildis": "C",
    "status": "Pending",
    "rowid": "1123504",
    "final_x": "3701415.01079",
    "final_y": "519685.326712",
    "longitude": "-90.00561932764934",
    "latitude": "29.92233477859079",
    "geocoded_column": {
      "latitude": "29.92233477859079",
      "longitude": "-90.00561932764934"
    }
  },
  {
    "service_request": "2024-1123503",
    "request_type": "Abandoned Vehicles",
    "request_reason": "Abandoned/Junk Vehicles",
    "date_created": "2024-08-20T14:16:50.000",
    "date_modified": "2024-08-20T14:19:09.000",
    "request_status": "Pending",
    "responsible_agency": "Department of Public Works",
    "final_address": "CHESTNUT ST & AUDUBON ST",
    "address_councildis": "A",
    "status": "Inspected",
    "rowid": "1123503",
    "final_x": "3661346.6",
    "final_y": "521744.98",
    "longitude": "-90.13203144323995",
    "latitude": "29.929214002372458",
    "geocoded_column": {
      "latitude": "29.929214002372458",
      "longitude": "-90.13203144323995"
    }
  },
  {
    "service_request": "2024-1123502",
    "request_type": "Traffic Signals/Signs/Striping/Streetlights",
    "request_reason": "Traffic Sign Missing/Damaged",
    "date_created": "2024-08-20T14:14:13.000",
    "date_modified": "2024-08-20T14:14:15.000",
    "request_status": "Pending",
    "responsible_agency": "Department of Public Works",
    "final_address": "101 Verret St",
    "address_councildis": "C",
    "status": "Pending",
    "rowid": "1123502",
    "final_x": "3686747.8797",
    "final_y": "531361.528322",
    "longitude": "-90.05150504314187",
    "latitude": "29.954899558542298",
    "geocoded_column": {
      "latitude": "29.954899558542298",
      "longitude": "-90.05150504314187"
    }
  },
  {
    "service_request": "2024-1123501",
    "request_type": "Traffic Signals/Signs/Striping/Streetlights",
    "request_reason": "Additional signage",
    "date_created": "2024-08-20T14:04:37.000",
    "date_modified": "2024-08-20T14:04:37.000",
    "request_status": "Pending",
    "responsible_agency": "Department of Public Works",
    "final_address": "3015 Frenchmen St",
    "address_councildis": "D",
    "status": "Pending",
    "rowid": "1123501",
    "final_x": "3684032.09199",
    "final_y": "543791.564878",
    "longitude": "-90.05964417238299",
    "latitude": "29.98916109486121",
    "geocoded_column": {
      "latitude": "29.98916109486121",
      "longitude": "-90.05964417238299"
    }
  },
  {
    "service_request": "2024-1123500",
    "request_type": "Roads/Drainage",
    "request_reason": "Damaged Sidewalk",
    "date_created": "2024-08-20T13:59:35.000",
    "date_modified": "2024-08-20T14:14:40.000",
    "request_status": "Pending",
    "responsible_agency": "Department of Public Works",
    "final_address": "2200 Louisa St",
    "address_councildis": "D",
    "status": "Pending",
    "rowid": "1123500",
    "final_x": "3690571.67497",
    "final_y": "540061.910027",
    "longitude": "-90.03912069098773",
    "latitude": "29.978704379677897",
    "geocoded_column": {
      "latitude": "29.978704379677897",
      "longitude": "-90.03912069098773"
    }
  },
  {
    "service_request": "2024-1123499",
    "request_type": "Trash/Recycling",
    "request_reason": "Request a Large Item Pick Up",
    "date_created": "2024-08-20T13:58:09.000",
    "date_modified": "2024-08-20T13:58:10.000",
    "request_status": "Pending",
    "responsible_agency": "Department of Sanitation",
    "final_address": "4827 Gabriel Dr",
    "address_councildis": "E",
    "status": "Assigned to Contractor",
    "contractor": "Waste Pro",
    "rowid": "1123499",
    "final_x": "3708894.63492",
    "final_y": "556267.050202",
    "longitude": "-89.98064625299203",
    "latitude": "30.022680564486983",
    "geocoded_column": {
      "latitude": "30.022680564486983",
      "longitude": "-89.98064625299203"
    }
  },
  {
    "service_request": "2024-1123498",
    "request_type": "Roads/Drainage",
    "request_reason": "Damaged Sidewalk",
    "date_created": "2024-08-20T13:57:49.000",
    "date_modified": "2024-08-20T14:15:15.000",
    "request_status": "Pending",
    "responsible_agency": "Department of Public Works",
    "final_address": "2200 Louisa St",
    "address_councildis": "D",
    "status": "Pending",
    "rowid": "1123498",
    "final_x": "3690571.67497",
    "final_y": "540061.910027",
    "longitude": "-90.03912069098773",
    "latitude": "29.978704379677897",
    "geocoded_column": {
      "latitude": "29.978704379677897",
      "longitude": "-90.03912069098773"
    }
  },
  {
    "service_request": "2024-1123497",
    "request_type": "Trash/Recycling",
    "request_reason": "Replace Trash Cart",
    "date_created": "2024-08-20T13:57:09.000",
    "date_modified": "2024-08-20T13:57:10.000",
    "request_status": "Pending",
    "responsible_agency": "Department of Sanitation",
    "final_address": "1133 Teche St",
    "address_councildis": "C",
    "status": "Assigned to Contractor",
    "contractor": "Richards Disposal",
    "rowid": "1123497",
    "final_x": "3686569.1407",
    "final_y": "527251.946239",
    "longitude": "-90.0522145169348",
    "latitude": "29.943605105875896",
    "geocoded_column": {
      "latitude": "29.943605105875896",
      "longitude": "-90.0522145169348"
    }
  },
  {
    "service_request": "2024-1123496",
    "request_type": "Property Maintenance",
    "request_reason": "Property Maintenance",
    "date_created": "2024-08-20T13:56:57.000",
    "date_modified": "2024-08-20T14:24:13.000",
    "case_close_date": "2024-08-20T09:24:13.000",
    "request_status": "Closed",
    "responsible_agency": "Department of Code Enforcement",
    "final_address": "3418 Blair St",
    "address_councildis": "C",
    "status": "Referred to Code Enforcement",
    "rowid": "1123496",
    "final_x": "3709447.47217",
    "final_y": "518139.222966",
    "longitude": "-89.98032200052012",
    "latitude": "29.91782516811605",
    "geocoded_column": {
      "latitude": "29.91782516811605",
      "longitude": "-89.98032200052012"
    }
  },
  {
    "service_request": "2024-1123495",
    "request_type": "Health Related Request",
    "request_reason": "Noise Ordinance Complaint",
    "date_created": "2024-08-20T13:56:39.000",
    "date_modified": "2024-08-20T14:38:47.000",
    "case_close_date": "2024-08-20T09:38:47.000",
    "request_status": "Closed",
    "responsible_agency": "Health Department",
    "final_address": "521E Josephine St New Orleans La 70130",
    "status": "Not Enough Information- Resubmittal Required",
    "rowid": "1123495",
    "longitude": "0.0",
    "latitude": "0.0",
    "geocoded_column": {
      "latitude": "0.0",
      "longitude": "0.0"
    }
  },
  {
    "service_request": "2024-1123494",
    "request_type": "Safety & Permits",
    "request_reason": "Licenses & Permits",
    "date_created": "2024-08-20T13:56:28.000",
    "date_modified": "2024-08-20T13:56:28.000",
    "request_status": "Pending",
    "responsible_agency": "Safety and Permits",
    "final_address": "1268 St Denis St",
    "address_councildis": "D",
    "status": "Pending",
    "rowid": "1123494",
    "final_x": "3677314.59432",
    "final_y": "545653.542992",
    "longitude": "-90.08079849025788",
    "latitude": "29.994484489179094",
    "geocoded_column": {
      "latitude": "29.994484489179094",
      "longitude": "-90.08079849025788"
    }
  },
  {
    "service_request": "2024-1123493",
    "request_type": "Traffic Signals/Signs/Striping/Streetlights",
    "request_reason": "Street Light Outage/Malfunction",
    "date_created": "2024-08-20T13:54:16.000",
    "date_modified": "2024-08-20T13:54:17.000",
    "request_status": "Pending",
    "responsible_agency": "Department of Public Works",
    "final_address": "7111 Ridgefield Dr",
    "address_councildis": "E",
    "status": "Assigned to Contractor",
    "contractor": "Legacy Professional Services",
    "rowid": "1123493",
    "final_x": "3719232.63423",
    "final_y": "569922.416614",
    "longitude": "-89.94745913707105",
    "latitude": "30.059887626938405",
    "geocoded_column": {
      "latitude": "30.059887626938405",
      "longitude": "-89.94745913707105"
    }
  },
  {
    "service_request": "2024-1123492",
    "request_type": "Traffic Signals/Signs/Striping/Streetlights",
    "request_reason": "Request for Stop Sign",
    "date_created": "2024-08-20T13:51:18.000",
    "date_modified": "2024-08-20T13:51:18.000",
    "request_status": "Pending",
    "responsible_agency": "Department of Public Works",
    "final_address": "BUCHANAN ST & ST DENIS ST",
    "address_councildis": "D",
    "status": "Pending",
    "rowid": "1123492",
    "final_x": "3677407.0",
    "final_y": "545700.18",
    "longitude": "-90.08050498143724",
    "latitude": "29.9946099468259",
    "geocoded_column": {
      "latitude": "29.9946099468259",
      "longitude": "-90.08050498143724"
    }
  },
  {
    "service_request": "2024-1123491",
    "request_type": "Trash/Recycling",
    "request_reason": "Request a Large Item Pick Up",
    "date_created": "2024-08-20T13:50:54.000",
    "date_modified": "2024-08-20T13:50:55.000",
    "request_status": "Pending",
    "responsible_agency": "Department of Sanitation",
    "final_address": "328 S Norman C Francis Prkwy",
    "address_councildis": "B",
    "status": "Assigned to Contractor",
    "contractor": "IV Waste",
    "rowid": "1123491",
    "final_x": "3672690.63259",
    "final_y": "535809.280647",
    "longitude": "-90.09574090049375",
    "latitude": "29.967554304601432",
    "geocoded_column": {
      "latitude": "29.967554304601432",
      "longitude": "-90.09574090049375"
    }
  },
  {
    "service_request": "2024-1123490",
    "request_type": "Abandoned Vehicles",
    "request_reason": "Abandoned/Junk Vehicles",
    "date_created": "2024-08-20T13:49:55.000",
    "date_modified": "2024-08-20T13:52:16.000",
    "request_status": "Pending",
    "responsible_agency": "Department of Public Works",
    "final_address": "HERMOSA ST & MARDI GRAS BLVD",
    "address_councildis": "C",
    "status": "Pending",
    "rowid": "1123490",
    "final_x": "3687594.7",
    "final_y": "525287.78",
    "longitude": "-90.04904607076236",
    "latitude": "29.938172745466034",
    "geocoded_column": {
      "latitude": "29.938172745466034",
      "longitude": "-90.04904607076236"
    }
  },
  {
    "service_request": "2024-1123489",
    "request_type": "Trash/Recycling",
    "request_reason": "Illegal Dumping",
    "date_created": "2024-08-20T13:49:01.000",
    "date_modified": "2024-08-20T13:49:02.000",
    "request_status": "Pending",
    "responsible_agency": "Department of Sanitation",
    "final_address": "AUDUBON ST & HAMPSON ST",
    "address_councildis": "A",
    "status": "Pending",
    "rowid": "1123489",
    "final_x": "3663455.1",
    "final_y": "524887.28",
    "longitude": "-90.12527069823477",
    "latitude": "29.937793382548715",
    "geocoded_column": {
      "latitude": "29.937793382548715",
      "longitude": "-90.12527069823477"
    }
  },
  {
    "service_request": "2024-1123488",
    "request_type": "Trash/Recycling",
    "request_reason": "Illegal Dumping",
    "date_created": "2024-08-20T13:46:39.000",
    "date_modified": "2024-08-20T13:46:40.000",
    "request_status": "Pending",
    "responsible_agency": "Department of Sanitation",
    "final_address": "5700 BLK Read Blvd",
    "address_councildis": "E",
    "status": "Pending",
    "rowid": "1123488",
    "final_x": "3710869.16943",
    "final_y": "560521.442721",
    "longitude": "-89.97424779996831",
    "latitude": "30.034314223298793",
    "geocoded_column": {
      "latitude": "30.034314223298793",
      "longitude": "-89.97424779996831"
    }
  },
  {
    "service_request": "2024-1123487",
    "request_type": "Roads/Drainage",
    "request_reason": "Pothole",
    "date_created": "2024-08-20T13:40:04.000",
    "date_modified": "2024-08-20T13:40:49.000",
    "case_close_date": "2024-08-20T08:40:49.000",
    "request_status": "Closed",
    "responsible_agency": "Department of Public Works",
    "final_address": "2459 Marr Ave",
    "address_councildis": "C",
    "status": "Resolved",
    "rowid": "1123487",
    "final_x": "3691354.11184",
    "final_y": "521270.509305",
    "longitude": "-90.03732075701087",
    "latitude": "29.927010215765424",
    "geocoded_column": {
      "latitude": "29.927010215765424",
      "longitude": "-90.03732075701087"
    }
  },
  {
    "service_request": "2024-1123486",
    "request_type": "Trash/Recycling",
    "request_reason": "Request a Large Item Pick Up",
    "date_created": "2024-08-20T13:39:30.000",
    "date_modified": "2024-08-20T13:39:31.000",
    "request_status": "Pending",
    "responsible_agency": "Department of Sanitation",
    "final_address": "4942 Redwood St",
    "address_councildis": "E",
    "status": "Assigned to Contractor",
    "contractor": "Waste Pro",
    "rowid": "1123486",
    "final_x": "3712289.2853",
    "final_y": "557395.708187",
    "longitude": "-89.96987762441385",
    "latitude": "30.025673302271347",
    "geocoded_column": {
      "latitude": "30.025673302271347",
      "longitude": "-89.96987762441385"
    }
  },
  {
    "service_request": "2024-1123485",
    "request_type": "Trash/Recycling",
    "request_reason": "Order Trash Cart",
    "date_created": "2024-08-20T13:35:14.000",
    "date_modified": "2024-08-20T13:35:15.000",
    "request_status": "Pending",
    "responsible_agency": "Department of Sanitation",
    "final_address": "3431 Lowerline St",
    "address_councildis": "B",
    "status": "Assigned to Contractor",
    "contractor": "IV Waste",
    "rowid": "1123485",
    "final_x": "3668277.69396",
    "final_y": "533617.623365",
    "longitude": "-90.10975101011931",
    "latitude": "29.961658293332263",
    "geocoded_column": {
      "latitude": "29.961658293332263",
      "longitude": "-90.10975101011931"
    }
  },
  {
    "service_request": "2024-1123484",
    "request_type": "Trash/Recycling",
    "request_reason": "Request a Large Item Pick Up",
    "date_created": "2024-08-20T13:32:57.000",
    "date_modified": "2024-08-20T13:32:58.000",
    "request_status": "Pending",
    "responsible_agency": "Department of Sanitation",
    "final_address": "4010 Athis Ct",
    "address_councildis": "D",
    "status": "Assigned to Contractor",
    "contractor": "IV Waste",
    "rowid": "1123484",
    "final_x": "3688637.81398",
    "final_y": "554515.25052",
    "longitude": "-90.04471515889364",
    "latitude": "30.018505745065692",
    "geocoded_column": {
      "latitude": "30.018505745065692",
      "longitude": "-90.04471515889364"
    }
  },