[
  {
    "service_request": "2023-1014486",
    "request_type": "Roads/Drainage",
    "request_reason": "Pothole",
    "date_created": "2023-07-06T01:51:48.000",
    "date_modified": "2023-07-06T01:51:48.000",
    "request_status": "Pending",
    "responsible_agency": "Department of Public Works",
    "final_address": "1430 Webster St",
    "address_councildis": "A",
    "status": "Pending",
    "rowid": "1014486",
    "final_x": "3664809.49536",
    "final_y": "521665.727865",
    "longitude": "-90.12110234564213",
    "latitude": "29.928895802564302",
    "geocoded_column": {
      "latitude": "29.928895802564302",
      "longitude": "-90.12110234564213"
    }
  },
  {
    "service_request": "2023-1014485",
    "request_type": "Roads/Drainage",
    "request_reason": "Pothole",
    "date_created": "2023-07-06T00:50:54.000",
    "date_modified": "2023-07-06T00:50:54.000",
    "request_status": "Pending",
    "responsible_agency": "Department of Public Works",
    "final_address": "6028 Pitt St",
    "address_councildis": "A",
    "status": "Pending",
    "rowid": "1014485",
    "final_x": "3665031.61856",
    "final_y": "521153.923257",
    "longitude": "-90.12041824694218",
    "latitude": "29.927482037915954",
    "geocoded_column": {
      "latitude": "29.927482037915954",
      "longitude": "-90.12041824694218"
    }
  },
  {
    "service_request": "2023-1014484",
    "request_type": "Traffic Signals/Signs/Striping/Streetlights",
    "request_reason": "Traffic Sign Missing/Damaged",
    "date_created": "2023-07-06T00:49:14.000",
    "date_modified": "2023-07-06T00:49:14.000",
    "request_status": "Pending",
    "responsible_agency": "Department of Public Works",
    "final_address": "1100 BLK Delachaise St",
    "address_councildis": "B",
    "status": "Pending",
    "rowid": "1014484",
    "final_x": "3674594.86304",
    "final_y": "519644.736745",
    "longitude": "-90.09028107969593",
    "latitude": "29.92305044598231",
    "geocoded_column": {
      "latitude": "29.92305044598231",
      "longitude": "-90.09028107969593"
    }
  },
  {
    "service_request": "2023-1014483",
    "request_type": "Trash/Recycling",
    "request_reason": "Request a Large Item Pick Up",
    "date_created": "2023-07-05T23:54:58.000",
    "date_modified": "2023-07-05T23:54:59.000",
    "request_status": "Pending",
    "responsible_agency": "Department of Sanitation",
    "final_address": "2407 Bayou Rd",
    "address_councildis": "D",
    "status": "Assigned to Contractor",
    "contractor": "IV Waste",
    "rowid": "1014483",
    "final_x": "3679114.22351",
    "final_y": "538553.160777",
    "longitude": "-90.07535992960436",
    "latitude": "29.974906699736003",
    "geocoded_column": {
      "latitude": "29.974906699736003",
      "longitude": "-90.07535992960436"
    }
  },
  {
    "service_request": "2023-1014482",
    "request_type": "Trash/Recycling",
    "request_reason": "Replace Trash Cart",
    "date_created": "2023-07-05T23:34:51.000",
    "date_modified": "2023-07-05T23:34:52.000",
    "request_status": "Pending",
    "responsible_agency": "Department of Sanitation",
    "final_address": "1538 Conery St",
    "address_councildis": "B",
    "status": "Assigned to Contractor",
    "contractor": "Richards Disposal",
    "rowid": "1014482",
    "final_x": "3675751.56142",
    "final_y": "522181.286714",
    "longitude": "-90.0865427027437",
    "latitude": "29.929990583220597",
    "geocoded_column": {
      "latitude": "29.929990583220597",
      "longitude": "-90.0865427027437"
    }
  },
  {
    "service_request": "2023-1014481",
    "request_type": "Property Maintenance",
    "request_reason": "Property Maintenance",
    "date_created": "2023-07-05T23:11:48.000",
    "date_modified": "2023-07-05T23:11:48.000",
    "request_status": "Pending",
    "responsible_agency": "Department of Code Enforcement",
    "final_address": "2100 BLK Piety St",
    "address_councildis": "D",
    "status": "Pending",
    "rowid": "1014481",
    "final_x": "3690824.29384",
    "final_y": "539741.807771",
    "longitude": "-90.03833425493335",
    "latitude": "29.977816364411183",
    "geocoded_column": {
      "latitude": "29.977816364411183",
      "longitude": "-90.03833425493335"
    }
  },
  {
    "service_request": "2023-1014480",
    "request_type": "Traffic Signals/Signs/Striping/Streetlights",
    "request_reason": "Street Light Outage/Malfunction",
    "date_created": "2023-07-05T22:58:40.000",
    "date_modified": "2023-07-05T22:58:41.000",
    "request_status": "Pending",
    "responsible_agency": "Department of Public Works",
    "final_address": "27 Finch St",
    "address_councildis": "D",
    "status": "Assigned to Contractor",
    "contractor": "Legacy Professional Services",
    "rowid": "1014480",
    "final_x": "3672511.04097",
    "final_y": "555084.185113",
    "longitude": "-90.09565056028526",
    "latitude": "30.02055893311357",
    "geocoded_column": {
      "latitude": "30.02055893311357",
      "longitude": "-90.09565056028526"
    }
  },
  {
    "service_request": "2023-1014478",
    "request_type": "Trash/Recycling",
    "request_reason": "MIssed Recycling Pick-Up",
    "date_created": "2023-07-05T22:23:02.000",
    "date_modified": "2023-07-05T22:23:03.000",
    "request_status": "Pending",
    "responsible_agency": "Department of Sanitation",
    "final_address": "3618 Coliseum St",
    "address_councildis": "B",
    "status": "Assigned to Contractor",
    "contractor": "Richards Disposal",
    "rowid": "1014478",
    "final_x": "3673682.8603",
    "final_y": "520139.9678",
    "longitude": "-90.09314300500749",
    "latitude": "29.924439345612907",
    "geocoded_column": {
      "latitude": "29.924439345612907",
      "longitude": "-90.09314300500749"
    }
  },
  {
    "service_request": "2023-1014477",
    "request_type": "Traffic Signals/Signs/Striping/Streetlights",
    "request_reason": "Street Light Outage/Malfunction",
    "date_created": "2023-07-05T22:11:10.000",
    "date_modified": "2023-07-05T22:11:11.000",
    "request_status": "Pending",
    "responsible_agency": "Department of Public Works",
    "final_address": "3813 Virgil Blvd",
    "address_councildis": "D",
    "status": "Assigned to Contractor",
    "contractor": "Legacy Professional Services",
    "rowid": "1014477",
    "final_x": "3680663.922",
    "final_y": "546522.494929",
    "longitude": "-90.07018813152858",
    "latitude": "29.996772703799806",
    "geocoded_column": {
      "latitude": "29.996772703799806",
      "longitude": "-90.07018813152858"
    }
  },
  {
    "service_request": "2023-1014476",
    "request_type": "Trash/Recycling",
    "request_reason": "Missed Trash Pick-Up",
    "date_created": "2023-07-05T22:06:59.000",
    "date_modified": "2023-07-05T22:07:00.000",
    "request_status": "Pending",
    "responsible_agency": "Department of Sanitation",
    "final_address": "9702 Hayne Blvd",
    "address_councildis": "E",
    "status": "Assigned to Contractor",
    "contractor": "Waste Pro",
    "rowid": "1014476",
    "final_x": "3706915.27371",
    "final_y": "565382.200162",
    "longitude": "-89.9865619966026",
    "latitude": "30.047807733771375",
    "geocoded_column": {
      "latitude": "30.047807733771375",
      "longitude": "-89.9865619966026"
    }
  },
  {
    "service_request": "2023-1014475",
    "request_type": "Tax and Revenue",
    "request_reason": "Occupational License Tax",
    "date_created": "2023-07-05T22:05:43.000",
    "date_modified": "2023-07-05T22:05:43.000",
    "request_status": "Pending",
    "responsible_agency": "Bureau of Revenue",
    "final_address": "1224 St Bernard Ave",
    "address_councildis": "C",
    "status": "Pending",
    "rowid": "1014475",
    "final_x": "3682916.67836",
    "final_y": "536293.198663",
    "longitude": "-90.06342992731621",
    "latitude": "29.968577253130643",
    "geocoded_column": {
      "latitude": "29.968577253130643",
      "longitude": "-90.06342992731621"
    }
  },
  {
    "service_request": "2023-1014474",
    "request_type": "Safety & Permits",
    "request_reason": "Licenses & Permits",
    "date_created": "2023-07-05T22:04:48.000",
    "date_modified": "2023-07-05T22:04:48.000",
    "request_status": "Pending",
    "responsible_agency": "Safety and Permits",
    "final_address": "1224 St Bernard Ave",
    "address_councildis": "C",
    "status": "Pending",
    "rowid": "1014474",
    "final_x": "3682916.67836",
    "final_y": "536293.198663",
    "longitude": "-90.06342992731621",
    "latitude": "29.968577253130643",
    "geocoded_column": {
      "latitude": "29.968577253130643",
      "longitude": "-90.06342992731621"
    }
  },
  {
    "service_request": "2023-1014473",
    "request_type": "Health Related Request",
    "request_reason": "Noise Ordinance Complaint",
    "date_created": "2023-07-05T22:04:06.000",
    "date_modified": "2023-07-05T22:04:06.000",
    "request_status": "Pending",
    "responsible_agency": "Health Department",
    "final_address": "1224 St Bernard Ave",
    "address_councildis": "C",
    "status": "Pending",
    "rowid": "1014473",
    "final_x": "3682916.67836",
    "final_y": "536293.198663",
    "longitude": "-90.06342992731621",
    "latitude": "29.968577253130643",
    "geocoded_column": {
      "latitude": "29.968577253130643",
      "longitude": "-90.06342992731621"
    }
  },
  {
    "service_request": "2023-1014472",
    "request_type": "Property Maintenance",
    "request_reason": "Property Maintenance",
    "date_created": "2023-07-05T21:59:31.000",
    "date_modified": "2023-07-05T21:59:31.000",
    "request_status": "Pending",
    "responsible_agency": "Department of Code Enforcement",
    "final_address": "7802 Sycamore St",
    "address_councildis": "A",
    "status": "Pending",
    "rowid": "1014472",
    "final_x": "3665106.94279",
    "final_y": "530216.040961",
    "longitude": "-90.11987751600891",
    "latitude": "29.95239777081363",
    "geocoded_column": {
      "latitude": "29.95239777081363",
      "longitude": "-90.11987751600891"
    }
  },
  {
    "service_request": "2023-1014471",
    "request_type": "Trash/Recycling",
    "request_reason": "Request a Large Item Pick Up",
    "date_created": "2023-07-05T21:56:56.000",
    "date_modified": "2023-07-05T21:56:57.000",
    "request_status": "Pending",
    "responsible_agency": "Department of Sanitation",
    "final_address": "7802 Sycamore St",
    "address_councildis": "A",
    "status": "Assigned to Contractor",
    "contractor": "Richards Disposal",
    "rowid": "1014471",
    "final_x": "3665106.94279",
    "final_y": "530216.040961",
    "longitude": "-90.11987751600891",
    "latitude": "29.95239777081363",
    "geocoded_column": {
      "latitude": "29.95239777081363",
      "longitude": "-90.11987751600891"
    }
  },
  {
    "service_request": "2023-1014470",
    "request_type": "Mayor's Request",
    "request_reason": "Requests to the Mayor",
    "date_created": "2023-07-05T21:39:11.000",
    "date_modified": "2023-07-05T21:39:11.000",
    "request_status": "Pending",
    "responsible_agency": "Executive Office of the Mayor",
    "final_address": "5410 Peoples Ave",
    "address_councildis": "D",
    "status": "Pending",
    "rowid": "1014470",
    "final_x": "3687951.43017",
    "final_y": "553122.985751",
    "longitude": "-90.04693326205012",
    "latitude": "30.01469873829396",
    "geocoded_column": {
      "latitude": "30.01469873829396",
      "longitude": "-90.04693326205012"
    }
  },
  {
    "service_request": "2023-1014464",
    "request_type": "Traffic Signals/Signs/Striping/Streetlights",
    "request_reason": "Street Light Outage/Malfunction",
    "date_created": "2023-07-05T20:57:15.000",
    "date_modified": "2023-07-05T20:57:15.000",
    "request_status": "Pending",
    "responsible_agency": "Department of Public Works",
    "final_address": "3900 BLK S Carrollton Ave",
    "address_councildis": "A",
    "status": "Assigned to Contractor",
    "contractor": "Legacy Professional Services",
    "rowid": "1014464",
    "final_x": "3668404.57556",
    "final_y": "535379.071418",
    "longitude": "-90.10929091776768",
    "latitude": "29.966497965212366",
    "geocoded_column": {
      "latitude": "29.966497965212366",
      "longitude": "-90.10929091776768"
    }
  },
  {
    "service_request": "2023-1014463",
    "request_type": "Traffic Signals/Signs/Striping/Streetlights",
    "request_reason": "Traffic Signal Malfunctioning/Damaged",
    "date_created": "2023-07-05T20:52:41.000",
    "date_modified": "2023-07-05T20:52:41.000",
    "request_status": "Pending",
    "responsible_agency": "Department of Public Works",
    "final_address": "3900 S Carrollton Ave, New Orleans, Louisiana, 70118",
    "status": "Pending",
    "rowid": "1014463",
    "longitude": "0.0",
    "latitude": "0.0",
    "geocoded_column": {
      "latitude": "0.0",
      "longitude": "0.0"
    }
  },
  {
    "service_request": "2023-1014461",
    "request_type": "Traffic Signals/Signs/Striping/Streetlights",
    "request_reason": "Traffic Signal Malfunctioning/Damaged",
    "date_created": "2023-07-05T20:44:50.000",
    "date_modified": "2023-07-05T20:44:51.000",
    "request_status": "Pending",
    "responsible_agency": "Department of Public Works",
    "final_address": "MARTIN LUTHER KING JR BLVD & S CLAIBORNE AVE",
    "address_councildis": "B",
    "status": "Pending",
    "rowid": "1014461",
    "final_x": "3675010.8",
    "final_y": "528134.58",
    "longitude": "-90.08867702288131",
    "latitude": "29.946382334051407",
    "geocoded_column": {
      "latitude": "29.946382334051407",
      "longitude": "-90.08867702288131"
    }
  },
  {
    "service_request": "2023-1014460",
    "request_type": "Traffic Signals/Signs/Striping/Streetlights",
    "request_reason": "Traffic Signal Malfunctioning/Damaged",
    "date_created": "2023-07-05T20:42:24.000",
    "date_modified": "2023-07-05T20:42:24.000",
    "request_status": "Pending",
    "responsible_agency": "Department of Public Works",
    "final_address": "DIXON ST & S CARROLLTON AVE",
    "address_councildis": "A",
    "status": "Pending",
    "rowid": "1014460",
    "final_x": "3668460.8",
    "final_y": "535443.28",
    "longitude": "-90.10911119468042",
    "latitude": "29.966672865841474",
    "geocoded_column": {
      "latitude": "29.966672865841474",
      "longitude": "-90.10911119468042"
    }
  },
  {
    "service_request": "2023-1014459",
    "request_type": "Traffic Signals/Signs/Striping/Streetlights",
    "request_reason": "Traffic Signal Malfunctioning/Damaged",
    "date_created": "2023-07-05T20:36:17.000",
    "date_modified": "2023-07-05T20:36:18.000",
    "request_status": "Pending",
    "responsible_agency": "Department of Public Works",
    "final_address": "EARHART BLVD & HAMILTON ST",
    "address_councildis": "A",
    "status": "Pending",
    "rowid": "1014459",
    "final_x": "3663184.2",
    "final_y": "534965.98",
    "longitude": "-90.12579062775865",
    "latitude": "29.965514406045376",
    "geocoded_column": {
      "latitude": "29.965514406045376",
      "longitude": "-90.12579062775865"
    }
  },
  {
    "service_request": "2023-1014455",
    "request_type": "Property Maintenance",
    "request_reason": "Property Maintenance",
    "date_created": "2023-07-05T20:17:36.000",
    "date_modified": "2023-07-05T20:17:36.000",
    "request_status": "Pending",
    "responsible_agency": "Department of Code Enforcement",
    "final_address": "7400 General Haig St",
    "address_councildis": "D",
    "status": "Pending",
    "rowid": "1014455",
    "final_x": "3671213.32046",
    "final_y": "555556.385625",
    "longitude": "-90.09973491467126",
    "latitude": "30.0218957945025",
    "geocoded_column": {
      "latitude": "30.0218957945025",
      "longitude": "-90.09973491467126"
    }
  },
  {
    "service_request": "2023-1014454",
    "request_type": "Property Maintenance",
    "request_reason": "Property Maintenance",
    "date_created": "2023-07-05T20:15:46.000",
    "date_modified": "2023-07-05T20:15:46.000",
    "request_status": "Pending",
    "responsible_agency": "Department of Code Enforcement",
    "final_address": "4200 St Claude Ave",
    "address_councildis": "C",
    "status": "Pending",
    "rowid": "1014454",
    "final_x": "3692420.1775",
    "final_y": "535102.232966",
    "longitude": "-90.03346015390127",
    "latitude": "29.96500948872354",
    "geocoded_column": {
      "latitude": "29.96500948872354",
      "longitude": "-90.03346015390127"
    }
  },
  {
    "service_request": "2023-1014453",
    "request_type": "Property Maintenance",
    "request_reason": "Property Maintenance",
    "date_created": "2023-07-05T20:11:59.000",
    "date_modified": "2023-07-05T20:11:59.000",
    "request_status": "Pending",
    "responsible_agency": "Department of Code Enforcement",
    "status": "Pending",
    "rowid": "1014453",
    "longitude": "0.0",
    "latitude": "0.0",
    "geocoded_column": {
      "latitude": "0.0",
      "longitude": "0.0"
    }
  },
  {
    "service_request": "2023-1014452",
    "request_type": "Property Maintenance",
    "request_reason": "Property Maintenance",
    "date_created": "2023-07-05T20:10:07.000",
    "date_modified": "2023-07-05T20:10:07.000",
    "request_status": "Pending",
    "responsible_agency": "Department of Code Enforcement",
    "status": "Pending",
    "rowid": "1014452",
    "longitude": "0.0",
    "latitude": "0.0",
    "geocoded_column": {
      "latitude": "0.0",
      "longitude": "0.0"
    }
  },
  {
    "service_request": "2023-1014451",
    "request_type": "Property Maintenance",
    "request_reason": "Property Maintenance",
    "date_created": "2023-07-05T20:09:01.000",
    "date_modified": "2023-07-05T20:09:01.000",
    "request_status": "Pending",
    "responsible_agency": "Department of Code Enforcement",
    "final_address": "2300 Martin Luther King, Jr. Blvd",
    "address_councildis": "B",
    "status": "Pending",
    "rowid": "1014451",
    "final_x": "3676893.60219",
    "final_y": "526905.784766",
    "longitude": "-90.08277469333801",
    "latitude": "29.94294718432226",
    "geocoded_column": {
      "latitude": "29.94294718432226",
      "longitude": "-90.08277469333801"
    }
  },
  {
    "service_request": "2023-1014450",
    "request_type": "Property Maintenance",
    "request_reason": "Property Maintenance",
    "date_created": "2023-07-05T20:07:14.000",
    "date_modified": "2023-07-05T20:07:14.000",
    "request_status": "Pending",
    "responsible_agency": "Department of Code Enforcement",
    "status": "Pending",
    "rowid": "1014450",
    "longitude": "0.0",
    "latitude": "0.0",
    "geocoded_column": {
      "latitude": "0.0",
      "longitude": "0.0"
    }
  },
  {
    "service_request": "2023-1014449",
    "request_type": "Trash/Recycling",
    "request_reason": "MIssed Recycling Pick-Up",
    "date_created": "2023-07-05T20:05:08.000",
    "date_modified": "2023-07-05T20:05:09.000",
    "request_status": "Pending",
    "responsible_agency": "Department of Sanitation",
    "final_address": "3502 Piedmont Dr",
    "address_councildis": "D",
    "status": "Assigned to Contractor",
    "contractor": "IV Waste",
    "rowid": "1014449",
    "final_x": "3686236.20745",
    "final_y": "545527.080336",
    "longitude": "-90.05262076340996",
    "latitude": "29.993865590421258",
    "geocoded_column": {
      "latitude": "29.993865590421258",
      "longitude": "-90.05262076340996"
    }
  },
  {
    "service_request": "2023-1014448",
    "request_type": "Property Maintenance",
    "request_reason": "Property Maintenance",
    "date_created": "2023-07-05T20:04:30.000",
    "date_modified": "2023-07-05T20:04:30.000",
    "request_status": "Pending",
    "responsible_agency": "Department of Code Enforcement",
    "final_address": "1613 S Liberty St",
    "address_councildis": "B",
    "status": "Pending",
    "rowid": "1014448",
    "final_x": "3676694.19822",
    "final_y": "526587.614398",
    "longitude": "-90.08341521843158",
    "latitude": "29.942078303391234",
    "geocoded_column": {
      "latitude": "29.942078303391234",
      "longitude": "-90.08341521843158"
    }
  },
  {
    "service_request": "2023-1014447",
    "request_type": "Health Related Request",
    "request_reason": "Noise Ordinance Complaint",
    "date_created": "2023-07-05T20:04:08.000",
    "date_modified": "2023-07-05T20:04:09.000",
    "request_status": "Pending",
    "responsible_agency": "Health Department",
    "final_address": "1800 BLK Governor Nicholls St",
    "address_councildis": "D",
    "status": "Pending",
    "rowid": "1014447",
    "final_x": "3680442.04918",
    "final_y": "536395.662233",
    "longitude": "-90.07124137250248",
    "latitude": "29.968934171810716",
    "geocoded_column": {
      "latitude": "29.968934171810716",
      "longitude": "-90.07124137250248"
    }
  },
  {
    "service_request": "2023-1014446",
    "request_type": "Property Maintenance",
    "request_reason": "Property Maintenance",
    "date_created": "2023-07-05T20:01:47.000",
    "date_modified": "2023-07-05T20:01:47.000",
    "request_status": "Pending",
    "responsible_agency": "Department of Code Enforcement",
    "final_address": "1627 S Liberty St",
    "address_councildis": "B",
    "status": "Pending",
    "rowid": "1014446",
    "final_x": "3676620.7092",
    "final_y": "526501.022526",
    "longitude": "-90.08365022093311",
    "latitude": "29.941842408353324",
    "geocoded_column": {
      "latitude": "29.941842408353324",
      "longitude": "-90.08365022093311"
    }
  },
  {
    "service_request": "2023-1014445",
    "request_type": "Property Maintenance",
    "request_reason": "Property Maintenance",
    "date_created": "2023-07-05T19:59:30.000",
    "date_modified": "2023-07-05T19:59:30.000",
    "request_status": "Pending",
    "responsible_agency": "Department of Code Enforcement",
    "final_address": "1625 S Liberty St",
    "address_councildis": "B",
    "status": "Pending",
    "rowid": "1014445",
    "final_x": "3676659.5172",
    "final_y": "526540.172222",
    "longitude": "-90.08352634772464",
    "latitude": "29.94194889324657",
    "geocoded_column": {
      "latitude": "29.94194889324657",
      "longitude": "-90.08352634772464"
    }
  },
  {
    "service_request": "2023-1014444",
    "request_type": "Property Maintenance",
    "request_reason": "Property Maintenance",
    "date_created": "2023-07-05T19:57:45.000",
    "date_modified": "2023-07-05T19:57:45.000",
    "request_status": "Pending",
    "responsible_agency": "Department of Code Enforcement",
    "final_address": "1619 S Liberty St",
    "address_councildis": "B",
    "status": "Pending",
    "rowid": "1014444",
    "final_x": "3676673.81403",
    "final_y": "526562.668158",
    "longitude": "-90.08348043486053",
    "latitude": "29.942010320855633",
    "geocoded_column": {
      "latitude": "29.942010320855633",
      "longitude": "-90.08348043486053"
    }
  },
  {
    "service_request": "2023-1014443",
    "request_type": "Property Maintenance",
    "request_reason": "Property Maintenance",
    "date_created": "2023-07-05T19:54:27.000",
    "date_modified": "2023-07-05T19:54:27.000",
    "request_status": "Pending",
    "responsible_agency": "Department of Code Enforcement",
    "final_address": "1511 S Liberty St",
    "address_councildis": "B",
    "status": "Pending",
    "rowid": "1014443",
    "final_x": "3676853.5236",
    "final_y": "526846.201086",
    "longitude": "-90.08290328418516",
    "latitude": "29.94278455157291",
    "geocoded_column": {
      "latitude": "29.94278455157291",
      "longitude": "-90.08290328418516"
    }
  },
  {
    "service_request": "2023-1014441",
    "request_type": "Traffic Signals/Signs/Striping/Streetlights",
    "request_reason": "Traffic Signal Malfunctioning/Damaged",
    "date_created": "2023-07-05T19:36:23.000",
    "date_modified": "2023-07-05T19:36:24.000",
    "request_status": "Pending",
    "responsible_agency": "Department of Public Works",
    "final_address": "MARTIN LUTHER KING JR BLVD & S CLAIBORNE AVE",
    "address_councildis": "B",
    "status": "Pending",
    "rowid": "1014441",
    "final_x": "3675010.8",
    "final_y": "528134.58",
    "longitude": "-90.08867702288131",
    "latitude": "29.946382334051407",
    "geocoded_column": {
      "latitude": "29.946382334051407",
      "longitude": "-90.08867702288131"
    }
  },
  {
    "service_request": "2023-1014439",
    "request_type": "Roads/Drainage",
    "request_reason": "Accessibility Ramps, Curbs and Sidewalk Repair",
    "date_created": "2023-07-05T19:23:54.000",
    "date_modified": "2023-07-05T19:23:54.000",
    "request_status": "Pending",
    "responsible_agency": "Department of Public Works",
    "status": "Pending",
    "rowid": "1014439",
    "longitude": "0.0",
    "latitude": "0.0",
    "geocoded_column": {
      "latitude": "0.0",
      "longitude": "0.0"
    }
  },
  {
    "service_request": "2023-1014438",
    "request_type": "Trash/Recycling",
    "request_reason": "Order Trash Cart",
    "date_created": "2023-07-05T19:23:33.000",
    "date_modified": "2023-07-05T19:23:34.000",
    "request_status": "Pending",
    "responsible_agency": "Department of Sanitation",
    "final_address": "7600 Marquis St",
    "address_councildis": "E",
    "status": "Assigned to Contractor",
    "contractor": "Waste Pro",
    "rowid": "1014438",
    "final_x": "3711377.31544",
    "final_y": "566019.784483",
    "longitude": "-89.97243564027406",
    "latitude": "30.04941587450748",
    "geocoded_column": {
      "latitude": "30.04941587450748",
      "longitude": "-89.97243564027406"
    }
  },
  {
    "service_request": "2023-1014436",
    "request_type": "Trash/Recycling",
    "request_reason": "Missed Trash Pick-Up",
    "date_created": "2023-07-05T19:11:00.000",
    "date_modified": "2023-07-05T19:11:01.000",
    "request_status": "Pending",
    "responsible_agency": "Department of Sanitation",
    "final_address": "4218 Annunciation St, New Orleans, Louisiana, 70115",
    "address_councildis": "B",
    "status": "Assigned to Contractor",
    "contractor": "Richards Disposal",
    "rowid": "1014436",
    "final_x": "3671719.62254",
    "final_y": "517771.153078",
    "longitude": "-90.09942081109605",
    "latitude": "29.91798414097997",
    "geocoded_column": {
      "latitude": "29.91798414097997",
      "longitude": "-90.09942081109605"
    }
  },
  {
    "service_request": "2023-1014435",
    "request_type": "Trash/Recycling",
    "request_reason": "Missed Trash Pick-Up",
    "date_created": "2023-07-05T19:08:13.000",
    "date_modified": "2023-07-05T19:08:13.000",
    "request_status": "Pending",
    "responsible_agency": "Department of Sanitation",
    "final_address": "1906 Napoleon Ave",
    "address_councildis": "B",
    "status": "Assigned to Contractor",
    "contractor": "Richards Disposal",
    "rowid": "1014435",
    "final_x": "3670597.63636",
    "final_y": "522003.563962",
    "longitude": "-90.10281885092698",
    "latitude": "29.92965509801179",
    "geocoded_column": {
      "latitude": "29.92965509801179",
      "longitude": "-90.10281885092698"
    }
  },
  {
    "service_request": "2023-1014433",
    "request_type": "Trash/Recycling",
    "request_reason": "Return Recycling Cart",
    "date_created": "2023-07-05T19:04:46.000",
    "date_modified": "2023-07-05T19:04:46.000",
    "request_status": "Pending",
    "responsible_agency": "Department of Sanitation",
    "final_address": "4209 Burgundy St",
    "address_councildis": "C",
    "status": "Pending",
    "rowid": "1014433",
    "final_x": "3692307.98089",
    "final_y": "534430.274693",
    "longitude": "-90.03383852831237",
    "latitude": "29.963165338970835",
    "geocoded_column": {
      "latitude": "29.963165338970835",
      "longitude": "-90.03383852831237"
    }
  },
  {
    "service_request": "2023-1014432",
    "request_type": "Trash/Recycling",
    "request_reason": "Request a Large Item Pick Up",
    "date_created": "2023-07-05T18:58:08.000",
    "date_modified": "2023-07-05T18:58:09.000",
    "request_status": "Pending",
    "responsible_agency": "Department of Sanitation",
    "final_address": "925 N Carrollton Ave",
    "address_councildis": "A",
    "status": "Assigned to Contractor",
    "contractor": "Richards Disposal",
    "rowid": "1014432",
    "final_x": "3673172.70056",
    "final_y": "540789.621771",
    "longitude": "-90.0940484100378",
    "latitude": "29.981234226035635",
    "geocoded_column": {
      "latitude": "29.981234226035635",
      "longitude": "-90.0940484100378"
    }
  },
  {
    "service_request": "2023-1014431",
    "request_type": "Trash/Recycling",
    "request_reason": "Replace Trash Cart",
    "date_created": "2023-07-05T18:48:21.000",
    "date_modified": "2023-07-05T18:48:22.000",
    "request_status": "Pending",
    "responsible_agency": "Department of Sanitation",
    "final_address": "263 Lowerline St",
    "address_councildis": "A",
    "status": "Assigned to Contractor",
    "contractor": "Richards Disposal",
    "rowid": "1014431",
    "final_x": "3661329.30266",
    "final_y": "523239.855419",
    "longitude": "-90.13203657356324",
    "latitude": "29.93332493961432",
    "geocoded_column": {
      "latitude": "29.93332493961432",
      "longitude": "-90.13203657356324"
    }
  },
  {
    "service_request": "2023-1014430",
    "request_type": "Traffic Signals/Signs/Striping/Streetlights",
    "request_reason": "Traffic Sign Missing/Damaged",
    "date_created": "2023-07-05T18:43:17.000",
    "date_modified": "2023-07-05T18:43:17.000",
    "request_status": "Pending",
    "responsible_agency": "Department of Public Works",
    "final_address": "LAFAYE ST & GENTILLY BLVD",
    "address_councildis": "D",
    "status": "Pending",
    "rowid": "1014430",
    "final_x": "3687572.54",
    "final_y": "548888.33",
    "longitude": "-90.04828041753437",
    "latitude": "30.003066674969364",
    "geocoded_column": {
      "latitude": "30.003066674969364",
      "longitude": "-90.04828041753437"
    }
  },
  {
    "service_request": "2023-1014429",
    "request_type": "Trash/Recycling",
    "request_reason": "Request a Large Item Pick Up",
    "date_created": "2023-07-05T18:38:31.000",
    "date_modified": "2023-07-05T18:38:32.000",
    "request_status": "Pending",
    "responsible_agency": "Department of Sanitation",
    "final_address": "7700 Wave Dr",
    "address_councildis": "E",
    "status": "Assigned to Contractor",
    "contractor": "Waste Pro",
    "rowid": "1014429",
    "final_x": "3714644.88549",
    "final_y": "569077.494182",
    "longitude": "-89.96199256599522",
    "latitude": "30.057716210539034",
    "geocoded_column": {
      "latitude": "30.057716210539034",
      "longitude": "-89.96199256599522"
    }
  },
  {
    "service_request": "2023-1014428",
    "request_type": "Trash/Recycling",
    "request_reason": "Request a Large Item Pick Up",
    "date_created": "2023-07-05T18:36:32.000",
    "date_modified": "2023-07-05T18:36:33.000",
    "request_status": "Pending",
    "responsible_agency": "Department of Sanitation",
    "final_address": "720 Brooklyn Ave",
    "address_councildis": "C",
    "status": "Assigned to Contractor",
    "contractor": "Richards Disposal",
    "rowid": "1014428",
    "final_x": "3686165.87446",
    "final_y": "528827.156032",
    "longitude": "-90.05343217989588",
    "latitude": "29.94794878971786",
    "geocoded_column": {
      "latitude": "29.94794878971786",
      "longitude": "-90.05343217989588"
    }
  },
  {
    "service_request": "2023-1014427",
    "request_type": "Trash/Recycling",
    "request_reason": "Request a Large Item Pick Up",
    "date_created": "2023-07-05T18:36:19.000",
    "date_modified": "2023-07-05T18:36:20.000",
    "request_status": "Pending",
    "responsible_agency": "Department of Sanitation",
    "final_address": "913 Washington Ave Unit 3",
    "address_councildis": "B",
    "status": "Assigned to Contractor",
    "contractor": "Richards Disposal",
    "rowid": "1014427",
    "final_x": "3677467.75662",
    "final_y": "520377.564024",
    "longitude": "-90.0811871812543",
    "latitude": "29.92497947379642",
    "geocoded_column": {
      "latitude": "29.92497947379642",
      "longitude": "-90.0811871812543"
    }
  },
  {
    "service_request": "2023-1014426",
    "request_type": "Trash/Recycling",
    "request_reason": "Request a Large Item Pick Up",
    "date_created": "2023-07-05T18:35:51.000",
    "date_modified": "2023-07-05T18:35:52.000",
    "request_status": "Pending",
    "responsible_agency": "Department of Sanitation",
    "final_address": "913 Washington Ave Unit 3",
    "address_councildis": "B",
    "status": "Assigned to Contractor",
    "contractor": "Richards Disposal",
    "rowid": "1014426",
    "final_x": "3677467.75662",
    "final_y": "520377.564024",
    "longitude": "-90.0811871812543",
    "latitude": "29.92497947379642",
    "geocoded_column": {
      "latitude": "29.92497947379642",
      "longitude": "-90.0811871812543"
    }
  },
  {
    "service_request": "2023-1014425",
    "request_type": "Traffic Signals/Signs/Striping/Streetlights",
    "request_reason": "Traffic Signal Malfunctioning/Damaged",
    "date_created": "2023-07-05T18:26:52.000",
    "date_modified": "2023-07-05T18:26:52.000",
    "request_status": "Pending",
    "responsible_agency": "Department of Public Works",
    "final_address": "1100 Elysian Fields Ave",
    "address_councildis": "C",
    "status": "Pending",
    "rowid": "1014425",
    "final_x": "3684785.76418",
    "final_y": "536405.767751",
    "longitude": "-90.0575233054216",
    "latitude": "29.96882968875892",
    "geocoded_column": {
      "latitude": "29.96882968875892",
      "longitude": "-90.0575233054216"
    }
  },
  {
    "service_request": "2023-1014424",
    "request_type": "Trash/Recycling",
    "request_reason": "MIssed Recycling Pick-Up",
    "date_created": "2023-07-05T18:20:17.000",
    "date_modified": "2023-07-05T18:20:17.000",
    "request_status": "Pending",
    "responsible_agency": "Department of Sanitation",
    "final_address": "4227 St Charles Ave",
    "address_councildis": "B",
    "status": "Assigned to Contractor",
    "contractor": "Richards Disposal",
    "rowid": "1014424",
    "final_x": "3671358.86478",
    "final_y": "521031.645369",
    "longitude": "-90.10044879479399",
    "latitude": "29.926960133461964",
    "geocoded_column": {
      "latitude": "29.926960133461964",
      "longitude": "-90.10044879479399"
    }
  },
  {
    "service_request": "2023-1014423",
    "request_type": "Trash/Recycling",
    "request_reason": "MIssed Recycling Pick-Up",
    "date_created": "2023-07-05T18:14:43.000",
    "date_modified": "2023-07-05T18:14:44.000",
    "request_status": "Pending",
    "responsible_agency": "Department of Sanitation",
    "final_address": "1412 Erato St",
    "address_councildis": "B",
    "status": "Assigned to Contractor",
    "contractor": "Richards Disposal",
    "rowid": "1014423",
    "final_x": "3680065.94664",
    "final_y": "525672.581821",
    "longitude": "-90.07280166626343",
    "latitude": "29.939460704225844",
    "geocoded_column": {
      "latitude": "29.939460704225844",
      "longitude": "-90.07280166626343"
    }
  },
  {
    "service_request": "2023-1014422",
    "request_type": "Abandoned Vehicles",
    "request_reason": "Abandoned/Junk Vehicles",
    "date_created": "2023-07-05T18:06:23.000",
    "date_modified": "2023-07-05T18:06:23.000",
    "request_status": "Pending",
    "responsible_agency": "Department of Public Works",
    "final_address": "2337 Valmont St",
    "address_councildis": "B",
    "status": "Pending",
    "rowid": "1014422",
    "final_x": "3668328.04858",
    "final_y": "524230.74374",
    "longitude": "-90.10990849114874",
    "latitude": "29.935845953049768",
    "geocoded_column": {
      "latitude": "29.935845953049768",
      "longitude": "-90.10990849114874"
    }
  },
  {
    "service_request": "2023-1014421",
    "request_type": "Trash/Recycling",
    "request_reason": "Missed Trash Pick-Up",
    "date_created": "2023-07-05T17:57:03.000",
    "date_modified": "2023-07-05T17:57:04.000",
    "request_status": "Pending",
    "responsible_agency": "Department of Sanitation",
    "final_address": "1028 Bordeaux St",
    "address_councildis": "B",
    "status": "Assigned to Contractor",
    "contractor": "Richards Disposal",
    "rowid": "1014421",
    "final_x": "3669491.06241",
    "final_y": "519239.078647",
    "longitude": "-90.10640556440809",
    "latitude": "29.922086272368226",
    "geocoded_column": {
      "latitude": "29.922086272368226",
      "longitude": "-90.10640556440809"
    }
  },
  {
    "service_request": "2023-1014420",
    "request_type": "Roads/Drainage",
    "request_reason": "Catch Basin - Clogged",
    "date_created": "2023-07-05T17:37:39.000",
    "date_modified": "2023-07-05T17:37:39.000",
    "request_status": "Pending",
    "responsible_agency": "Department of Public Works",
    "final_address": "4986 Montegut Dr",
    "address_councildis": "D",
    "status": "Pending",
    "rowid": "1014420",
    "final_x": "3689630.77788",
    "final_y": "551991.77295",
    "longitude": "-90.04166764528672",
    "latitude": "30.011536373757",
    "geocoded_column": {
      "latitude": "30.011536373757",
      "longitude": "-90.04166764528672"
    }
  },
  {
    "service_request": "2023-1014419",
    "request_type": "Abandoned Vehicles",
    "request_reason": "Abandoned/Junk Vehicles",
    "date_created": "2023-07-05T17:37:14.000",
    "date_modified": "2023-07-05T17:37:15.000",
    "request_status": "Pending",
    "responsible_agency": "Department of Public Works",
    "final_address": "UPPERLINE ST & S DERBIGNY ST",
    "address_councildis": "B",
    "status": "Pending",
    "rowid": "1014419",
    "final_x": "3669243.6",
    "final_y": "526146.58",
    "longitude": "-90.10695333534119",
    "latitude": "29.941086973770634",
    "geocoded_column": {
      "latitude": "29.941086973770634",
      "longitude": "-90.10695333534119"
    }
  },
  {
    "service_request": "2023-1014418",
    "request_type": "Abandoned Vehicles",
    "request_reason": "Abandoned/Junk Vehicles",
    "date_created": "2023-07-05T17:26:32.000",
    "date_modified": "2023-07-05T17:26:33.000",
    "request_status": "Pending",
    "responsible_agency": "Department of Public Works",
    "final_address": "5635 Clements Dr",
    "address_councildis": "E",
    "status": "Pending",
    "rowid": "1014418",
    "final_x": "3702474.58474",
    "final_y": "556363.443866",
    "longitude": "-90.00092842781335",
    "latitude": "30.023152441497196",
    "geocoded_column": {
      "latitude": "30.023152441497196",
      "longitude": "-90.00092842781335"
    }
  },
  {
    "service_request": "2023-1014417",
    "request_type": "Property Maintenance",
    "request_reason": "Property Maintenance",
    "date_created": "2023-07-05T17:21:09.000",
    "date_modified": "2023-07-05T17:21:09.000",
    "request_status": "Pending",
    "responsible_agency": "Department of Code Enforcement",
    "final_address": "7031 Louis Xiv St",
    "address_councildis": "A",
    "status": "Pending",
    "rowid": "1014417",
    "final_x": "3668793.02388",
    "final_y": "554274.579224",
    "longitude": "-90.10742578390095",
    "latitude": "30.018442706375",
    "geocoded_column": {
      "latitude": "30.018442706375",
      "longitude": "-90.10742578390095"
    }
  },
  {
    "service_request": "2023-1014416",
    "request_type": "Trash/Recycling",
    "request_reason": "Request a Large Item Pick Up",
    "date_created": "2023-07-05T17:18:58.000",
    "date_modified": "2023-07-05T17:18:59.000",
    "request_status": "Pending",
    "responsible_agency": "Department of Sanitation",
    "final_address": "4813 Lynhuber Dr",
    "address_councildis": "D",
    "status": "Assigned to Contractor",
    "contractor": "Waste Pro",
    "rowid": "1014416",
    "final_x": "3698072.66755",
    "final_y": "554691.846296",
    "longitude": "-90.01489822034964",
    "latitude": "30.018696192449028",
    "geocoded_column": {
      "latitude": "30.018696192449028",
      "longitude": "-90.01489822034964"
    }
  },
  {
    "service_request": "2023-1014415",
    "request_type": "Traffic Signals/Signs/Striping/Streetlights",
    "request_reason": "Street Light Outage/Malfunction",
    "date_created": "2023-07-05T17:09:12.000",
    "date_modified": "2023-07-05T17:09:13.000",
    "request_status": "Pending",
    "responsible_agency": "Department of Public Works",
    "final_address": "5531 Rickert Dr",
    "address_councildis": "E",
    "status": "Assigned to Contractor",
    "contractor": "Legacy Professional Services",
    "rowid": "1014415",
    "final_x": "3703234.48798",
    "final_y": "556316.393626",
    "longitude": "-89.99852904902077",
    "latitude": "30.022998753051496",
    "geocoded_column": {
      "latitude": "30.022998753051496",
      "longitude": "-89.99852904902077"
    }
  },
  {
    "service_request": "2023-1014414",
    "request_type": "Traffic Signals/Signs/Striping/Streetlights",
    "request_reason": "Traffic Signal Malfunctioning/Damaged",
    "date_created": "2023-07-05T17:06:05.000",
    "date_modified": "2023-07-05T17:06:05.000",
    "request_status": "Pending",
    "responsible_agency": "Department of Public Works",
    "final_address": "MARTIN LUTHER KING JR BLVD & S CLAIBORNE AVE",
    "address_councildis": "B",
    "status": "Pending",
    "rowid": "1014414",
    "final_x": "3675010.8",
    "final_y": "528134.58",
    "longitude": "-90.08867702288131",
    "latitude": "29.946382334051407",
    "geocoded_column": {
      "latitude": "29.946382334051407",
      "longitude": "-90.08867702288131"
    }
  },
  {
    "service_request": "2023-1014413",
    "request_type": "Traffic Signals/Signs/Striping/Streetlights",
    "request_reason": "Traffic Signal Malfunctioning/Damaged",
    "date_created": "2023-07-05T17:05:48.000",
    "date_modified": "2023-07-05T17:05:48.000",
    "request_status": "Pending",
    "responsible_agency": "Department of Public Works",
    "final_address": "FELICITY ST & S CLAIBORNE AVE",
    "address_councildis": "B",
    "status": "Pending",
    "rowid": "1014413",
    "final_x": "3675074.8",
    "final_y": "527995.68",
    "longitude": "-90.08847971665318",
    "latitude": "29.945998493214656",
    "geocoded_column": {
      "latitude": "29.945998493214656",
      "longitude": "-90.08847971665318"
    }
  },
  {
    "service_request": "2023-1014412",
    "request_type": "Trash/Recycling",
    "request_reason": "Replace Trash Cart",
    "date_created": "2023-07-05T17:04:31.000",
    "date_modified": "2023-07-05T17:04:31.000",
    "request_status": "Pending",
    "responsible_agency": "Department of Sanitation",
    "final_address": "5229 Magazine St",
    "address_councildis": "B",
    "status": "Assigned to Contractor",
    "contractor": "Richards Disposal",
    "rowid": "1014412",
    "final_x": "3667775.06983",
    "final_y": "518657.061751",
    "longitude": "-90.11184184094999",
    "latitude": "29.920536321173152",
    "geocoded_column": {
      "latitude": "29.920536321173152",
      "longitude": "-90.11184184094999"
    }
  },
  {
    "service_request": "2023-1014411",
    "request_type": "Traffic Signals/Signs/Striping/Streetlights",
    "request_reason": "Traffic Signal Malfunctioning/Damaged",
    "date_created": "2023-07-05T17:02:58.000",
    "date_modified": "2023-07-05T17:02:59.000",
    "request_status": "Pending",
    "responsible_agency": "Department of Public Works",
    "final_address": "MARTIN LUTHER KING JR BLVD & S CLAIBORNE AVE",
    "address_councildis": "B",
    "status": "Pending",
    "rowid": "1014411",
    "final_x": "3675010.8",
    "final_y": "528134.58",
    "longitude": "-90.08867702288131",
    "latitude": "29.946382334051407",
    "geocoded_column": {
      "latitude": "29.946382334051407",
      "longitude": "-90.08867702288131"
    }
  },
  {
    "service_request": "2023-1014410",
    "request_type": "Trash/Recycling",
    "request_reason": "Missed Trash Pick-Up",
    "date_created": "2023-07-05T17:02:12.000",
    "date_modified": "2023-07-05T17:02:13.000",
    "request_status": "Pending",
    "responsible_agency": "Department of Sanitation",
    "final_address": "6569 Marshal Foch St",
    "address_councildis": "A",
    "status": "Assigned to Contractor",
    "contractor": "IV Waste",
    "rowid": "1014410",
    "final_x": "3670276.84263",
    "final_y": "551127.276629",
    "longitude": "-90.10284423844648",
    "latitude": "30.009745003389874",
    "geocoded_column": {
      "latitude": "30.009745003389874",
      "longitude": "-90.10284423844648"
    }
  },
  {
    "service_request": "2023-1014409",
    "request_type": "Traffic Signals/Signs/Striping/Streetlights",
    "request_reason": "Street Name Sign Damaged or Missing",
    "date_created": "2023-07-05T17:00:02.000",
    "date_modified": "2023-07-05T17:00:03.000",
    "request_status": "Pending",
    "responsible_agency": "Department of Public Works",
    "final_address": "MICHOUD BLVD & WILLOWBROOK DR",
    "address_councildis": "E",
    "status": "Pending",
    "rowid": "1014409",
    "final_x": "3724600.8",
    "final_y": "564191.98",
    "longitude": "-89.93071262602129",
    "latitude": "30.043951704875788",
    "geocoded_column": {
      "latitude": "30.043951704875788",
      "longitude": "-89.93071262602129"
    }
  },
  {
    "service_request": "2023-1014408",
    "request_type": "Roads/Drainage",
    "request_reason": "Catch Basin - Clogged",
    "date_created": "2023-07-05T16:59:50.000",
    "date_modified": "2023-07-05T16:59:50.000",
    "request_status": "Pending",
    "responsible_agency": "Department of Public Works",
    "final_address": "3653 Magazine St",
    "address_councildis": "B",
    "status": "Pending",
    "rowid": "1014408",
    "final_x": "3673673.08712",
    "final_y": "519207.466359",
    "longitude": "-90.09320571370927",
    "latitude": "29.92187555650868",
    "geocoded_column": {
      "latitude": "29.92187555650868",
      "longitude": "-90.09320571370927"
    }
  },
  {
    "service_request": "2023-1014407",
    "request_type": "Traffic Signals/Signs/Striping/Streetlights",
    "request_reason": "Traffic Signal Malfunctioning/Damaged",
    "date_created": "2023-07-05T16:55:38.000",
    "date_modified": "2023-07-05T16:55:38.000",
    "request_status": "Pending",
    "responsible_agency": "Department of Public Works",
    "final_address": "MARTIN LUTHER KING JR BLVD & S CLAIBORNE AVE",
    "address_councildis": "B",
    "status": "Pending",
    "rowid": "1014407",
    "final_x": "3675010.8",
    "final_y": "528134.58",
    "longitude": "-90.08867702288131",
    "latitude": "29.946382334051407",
    "geocoded_column": {
      "latitude": "29.946382334051407",
      "longitude": "-90.08867702288131"
    }
  },
  {
    "service_request": "2023-1014406",
    "request_type": "Traffic Signals/Signs/Striping/Streetlights",
    "request_reason": "Traffic Signal Malfunctioning/Damaged",
    "date_created": "2023-07-05T16:55:26.000",
    "date_modified": "2023-07-05T16:55:26.000",
    "request_status": "Pending",
    "responsible_agency": "Department of Public Works",
    "final_address": "LOUISIANA AVE & LA SALLE ST",
    "address_councildis": "B",
    "status": "Pending",
    "rowid": "1014406",
    "final_x": "3673055.7",
    "final_y": "524148.88",
    "longitude": "-90.09498597468031",
    "latitude": "29.935481210872826",
    "geocoded_column": {
      "latitude": "29.935481210872826",
      "longitude": "-90.09498597468031"
    }
  },
  {
    "service_request": "2023-1014405",
    "request_type": "Traffic Signals/Signs/Striping/Streetlights",
    "request_reason": "Traffic Signal Malfunctioning/Damaged",
    "date_created": "2023-07-05T16:54:59.000",
    "date_modified": "2023-07-05T16:54:59.000",
    "request_status": "Pending",
    "responsible_agency": "Department of Public Works",
    "final_address": "2339 Louisiana Ave",
    "address_councildis": "B",
    "status": "Pending",
    "rowid": "1014405",
    "final_x": "3673141.30132",
    "final_y": "524139.881468",
    "longitude": "-90.09471603732975",
    "latitude": "29.93545392377293",
    "geocoded_column": {
      "latitude": "29.93545392377293",
      "longitude": "-90.09471603732975"
    }
  },
  {
    "service_request": "2023-1014404",
    "request_type": "Traffic Signals/Signs/Striping/Streetlights",
    "request_reason": "Traffic Signal Malfunctioning/Damaged",
    "date_created": "2023-07-05T16:54:44.000",
    "date_modified": "2023-07-05T16:54:45.000",
    "request_status": "Pending",
    "responsible_agency": "Department of Public Works",
    "final_address": "DANNEEL ST & LOUISIANA AVE",
    "address_councildis": "B",
    "status": "Pending",
    "rowid": "1014404",
    "final_x": "3673664.3",
    "final_y": "522883.28",
    "longitude": "-90.09310786344179",
    "latitude": "29.931983121936806",
    "geocoded_column": {
      "latitude": "29.931983121936806",
      "longitude": "-90.09310786344179"
    }
  },
  {
    "service_request": "2023-1014403",
    "request_type": "Trash/Recycling",
    "request_reason": "Request a Large Item Pick Up",
    "date_created": "2023-07-05T16:50:58.000",
    "date_modified": "2023-07-05T16:50:59.000",
    "request_status": "Pending",
    "responsible_agency": "Department of Sanitation",
    "final_address": "3027 Audubon St",
    "address_councildis": "B",
    "status": "Assigned to Contractor",
    "contractor": "Richards Disposal",
    "rowid": "1014403",
    "final_x": "3668075.57345",
    "final_y": "531820.719363",
    "longitude": "-90.11044983402758",
    "latitude": "29.956723332488394",
    "geocoded_column": {
      "latitude": "29.956723332488394",
      "longitude": "-90.11044983402758"
    }
  },
  {
    "service_request": "2023-1014402",
    "request_type": "Traffic Signals/Signs/Striping/Streetlights",
    "request_reason": "Traffic Signal Malfunctioning/Damaged",
    "date_created": "2023-07-05T16:47:25.000",
    "date_modified": "2023-07-05T16:47:25.000",
    "request_status": "Pending",
    "responsible_agency": "Department of Public Works",
    "final_address": "CARONDELET ST & LOUISIANA AVE",
    "address_councildis": "B",
    "status": "Pending",
    "rowid": "1014402",
    "final_x": "3674077.1",
    "final_y": "521922.48",
    "longitude": "-90.09183755827232",
    "latitude": "29.929328940838708",
    "geocoded_column": {
      "latitude": "29.929328940838708",
      "longitude": "-90.09183755827232"
    }
  },
  {
    "service_request": "2023-1014401",
    "request_type": "Trash/Recycling",
    "request_reason": "Replace Trash Cart",
    "date_created": "2023-07-05T16:47:21.000",
    "date_modified": "2023-07-05T16:47:22.000",
    "request_status": "Pending",
    "responsible_agency": "Department of Sanitation",
    "final_address": "3931 Kathleen St",
    "address_councildis": "C",
    "status": "Assigned to Contractor",
    "contractor": "Richards Disposal",
    "rowid": "1014401",
    "final_x": "3709776.90718",
    "final_y": "516235.60306",
    "longitude": "-89.97935316707532",
    "latitude": "29.9125801770994",
    "geocoded_column": {
      "latitude": "29.9125801770994",
      "longitude": "-89.97935316707532"
    }
  },
  {
    "service_request": "2023-1014400",
    "request_type": "Traffic Signals/Signs/Striping/Streetlights",
    "request_reason": "Traffic Signal Malfunctioning/Damaged",
    "date_created": "2023-07-05T16:46:43.000",
    "date_modified": "2023-07-05T16:46:43.000",
    "request_status": "Pending",
    "responsible_agency": "Department of Public Works",
    "final_address": "BARONNE ST & LOUISIANA AVE",
    "address_councildis": "B",
    "status": "Pending",
    "rowid": "1014400",
    "final_x": "3673886.0",
    "final_y": "522217.48",
    "longitude": "-90.09243074084232",
    "latitude": "29.930145787402324",
    "geocoded_column": {
      "latitude": "29.930145787402324",
      "longitude": "-90.09243074084232"
    }
  },
  {
    "service_request": "2023-1014399",
    "request_type": "Traffic Signals/Signs/Striping/Streetlights",
    "request_reason": "Traffic Signal Malfunctioning/Damaged",
    "date_created": "2023-07-05T16:45:19.000",
    "date_modified": "2023-07-05T16:45:20.000",
    "request_status": "Pending",
    "responsible_agency": "Department of Public Works",
    "final_address": "DANNEEL ST & LOUISIANA AVE",
    "address_councildis": "B",
    "status": "Pending",
    "rowid": "1014399",
    "final_x": "3673604.6",
    "final_y": "522860.38",
    "longitude": "-90.09329711281605",
    "latitude": "29.93192193098849",
    "geocoded_column": {
      "latitude": "29.93192193098849",
      "longitude": "-90.09329711281605"
    }
  },
  {
    "service_request": "2023-1014398",
    "request_type": "Abandoned Vehicles",
    "request_reason": "Abandoned/Junk Vehicles",
    "date_created": "2023-07-05T16:44:15.000",
    "date_modified": "2023-07-05T16:44:17.000",
    "request_status": "Pending",
    "responsible_agency": "Department of Public Works",
    "final_address": "4441 General Pershing St",
    "address_councildis": "B",
    "status": "Pending",
    "rowid": "1014398",
    "final_x": "3669207.55674",
    "final_y": "530000.048961",
    "longitude": "-90.10693691651748",
    "latitude": "29.951683819782264",
    "geocoded_column": {
      "latitude": "29.951683819782264",
      "longitude": "-90.10693691651748"
    }
  },
  {
    "service_request": "2023-1014397",
    "request_type": "Property Maintenance",
    "request_reason": "Property Maintenance",
    "date_created": "2023-07-05T16:43:35.000",
    "date_modified": "2023-07-05T16:43:35.000",
    "request_status": "Pending",
    "responsible_agency": "Department of Code Enforcement",
    "final_address": "4441 General Pershing St",
    "address_councildis": "B",
    "status": "Pending",
    "rowid": "1014397",
    "final_x": "3669207.55674",
    "final_y": "530000.048961",
    "longitude": "-90.10693691651748",
    "latitude": "29.951683819782264",
    "geocoded_column": {
      "latitude": "29.951683819782264",
      "longitude": "-90.10693691651748"
    }
  },
  {
    "service_request": "2023-1014396",
    "request_type": "Trash/Recycling",
    "request_reason": "Replace Trash Cart",
    "date_created": "2023-07-05T16:40:57.000",
    "date_modified": "2023-07-05T17:12:38.000",
    "case_close_date": "2023-07-05T12:12:38.000",
    "request_status": "Closed",
    "responsible_agency": "Department of Sanitation",
    "final_address": "4421 Cessna Ct",
    "address_councildis": "D",
    "status": "Duplicate Request",
    "contractor": "Waste Pro",
    "contractor_action": "duplicate",
    "rowid": "1014396",
    "final_x": "3696702.78391",
    "final_y": "552537.079446",
    "longitude": "-90.01930461340105",
    "latitude": "30.012814664546838",
    "geocoded_column": {
      "latitude": "30.012814664546838",
      "longitude": "-90.01930461340105"
    }
  },
  {
    "service_request": "2023-1014395",
    "request_type": "Abandoned Vehicles",
    "request_reason": "Abandoned/Junk Vehicles",
    "date_created": "2023-07-05T16:40:56.000",
    "date_modified": "2023-07-05T16:40:56.000",
    "request_status": "Pending",
    "responsible_agency": "Department of Public Works",
    "final_address": "8900 BLK Palmetto St",
    "address_councildis": "A",
    "status": "Pending",
    "rowid": "1014395",
    "final_x": "3665960.00761",
    "final_y": "537292.54725",
    "longitude": "-90.11694671680422",
    "latitude": "29.97183096753466",
    "geocoded_column": {
      "latitude": "29.97183096753466",
      "longitude": "-90.11694671680422"
    }
  },
  {
    "service_request": "2023-1014394",
    "request_type": "Trash/Recycling",
    "request_reason": "Replace Trash Cart",
    "date_created": "2023-07-05T16:38:13.000",
    "date_modified": "2023-07-05T16:38:14.000",
    "request_status": "Pending",
    "responsible_agency": "Department of Sanitation",
    "final_address": "4421 Cessna Ct",
    "address_councildis": "D",
    "status": "Assigned to Contractor",
    "contractor": "Waste Pro",
    "rowid": "1014394",
    "final_x": "3696702.78391",
    "final_y": "552537.079446",
    "longitude": "-90.01930461340105",
    "latitude": "30.012814664546838",
    "geocoded_column": {
      "latitude": "30.012814664546838",
      "longitude": "-90.01930461340105"
    }
  },
  {
    "service_request": "2023-1014393",
    "request_type": "Abandoned Vehicles",
    "request_reason": "Abandoned/Junk Vehicles",
    "date_created": "2023-07-05T16:37:00.000",
    "date_modified": "2023-07-05T16:37:00.000",
    "request_status": "Pending",
    "responsible_agency": "Department of Public Works",
    "final_address": "1013 Josephine St",
    "address_councildis": "B",
    "status": "Pending",
    "rowid": "1014393",
    "final_x": "3679360.06498",
    "final_y": "522144.854458",
    "longitude": "-90.07515252264334",
    "latitude": "29.92978194960514",
    "geocoded_column": {
      "latitude": "29.92978194960514",
      "longitude": "-90.07515252264334"
    }
  },
  {
    "service_request": "2023-1014392",
    "request_type": "Trash/Recycling",
    "request_reason": "Request a Large Item Pick Up",
    "date_created": "2023-07-05T16:36:40.000",
    "date_modified": "2023-07-05T16:36:41.000",
    "request_status": "Pending",
    "responsible_agency": "Department of Sanitation",
    "final_address": "1808 Tennessee St, New Orleans, Louisiana, 70117",
    "address_councildis": "E",
    "status": "Assigned to Contractor",
    "contractor": "Waste Pro",
    "rowid": "1014392",
    "final_x": "3696391.13546",
    "final_y": "537041.110856",
    "longitude": "-90.02085003666046",
    "latitude": "29.970216248836593",
    "geocoded_column": {
      "latitude": "29.970216248836593",
      "longitude": "-90.02085003666046"
    }
  },
  {
    "service_request": "2023-1014391",
    "request_type": "Trash/Recycling",
    "request_reason": "Request a Large Item Pick Up",
    "date_created": "2023-07-05T16:25:09.000",
    "date_modified": "2023-07-05T16:25:10.000",
    "request_status": "Pending",
    "responsible_agency": "Department of Sanitation",
    "final_address": "1735 Feliciana St",
    "address_councildis": "D",
    "status": "Assigned to Contractor",
    "contractor": "IV Waste",
    "rowid": "1014391",
    "final_x": "3689393.39516",
    "final_y": "538520.101641",
    "longitude": "-90.04289696927974",
    "latitude": "29.974501493659407",
    "geocoded_column": {
      "latitude": "29.974501493659407",
      "longitude": "-90.04289696927974"
    }
  },
  {
    "service_request": "2023-1014390",
    "request_type": "Trash/Recycling",
    "request_reason": "Request a Large Item Pick Up",
    "date_created": "2023-07-05T16:24:24.000",
    "date_modified": "2023-07-05T16:24:25.000",
    "request_status": "Pending",
    "responsible_agency": "Department of Sanitation",
    "final_address": "8941 Middleboro Rd",
    "address_councildis": "E",
    "status": "Assigned to Contractor",
    "contractor": "Waste Pro",
    "rowid": "1014390",
    "final_x": "3706199.90167",
    "final_y": "560912.855774",
    "longitude": "-89.9889886833897",
    "latitude": "30.03554190903276",
    "geocoded_column": {
      "latitude": "30.03554190903276",
      "longitude": "-89.9889886833897"
    }
  },
  {
    "service_request": "2023-1014389",
    "request_type": "Roads/Drainage",
    "request_reason": "Catch Basin - Clogged",
    "date_created": "2023-07-05T16:22:00.000",
    "date_modified": "2023-07-05T16:22:00.000",
    "request_status": "Pending",
    "responsible_agency": "Department of Public Works",
    "final_address": "400 BLK S Saint Patrick St",
    "address_councildis": "A",
    "status": "Pending",
    "rowid": "1014389",
    "final_x": "3668263.21363",
    "final_y": "538716.334428",
    "longitude": "-90.10962478598687",
    "latitude": "29.975678474452607",
    "geocoded_column": {
      "latitude": "29.975678474452607",
      "longitude": "-90.10962478598687"
    }
  },
  {
    "service_request": "2023-1014388",
    "request_type": "Trash/Recycling",
    "request_reason": "Repair Trash Cart",
    "date_created": "2023-07-05T16:19:34.000",
    "date_modified": "2023-07-05T16:19:35.000",
    "request_status": "Pending",
    "responsible_agency": "Department of Sanitation",
    "final_address": "4060 Franklin Ave",
    "address_councildis": "D",
    "status": "Assigned to Contractor",
    "contractor": "IV Waste",
    "rowid": "1014388",
    "final_x": "3686890.54178",
    "final_y": "548024.648338",
    "longitude": "-90.05046549216722",
    "latitude": "30.000712876513475",
    "geocoded_column": {
      "latitude": "30.000712876513475",
      "longitude": "-90.05046549216722"
    }
  },
  {
    "service_request": "2023-1014387",
    "request_type": "Roads/Drainage",
    "request_reason": "Catch Basin - Clogged",
    "date_created": "2023-07-05T16:18:21.000",
    "date_modified": "2023-07-05T16:18:22.000",
    "request_status": "Pending",
    "responsible_agency": "Department of Public Works",
    "final_address": "4060 Franklin Ave",
    "address_councildis": "D",
    "status": "Pending",
    "rowid": "1014387",
    "final_x": "3686890.54178",
    "final_y": "548024.648338",
    "longitude": "-90.05046549216722",
    "latitude": "30.000712876513475",
    "geocoded_column": {
      "latitude": "30.000712876513475",
      "longitude": "-90.05046549216722"
    }
  },
  {
    "service_request": "2023-1014385",
    "request_type": "Abandoned Vehicles",
    "request_reason": "Abandoned/Junk Vehicles",
    "date_created": "2023-07-05T16:17:01.000",
    "date_modified": "2023-07-05T16:17:01.000",
    "request_status": "Pending",
    "responsible_agency": "Department of Public Works",
    "final_address": "1437 N Roman St",
    "address_councildis": "D",
    "status": "Pending",
    "rowid": "1014385",
    "final_x": "3680862.46453",
    "final_y": "537305.651976",
    "longitude": "-90.06988198631608",
    "latitude": "29.971423590828714",
    "geocoded_column": {
      "latitude": "29.971423590828714",
      "longitude": "-90.06988198631608"
    }
  },
  {
    "service_request": "2023-1014384",
    "request_type": "Roads/Drainage",
    "request_reason": "Catch Basin - Clogged",
    "date_created": "2023-07-05T16:16:24.000",
    "date_modified": "2023-07-05T16:16:25.000",
    "request_status": "Pending",
    "responsible_agency": "Department of Public Works",
    "final_address": "2301 Franklin Ave",
    "address_councildis": "D",
    "status": "Pending",
    "rowid": "1014384",
    "final_x": "3687636.89583",
    "final_y": "540994.393483",
    "longitude": "-90.04835677094921",
    "latitude": "29.981359198095657",
    "geocoded_column": {
      "latitude": "29.981359198095657",
      "longitude": "-90.04835677094921"
    }
  },
  {
    "service_request": "2023-1014383",
    "request_type": "Trash/Recycling",
    "request_reason": "Request a Large Item Pick Up",
    "date_created": "2023-07-05T16:16:13.000",
    "date_modified": "2023-07-05T16:16:14.000",
    "request_status": "Pending",
    "responsible_agency": "Department of Sanitation",
    "final_address": "7020 Curran Rd",
    "address_councildis": "E",
    "status": "Assigned to Contractor",
    "contractor": "Waste Pro",
    "rowid": "1014383",
    "final_x": "3699000.13456",
    "final_y": "560286.037405",
    "longitude": "-90.01176391197366",
    "latitude": "30.03404869767704",
    "geocoded_column": {
      "latitude": "30.03404869767704",
      "longitude": "-90.01176391197366"
    }
  },
  {
    "service_request": "2023-1014382",
    "request_type": "Trash/Recycling",
    "request_reason": "Missed Trash Pick-Up",
    "date_created": "2023-07-05T16:14:44.000",
    "date_modified": "2023-07-05T16:14:45.000",
    "request_status": "Pending",
    "responsible_agency": "Department of Sanitation",
    "final_address": "1633 Constantinople St",
    "address_councildis": "B",
    "status": "Assigned to Contractor",
    "contractor": "Richards Disposal",
    "rowid": "1014382",
    "final_x": "3672326.07796",
    "final_y": "521292.084217",
    "longitude": "-90.09738668272621",
    "latitude": "29.927647605718374",
    "geocoded_column": {
      "latitude": "29.927647605718374",
      "longitude": "-90.09738668272621"
    }
  },
  {
    "service_request": "2023-1014381",
    "request_type": "Abandoned Vehicles",
    "request_reason": "Abandoned/Junk Vehicles",
    "date_created": "2023-07-05T16:14:20.000",
    "date_modified": "2023-07-05T16:14:20.000",
    "request_status": "Pending",
    "responsible_agency": "Department of Public Works",
    "final_address": "1437 N Roman St",
    "address_councildis": "D",
    "status": "Pending",
    "rowid": "1014381",
    "final_x": "3680862.46453",
    "final_y": "537305.651976",
    "longitude": "-90.06988198631608",
    "latitude": "29.971423590828714",
    "geocoded_column": {
      "latitude": "29.971423590828714",
      "longitude": "-90.06988198631608"
    }
  },
  {
    "service_request": "2023-1014380",
    "request_type": "Trash/Recycling",
    "request_reason": "Missed Trash Pick-Up",
    "date_created": "2023-07-05T16:12:00.000",
    "date_modified": "2023-07-05T16:12:00.000",
    "request_status": "Pending",
    "responsible_agency": "Department of Sanitation",
    "final_address": "1900 Charbonnet St",
    "address_councildis": "E",
    "status": "Assigned to Contractor",
    "contractor": "Waste Pro",
    "rowid": "1014380",
    "final_x": "3699394.05437",
    "final_y": "536647.322439",
    "longitude": "-90.01138090822562",
    "latitude": "29.969038552534833",
    "geocoded_column": {
      "latitude": "29.969038552534833",
      "longitude": "-90.01138090822562"
    }
  },
  {
    "service_request": "2023-1014379",
    "request_type": "Trash/Recycling",
    "request_reason": "Repair Trash Cart",
    "date_created": "2023-07-05T16:11:12.000",
    "date_modified": "2023-07-05T16:11:13.000",
    "request_status": "Pending",
    "responsible_agency": "Department of Sanitation",
    "final_address": "1134 Eighth St",
    "address_councildis": "B",
    "status": "Assigned to Contractor",
    "contractor": "Richards Disposal",
    "rowid": "1014379",
    "final_x": "3675910.11265",
    "final_y": "520428.318584",
    "longitude": "-90.08610241741411",
    "latitude": "29.925165744260227",
    "geocoded_column": {
      "latitude": "29.925165744260227",
      "longitude": "-90.08610241741411"
    }
  },
  {
    "service_request": "2023-1014378",
    "request_type": "Traffic Signals/Signs/Striping/Streetlights",
    "request_reason": "Street Light Knocked Down/Leaning",
    "date_created": "2023-07-05T16:10:49.000",
    "date_modified": "2023-07-05T16:10:50.000",
    "request_status": "Pending",
    "responsible_agency": "Department of Public Works",
    "final_address": "900 BLK Camp St",
    "address_councildis": "B",
    "status": "Pending",
    "contractor": "Legacy Professional Services",
    "rowid": "1014378",
    "final_x": "3680602.17714",
    "final_y": "527175.245306",
    "longitude": "-90.07105645431388",
    "latitude": "29.943576297052626",
    "geocoded_column": {
      "latitude": "29.943576297052626",
      "longitude": "-90.07105645431388"
    }
  },
  {
    "service_request": "2023-1014377",
    "request_type": "Trash/Recycling",
    "request_reason": "Replace Trash Cart",
    "date_created": "2023-07-05T16:08:57.000",
    "date_modified": "2023-07-05T16:08:57.000",
    "request_status": "Pending",
    "responsible_agency": "Department of Sanitation",
    "final_address": "2518 Jasmine St",
    "address_councildis": "D",
    "status": "Assigned to Contractor",
    "contractor": "IV Waste",
    "rowid": "1014377",
    "final_x": "3686424.66972",
    "final_y": "547992.39157",
    "longitude": "-90.0519383515282",
    "latitude": "30.000638515534487",
    "geocoded_column": {
      "latitude": "30.000638515534487",
      "longitude": "-90.0519383515282"
    }
  },
  {
    "service_request": "2023-1014376",
    "request_type": "Property Maintenance",
    "request_reason": "Property Maintenance",
    "date_created": "2023-07-05T16:08:14.000",
    "date_modified": "2023-07-05T16:08:14.000",
    "request_status": "Pending",
    "responsible_agency": "Department of Code Enforcement",
    "final_address": "629 Huntlee Dr",
    "address_councildis": "C",
    "status": "Pending",
    "rowid": "1014376",
    "final_x": "3701748.80484",
    "final_y": "520424.521848",
    "longitude": "-90.00453862484338",
    "latitude": "29.924356671257307",
    "geocoded_column": {
      "latitude": "29.924356671257307",
      "longitude": "-90.00453862484338"
    }
  },
  {
    "service_request": "2023-1014375",
    "request_type": "Traffic Signals/Signs/Striping/Streetlights",
    "request_reason": "Street Light Outage/Malfunction",
    "date_created": "2023-07-05T16:07:26.000",
    "date_modified": "2023-07-05T16:07:27.000",
    "request_status": "Pending",
    "responsible_agency": "Department of Public Works",
    "final_address": "7500 Briarwood Dr",
    "address_councildis": "E",
    "status": "Assigned to Contractor",
    "contractor": "Legacy Professional Services",
    "rowid": "1014375",
    "final_x": "3717961.15839",
    "final_y": "570276.239591",
    "longitude": "-89.95146466670828",
    "latitude": "30.06090271588794",
    "geocoded_column": {
      "latitude": "30.06090271588794",
      "longitude": "-89.95146466670828"
    }
  },
  {
    "service_request": "2023-1014374",
    "request_type": "Abandoned Vehicles",
    "request_reason": "Abandoned/Junk Vehicles",
    "date_created": "2023-07-05T16:04:00.000",
    "date_modified": "2023-07-05T16:04:00.000",
    "request_status": "Pending",
    "responsible_agency": "Department of Public Works",
    "final_address": "738 Huntlee Dr",
    "address_councildis": "C",
    "status": "Pending",
    "rowid": "1014374",
    "final_x": "3701808.30845",
    "final_y": "519609.811768",
    "longitude": "-90.00438062113997",
    "latitude": "29.92211460173383",
    "geocoded_column": {
      "latitude": "29.92211460173383",
      "longitude": "-90.00438062113997"
    }
  },
  {
    "service_request": "2023-1014373",
    "request_type": "Roads/Drainage",
    "request_reason": "Catch Basin - Clogged",
    "date_created": "2023-07-05T15:59:55.000",
    "date_modified": "2023-07-05T16:03:38.000",
    "request_status": "Pending",
    "responsible_agency": "Department of Public Works",
    "final_address": "New Orleans,LA",
    "address_councildis": "D",
    "rowid": "1014373",
    "final_x": "3671166.00878",
    "final_y": "554903.983704",
    "longitude": "-90.09990659770511",
    "latitude": "30.020103322865896",
    "geocoded_column": {
      "latitude": "30.020103322865896",
      "longitude": "-90.09990659770511"
    }
  },
  {
    "service_request": "2023-1014372",
    "request_type": "Trash/Recycling",
    "request_reason": "Replace Trash Cart",
    "date_created": "2023-07-05T15:59:03.000",
    "date_modified": "2023-07-05T15:59:04.000",
    "request_status": "Pending",
    "responsible_agency": "Department of Sanitation",
    "final_address": "3463 Gentilly Blvd",
    "address_councildis": "D",
    "status": "Assigned to Contractor",
    "contractor": "IV Waste",
    "rowid": "1014372",
    "final_x": "3685338.25935",
    "final_y": "548711.897171",
    "longitude": "-90.05534503929485",
    "latitude": "30.00265025788235",
    "geocoded_column": {
      "latitude": "30.00265025788235",
      "longitude": "-90.05534503929485"
    }
  },
  {
    "service_request": "2023-1014369",
    "request_type": "Parks & Parkways",
    "request_reason": "Request Tree Service (Right of Way/Public Property)",
    "date_created": "2023-07-05T15:58:28.000",
    "date_modified": "2023-07-05T15:58:28.000",
    "request_status": "Pending",
    "responsible_agency": "Department of Parks & Parkway",
    "final_address": "2927 Josephine St",
    "address_councildis": "B",
    "status": "Pending",
    "rowid": "1014369",
    "final_x": "3675019.45704",
    "final_y": "527759.007231",
    "longitude": "-90.08866257046778",
    "latitude": "29.945349374324266",
    "geocoded_column": {
      "latitude": "29.945349374324266",
      "longitude": "-90.08866257046778"
    }
  },
  {
    "service_request": "2023-1014368",
    "request_type": "Trash/Recycling",
    "request_reason": "Repair Trash Cart",
    "date_created": "2023-07-05T15:58:20.000",
    "date_modified": "2023-07-05T15:58:21.000",
    "request_status": "Pending",
    "responsible_agency": "Department of Sanitation",
    "final_address": "517 Fern St",
    "address_councildis": "A",
    "status": "Assigned to Contractor",
    "contractor": "Richards Disposal",
    "rowid": "1014368",
    "final_x": "3661008.42285",
    "final_y": "526121.422334",
    "longitude": "-90.13295427751198",
    "latitude": "29.941257585641747",
    "geocoded_column": {
      "latitude": "29.941257585641747",
      "longitude": "-90.13295427751198"
    }
  },
  {
    "service_request": "2023-1014367",
    "request_type": "Traffic Signals/Signs/Striping/Streetlights",
    "request_reason": "Street Light Outage/Malfunction",
    "date_created": "2023-07-05T15:54:32.000",
    "date_modified": "2023-07-05T15:54:32.000",
    "request_status": "Pending",
    "responsible_agency": "Department of Public Works",
    "final_address": "500 BLK Saint Charles Ave",
    "address_councildis": "B",
    "status": "Assigned to Contractor",
    "contractor": "Legacy Professional Services",
    "rowid": "1014367",
    "final_x": "3680621.1151",
    "final_y": "528933.28116",
    "longitude": "-90.0709355102502",
    "latitude": "29.948409733500373",
    "geocoded_column": {
      "latitude": "29.948409733500373",
      "longitude": "-90.0709355102502"
    }
  },
  {
    "service_request": "2023-1014366",
    "request_type": "Trash/Recycling",
    "request_reason": "Missed Trash Pick-Up",
    "date_created": "2023-07-05T15:52:29.000",
    "date_modified": "2023-07-05T15:52:29.000",
    "request_status": "Pending",
    "responsible_agency": "Department of Sanitation",
    "final_address": "10210 Chevy Chase Dr",
    "address_councildis": "E",
    "status": "Assigned to Contractor",
    "contractor": "Waste Pro",
    "rowid": "1014366",
    "final_x": "3710098.65483",
    "final_y": "563136.636256",
    "longitude": "-89.97658485194798",
    "latitude": "30.041530070280356",
    "geocoded_column": {
      "latitude": "30.041530070280356",
      "longitude": "-89.97658485194798"
    }
  },
  {
    "service_request": "2023-1014364",
    "request_type": "Trash/Recycling",
    "request_reason": "Request a Large Item Pick Up",
    "date_created": "2023-07-05T15:49:58.000",
    "date_modified": "2023-07-05T15:49:58.000",
    "request_status": "Pending",
    "responsible_agency": "Department of Sanitation",
    "final_address": "3128 Music St",
    "address_councildis": "D",
    "status": "Assigned to Contractor",
    "contractor": "IV Waste",
    "rowid": "1014364",
    "final_x": "3686128.09046",
    "final_y": "544418.974735",
    "longitude": "-90.05300140042084",
    "latitude": "29.99082201866928",
    "geocoded_column": {
      "latitude": "29.99082201866928",
      "longitude": "-90.05300140042084"
    }
  },
  {
    "service_request": "2023-1014363",
    "request_type": "Roads/Drainage",
    "request_reason": "Damaged Sidewalk",
    "date_created": "2023-07-05T15:48:44.000",
    "date_modified": "2023-07-05T15:48:44.000",
    "request_status": "Pending",
    "responsible_agency": "Department of Public Works",
    "final_address": "901 Toulouse St",
    "address_councildis": "C",
    "status": "Pending",
    "rowid": "1014363",
    "final_x": "3681736.00284",
    "final_y": "532627.178692",
    "longitude": "-90.06728648181434",
    "latitude": "29.958532880194035",
    "geocoded_column": {
      "latitude": "29.958532880194035",
      "longitude": "-90.06728648181434"
    }
  },
  {
    "service_request": "2023-1014362",
    "request_type": "Property Maintenance",
    "request_reason": "Property Maintenance",
    "date_created": "2023-07-05T15:46:38.000",
    "date_modified": "2023-07-05T15:46:38.000",
    "request_status": "Pending",
    "responsible_agency": "Department of Code Enforcement",
    "final_address": "2514 Danneel St",
    "address_councildis": "B",
    "status": "Pending",
    "rowid": "1014362",
    "final_x": "3675801.02081",
    "final_y": "524140.11238",
    "longitude": "-90.08631927069474",
    "latitude": "29.93537523568702",
    "geocoded_column": {
      "latitude": "29.93537523568702",
      "longitude": "-90.08631927069474"
    }
  },
  {
    "service_request": "2023-1014360",
    "request_type": "Trash/Recycling",
    "request_reason": "Order Trash Cart",
    "date_created": "2023-07-05T15:43:56.000",
    "date_modified": "2023-07-05T15:43:56.000",
    "request_status": "Pending",
    "responsible_agency": "Department of Sanitation",
    "final_address": "1924 Spain St",
    "address_councildis": "D",
    "status": "Assigned to Contractor",
    "contractor": "IV Waste",
    "rowid": "1014360",
    "final_x": "3685839.90172",
    "final_y": "539563.975882",
    "longitude": "-90.05408293005331",
    "latitude": "29.97748134194887",
    "geocoded_column": {
      "latitude": "29.97748134194887",
      "longitude": "-90.05408293005331"
    }
  },
  {
    "service_request": "2023-1014361",
    "request_type": "Trash/Recycling",
    "request_reason": "Order Trash Cart",
    "date_created": "2023-07-05T15:43:56.000",
    "date_modified": "2023-07-05T15:43:57.000",
    "request_status": "Pending",
    "responsible_agency": "Department of Sanitation",
    "final_address": "1924 Spain St",
    "address_councildis": "D",
    "status": "Assigned to Contractor",
    "contractor": "IV Waste",
    "rowid": "1014361",
    "final_x": "3685839.90172",
    "final_y": "539563.975882",
    "longitude": "-90.05408293005331",
    "latitude": "29.97748134194887",
    "geocoded_column": {
      "latitude": "29.97748134194887",
      "longitude": "-90.05408293005331"
    }
  },
  {
    "service_request": "2023-1014359",
    "request_type": "Property Maintenance",
    "request_reason": "Property Maintenance",
    "date_created": "2023-07-05T15:43:09.000",
    "date_modified": "2023-07-05T15:43:09.000",
    "request_status": "Pending",
    "responsible_agency": "Department of Code Enforcement",
    "final_address": "2514 Danneel St",
    "address_councildis": "B",
    "status": "Pending",
    "rowid": "1014359",
    "final_x": "3675801.02081",
    "final_y": "524140.11238",
    "longitude": "-90.08631927069474",
    "latitude": "29.93537523568702",
    "geocoded_column": {
      "latitude": "29.93537523568702",
      "longitude": "-90.08631927069474"
    }
  },
  {
    "service_request": "2023-1014358",
    "request_type": "Trash/Recycling",
    "request_reason": "Missed Trash Pick-Up",
    "date_created": "2023-07-05T15:38:11.000",
    "date_modified": "2023-07-05T15:38:19.000",
    "request_status": "Pending",
    "responsible_agency": "Department of Sanitation",
    "final_address": "7141 Restgate Rd",
    "address_councildis": "E",
    "status": "Assigned to Contractor",
    "contractor": "Waste Pro",
    "rowid": "1014358",
    "final_x": "3710800.37054",
    "final_y": "563324.393376",
    "longitude": "-89.97436015910823",
    "latitude": "30.042023462523982",
    "geocoded_column": {
      "latitude": "30.042023462523982",
      "longitude": "-89.97436015910823"
    }
  },
  {
    "service_request": "2023-1014357",
    "request_type": "Trash/Recycling",
    "request_reason": "Order Trash Cart",
    "date_created": "2023-07-05T15:38:08.000",
    "date_modified": "2023-07-05T15:38:09.000",
    "request_status": "Pending",
    "responsible_agency": "Department of Sanitation",
    "final_address": "4970 Little John Dr",
    "address_councildis": "E",
    "status": "Assigned to Contractor",
    "contractor": "Waste Pro",
    "rowid": "1014357",
    "final_x": "3717060.46463",
    "final_y": "558162.036187",
    "longitude": "-89.95477240458051",
    "latitude": "30.02762343035824",
    "geocoded_column": {
      "latitude": "30.02762343035824",
      "longitude": "-89.95477240458051"
    }
  },
  {
    "service_request": "2023-1014356",
    "request_type": "Trash/Recycling",
    "request_reason": "Request a Large Item Pick Up",
    "date_created": "2023-07-05T15:36:11.000",
    "date_modified": "2023-07-05T15:36:11.000",
    "request_status": "Pending",
    "responsible_agency": "Department of Sanitation",
    "final_address": "4874 Annunciation St",
    "address_councildis": "B",
    "status": "Assigned to Contractor",
    "contractor": "Richards Disposal",
    "rowid": "1014356",
    "final_x": "3669067.68417",
    "final_y": "517502.596598",
    "longitude": "-90.10780062286692",
    "latitude": "29.917323953474234",
    "geocoded_column": {
      "latitude": "29.917323953474234",
      "longitude": "-90.10780062286692"
    }
  },
  {
    "service_request": "2023-1014355",
    "request_type": "Trash/Recycling",
    "request_reason": "Illegal Dumping",
    "date_created": "2023-07-05T15:32:47.000",
    "date_modified": "2023-07-05T15:32:47.000",
    "request_status": "Pending",
    "responsible_agency": "Department of Sanitation",
    "final_address": "HOLIDAY DR & WALL BLVD",
    "address_councildis": "C",
    "status": "Pending",
    "rowid": "1014355",
    "final_x": "3698885.8",
    "final_y": "523636.28",
    "longitude": "-90.01345930560272",
    "latitude": "29.933278883490274",
    "geocoded_column": {
      "latitude": "29.933278883490274",
      "longitude": "-90.01345930560272"
    }
  },
  {
    "service_request": "2023-1014354",
    "request_type": "Trash/Recycling",
    "request_reason": "Order Recycling Cart",
    "date_created": "2023-07-05T15:32:36.000",
    "date_modified": "2023-07-05T15:36:52.000",
    "case_close_date": "2023-07-05T10:36:52.000",
    "request_status": "Closed",
    "responsible_agency": "Department of Sanitation",
    "final_address": "4970 Little John Dr",
    "address_councildis": "E",
    "status": "Invalid Request",
    "rowid": "1014354",
    "final_x": "3717060.46463",
    "final_y": "558162.036187",
    "longitude": "-89.95477240458051",
    "latitude": "30.02762343035824",
    "geocoded_column": {
      "latitude": "30.02762343035824",
      "longitude": "-89.95477240458051"
    }
  },
  {
    "service_request": "2023-1014353",
    "request_type": "Trash/Recycling",
    "request_reason": "Illegal Dumping",
    "date_created": "2023-07-05T15:30:07.000",
    "date_modified": "2023-07-05T15:30:07.000",
    "request_status": "Pending",
    "responsible_agency": "Department of Sanitation",
    "final_address": "HOLIDAY DR & WALL BLVD",
    "address_councildis": "C",
    "status": "Pending",
    "rowid": "1014353",
    "final_x": "3698885.8",
    "final_y": "523636.28",
    "longitude": "-90.01345930560272",
    "latitude": "29.933278883490274",
    "geocoded_column": {
      "latitude": "29.933278883490274",
      "longitude": "-90.01345930560272"
    }
  },
  {
    "service_request": "2023-1014352",
    "request_type": "Trash/Recycling",
    "request_reason": "Illegal Dumping",
    "date_created": "2023-07-05T15:24:52.000",
    "date_modified": "2023-07-05T15:24:52.000",
    "request_status": "Pending",
    "responsible_agency": "Department of Sanitation",
    "final_address": "2449 Prancer St",
    "address_councildis": "C",
    "status": "Pending",
    "rowid": "1014352",
    "final_x": "3699777.63869",
    "final_y": "522230.803514",
    "longitude": "-90.01069506089787",
    "latitude": "29.92938603175655",
    "geocoded_column": {
      "latitude": "29.92938603175655",
      "longitude": "-90.01069506089787"
    }
  },
  {
    "service_request": "2023-1014351",
    "request_type": "Trash/Recycling",
    "request_reason": "Replace Trash Cart",
    "date_created": "2023-07-05T15:23:33.000",
    "date_modified": "2023-07-05T15:23:34.000",
    "request_status": "Pending",
    "responsible_agency": "Department of Sanitation",
    "final_address": "4926 Gabriel Dr",
    "address_councildis": "E",
    "status": "Assigned to Contractor",
    "contractor": "Waste Pro",
    "rowid": "1014351",
    "final_x": "3708726.73336",
    "final_y": "556737.294106",
    "longitude": "-89.9811592437263",
    "latitude": "30.023979000539597",
    "geocoded_column": {
      "latitude": "30.023979000539597",
      "longitude": "-89.9811592437263"
    }
  },
  {
    "service_request": "2023-1014350",
    "request_type": "Abandoned Vehicles",
    "request_reason": "Abandoned/Junk Vehicles",
    "date_created": "2023-07-05T15:23:03.000",
    "date_modified": "2023-07-05T15:23:03.000",
    "request_status": "Pending",
    "responsible_agency": "Department of Public Works",
    "final_address": "1721 Robert C. Blakes, Sr. Dr",
    "address_councildis": "B",
    "status": "Pending",
    "rowid": "1014350",
    "final_x": "3678349.34126",
    "final_y": "525128.046717",
    "longitude": "-90.0782400493939",
    "latitude": "29.93801522632295",
    "geocoded_column": {
      "latitude": "29.93801522632295",
      "longitude": "-90.0782400493939"
    }
  },
  {
    "service_request": "2023-1014349",
    "request_type": "Property Maintenance",
    "request_reason": "Property Maintenance",
    "date_created": "2023-07-05T15:22:11.000",
    "date_modified": "2023-07-05T15:22:21.000",
    "request_status": "Pending",
    "responsible_agency": "Department of Code Enforcement",
    "final_address": "209 12Th St",
    "address_councildis": "A",
    "status": "Pending",
    "rowid": "1014349",
    "final_x": "3665572.74772",
    "final_y": "547853.165906",
    "longitude": "-90.11781594689127",
    "latitude": "30.00088039473252",
    "geocoded_column": {
      "latitude": "30.00088039473252",
      "longitude": "-90.11781594689127"
    }
  },
  {
    "service_request": "2023-1014348",
    "request_type": "Trash/Recycling",
    "request_reason": "Request a Large Item Pick Up",
    "date_created": "2023-07-05T15:21:01.000",
    "date_modified": "2023-07-05T15:21:01.000",
    "request_status": "Pending",
    "responsible_agency": "Department of Sanitation",
    "final_address": "34 Yosemite Dr",
    "address_councildis": "C",
    "status": "Assigned to Contractor",
    "contractor": "Richards Disposal",
    "rowid": "1014348",
    "final_x": "3700021.30621",
    "final_y": "517292.441525",
    "longitude": "-90.01010588134093",
    "latitude": "29.91579949297094",
    "geocoded_column": {
      "latitude": "29.91579949297094",
      "longitude": "-90.01010588134093"
    }
  },
  {
    "service_request": "2023-1014347",
    "request_type": "Trash/Recycling",
    "request_reason": "Repair Trash Cart",
    "date_created": "2023-07-05T15:20:34.000",
    "date_modified": "2023-07-05T15:20:34.000",
    "request_status": "Pending",
    "responsible_agency": "Department of Sanitation",
    "final_address": "3525 Audubon Ct",
    "address_councildis": "B",
    "status": "Assigned to Contractor",
    "contractor": "Richards Disposal",
    "rowid": "1014347",
    "final_x": "3669146.75092",
    "final_y": "533240.06266",
    "longitude": "-90.10701942356681",
    "latitude": "29.960594580353472",
    "geocoded_column": {
      "latitude": "29.960594580353472",
      "longitude": "-90.10701942356681"
    }
  },
  {
    "service_request": "2023-1014345",
    "request_type": "Trash/Recycling",
    "request_reason": "Return Trash Cart",
    "date_created": "2023-07-05T15:20:02.000",
    "date_modified": "2023-07-05T15:20:03.000",
    "request_status": "Pending",
    "responsible_agency": "Department of Sanitation",
    "final_address": "1533 Henry Clay Ave",
    "address_councildis": "A",
    "status": "Assigned to Contractor",
    "contractor": "Richards Disposal",
    "rowid": "1014345",
    "final_x": "3664937.65844",
    "final_y": "522326.168698",
    "longitude": "-90.12067569434481",
    "latitude": "29.930708077312794",
    "geocoded_column": {
      "latitude": "29.930708077312794",
      "longitude": "-90.12067569434481"
    }
  },
  {
    "service_request": "2023-1014346",
    "request_type": "Trash/Recycling",
    "request_reason": "Return Trash Cart",
    "date_created": "2023-07-05T15:20:02.000",
    "date_modified": "2023-07-05T15:20:25.000",
    "request_status": "Pending",
    "responsible_agency": "Department of Sanitation",
    "final_address": "1533 Henry Clay Ave",
    "address_councildis": "A",
    "status": "Assigned to Contractor",
    "contractor": "Richards Disposal",
    "rowid": "1014346",
    "final_x": "3664937.65844",
    "final_y": "522326.168698",
    "longitude": "-90.12067569434481",
    "latitude": "29.930708077312794",
    "geocoded_column": {
      "latitude": "29.930708077312794",
      "longitude": "-90.12067569434481"
    }
  },
  {
    "service_request": "2023-1014344",
    "request_type": "Traffic Signals/Signs/Striping/Streetlights",
    "request_reason": "Traffic Signal Malfunctioning/Damaged",
    "date_created": "2023-07-05T15:18:24.000",
    "date_modified": "2023-07-05T15:18:24.000",
    "request_status": "Pending",
    "responsible_agency": "Department of Public Works",
    "final_address": "MARTIN LUTHER KING JR BLVD & S CLAIBORNE AVE",
    "address_councildis": "B",
    "status": "Pending",
    "rowid": "1014344",
    "final_x": "3675010.8",
    "final_y": "528134.58",
    "longitude": "-90.08867702288131",
    "latitude": "29.946382334051407",
    "geocoded_column": {
      "latitude": "29.946382334051407",
      "longitude": "-90.08867702288131"
    }
  },
  {
    "service_request": "2023-1014343",
    "request_type": "Trash/Recycling",
    "request_reason": "Illegal Dumping",
    "date_created": "2023-07-05T15:16:50.000",
    "date_modified": "2023-07-05T15:16:50.000",
    "request_status": "Pending",
    "responsible_agency": "Department of Sanitation",
    "final_address": "1705 Erato St",
    "address_councildis": "B",
    "status": "Pending",
    "rowid": "1014343",
    "final_x": "3679053.58159",
    "final_y": "526382.55699",
    "longitude": "-90.07597324072682",
    "latitude": "29.941443484804736",
    "geocoded_column": {
      "latitude": "29.941443484804736",
      "longitude": "-90.07597324072682"
    }
  },
  {
    "service_request": "2023-1014342",
    "request_type": "Trash/Recycling",
    "request_reason": "Missed Trash Pick-Up",
    "date_created": "2023-07-05T15:16:05.000",
    "date_modified": "2023-07-05T15:16:06.000",
    "request_status": "Pending",
    "responsible_agency": "Department of Sanitation",
    "final_address": "11161 S Idlewood Ct",
    "address_councildis": "E",
    "status": "Assigned to Contractor",
    "contractor": "Waste Pro",
    "rowid": "1014342",
    "final_x": "3716353.30808",
    "final_y": "559512.465757",
    "longitude": "-89.95695568118933",
    "latitude": "30.031359945479057",
    "geocoded_column": {
      "latitude": "30.031359945479057",
      "longitude": "-89.95695568118933"
    }
  },
  {
    "service_request": "2023-1014341",
    "request_type": "Trash/Recycling",
    "request_reason": "Order Recycling Cart",
    "date_created": "2023-07-05T15:15:16.000",
    "date_modified": "2023-07-05T15:15:16.000",
    "request_status": "Pending",
    "responsible_agency": "Department of Sanitation",
    "final_address": "2620 Milan St",
    "address_councildis": "B",
    "status": "Pending",
    "rowid": "1014341",
    "final_x": "3671179.04801",
    "final_y": "524647.020796",
    "longitude": "-90.100893677007",
    "latitude": "29.936906571327402",
    "geocoded_column": {
      "latitude": "29.936906571327402",
      "longitude": "-90.100893677007"
    }
  },
  {
    "service_request": "2023-1014340",
    "request_type": "Trash/Recycling",
    "request_reason": "Missed Trash Pick-Up",
    "date_created": "2023-07-05T15:05:25.000",
    "date_modified": "2023-07-05T15:19:21.000",
    "case_close_date": "2023-07-05T10:19:21.000",
    "request_status": "Closed",
    "responsible_agency": "Department of Sanitation",
    "final_address": "7841 Branch Dr",
    "address_councildis": "E",
    "status": "Invalid Request",
    "contractor": "Waste Pro",
    "contractor_action": "Invalid Pick-Up",
    "rowid": "1014340",
    "final_x": "3714217.54539",
    "final_y": "569458.44151",
    "longitude": "-89.96332892388374",
    "latitude": "30.058777714628157",
    "geocoded_column": {
      "latitude": "30.058777714628157",
      "longitude": "-89.96332892388374"
    }
  },
  {
    "service_request": "2023-1014339",
    "request_type": "Parks & Parkways",
    "request_reason": "Request Grass Cutting Service (City Owned Property)",
    "date_created": "2023-07-05T15:05:12.000",
    "date_modified": "2023-07-05T15:05:12.000",
    "request_status": "Pending",
    "responsible_agency": "Department of Parks & Parkway",
    "final_address": "1715 Ursulines Ave",
    "address_councildis": "D",
    "status": "Pending",
    "rowid": "1014339",
    "final_x": "3680539.15925",
    "final_y": "535964.546311",
    "longitude": "-90.07094969238703",
    "latitude": "29.967745809557584",
    "geocoded_column": {
      "latitude": "29.967745809557584",
      "longitude": "-90.07094969238703"
    }
  },
  {
    "service_request": "2023-1014338",
    "request_type": "Trash/Recycling",
    "request_reason": "Order Trash Cart",
    "date_created": "2023-07-05T15:03:35.000",
    "date_modified": "2023-07-05T15:03:37.000",
    "request_status": "Pending",
    "responsible_agency": "Department of Sanitation",
    "final_address": "7841 Branch Dr",
    "address_councildis": "E",
    "status": "Assigned to Contractor",
    "contractor": "Waste Pro",
    "rowid": "1014338",
    "final_x": "3714217.54539",
    "final_y": "569458.44151",
    "longitude": "-89.96332892388374",
    "latitude": "30.058777714628157",
    "geocoded_column": {
      "latitude": "30.058777714628157",
      "longitude": "-89.96332892388374"
    }
  },
  {
    "service_request": "2023-1014337",
    "request_type": "Roads/Drainage",
    "request_reason": "Accessibility Ramps, Curbs and Sidewalk Repair",
    "date_created": "2023-07-05T15:01:16.000",
    "date_modified": "2023-07-05T15:01:16.000",
    "request_status": "Pending",
    "responsible_agency": "Department of Public Works",
    "final_address": "4340 Werner Dr",
    "address_councildis": "E",
    "status": "Pending",
    "rowid": "1014337",
    "final_x": "3704893.51595",
    "final_y": "553201.656087",
    "longitude": "-89.99340202162702",
    "latitude": "30.01438118014869",
    "geocoded_column": {
      "latitude": "30.01438118014869",
      "longitude": "-89.99340202162702"
    }
  },
  {
    "service_request": "2023-1014336",
    "request_type": "Trash/Recycling",
    "request_reason": "Replace Trash Cart",
    "date_created": "2023-07-05T15:00:26.000",
    "date_modified": "2023-07-05T15:00:27.000",
    "request_status": "Pending",
    "responsible_agency": "Department of Sanitation",
    "final_address": "5940 Tchoupitoulas St",
    "address_councildis": "A",
    "status": "Assigned to Contractor",
    "contractor": "Richards Disposal",
    "rowid": "1014336",
    "final_x": "3664474.80864",
    "final_y": "517364.937269",
    "longitude": "-90.12230238053229",
    "latitude": "29.917079706947536",
    "geocoded_column": {
      "latitude": "29.917079706947536",
      "longitude": "-90.12230238053229"
    }
  },
  {
    "service_request": "2023-1014335",
    "request_type": "Trash/Recycling",
    "request_reason": "Missed Trash Pick-Up",
    "date_created": "2023-07-05T14:59:29.000",
    "date_modified": "2023-07-05T16:33:46.000",
    "case_close_date": "2023-07-05T11:33:46.000",
    "request_status": "Closed",
    "responsible_agency": "Department of Sanitation",
    "final_address": "1320 Rapides Dr",
    "address_councildis": "D",
    "status": "Invalid Request",
    "contractor": "IV Waste",
    "contractor_action": "Invalid Pick-Up",
    "rowid": "1014335",
    "final_x": "3677136.62594",
    "final_y": "552575.992598",
    "longitude": "-90.08112169896754",
    "latitude": "30.01352411580101",
    "geocoded_column": {
      "latitude": "30.01352411580101",
      "longitude": "-90.08112169896754"
    }
  },
  {
    "service_request": "2023-1014334",
    "request_type": "Trash/Recycling",
    "request_reason": "Request a Large Item Pick Up",
    "date_created": "2023-07-05T14:57:33.000",
    "date_modified": "2023-07-05T14:57:38.000",
    "request_status": "Pending",
    "responsible_agency": "Department of Sanitation",
    "final_address": "27 Honeysuckle Ln",
    "address_councildis": "E",
    "status": "Assigned to Contractor",
    "contractor": "Waste Pro",
    "rowid": "1014334",
    "final_x": "3713039.35275",
    "final_y": "568522.473637",
    "longitude": "-89.96708832220801",
    "latitude": "30.056242867478442",
    "geocoded_column": {
      "latitude": "30.056242867478442",
      "longitude": "-89.96708832220801"
    }
  },
  {
    "service_request": "2023-1014333",
    "request_type": "Traffic Signals/Signs/Striping/Streetlights",
    "request_reason": "Street Light Outage/Malfunction",
    "date_created": "2023-07-05T14:56:34.000",
    "date_modified": "2023-07-05T14:56:34.000",
    "request_status": "Pending",
    "responsible_agency": "Department of Public Works",
    "final_address": "922 Toledano St",
    "address_councildis": "B",
    "status": "Assigned to Contractor",
    "contractor": "Legacy Professional Services",
    "rowid": "1014333",
    "final_x": "3675580.75534",
    "final_y": "519287.109623",
    "longitude": "-90.08718127240907",
    "latitude": "29.922037641010196",
    "geocoded_column": {
      "latitude": "29.922037641010196",
      "longitude": "-90.08718127240907"
    }
  },
  {
    "service_request": "2023-1014332",
    "request_type": "Trash/Recycling",
    "request_reason": "Request a Large Item Pick Up",
    "date_created": "2023-07-05T14:56:15.000",
    "date_modified": "2023-07-05T14:56:16.000",
    "request_status": "Pending",
    "responsible_agency": "Department of Sanitation",
    "final_address": "927 Milan St",
    "address_councildis": "B",
    "status": "Assigned to Contractor",
    "contractor": "Richards Disposal",
    "rowid": "1014332",
    "final_x": "3671817.38779",
    "final_y": "519097.054455",
    "longitude": "-90.09906713774141",
    "latitude": "29.921627052992818",
    "geocoded_column": {
      "latitude": "29.921627052992818",
      "longitude": "-90.09906713774141"
    }
  },
  {
    "service_request": "2023-1014331",
    "request_type": "Parks & Parkways",
    "request_reason": "Request Tree Service (Right of Way/Public Property)",
    "date_created": "2023-07-05T14:55:49.000",
    "date_modified": "2023-07-05T14:55:50.000",
    "request_status": "Pending",
    "responsible_agency": "Department of Parks & Parkway",
    "final_address": "PALMYRA ST & S DUPRE ST",
    "address_councildis": "B",
    "status": "Pending",
    "rowid": "1014331",
    "final_x": "3674134.0",
    "final_y": "535036.48",
    "longitude": "-90.0912091641891",
    "latitude": "29.965386418844364",
    "geocoded_column": {
      "latitude": "29.965386418844364",
      "longitude": "-90.0912091641891"
    }
  },