[
  {
    "service_request": "2025-1245789",
    "request_type": "Abandoned Vehicles",
    "request_reason": "Abandoned/Junk Vehicles",
    "date_created": "2025-12-15T22:32:39.000",
    "date_modified": "2025-12-15T22:32:50.000",
    "request_status": "Pending",
    "responsible_agency": "Department of Public Works",
    "final_address": "217 10Th St",
    "address_councildis": "A",
    "status": "Pending",
    "rowid": "1245789",
    "final_x": "3665419.85972",
    "final_y": "547568.217298",
    "longitude": "-90.11830847904572",
    "latitude": "30.000101342705946",
    "geocoded_column": {
      "latitude": "30.000101342705946",
      "longitude": "-90.11830847904572"
    }
  },
  {
    "service_request": "2025-1245788",
    "request_type": "Trash/Recycling",
    "request_reason": "MIssed Recycling Pick-Up",
    "date_created": "2025-12-15T22:26:50.000",
    "date_modified": "2025-12-15T22:26:52.000",
    "request_status": "Pending",
    "responsible_agency": "Department of Sanitation",
    "final_address": "1700 BLK Governor Nicholls St",
    "address_councildis": "D",
    "status": "Assigned to Contractor",
    "contractor": "IV Waste",
    "rowid": "1245788",
    "final_x": "3680702.71763",
    "final_y": "536191.040923",
    "longitude": "-90.07042528721027",
    "latitude": "29.968363636258346",
    "geocoded_column": {
      "latitude": "29.968363636258346",
      "longitude": "-90.07042528721027"
    }
  },
  {
    "service_request": "2025-1245787",
    "request_type": "Streetlights",
    "request_reason": "Streetlight Outage/Malfunction",
    "date_created": "2025-12-15T21:37:56.000",
    "date_modified": "2025-12-15T21:37:57.000",
    "request_status": "Pending",
    "responsible_agency": "Department of Public Works",
    "final_address": "250 Pine St",
    "address_councildis": "A",
    "status": "Pending",
    "rowid": "1245787",
    "final_x": "3661422.99757",
    "final_y": "523020.090363",
    "longitude": "-90.13174805831902",
    "latitude": "29.93271795345761",
    "geocoded_column": {
      "latitude": "29.93271795345761",
      "longitude": "-90.13174805831902"
    }
  },
  {
    "service_request": "2025-1245786",
    "request_type": "Abandoned Vehicles",
    "request_reason": "Abandoned/Junk Vehicles",
    "date_created": "2025-12-15T20:46:57.000",
    "date_modified": "2025-12-15T20:47:00.000",
    "request_status": "Pending",
    "responsible_agency": "Department of Public Works",
    "final_address": "4856 Annunciation St",
    "address_councildis": "B",
    "status": "Pending",
    "rowid": "1245786",
    "final_x": "3669198.34292",
    "final_y": "517517.743286",
    "longitude": "-90.10738769458189",
    "latitude": "29.917361758883395",
    "geocoded_column": {
      "latitude": "29.917361758883395",
      "longitude": "-90.10738769458189"
    }
  },
  {
    "service_request": "2025-1245785",
    "request_type": "Trash/Recycling",
    "request_reason": "Request a Large Item Pick Up",
    "date_created": "2025-12-15T20:06:38.000",
    "date_modified": "2025-12-15T20:06:40.000",
    "request_status": "Pending",
    "responsible_agency": "Department of Sanitation",
    "final_address": "3641 Post Oak Ave",
    "address_councildis": "C",
    "status": "Assigned to Contractor",
    "contractor": "IV Waste",
    "rowid": "1245785",
    "final_x": "3703827.2915",
    "final_y": "514435.422963",
    "longitude": "-89.9981978967589",
    "latitude": "29.907822268121915",
    "geocoded_column": {
      "latitude": "29.907822268121915",
      "longitude": "-89.9981978967589"
    }
  },
  {
    "service_request": "2025-1245784",
    "request_type": "Trash/Recycling",
    "request_reason": "Missed Trash Pick-Up",
    "date_created": "2025-12-15T19:52:59.000",
    "date_modified": "2025-12-15T19:53:02.000",
    "request_status": "Pending",
    "responsible_agency": "Department of Sanitation",
    "final_address": "2754 St Philip St",
    "address_councildis": "A",
    "status": "Assigned to Contractor",
    "contractor": "IV Waste",
    "rowid": "1245784",
    "final_x": "3676995.87483",
    "final_y": "538117.125769",
    "longitude": "-90.08206525587316",
    "latitude": "29.973771530277094",
    "geocoded_column": {
      "latitude": "29.973771530277094",
      "longitude": "-90.08206525587316"
    }
  },
  {
    "service_request": "2025-1245783",
    "request_type": "Road Striping",
    "request_reason": "Crosswalks",
    "date_created": "2025-12-15T19:32:02.000",
    "date_modified": "2025-12-15T19:32:05.000",
    "request_status": "Pending",
    "responsible_agency": "Department of Public Works",
    "final_address": "900 Poland Ave",
    "address_councildis": "C",
    "status": "Pending",
    "rowid": "1245783",
    "final_x": "3692788.9535",
    "final_y": "534281.309253",
    "longitude": "-90.03232502080215",
    "latitude": "29.96274072906845",
    "geocoded_column": {
      "latitude": "29.96274072906845",
      "longitude": "-90.03232502080215"
    }
  },
  {
    "service_request": "2025-1245782",
    "request_type": "Trash/Recycling",
    "request_reason": "Request a Large Item Pick Up",
    "date_created": "2025-12-15T19:12:38.000",
    "date_modified": "2025-12-15T19:12:40.000",
    "request_status": "Pending",
    "responsible_agency": "Department of Sanitation",
    "final_address": "6 Olympic Ct",
    "address_councildis": "C",
    "status": "Assigned to Contractor",
    "contractor": "IV Waste",
    "rowid": "1245782",
    "final_x": "3700121.36919",
    "final_y": "516452.425525",
    "longitude": "-90.00982067146907",
    "latitude": "29.913486556899286",
    "geocoded_column": {
      "latitude": "29.913486556899286",
      "longitude": "-90.00982067146907"
    }
  },
  {
    "service_request": "2025-1245781",
    "request_type": "Trash/Recycling",
    "request_reason": "Request a Large Item Pick Up",
    "date_created": "2025-12-15T19:03:13.000",
    "date_modified": "2025-12-15T19:03:15.000",
    "request_status": "Pending",
    "responsible_agency": "Department of Sanitation",
    "final_address": "526 S Hennessey St",
    "address_councildis": "A",
    "status": "Assigned to Contractor",
    "contractor": "IV Waste",
    "rowid": "1245781",
    "final_x": "3669218.21742",
    "final_y": "537479.91508",
    "longitude": "-90.10665041357578",
    "latitude": "29.97225065849027",
    "geocoded_column": {
      "latitude": "29.97225065849027",
      "longitude": "-90.10665041357578"
    }
  },
  {
    "service_request": "2025-1245780",
    "request_type": "Trash/Recycling",
    "request_reason": "Repair Trash Cart",
    "date_created": "2025-12-15T18:58:27.000",
    "date_modified": "2025-12-15T18:58:29.000",
    "request_status": "Pending",
    "responsible_agency": "Department of Sanitation",
    "final_address": "3739 Somerset Dr",
    "address_councildis": "C",
    "status": "Assigned to Contractor",
    "contractor": "IV Waste",
    "rowid": "1245780",
    "final_x": "3702369.77098",
    "final_y": "516761.655157",
    "longitude": "-90.00271273257877",
    "latitude": "29.914265231309457",
    "geocoded_column": {
      "latitude": "29.914265231309457",
      "longitude": "-90.00271273257877"
    }
  },
  {
    "service_request": "2025-1245779",
    "request_type": "Trash/Recycling",
    "request_reason": "Repair Recycling Cart",
    "date_created": "2025-12-15T18:48:04.000",
    "date_modified": "2025-12-15T18:48:06.000",
    "request_status": "Pending",
    "responsible_agency": "Department of Sanitation",
    "final_address": "5936 Annunciation St",
    "address_councildis": "A",
    "status": "Pending",
    "rowid": "1245779",
    "final_x": "3664555.38554",
    "final_y": "517724.042934",
    "longitude": "-90.12203606206727",
    "latitude": "29.91806479383616",
    "geocoded_column": {
      "latitude": "29.91806479383616",
      "longitude": "-90.12203606206727"
    }
  },
  {
    "service_request": "2025-1245778",
    "request_type": "Trash/Recycling",
    "request_reason": "Order Second Trash Cart",
    "date_created": "2025-12-15T18:45:25.000",
    "date_modified": "2025-12-15T18:45:27.000",
    "request_status": "Pending",
    "responsible_agency": "Department of Sanitation",
    "final_address": "5936 Annunciation St",
    "address_councildis": "A",
    "status": "Assigned to Contractor",
    "contractor": "IV Waste",
    "rowid": "1245778",
    "final_x": "3664555.38554",
    "final_y": "517724.042934",
    "longitude": "-90.12203606206727",
    "latitude": "29.91806479383616",
    "geocoded_column": {
      "latitude": "29.91806479383616",
      "longitude": "-90.12203606206727"
    }
  },
  {
    "service_request": "2025-1245777",
    "request_type": "Property Maintenance",
    "request_reason": "Property Maintenance",
    "date_created": "2025-12-15T18:43:05.000",
    "date_modified": "2025-12-15T18:43:08.000",
    "request_status": "Pending",
    "responsible_agency": "Department of Code Enforcement",
    "final_address": "2100 Mirabeau Ave",
    "address_councildis": "D",
    "status": "Pending",
    "rowid": "1245777",
    "final_x": "3683132.25295",
    "final_y": "550564.339092",
    "longitude": "-90.06224918013726",
    "latitude": "30.007811273564865",
    "geocoded_column": {
      "latitude": "30.007811273564865",
      "longitude": "-90.06224918013726"
    }
  },
  {
    "service_request": "2025-1245776",
    "request_type": "Trash/Recycling",
    "request_reason": "Request a Large Item Pick Up",
    "date_created": "2025-12-15T18:21:22.000",
    "date_modified": "2025-12-15T18:21:25.000",
    "request_status": "Pending",
    "responsible_agency": "Department of Sanitation",
    "final_address": "2017 Louisa St",
    "address_councildis": "D",
    "status": "Assigned to Contractor",
    "contractor": "IV Waste",
    "rowid": "1245776",
    "final_x": "3690478.20572",
    "final_y": "539392.123978",
    "longitude": "-90.03943978851515",
    "latitude": "29.9768656086476",
    "geocoded_column": {
      "latitude": "29.9768656086476",
      "longitude": "-90.03943978851515"
    }
  },
  {
    "service_request": "2025-1245775",
    "request_type": "Trash/Recycling",
    "request_reason": "Order Recycling Cart",
    "date_created": "2025-12-15T18:02:11.000",
    "date_modified": "2025-12-15T18:02:13.000",
    "request_status": "Pending",
    "responsible_agency": "Department of Sanitation",
    "final_address": "14512 Duane Rd",
    "address_councildis": "E",
    "status": "Pending",
    "rowid": "1245775",
    "final_x": "3720557.0398",
    "final_y": "573129.726889",
    "longitude": "-89.94314981748947",
    "latitude": "30.06866227185378",
    "geocoded_column": {
      "latitude": "30.06866227185378",
      "longitude": "-89.94314981748947"
    }
  },
  {
    "service_request": "2025-1245774",
    "request_type": "Trash/Recycling",
    "request_reason": "Replace Trash Cart",
    "date_created": "2025-12-15T17:58:21.000",
    "date_modified": "2025-12-15T17:58:22.000",
    "request_status": "Pending",
    "responsible_agency": "Department of Sanitation",
    "final_address": "1722 S Rampart St",
    "address_councildis": "B",
    "status": "Assigned to Contractor",
    "contractor": "IV Waste",
    "rowid": "1245774",
    "final_x": "3677367.86811",
    "final_y": "525739.622781",
    "longitude": "-90.0813175500295",
    "latitude": "29.939726382994245",
    "geocoded_column": {
      "latitude": "29.939726382994245",
      "longitude": "-90.0813175500295"
    }
  },
  {
    "service_request": "2025-1245773",
    "request_type": "Trash/Recycling",
    "request_reason": "Request a Large Item Pick Up",
    "date_created": "2025-12-15T17:55:08.000",
    "date_modified": "2025-12-15T17:55:10.000",
    "request_status": "Pending",
    "responsible_agency": "Department of Sanitation",
    "final_address": "7901 Means Ave",
    "address_councildis": "E",
    "status": "Assigned to Contractor",
    "contractor": "Waste Pro",
    "rowid": "1245773",
    "final_x": "3707697.22276",
    "final_y": "565496.02141",
    "longitude": "-89.9840863831204",
    "latitude": "30.04809540252796",
    "geocoded_column": {
      "latitude": "30.04809540252796",
      "longitude": "-89.9840863831204"
    }
  },
  {
    "service_request": "2025-1245772",
    "request_type": "Trash/Recycling",
    "request_reason": "Request a Large Item Pick Up",
    "date_created": "2025-12-15T17:22:58.000",
    "date_modified": "2025-12-15T17:23:00.000",
    "request_status": "Pending",
    "responsible_agency": "Department of Sanitation",
    "final_address": "815 Hendee St",
    "address_councildis": "C",
    "status": "Assigned to Contractor",
    "contractor": "IV Waste",
    "rowid": "1245772",
    "final_x": "3690780.32483",
    "final_y": "528457.936704",
    "longitude": "-90.03887573054091",
    "latitude": "29.946791030124754",
    "geocoded_column": {
      "latitude": "29.946791030124754",
      "longitude": "-90.03887573054091"
    }
  },
  {
    "service_request": "2025-1245771",
    "request_type": "Trash/Recycling",
    "request_reason": "Request a Large Item Pick Up",
    "date_created": "2025-12-15T17:13:18.000",
    "date_modified": "2025-12-15T17:13:20.000",
    "request_status": "Pending",
    "responsible_agency": "Department of Sanitation",
    "final_address": "10920 Guildford Rd",
    "address_councildis": "E",
    "status": "Assigned to Contractor",
    "contractor": "Waste Pro",
    "rowid": "1245771",
    "final_x": "3711517.40606",
    "final_y": "563941.332385",
    "longitude": "-89.97207091423772",
    "latitude": "30.043696394401042",
    "geocoded_column": {
      "latitude": "30.043696394401042",
      "longitude": "-89.97207091423772"
    }
  },
  {
    "service_request": "2025-1245770",
    "request_type": "Trash/Recycling",
    "request_reason": "Request a Large Item Pick Up",
    "date_created": "2025-12-15T16:56:58.000",
    "date_modified": "2025-12-15T16:57:01.000",
    "request_status": "Pending",
    "responsible_agency": "Department of Sanitation",
    "final_address": "322 Calhoun St",
    "address_councildis": "A",
    "status": "Assigned to Contractor",
    "contractor": "IV Waste",
    "rowid": "1245770",
    "final_x": "3662787.58323",
    "final_y": "518287.652278",
    "longitude": "-90.1275973593474",
    "latitude": "29.9196658119982",
    "geocoded_column": {
      "latitude": "29.9196658119982",
      "longitude": "-90.1275973593474"
    }
  },
  {
    "service_request": "2025-1245769",
    "request_type": "Trash/Recycling",
    "request_reason": "Replace Trash Cart",
    "date_created": "2025-12-15T16:44:30.000",
    "date_modified": "2025-12-15T16:44:31.000",
    "request_status": "Pending",
    "responsible_agency": "Department of Sanitation",
    "final_address": "1129 Deslonde St",
    "address_councildis": "E",
    "status": "Assigned to Contractor",
    "contractor": "Waste Pro",
    "rowid": "1245769",
    "final_x": "3695478.09834",
    "final_y": "534639.120006",
    "longitude": "-90.0238201827628",
    "latitude": "29.963640352635004",
    "geocoded_column": {
      "latitude": "29.963640352635004",
      "longitude": "-90.0238201827628"
    }
  },
  {
    "service_request": "2025-1245768",
    "request_type": "Trash/Recycling",
    "request_reason": "Replace Trash Cart",
    "date_created": "2025-12-15T16:44:21.000",
    "date_modified": "2025-12-15T16:44:23.000",
    "request_status": "Pending",
    "responsible_agency": "Department of Sanitation",
    "final_address": "6331 St Claude Ave",
    "address_councildis": "E",
    "status": "Assigned to Contractor",
    "contractor": "Waste Pro",
    "rowid": "1245768",
    "final_x": "3700406.77463",
    "final_y": "533049.03034",
    "longitude": "-90.00831409527996",
    "latitude": "29.959112374565688",
    "geocoded_column": {
      "latitude": "29.959112374565688",
      "longitude": "-90.00831409527996"
    }
  },
  {
    "service_request": "2025-1245767",
    "request_type": "Trash/Recycling",
    "request_reason": "Order Trash Cart",
    "date_created": "2025-12-15T16:40:07.000",
    "date_modified": "2025-12-15T16:40:10.000",
    "request_status": "Pending",
    "responsible_agency": "Department of Sanitation",
    "final_address": "1027 Touro St",
    "address_councildis": "C",
    "status": "Assigned to Contractor",
    "contractor": "IV Waste",
    "rowid": "1245767",
    "final_x": "3684270.34645",
    "final_y": "536104.022983",
    "longitude": "-90.05916162052483",
    "latitude": "29.968015764847188",
    "geocoded_column": {
      "latitude": "29.968015764847188",
      "longitude": "-90.05916162052483"
    }
  },
  {
    "service_request": "2025-1245765",
    "request_type": "Drainage",
    "request_reason": "Ditch and Culvert Maintenance",
    "date_created": "2025-12-15T16:29:57.000",
    "date_modified": "2025-12-15T16:29:59.000",
    "request_status": "Pending",
    "responsible_agency": "Department of Public Works",
    "final_address": "5600 BLK Lincoln Beach Blvd",
    "address_councildis": "D",
    "status": "Pending",
    "rowid": "1245765",
    "final_x": "3693090.64528",
    "final_y": "559464.525215",
    "longitude": "-90.03046808945683",
    "latitude": "30.031975936737933",
    "geocoded_column": {
      "latitude": "30.031975936737933",
      "longitude": "-90.03046808945683"
    }
  },
  {
    "service_request": "2025-1245764",
    "request_type": "Abandoned Vehicles",
    "request_reason": "Abandoned/Junk Vehicles",
    "date_created": "2025-12-15T16:24:57.000",
    "date_modified": "2025-12-15T16:24:59.000",
    "request_status": "Pending",
    "responsible_agency": "Department of Public Works",
    "final_address": "5101 Desire Dr",
    "address_councildis": "D",
    "status": "Pending",
    "rowid": "1245764",
    "final_x": "3691564.27792",
    "final_y": "552578.323222",
    "longitude": "-90.03553795216554",
    "latitude": "30.013089097663705",
    "geocoded_column": {
      "latitude": "30.013089097663705",
      "longitude": "-90.03553795216554"
    }
  },
  {
    "service_request": "2025-1245763",
    "request_type": "Trash/Recycling",
    "request_reason": "Request a Large Item Pick Up",
    "date_created": "2025-12-15T16:21:21.000",
    "date_modified": "2025-12-15T16:21:22.000",
    "request_status": "Pending",
    "responsible_agency": "Department of Sanitation",
    "final_address": "23 Rail St",
    "address_councildis": "D",
    "status": "Assigned to Contractor",
    "contractor": "IV Waste",
    "rowid": "1245763",
    "final_x": "3674043.84712",
    "final_y": "557245.442715",
    "longitude": "-90.0907332893834",
    "latitude": "30.026455997672745",
    "geocoded_column": {
      "latitude": "30.026455997672745",
      "longitude": "-90.0907332893834"
    }
  },
  {
    "service_request": "2025-1245762",
    "request_type": "Trash/Recycling",
    "request_reason": "Request a Large Item Pick Up",
    "date_created": "2025-12-15T16:19:17.000",
    "date_modified": "2025-12-15T16:19:19.000",
    "request_status": "Pending",
    "responsible_agency": "Department of Sanitation",
    "final_address": "10940 Harrow Rd",
    "address_councildis": "E",
    "status": "Assigned to Contractor",
    "contractor": "Waste Pro",
    "rowid": "1245762",
    "final_x": "3711778.88235",
    "final_y": "563817.623201",
    "longitude": "-89.97124919197346",
    "latitude": "30.043347700071017",
    "geocoded_column": {
      "latitude": "30.043347700071017",
      "longitude": "-89.97124919197346"
    }
  },
  {
    "service_request": "2025-1245761",
    "request_type": "Trash/Recycling",
    "request_reason": "Request a Large Item Pick Up",
    "date_created": "2025-12-15T16:17:29.000",
    "date_modified": "2025-12-15T16:17:30.000",
    "request_status": "Pending",
    "responsible_agency": "Department of Sanitation",
    "final_address": "1700 Gordon St",
    "address_councildis": "E",
    "status": "Assigned to Contractor",
    "contractor": "Waste Pro",
    "rowid": "1245761",
    "final_x": "3699984.11434",
    "final_y": "535620.860102",
    "longitude": "-90.00955492070986",
    "latitude": "29.96619741878297",
    "geocoded_column": {
      "latitude": "29.96619741878297",
      "longitude": "-90.00955492070986"
    }
  },
  {
    "service_request": "2025-1245760",
    "request_type": "Trash/Recycling",
    "request_reason": "Request a Large Item Pick Up",
    "date_created": "2025-12-15T16:13:13.000",
    "date_modified": "2025-12-15T16:14:14.000",
    "request_status": "Pending",
    "responsible_agency": "Department of Sanitation",
    "final_address": "2101 Adams St",
    "address_councildis": "A",
    "status": "Assigned to Contractor",
    "contractor": "IV Waste",
    "rowid": "1245760",
    "final_x": "3665232.16711",
    "final_y": "529714.857217",
    "longitude": "-90.11949887749869",
    "latitude": "29.95101603102012",
    "geocoded_column": {
      "latitude": "29.95101603102012",
      "longitude": "-90.11949887749869"
    }
  },
  {
    "service_request": "2025-1245759",
    "request_type": "Trash/Recycling",
    "request_reason": "Request a Large Item Pick Up",
    "date_created": "2025-12-15T16:11:34.000",
    "date_modified": "2025-12-15T16:11:36.000",
    "request_status": "Pending",
    "responsible_agency": "Department of Sanitation",
    "final_address": "2536 Athis St",
    "address_councildis": "D",
    "status": "Assigned to Contractor",
    "contractor": "IV Waste",
    "rowid": "1245759",
    "final_x": "3686082.03292",
    "final_y": "554337.40924",
    "longitude": "-90.05279675658741",
    "latitude": "30.018095530717904",
    "geocoded_column": {
      "latitude": "30.018095530717904",
      "longitude": "-90.05279675658741"
    }
  },
  {
    "service_request": "2025-1245758",
    "request_type": "Drainage",
    "request_reason": "Illegal Dumping (Sewer Odor)",
    "date_created": "2025-12-15T16:10:18.000",
    "date_modified": "2025-12-15T16:10:20.000",
    "request_status": "Pending",
    "responsible_agency": "Sewerage & Water Board",
    "final_address": "941 Harmony St",
    "address_councildis": "B",
    "status": "Pending",
    "rowid": "1245758",
    "final_x": "3676019.55547",
    "final_y": "519626.210616",
    "longitude": "-90.08578450853823",
    "latitude": "29.92295693029005",
    "geocoded_column": {
      "latitude": "29.92295693029005",
      "longitude": "-90.08578450853823"
    }
  },
  {
    "service_request": "2025-1245757",
    "request_type": "Trash/Recycling",
    "request_reason": "Request a Large Item Pick Up",
    "date_created": "2025-12-15T16:07:47.000",
    "date_modified": "2025-12-15T16:07:50.000",
    "request_status": "Pending",
    "responsible_agency": "Department of Sanitation",
    "final_address": "8851 Bunker Hill Rd",
    "address_councildis": "E",
    "status": "Assigned to Contractor",
    "contractor": "Waste Pro",
    "rowid": "1245757",
    "final_x": "3705730.48574",
    "final_y": "561560.270623",
    "longitude": "-89.99044812972227",
    "latitude": "30.037337179756534",
    "geocoded_column": {
      "latitude": "30.037337179756534",
      "longitude": "-89.99044812972227"
    }
  },
  {
    "service_request": "2025-1245756",
    "request_type": "Trash/Recycling",
    "request_reason": "Request a Large Item Pick Up",
    "date_created": "2025-12-15T16:06:38.000",
    "date_modified": "2025-12-15T16:06:40.000",
    "request_status": "Pending",
    "responsible_agency": "Department of Sanitation",
    "final_address": "8820 Dinkins St",
    "address_councildis": "E",
    "status": "Assigned to Contractor",
    "contractor": "Waste Pro",
    "rowid": "1245756",
    "final_x": "3704551.26922",
    "final_y": "563277.84368",
    "longitude": "-89.99411125772059",
    "latitude": "30.042097775607125",
    "geocoded_column": {
      "latitude": "30.042097775607125",
      "longitude": "-89.99411125772059"
    }
  },
  {
    "service_request": "2025-1245755",
    "request_type": "Trash/Recycling",
    "request_reason": "Repair Trash Cart",
    "date_created": "2025-12-15T16:01:46.000",
    "date_modified": "2025-12-15T16:01:47.000",
    "request_status": "Pending",
    "responsible_agency": "Department of Sanitation",
    "final_address": "549 Aurora Oaks Dr",
    "address_councildis": "C",
    "status": "Assigned to Contractor",
    "contractor": "IV Waste",
    "rowid": "1245755",
    "final_x": "3701252.2154",
    "final_y": "521094.630393",
    "longitude": "-90.00608167367251",
    "latitude": "29.926215064111055",
    "geocoded_column": {
      "latitude": "29.926215064111055",
      "longitude": "-90.00608167367251"
    }
  },
  {
    "service_request": "2025-1245754",
    "request_type": "Trash/Recycling",
    "request_reason": "Request a Large Item Pick Up",
    "date_created": "2025-12-15T15:57:55.000",
    "date_modified": "2025-12-15T15:58:02.000",
    "request_status": "Pending",
    "responsible_agency": "Department of Sanitation",
    "final_address": "14054 Partridge Ln",
    "address_councildis": "E",
    "status": "Assigned to Contractor",
    "contractor": "Waste Pro",
    "rowid": "1245754",
    "final_x": "3719574.37567",
    "final_y": "571730.32964",
    "longitude": "-89.94630974903865",
    "latitude": "30.06484726214085",
    "geocoded_column": {
      "latitude": "30.06484726214085",
      "longitude": "-89.94630974903865"
    }
  },
  {
    "service_request": "2025-1245753",
    "request_type": "Trash/Recycling",
    "request_reason": "Order Recycling Cart",
    "date_created": "2025-12-15T15:55:56.000",
    "date_modified": "2025-12-15T15:55:58.000",
    "request_status": "Pending",
    "responsible_agency": "Department of Sanitation",
    "final_address": "5660 New England Dr",
    "address_councildis": "E",
    "status": "Pending",
    "rowid": "1245753",
    "final_x": "3723558.22233",
    "final_y": "564427.157729",
    "longitude": "-89.93399850779016",
    "latitude": "30.04463339617989",
    "geocoded_column": {
      "latitude": "30.04463339617989",
      "longitude": "-89.93399850779016"
    }
  },
  {
    "service_request": "2025-1245752",
    "request_type": "Trash/Recycling",
    "request_reason": "Request a Large Item Pick Up",
    "date_created": "2025-12-15T15:53:36.000",
    "date_modified": "2025-12-15T15:53:38.000",
    "request_status": "Pending",
    "responsible_agency": "Department of Sanitation",
    "final_address": "4228 Baudin St",
    "address_councildis": "A",
    "status": "Assigned to Contractor",
    "contractor": "IV Waste",
    "rowid": "1245752",
    "final_x": "3669406.98055",
    "final_y": "537565.866312",
    "longitude": "-90.1060513583263",
    "latitude": "29.972481437638073",
    "geocoded_column": {
      "latitude": "29.972481437638073",
      "longitude": "-90.1060513583263"
    }
  },
  {
    "service_request": "2025-1245751",
    "request_type": "Trash/Recycling",
    "request_reason": "Repair Trash Cart",
    "date_created": "2025-12-15T15:49:33.000",
    "date_modified": "2025-12-15T15:49:35.000",
    "request_status": "Pending",
    "responsible_agency": "Department of Sanitation",
    "final_address": "4704 Marjorie Ln",
    "address_councildis": "D",
    "status": "Assigned to Contractor",
    "contractor": "IV Waste",
    "rowid": "1245751",
    "final_x": "3678358.48456",
    "final_y": "549843.120724",
    "longitude": "-90.07735590746971",
    "latitude": "30.00597292567083",
    "geocoded_column": {
      "latitude": "30.00597292567083",
      "longitude": "-90.07735590746971"
    }
  },
  {
    "service_request": "2025-1245750",
    "request_type": "Trash/Recycling",
    "request_reason": "Missed Trash Pick-Up",
    "date_created": "2025-12-15T15:46:01.000",
    "date_modified": "2025-12-15T15:46:03.000",
    "request_status": "Pending",
    "responsible_agency": "Department of Sanitation",
    "final_address": "7153 Yorktown Dr",
    "address_councildis": "E",
    "status": "Assigned to Contractor",
    "contractor": "Waste Pro",
    "rowid": "1245750",
    "final_x": "3705924.62686",
    "final_y": "561153.058462",
    "longitude": "-89.98984969247604",
    "latitude": "30.03621124924804",
    "geocoded_column": {
      "latitude": "30.03621124924804",
      "longitude": "-89.98984969247604"
    }
  },
  {
    "service_request": "2025-1245749",
    "request_type": "Trash/Recycling",
    "request_reason": "Request a Large Item Pick Up",
    "date_created": "2025-12-15T15:42:43.000",
    "date_modified": "2025-12-15T15:42:53.000",
    "request_status": "Pending",
    "responsible_agency": "Department of Sanitation",
    "final_address": "3620 Mimosa Ct",
    "address_councildis": "C",
    "status": "Assigned to Contractor",
    "contractor": "IV Waste",
    "rowid": "1245749",
    "final_x": "3703041.76234",
    "final_y": "513333.92581",
    "longitude": "-90.00071754358822",
    "latitude": "29.904818669576123",
    "geocoded_column": {
      "latitude": "29.904818669576123",
      "longitude": "-90.00071754358822"
    }
  },
  {
    "service_request": "2025-1245748",
    "request_type": "Trash/Recycling",
    "request_reason": "Request a Large Item Pick Up",
    "date_created": "2025-12-15T15:42:27.000",
    "date_modified": "2025-12-15T15:42:29.000",
    "request_status": "Pending",
    "responsible_agency": "Department of Sanitation",
    "final_address": "513 S Solomon St",
    "address_councildis": "A",
    "status": "Assigned to Contractor",
    "contractor": "IV Waste",
    "rowid": "1245748",
    "final_x": "3669518.34369",
    "final_y": "537382.591112",
    "longitude": "-90.10570585405594",
    "latitude": "29.97197421215128",
    "geocoded_column": {
      "latitude": "29.97197421215128",
      "longitude": "-90.10570585405594"
    }
  },
  {
    "service_request": "2025-1245747",
    "request_type": "Trash/Recycling",
    "request_reason": "Illegal Dumping",
    "date_created": "2025-12-15T15:38:09.000",
    "date_modified": "2025-12-15T15:43:34.000",
    "request_status": "Pending",
    "responsible_agency": "Department of Sanitation",
    "final_address": "ROBERT E LEE BLVD & PEOPLES AVE",
    "address_councildis": "D",
    "status": "Pending",
    "rowid": "1245747",
    "final_x": "3687747.6",
    "final_y": "556048.88",
    "longitude": "-90.04747352425831",
    "latitude": "30.0227501546197",
    "geocoded_column": {
      "latitude": "30.0227501546197",
      "longitude": "-90.04747352425831"
    }
  },
  {
    "service_request": "2025-1245746",
    "request_type": "Trash/Recycling",
    "request_reason": "Request a Large Item Pick Up",
    "date_created": "2025-12-15T15:36:24.000",
    "date_modified": "2025-12-15T15:36:26.000",
    "request_status": "Pending",
    "responsible_agency": "Department of Sanitation",
    "final_address": "11117 Curran Rd",
    "address_councildis": "E",
    "status": "Assigned to Contractor",
    "contractor": "Waste Pro",
    "rowid": "1245746",
    "final_x": "3710702.71301",
    "final_y": "566327.455971",
    "longitude": "-89.97455624591979",
    "latitude": "30.050283859757798",
    "geocoded_column": {
      "latitude": "30.050283859757798",
      "longitude": "-89.97455624591979"
    }
  },
  {
    "service_request": "2025-1245745",
    "request_type": "Trash/Recycling",
    "request_reason": "Request a Large Item Pick Up",
    "date_created": "2025-12-15T15:35:45.000",
    "date_modified": "2025-12-15T15:35:46.000",
    "request_status": "Pending",
    "responsible_agency": "Department of Sanitation",
    "final_address": "4941 Rhodes Dr",
    "address_councildis": "E",
    "status": "Assigned to Contractor",
    "contractor": "Waste Pro",
    "rowid": "1245745",
    "final_x": "3702473.04465",
    "final_y": "555494.603481",
    "longitude": "-90.00096521657439",
    "latitude": "30.02076351370093",
    "geocoded_column": {
      "latitude": "30.02076351370093",
      "longitude": "-90.00096521657439"
    }
  },
  {
    "service_request": "2025-1245744",
    "request_type": "Trash/Recycling",
    "request_reason": "Replace Recycling Cart",
    "date_created": "2025-12-15T15:35:27.000",
    "date_modified": "2025-12-15T15:35:30.000",
    "request_status": "Pending",
    "responsible_agency": "Department of Sanitation",
    "final_address": "834 Wilson Dr",
    "address_councildis": "A",
    "status": "Pending",
    "rowid": "1245744",
    "final_x": "3674087.91176",
    "final_y": "539502.48129",
    "longitude": "-90.09120182275423",
    "latitude": "29.977667781236573",
    "geocoded_column": {
      "latitude": "29.977667781236573",
      "longitude": "-90.09120182275423"
    }
  },
  {
    "service_request": "2025-1245743",
    "request_type": "Trash/Recycling",
    "request_reason": "Request a Large Item Pick Up",
    "date_created": "2025-12-15T15:34:01.000",
    "date_modified": "2025-12-15T15:34:02.000",
    "request_status": "Pending",
    "responsible_agency": "Department of Sanitation",
    "final_address": "5011 Press Dr",
    "address_councildis": "D",
    "status": "Assigned to Contractor",
    "contractor": "IV Waste",
    "rowid": "1245743",
    "final_x": "3689578.85295",
    "final_y": "551651.466837",
    "longitude": "-90.04184381544522",
    "latitude": "30.010602266701373",
    "geocoded_column": {
      "latitude": "30.010602266701373",
      "longitude": "-90.04184381544522"
    }
  },
  {
    "service_request": "2025-1245742",
    "request_type": "Trash/Recycling",
    "request_reason": "Repair Trash Cart",
    "date_created": "2025-12-15T15:31:15.000",
    "date_modified": "2025-12-15T15:31:19.000",
    "request_status": "Pending",
    "responsible_agency": "Department of Sanitation",
    "final_address": "7116 Perrier St",
    "address_councildis": "A",
    "status": "Assigned to Contractor",
    "contractor": "IV Waste",
    "rowid": "1245742",
    "final_x": "3661571.91309",
    "final_y": "522359.006522",
    "longitude": "-90.13129983497815",
    "latitude": "29.930895885725345",
    "geocoded_column": {
      "latitude": "29.930895885725345",
      "longitude": "-90.13129983497815"
    }
  },
  {
    "service_request": "2025-1245741",
    "request_type": "Trash/Recycling",
    "request_reason": "Request a Large Item Pick Up",
    "date_created": "2025-12-15T15:29:09.000",
    "date_modified": "2025-12-15T15:29:10.000",
    "request_status": "Pending",
    "responsible_agency": "Department of Sanitation",
    "final_address": "7935 Michigan St",
    "address_councildis": "E",
    "status": "Assigned to Contractor",
    "contractor": "Waste Pro",
    "rowid": "1245741",
    "final_x": "3711057.82161",
    "final_y": "567662.78122",
    "longitude": "-89.97338379506311",
    "latitude": "30.05394387900348",
    "geocoded_column": {
      "latitude": "30.05394387900348",
      "longitude": "-89.97338379506311"
    }
  },
  {
    "service_request": "2025-1245740",
    "request_type": "Trash/Recycling",
    "request_reason": "Request a Large Item Pick Up",
    "date_created": "2025-12-15T15:28:20.000",
    "date_modified": "2025-12-15T15:28:23.000",
    "request_status": "Pending",
    "responsible_agency": "Department of Sanitation",
    "final_address": "5140 Mckendall Pl",
    "address_councildis": "E",
    "status": "Assigned to Contractor",
    "contractor": "Waste Pro",
    "rowid": "1245740",
    "final_x": "3717948.77612",
    "final_y": "558778.133596",
    "longitude": "-89.95194197235332",
    "latitude": "30.029288035157826",
    "geocoded_column": {
      "latitude": "30.029288035157826",
      "longitude": "-89.95194197235332"
    }
  },
  {
    "service_request": "2025-1245739",
    "request_type": "Trash/Recycling",
    "request_reason": "Repair Recycling Cart",
    "date_created": "2025-12-15T15:27:24.000",
    "date_modified": "2025-12-15T15:27:25.000",
    "request_status": "Pending",
    "responsible_agency": "Department of Sanitation",
    "final_address": "75 Neron Pl",
    "address_councildis": "A",
    "status": "Pending",
    "rowid": "1245739",
    "final_x": "3666004.96474",
    "final_y": "530049.928257",
    "longitude": "-90.11704753049966",
    "latitude": "29.951914834609678",
    "geocoded_column": {
      "latitude": "29.951914834609678",
      "longitude": "-90.11704753049966"
    }
  },
  {
    "service_request": "2025-1245738",
    "request_type": "Abandoned Vehicles",
    "request_reason": "Abandoned/Junk Vehicles",
    "date_created": "2025-12-15T15:26:59.000",
    "date_modified": "2025-12-15T15:27:00.000",
    "request_status": "Pending",
    "responsible_agency": "Department of Public Works",
    "final_address": "3426 Iberville St",
    "address_councildis": "B",
    "status": "Pending",
    "rowid": "1245738",
    "final_x": "3673167.83636",
    "final_y": "537265.71284",
    "longitude": "-90.09418413808694",
    "latitude": "29.9715448205746",
    "geocoded_column": {
      "latitude": "29.9715448205746",
      "longitude": "-90.09418413808694"
    }
  },
  {
    "service_request": "2025-1245737",
    "request_type": "Trash/Recycling",
    "request_reason": "Repair Trash Cart",
    "date_created": "2025-12-15T15:26:48.000",
    "date_modified": "2025-12-15T15:26:50.000",
    "request_status": "Pending",
    "responsible_agency": "Department of Sanitation",
    "final_address": "75 Neron Pl",
    "address_councildis": "A",
    "status": "Assigned to Contractor",
    "contractor": "IV Waste",
    "rowid": "1245737",
    "final_x": "3666004.96474",
    "final_y": "530049.928257",
    "longitude": "-90.11704753049966",
    "latitude": "29.951914834609678",
    "geocoded_column": {
      "latitude": "29.951914834609678",
      "longitude": "-90.11704753049966"
    }
  },
  {
    "service_request": "2025-1245736",
    "request_type": "Abandoned Vehicles",
    "request_reason": "Abandoned/Junk Vehicles",
    "date_created": "2025-12-15T15:26:31.000",
    "date_modified": "2025-12-15T15:26:32.000",
    "request_status": "Pending",
    "responsible_agency": "Department of Public Works",
    "final_address": "4218 DHemecourt St",
    "address_councildis": "A",
    "status": "Pending",
    "rowid": "1245736",
    "final_x": "3669228.63662",
    "final_y": "537217.263496",
    "longitude": "-90.10662638827384",
    "latitude": "29.971528148008325",
    "geocoded_column": {
      "latitude": "29.971528148008325",
      "longitude": "-90.10662638827384"
    }
  },
  {
    "service_request": "2025-1245735",
    "request_type": "Property Maintenance",
    "request_reason": "Property Maintenance",
    "date_created": "2025-12-15T15:25:19.000",
    "date_modified": "2025-12-15T15:49:59.000",
    "case_close_date": "2025-12-15T09:49:58.000",
    "request_status": "Closed",
    "responsible_agency": "Department of Code Enforcement",
    "final_address": "2548 Ursulines Ave",
    "address_councildis": "D",
    "status": "Referred to Code Enforcement",
    "rowid": "1245735",
    "final_x": "3678084.33883",
    "final_y": "537713.094856",
    "longitude": "-90.07864162016224",
    "latitude": "29.97262785625664",
    "geocoded_column": {
      "latitude": "29.97262785625664",
      "longitude": "-90.07864162016224"
    }
  },
  {
    "service_request": "2025-1245734",
    "request_type": "Trash/Recycling",
    "request_reason": "Dead Animal Pick Up",
    "date_created": "2025-12-15T15:25:06.000",
    "date_modified": "2025-12-15T15:26:02.000",
    "request_status": "Pending",
    "responsible_agency": "Department of Sanitation",
    "final_address": "3321 Dryades St",
    "address_councildis": "B",
    "status": "Assigned to Contractor",
    "contractor": "IV Waste",
    "rowid": "1245734",
    "final_x": "3673940.28059",
    "final_y": "522668.39257",
    "longitude": "-90.09224396769409",
    "latitude": "29.931384034579715",
    "geocoded_column": {
      "latitude": "29.931384034579715",
      "longitude": "-90.09224396769409"
    }
  },
  {
    "service_request": "2025-1245733",
    "request_type": "Roads and Streets",
    "request_reason": "Pothole",
    "date_created": "2025-12-15T15:19:50.000",
    "date_modified": "2025-12-15T15:19:51.000",
    "request_status": "Pending",
    "responsible_agency": "Department of Public Works",
    "final_address": "4140 Canal St",
    "address_councildis": "A",
    "status": "Pending",
    "rowid": "1245733",
    "final_x": "3670688.34036",
    "final_y": "538417.467337",
    "longitude": "-90.10197568402062",
    "latitude": "29.974785253813693",
    "geocoded_column": {
      "latitude": "29.974785253813693",
      "longitude": "-90.10197568402062"
    }
  },
  {
    "service_request": "2025-1245732",
    "request_type": "Trash/Recycling",
    "request_reason": "Order Recycling Cart",
    "date_created": "2025-12-15T15:12:47.000",
    "date_modified": "2025-12-15T15:12:49.000",
    "request_status": "Pending",
    "responsible_agency": "Department of Sanitation",
    "final_address": "2506 St Thomas St",
    "address_councildis": "B",
    "status": "Pending",
    "rowid": "1245732",
    "final_x": "3678780.87694",
    "final_y": "519731.91948",
    "longitude": "-90.07706443218284",
    "latitude": "29.923164639616722",
    "geocoded_column": {
      "latitude": "29.923164639616722",
      "longitude": "-90.07706443218284"
    }
  },
  {
    "service_request": "2025-1245731",
    "request_type": "Trash/Recycling",
    "request_reason": "Repair Trash Cart",
    "date_created": "2025-12-15T15:09:09.000",
    "date_modified": "2025-12-15T15:13:06.000",
    "request_status": "Pending",
    "responsible_agency": "Department of Sanitation",
    "final_address": "2506 St Thomas St",
    "address_councildis": "B",
    "status": "Assigned to Contractor",
    "contractor": "IV Waste",
    "rowid": "1245731",
    "final_x": "3678780.87694",
    "final_y": "519731.91948",
    "longitude": "-90.07706443218284",
    "latitude": "29.923164639616722",
    "geocoded_column": {
      "latitude": "29.923164639616722",
      "longitude": "-90.07706443218284"
    }
  },
  {
    "service_request": "2025-1245730",
    "request_type": "Trash/Recycling",
    "request_reason": "Request a Large Item Pick Up",
    "date_created": "2025-12-15T15:05:43.000",
    "date_modified": "2025-12-15T15:05:45.000",
    "request_status": "Pending",
    "responsible_agency": "Department of Sanitation",
    "final_address": "1026 Flood St",
    "address_councildis": "E",
    "status": "Assigned to Contractor",
    "contractor": "Waste Pro",
    "rowid": "1245730",
    "final_x": "3697606.97661",
    "final_y": "533609.491781",
    "longitude": "-90.01713479004552",
    "latitude": "29.960742170987384",
    "geocoded_column": {
      "latitude": "29.960742170987384",
      "longitude": "-90.01713479004552"
    }
  },
  {
    "service_request": "2025-1245729",
    "request_type": "Trash/Recycling",
    "request_reason": "Missed Trash Pick-Up",
    "date_created": "2025-12-15T15:05:27.000",
    "date_modified": "2025-12-15T15:05:29.000",
    "request_status": "Pending",
    "responsible_agency": "Department of Sanitation",
    "final_address": "4701 Viola St",
    "address_councildis": "E",
    "status": "Assigned to Contractor",
    "contractor": "Waste Pro",
    "rowid": "1245729",
    "final_x": "3704051.17246",
    "final_y": "554937.395864",
    "longitude": "-89.99599938313024",
    "latitude": "30.019180856422736",
    "geocoded_column": {
      "latitude": "30.019180856422736",
      "longitude": "-89.99599938313024"
    }
  },
  {
    "service_request": "2025-1245728",
    "request_type": "Safety & Permits",
    "request_reason": "Licenses & Permits",
    "date_created": "2025-12-15T15:03:39.000",
    "date_modified": "2025-12-15T15:04:42.000",
    "request_status": "Pending",
    "responsible_agency": "Safety and Permits",
    "final_address": "2100 BLK Urquhart St",
    "address_councildis": "C",
    "status": "Pending",
    "rowid": "1245728",
    "final_x": "3684716.58952",
    "final_y": "537019.790906",
    "longitude": "-90.05772017552775",
    "latitude": "29.97052015681272",
    "geocoded_column": {
      "latitude": "29.97052015681272",
      "longitude": "-90.05772017552775"
    }
  },
  {
    "service_request": "2025-1245727",
    "request_type": "Trash/Recycling",
    "request_reason": "Repair Trash Cart",
    "date_created": "2025-12-15T15:00:09.000",
    "date_modified": "2025-12-15T15:00:25.000",
    "request_status": "Pending",
    "responsible_agency": "Department of Sanitation",
    "final_address": "3224 Bennett St",
    "address_councildis": "C",
    "status": "Assigned to Contractor",
    "contractor": "Richards Disposal",
    "rowid": "1245727",
    "final_x": "3710503.73605",
    "final_y": "518538.924983",
    "longitude": "-89.97697305657516",
    "latitude": "29.91888987136231",
    "geocoded_column": {
      "latitude": "29.91888987136231",
      "longitude": "-89.97697305657516"
    }
  },
  {
    "service_request": "2025-1245726",
    "request_type": "Trash/Recycling",
    "request_reason": "Replace Trash Cart",
    "date_created": "2025-12-15T14:59:05.000",
    "date_modified": "2025-12-15T15:01:04.000",
    "request_status": "Pending",
    "responsible_agency": "Department of Sanitation",
    "final_address": "4968 Miles Dr",
    "address_councildis": "D",
    "status": "Assigned to Contractor",
    "contractor": "IV Waste",
    "rowid": "1245726",
    "final_x": "3680190.67247",
    "final_y": "549717.716244",
    "longitude": "-90.0715719543915",
    "latitude": "30.00557276008154",
    "geocoded_column": {
      "latitude": "30.00557276008154",
      "longitude": "-90.0715719543915"
    }
  },
  {
    "service_request": "2025-1245725",
    "request_type": "Trash/Recycling",
    "request_reason": "Replace Recycling Cart",
    "date_created": "2025-12-15T14:50:52.000",
    "date_modified": "2025-12-15T14:50:53.000",
    "request_status": "Pending",
    "responsible_agency": "Department of Sanitation",
    "final_address": "2623 Lepage St",
    "address_councildis": "A",
    "status": "Pending",
    "rowid": "1245725",
    "final_x": "3678307.44885",
    "final_y": "539598.402826",
    "longitude": "-90.07787176018846",
    "latitude": "29.977805084935124",
    "geocoded_column": {
      "latitude": "29.977805084935124",
      "longitude": "-90.07787176018846"
    }
  },
  {
    "service_request": "2025-1245724",
    "request_type": "General Services",
    "request_reason": "General Service Request",
    "date_created": "2025-12-15T14:50:01.000",
    "date_modified": "2025-12-15T14:50:03.000",
    "request_status": "Pending",
    "responsible_agency": "Orleans Parish Communication District",
    "final_address": "700 BLK Alix St",
    "address_councildis": "C",
    "status": "Pending",
    "rowid": "1245724",
    "final_x": "3687715.16226",
    "final_y": "530348.658579",
    "longitude": "-90.048486601803",
    "latitude": "29.952084725765115",
    "geocoded_column": {
      "latitude": "29.952084725765115",
      "longitude": "-90.048486601803"
    }
  },
  {
    "service_request": "2025-1245723",
    "request_type": "Streetlights",
    "request_reason": "Streetlight Outage/Malfunction",
    "date_created": "2025-12-15T14:48:39.000",
    "date_modified": "2025-12-15T14:48:40.000",
    "request_status": "Pending",
    "responsible_agency": "Department of Public Works",
    "final_address": "4700 BLK Wright Rd",
    "address_councildis": "E",
    "status": "Pending",
    "rowid": "1245723",
    "final_x": "3716637.82194",
    "final_y": "557116.193954",
    "longitude": "-89.9561476274248",
    "latitude": "30.02476175607502",
    "geocoded_column": {
      "latitude": "30.02476175607502",
      "longitude": "-89.9561476274248"
    }
  },
  {
    "service_request": "2025-1245722",
    "request_type": "Trash/Recycling",
    "request_reason": "Illegal Dumping",
    "date_created": "2025-12-15T14:43:10.000",
    "date_modified": "2025-12-15T14:49:05.000",
    "case_close_date": "2025-12-15T08:48:42.000",
    "request_status": "Closed",
    "responsible_agency": "Department of Sanitation",
    "final_address": "13 Mars Pl",
    "address_councildis": "B",
    "status": "Resolved",
    "rowid": "1245722",
    "final_x": "3667364.17172",
    "final_y": "533326.842692",
    "longitude": "-90.11264555490746",
    "latitude": "29.96088553375347",
    "geocoded_column": {
      "latitude": "29.96088553375347",
      "longitude": "-90.11264555490746"
    }
  },
  {
    "service_request": "2025-1245721",
    "request_type": "Trash/Recycling",
    "request_reason": "Request a Large Item Pick Up",
    "date_created": "2025-12-15T14:42:10.000",
    "date_modified": "2025-12-15T14:42:12.000",
    "request_status": "Pending",
    "responsible_agency": "Department of Sanitation",
    "final_address": "3510 Joliet St",
    "address_councildis": "A",
    "status": "Assigned to Contractor",
    "contractor": "IV Waste",
    "rowid": "1245721",
    "final_x": "3666451.55514",
    "final_y": "535493.985542",
    "longitude": "-90.11545469923851",
    "latitude": "29.96687116298325",
    "geocoded_column": {
      "latitude": "29.96687116298325",
      "longitude": "-90.11545469923851"
    }
  },
  {
    "service_request": "2025-1245720",
    "request_type": "Trash/Recycling",
    "request_reason": "Request a Large Item Pick Up",
    "date_created": "2025-12-15T14:38:53.000",
    "date_modified": "2025-12-15T14:38:54.000",
    "request_status": "Pending",
    "responsible_agency": "Department of Sanitation",
    "final_address": "7331 Beauvoir Ct",
    "address_councildis": "E",
    "status": "Assigned to Contractor",
    "contractor": "Waste Pro",
    "rowid": "1245720",
    "final_x": "3716054.63365",
    "final_y": "567975.436773",
    "longitude": "-89.95757840081707",
    "latitude": "30.05463954050383",
    "geocoded_column": {
      "latitude": "30.05463954050383",
      "longitude": "-89.95757840081707"
    }
  },
  {
    "service_request": "2025-1245719",
    "request_type": "Abandoned Vehicles",
    "request_reason": "Abandoned/Junk Vehicles",
    "date_created": "2025-12-15T14:38:29.000",
    "date_modified": "2025-12-15T14:38:31.000",
    "request_status": "Pending",
    "responsible_agency": "Department of Public Works",
    "final_address": "7921 Oleander St",
    "address_councildis": "B",
    "status": "Pending",
    "rowid": "1245719",
    "final_x": "3667244.11207",
    "final_y": "533274.893956",
    "longitude": "-90.11302642893132",
    "latitude": "29.96074620817269",
    "geocoded_column": {
      "latitude": "29.96074620817269",
      "longitude": "-90.11302642893132"
    }
  },
  {
    "service_request": "2025-1245718",
    "request_type": "Trash/Recycling",
    "request_reason": "Request a Large Item Pick Up",
    "date_created": "2025-12-15T14:38:06.000",
    "date_modified": "2025-12-15T14:38:08.000",
    "request_status": "Pending",
    "responsible_agency": "Department of Sanitation",
    "final_address": "3709 Monroe St",
    "address_councildis": "A",
    "status": "Assigned to Contractor",
    "contractor": "IV Waste",
    "rowid": "1245718",
    "final_x": "3666480.597",
    "final_y": "536424.246663",
    "longitude": "-90.11533175691282",
    "latitude": "29.969428223743545",
    "geocoded_column": {
      "latitude": "29.969428223743545",
      "longitude": "-90.11533175691282"
    }
  },
  {
    "service_request": "2025-1245717",
    "request_type": "Trash/Recycling",
    "request_reason": "Request a Large Item Pick Up",
    "date_created": "2025-12-15T14:33:17.000",
    "date_modified": "2025-12-15T14:33:19.000",
    "request_status": "Pending",
    "responsible_agency": "Department of Sanitation",
    "final_address": "7950 Arcadia Ln",
    "address_councildis": "E",
    "status": "Assigned to Contractor",
    "contractor": "Waste Pro",
    "rowid": "1245717",
    "final_x": "3711729.18302",
    "final_y": "567986.627237",
    "longitude": "-89.9712496382031",
    "latitude": "30.054812397331297",
    "geocoded_column": {
      "latitude": "30.054812397331297",
      "longitude": "-89.9712496382031"
    }
  },
  {
    "service_request": "2025-1245716",
    "request_type": "Roads and Streets",
    "request_reason": "Pothole",
    "date_created": "2025-12-15T14:31:33.000",
    "date_modified": "2025-12-15T14:31:34.000",
    "request_status": "Pending",
    "responsible_agency": "Department of Public Works",
    "final_address": "UNION ST & BARONNE ST",
    "address_councildis": "B",
    "status": "Pending",
    "rowid": "1245716",
    "final_x": "3680077.9",
    "final_y": "530140.68",
    "longitude": "-90.07260872083961",
    "latitude": "29.951746119626073",
    "geocoded_column": {
      "latitude": "29.951746119626073",
      "longitude": "-90.07260872083961"
    }
  },
  {
    "service_request": "2025-1245715",
    "request_type": "Property Maintenance",
    "request_reason": "Property Maintenance",
    "date_created": "2025-12-15T14:31:09.000",
    "date_modified": "2025-12-15T15:05:02.000",
    "case_close_date": "2025-12-15T09:05:01.000",
    "request_status": "Closed",
    "responsible_agency": "Department of Code Enforcement",
    "final_address": "4736 Warren Dr",
    "address_councildis": "E",
    "status": "Referred to Code Enforcement",
    "rowid": "1245715",
    "final_x": "3713386.92786",
    "final_y": "556261.995674",
    "longitude": "-89.96645199713439",
    "latitude": "30.022520082185807",
    "geocoded_column": {
      "latitude": "30.022520082185807",
      "longitude": "-89.96645199713439"
    }
  },
  {
    "service_request": "2025-1245714",
    "request_type": "Trash/Recycling",
    "request_reason": "Dead Animal Pick Up",
    "date_created": "2025-12-15T14:30:39.000",
    "date_modified": "2025-12-15T14:47:07.000",
    "request_status": "Pending",
    "responsible_agency": "Department of Sanitation",
    "final_address": "ST PHILIP ST & N BROAD ST",
    "address_councildis": "D",
    "status": "Assigned to Contractor",
    "contractor": "Sanitation Dept. ",
    "rowid": "1245714",
    "final_x": "3677408.3",
    "final_y": "537838.98",
    "longitude": "-90.08077232906837",
    "latitude": "29.97299433459491",
    "geocoded_column": {
      "latitude": "29.97299433459491",
      "longitude": "-90.08077232906837"
    }
  },
  {
    "service_request": "2025-1245713",
    "request_type": "Trash/Recycling",
    "request_reason": "Request a Large Item Pick Up",
    "date_created": "2025-12-15T14:30:04.000",
    "date_modified": "2025-12-15T14:30:06.000",
    "request_status": "Pending",
    "responsible_agency": "Department of Sanitation",
    "final_address": "361 Millaudon St",
    "address_councildis": "A",
    "status": "Assigned to Contractor",
    "contractor": "IV Waste",
    "rowid": "1245713",
    "final_x": "3661824.15021",
    "final_y": "524487.801596",
    "longitude": "-90.13043300340226",
    "latitude": "29.936742123533673",
    "geocoded_column": {
      "latitude": "29.936742123533673",
      "longitude": "-90.13043300340226"
    }
  },
  {
    "service_request": "2025-1245712",
    "request_type": "Property Maintenance",
    "request_reason": "Property Maintenance",
    "date_created": "2025-12-15T14:29:05.000",
    "date_modified": "2025-12-15T15:18:57.000",
    "case_close_date": "2025-12-15T09:18:57.000",
    "request_status": "Closed",
    "responsible_agency": "Department of Code Enforcement",
    "final_address": "4744 Warren Dr",
    "address_councildis": "E",
    "status": "Referred to Code Enforcement",
    "rowid": "1245712",
    "final_x": "3713380.27026",
    "final_y": "556328.836122",
    "longitude": "-89.96647051396326",
    "latitude": "30.02270408542178",
    "geocoded_column": {
      "latitude": "30.02270408542178",
      "longitude": "-89.96647051396326"
    }
  },
  {
    "service_request": "2025-1245711",
    "request_type": "Trash/Recycling",
    "request_reason": "Request a Large Item Pick Up",
    "date_created": "2025-12-15T14:24:58.000",
    "date_modified": "2025-12-15T14:24:59.000",
    "request_status": "Pending",
    "responsible_agency": "Department of Sanitation",
    "final_address": "7620 Daniel Dr",
    "address_councildis": "E",
    "status": "Assigned to Contractor",
    "contractor": "Waste Pro",
    "rowid": "1245711",
    "final_x": "3705026.53201",
    "final_y": "562756.264224",
    "longitude": "-89.99262854480342",
    "latitude": "30.04064835639841",
    "geocoded_column": {
      "latitude": "30.04064835639841",
      "longitude": "-89.99262854480342"
    }
  },
  {
    "service_request": "2025-1245710",
    "request_type": "Trash/Recycling",
    "request_reason": "Request a Large Item Pick Up",
    "date_created": "2025-12-15T14:24:41.000",
    "date_modified": "2025-12-15T14:24:43.000",
    "request_status": "Pending",
    "responsible_agency": "Department of Sanitation",
    "final_address": "7331 Weaver Ave",
    "address_councildis": "E",
    "status": "Assigned to Contractor",
    "contractor": "Waste Pro",
    "rowid": "1245710",
    "final_x": "3707954.10859",
    "final_y": "563486.026016",
    "longitude": "-89.98334932934162",
    "latitude": "30.042560399069004",
    "geocoded_column": {
      "latitude": "30.042560399069004",
      "longitude": "-89.98334932934162"
    }
  },
  {
    "service_request": "2025-1245709",
    "request_type": "Trash/Recycling",
    "request_reason": "Request a Large Item Pick Up",
    "date_created": "2025-12-15T14:20:46.000",
    "date_modified": "2025-12-15T14:20:47.000",
    "request_status": "Pending",
    "responsible_agency": "Department of Sanitation",
    "final_address": "1511 Egania St",
    "address_councildis": "E",
    "status": "Assigned to Contractor",
    "contractor": "Waste Pro",
    "rowid": "1245709",
    "final_x": "3697285.79824",
    "final_y": "535622.505734",
    "longitude": "-90.01807603775082",
    "latitude": "29.966287383803177",
    "geocoded_column": {
      "latitude": "29.966287383803177",
      "longitude": "-90.01807603775082"
    }
  },
  {
    "service_request": "2025-1245708",
    "request_type": "Trash/Recycling",
    "request_reason": "Request a Large Item Pick Up",
    "date_created": "2025-12-15T14:20:39.000",
    "date_modified": "2025-12-15T14:21:20.000",
    "request_status": "Pending",
    "responsible_agency": "Department of Sanitation",
    "final_address": "1836 General Ogden St",
    "address_councildis": "A",
    "status": "Assigned to Contractor",
    "contractor": "IV Waste",
    "rowid": "1245708",
    "final_x": "3661458.46336",
    "final_y": "532094.544835",
    "longitude": "-90.13133558140692",
    "latitude": "29.957668787163833",
    "geocoded_column": {
      "latitude": "29.957668787163833",
      "longitude": "-90.13133558140692"
    }
  },
  {
    "service_request": "2025-1245707",
    "request_type": "Trash/Recycling",
    "request_reason": "Repair Trash Cart",
    "date_created": "2025-12-15T14:18:00.000",
    "date_modified": "2025-12-15T14:18:02.000",
    "request_status": "Pending",
    "responsible_agency": "Department of Sanitation",
    "final_address": "1516 Owens Blvd",
    "address_councildis": "D",
    "status": "Assigned to Contractor",
    "contractor": "IV Waste",
    "rowid": "1245707",
    "final_x": "3678974.71278",
    "final_y": "548957.588115",
    "longitude": "-90.07543980769445",
    "latitude": "30.00351943989679",
    "geocoded_column": {
      "latitude": "30.00351943989679",
      "longitude": "-90.07543980769445"
    }
  },
  {
    "service_request": "2025-1245706",
    "request_type": "Property Maintenance",
    "request_reason": "Property Maintenance",
    "date_created": "2025-12-15T14:15:00.000",
    "date_modified": "2025-12-15T14:45:02.000",
    "case_close_date": "2025-12-15T08:45:00.000",
    "request_status": "Closed",
    "responsible_agency": "Department of Code Enforcement",
    "final_address": "2929 Copernicus St",
    "address_councildis": "C",
    "status": "Referred to Code Enforcement",
    "rowid": "1245706",
    "final_x": "3694972.07293",
    "final_y": "524151.630524",
    "longitude": "-90.02579607055914",
    "latitude": "29.93481929992841",
    "geocoded_column": {
      "latitude": "29.93481929992841",
      "longitude": "-90.02579607055914"
    }
  },
  {
    "service_request": "2025-1245705",
    "request_type": "Trash/Recycling",
    "request_reason": "Request a Large Item Pick Up",
    "date_created": "2025-12-15T14:10:40.000",
    "date_modified": "2025-12-15T14:10:42.000",
    "request_status": "Pending",
    "responsible_agency": "Department of Sanitation",
    "final_address": "1220 Joliet St",
    "address_councildis": "A",
    "status": "Assigned to Contractor",
    "contractor": "IV Waste",
    "rowid": "1245705",
    "final_x": "3661002.43578",
    "final_y": "529493.895553",
    "longitude": "-90.13286162784152",
    "latitude": "29.95053098453264",
    "geocoded_column": {
      "latitude": "29.95053098453264",
      "longitude": "-90.13286162784152"
    }
  },
  {
    "service_request": "2025-1245704",
    "request_type": "Parks & Parkways",
    "request_reason": "Request Tree Service (Right of Way/Public Property)",
    "date_created": "2025-12-15T14:07:51.000",
    "date_modified": "2025-12-15T14:07:52.000",
    "request_status": "Pending",
    "responsible_agency": "Department of Parks & Parkway",
    "final_address": "1530 Delachaise St",
    "address_councildis": "B",
    "status": "Pending",
    "rowid": "1245704",
    "final_x": "3673916.67828",
    "final_y": "521129.633209",
    "longitude": "-90.09237108676729",
    "latitude": "29.927153646327614",
    "geocoded_column": {
      "latitude": "29.927153646327614",
      "longitude": "-90.09237108676729"
    }
  },
  {
    "service_request": "2025-1245703",
    "request_type": "Trash/Recycling",
    "request_reason": "Request a Large Item Pick Up",
    "date_created": "2025-12-15T14:04:48.000",
    "date_modified": "2025-12-15T14:04:49.000",
    "request_status": "Pending",
    "responsible_agency": "Department of Sanitation",
    "final_address": "1937 Arts St",
    "address_councildis": "D",
    "status": "Assigned to Contractor",
    "contractor": "IV Waste",
    "rowid": "1245703",
    "final_x": "3686996.20342",
    "final_y": "539733.153546",
    "longitude": "-90.05042496744643",
    "latitude": "29.977910974160565",
    "geocoded_column": {
      "latitude": "29.977910974160565",
      "longitude": "-90.05042496744643"
    }
  },
  {
    "service_request": "2025-1245702",
    "request_type": "Trash/Recycling",
    "request_reason": "Request a Large Item Pick Up",
    "date_created": "2025-12-15T14:02:33.000",
    "date_modified": "2025-12-15T14:02:35.000",
    "request_status": "Pending",
    "responsible_agency": "Department of Sanitation",
    "final_address": "43 Kings Canyon Dr",
    "address_councildis": "C",
    "status": "Assigned to Contractor",
    "contractor": "IV Waste",
    "rowid": "1245702",
    "final_x": "3700408.75786",
    "final_y": "515716.1557",
    "longitude": "-90.00894044950074",
    "latitude": "29.911452934198373",
    "geocoded_column": {
      "latitude": "29.911452934198373",
      "longitude": "-90.00894044950074"
    }
  },
  {
    "service_request": "2025-1245701",
    "request_type": "Trash/Recycling",
    "request_reason": "Repair Trash Cart",
    "date_created": "2025-12-15T14:01:26.000",
    "date_modified": "2025-12-15T15:01:01.000",
    "request_status": "Pending",
    "responsible_agency": "Department of Sanitation",
    "final_address": "43 Kings Canyon Dr",
    "address_councildis": "C",
    "status": "Assigned to Contractor",
    "contractor": "Richards Disposal",
    "rowid": "1245701",
    "final_x": "3700408.75786",
    "final_y": "515716.1557",
    "longitude": "-90.00894044950074",
    "latitude": "29.911452934198373",
    "geocoded_column": {
      "latitude": "29.911452934198373",
      "longitude": "-90.00894044950074"
    }
  },
  {
    "service_request": "2025-1245700",
    "request_type": "Trash/Recycling",
    "request_reason": "Request a Large Item Pick Up",
    "date_created": "2025-12-15T14:00:43.000",
    "date_modified": "2025-12-15T14:00:45.000",
    "request_status": "Pending",
    "responsible_agency": "Department of Sanitation",
    "final_address": "3214 Pauger St",
    "address_councildis": "D",
    "status": "Assigned to Contractor",
    "contractor": "IV Waste",
    "rowid": "1245700",
    "final_x": "3683414.42153",
    "final_y": "541504.121932",
    "longitude": "-90.0616753962231",
    "latitude": "29.98289029802957",
    "geocoded_column": {
      "latitude": "29.98289029802957",
      "longitude": "-90.0616753962231"
    }
  },
  {
    "service_request": "2025-1245699",
    "request_type": "Trash/Recycling",
    "request_reason": "Repair Recycling Cart",
    "date_created": "2025-12-15T14:00:10.000",
    "date_modified": "2025-12-15T14:00:12.000",
    "request_status": "Pending",
    "responsible_agency": "Department of Sanitation",
    "final_address": "43 Kings Canyon Dr",
    "address_councildis": "C",
    "status": "Pending",
    "rowid": "1245699",
    "final_x": "3700408.75786",
    "final_y": "515716.1557",
    "longitude": "-90.00894044950074",
    "latitude": "29.911452934198373",
    "geocoded_column": {
      "latitude": "29.911452934198373",
      "longitude": "-90.00894044950074"
    }
  },
  {
    "service_request": "2025-1245698",
    "request_type": "Property Maintenance",
    "request_reason": "Property Maintenance",
    "date_created": "2025-12-15T13:59:20.000",
    "date_modified": "2025-12-15T13:59:21.000",
    "request_status": "Pending",
    "responsible_agency": "Department of Code Enforcement",
    "final_address": "3233 St Bernard Ave",
    "address_councildis": "D",
    "status": "Pending",
    "rowid": "1245698",
    "final_x": "3678880.94984",
    "final_y": "544486.859279",
    "longitude": "-90.0758910135286",
    "latitude": "29.991229346777356",
    "geocoded_column": {
      "latitude": "29.991229346777356",
      "longitude": "-90.0758910135286"
    }
  },
  {
    "service_request": "2025-1245697",
    "request_type": "Trash/Recycling",
    "request_reason": "Repair Trash Cart",
    "date_created": "2025-12-15T13:57:54.000",
    "date_modified": "2025-12-15T15:01:21.000",
    "request_status": "Pending",
    "responsible_agency": "Department of Sanitation",
    "final_address": "2002 Shalett St",
    "address_councildis": "C",
    "status": "Assigned to Contractor",
    "contractor": "Richards Disposal",
    "rowid": "1245697",
    "final_x": "3694280.60893",
    "final_y": "523153.823035",
    "longitude": "-90.02801488730535",
    "latitude": "29.932097348167794",
    "geocoded_column": {
      "latitude": "29.932097348167794",
      "longitude": "-90.02801488730535"
    }
  },
  {
    "service_request": "2025-1245696",
    "request_type": "Trash/Recycling",
    "request_reason": "Request a Large Item Pick Up",
    "date_created": "2025-12-15T13:56:18.000",
    "date_modified": "2025-12-15T13:56:19.000",
    "request_status": "Pending",
    "responsible_agency": "Department of Sanitation",
    "final_address": "1224 N Gayoso St",
    "address_councildis": "A",
    "status": "Assigned to Contractor",
    "contractor": "IV Waste",
    "rowid": "1245696",
    "final_x": "3676784.4203",
    "final_y": "539527.566794",
    "longitude": "-90.08268445665007",
    "latitude": "29.977656106746615",
    "geocoded_column": {
      "latitude": "29.977656106746615",
      "longitude": "-90.08268445665007"
    }
  },
  {
    "service_request": "2025-1245695",
    "request_type": "Abandoned Vehicles",
    "request_reason": "Abandoned/Junk Vehicles",
    "date_created": "2025-12-15T13:55:10.000",
    "date_modified": "2025-12-15T13:55:12.000",
    "request_status": "Pending",
    "responsible_agency": "Department of Public Works",
    "final_address": "7811 St Charles Ave",
    "address_councildis": "A",
    "status": "Pending",
    "rowid": "1245695",
    "final_x": "3661369.38669",
    "final_y": "526185.045118",
    "longitude": "-90.13181253396668",
    "latitude": "29.941422125431757",
    "geocoded_column": {
      "latitude": "29.941422125431757",
      "longitude": "-90.13181253396668"
    }
  },
  {
    "service_request": "2025-1245694",
    "request_type": "Trash/Recycling",
    "request_reason": "Request a Large Item Pick Up",
    "date_created": "2025-12-15T13:41:39.000",
    "date_modified": "2025-12-15T13:41:42.000",
    "request_status": "Pending",
    "responsible_agency": "Department of Sanitation",
    "final_address": "5351 Carlisle Ct",
    "address_councildis": "C",
    "status": "Assigned to Contractor",
    "contractor": "IV Waste",
    "rowid": "1245694",
    "final_x": "3703676.42193",
    "final_y": "516527.345845",
    "longitude": "-89.99859714952036",
    "latitude": "29.913579173884372",
    "geocoded_column": {
      "latitude": "29.913579173884372",
      "longitude": "-89.99859714952036"
    }
  },
  {
    "service_request": "2025-1245693",
    "request_type": "Trash/Recycling",
    "request_reason": "MIssed Recycling Pick-Up",
    "date_created": "2025-12-15T13:39:08.000",
    "date_modified": "2025-12-15T13:39:10.000",
    "request_status": "Pending",
    "responsible_agency": "Department of Sanitation",
    "final_address": "717 St Maurice Ave",
    "address_councildis": "E",
    "status": "Assigned to Contractor",
    "contractor": "Waste Pro",
    "rowid": "1245693",
    "final_x": "3699356.2202",
    "final_y": "531884.845891",
    "longitude": "-90.01167387017749",
    "latitude": "29.955944642692252",
    "geocoded_column": {
      "latitude": "29.955944642692252",
      "longitude": "-90.01167387017749"
    }
  },
  {
    "service_request": "2025-1245692",
    "request_type": "Trash/Recycling",
    "request_reason": "Request a Large Item Pick Up",
    "date_created": "2025-12-15T13:30:44.000",
    "date_modified": "2025-12-15T13:30:46.000",
    "request_status": "Pending",
    "responsible_agency": "Department of Sanitation",
    "final_address": "6634 Lincoln Beach Blvd",
    "address_councildis": "E",
    "status": "Assigned to Contractor",
    "contractor": "Waste Pro",
    "rowid": "1245692",
    "final_x": "3697333.11767",
    "final_y": "560652.554526",
    "longitude": "-90.0170185625077",
    "latitude": "30.035109239421228",
    "geocoded_column": {
      "latitude": "30.035109239421228",
      "longitude": "-90.0170185625077"
    }
  },
  {
    "service_request": "2025-1245691",
    "request_type": "Trash/Recycling",
    "request_reason": "Request a Large Item Pick Up",
    "date_created": "2025-12-15T13:20:57.000",
    "date_modified": "2025-12-15T13:20:59.000",
    "request_status": "Pending",
    "responsible_agency": "Department of Sanitation",
    "final_address": "6616 Bellaire Dr",
    "address_councildis": "A",
    "status": "Assigned to Contractor",
    "contractor": "IV Waste",
    "rowid": "1245691",
    "final_x": "3664489.51303",
    "final_y": "552229.846038",
    "longitude": "-90.12109170797584",
    "latitude": "30.012946302779707",
    "geocoded_column": {
      "latitude": "30.012946302779707",
      "longitude": "-90.12109170797584"
    }
  },
  {
    "service_request": "2025-1245690",
    "request_type": "Trash/Recycling",
    "request_reason": "Request a Large Item Pick Up",
    "date_created": "2025-12-15T13:13:53.000",
    "date_modified": "2025-12-15T13:13:55.000",
    "request_status": "Pending",
    "responsible_agency": "Department of Sanitation",
    "final_address": "916 Race St",
    "address_councildis": "B",
    "status": "Assigned to Contractor",
    "contractor": "IV Waste",
    "rowid": "1245690",
    "final_x": "3680807.72751",
    "final_y": "523648.417147",
    "longitude": "-90.0705301955714",
    "latitude": "29.933872463329745",
    "geocoded_column": {
      "latitude": "29.933872463329745",
      "longitude": "-90.0705301955714"
    }
  },
  {
    "service_request": "2025-1245689",
    "request_type": "Trash/Recycling",
    "request_reason": "Repair Trash Cart",
    "date_created": "2025-12-15T13:12:21.000",
    "date_modified": "2025-12-15T13:12:23.000",
    "request_status": "Pending",
    "responsible_agency": "Department of Sanitation",
    "final_address": "32 Hawk St",
    "address_councildis": "D",
    "status": "Assigned to Contractor",
    "contractor": "IV Waste",
    "rowid": "1245689",
    "final_x": "3672486.36455",
    "final_y": "555720.977241",
    "longitude": "-90.0957067980446",
    "latitude": "30.022310615912698",
    "geocoded_column": {
      "latitude": "30.022310615912698",
      "longitude": "-90.0957067980446"
    }
  },
  {
    "service_request": "2025-1245688",
    "request_type": "Trash/Recycling",
    "request_reason": "Return Trash Cart",
    "date_created": "2025-12-15T13:09:44.000",
    "date_modified": "2025-12-15T15:03:32.000",
    "request_status": "Pending",
    "responsible_agency": "Department of Sanitation",
    "final_address": "1829 Valence St Apt B",
    "address_councildis": "B",
    "status": "Assigned to Contractor",
    "contractor": "IV Waste",
    "rowid": "1245688",
    "final_x": "3669716.26599",
    "final_y": "521745.170426",
    "longitude": "-90.10560992856688",
    "latitude": "29.928970594651155",
    "geocoded_column": {
      "latitude": "29.928970594651155",
      "longitude": "-90.10560992856688"
    }
  },
  {
    "service_request": "2025-1245687",
    "request_type": "Trash/Recycling",
    "request_reason": "Request a Large Item Pick Up",
    "date_created": "2025-12-15T13:08:11.000",
    "date_modified": "2025-12-15T13:08:12.000",
    "request_status": "Pending",
    "responsible_agency": "Department of Sanitation",
    "final_address": "2714 Chippewa St",
    "address_councildis": "B",
    "status": "Assigned to Contractor",
    "contractor": "IV Waste",
    "rowid": "1245687",
    "final_x": "3678050.2269",
    "final_y": "519627.263352",
    "longitude": "-90.07937443081596",
    "latitude": "29.922898875665258",
    "geocoded_column": {
      "latitude": "29.922898875665258",
      "longitude": "-90.07937443081596"
    }
  },
  {
    "service_request": "2025-1245686",
    "request_type": "Trash/Recycling",
    "request_reason": "Request a Large Item Pick Up",
    "date_created": "2025-12-15T13:03:59.000",
    "date_modified": "2025-12-15T13:04:01.000",
    "request_status": "Pending",
    "responsible_agency": "Department of Sanitation",
    "final_address": "2 Hawk St",
    "address_councildis": "D",
    "status": "Assigned to Contractor",
    "contractor": "IV Waste",
    "rowid": "1245686",
    "final_x": "3672111.76353",
    "final_y": "555663.102553",
    "longitude": "-90.09689242146538",
    "latitude": "30.02216260121542",
    "geocoded_column": {
      "latitude": "30.02216260121542",
      "longitude": "-90.09689242146538"
    }
  },
  {
    "service_request": "2025-1245685",
    "request_type": "Trash/Recycling",
    "request_reason": "Request a Large Item Pick Up",
    "date_created": "2025-12-15T13:03:21.000",
    "date_modified": "2025-12-15T13:03:23.000",
    "request_status": "Pending",
    "responsible_agency": "Department of Sanitation",
    "final_address": "6755 Louis Xiv St",
    "address_councildis": "A",
    "status": "Assigned to Contractor",
    "contractor": "IV Waste",
    "rowid": "1245685",
    "final_x": "3668644.36071",
    "final_y": "552499.952278",
    "longitude": "-90.10795547035129",
    "latitude": "30.013567481598137",
    "geocoded_column": {
      "latitude": "30.013567481598137",
      "longitude": "-90.10795547035129"
    }
  },
  {
    "service_request": "2025-1245684",
    "request_type": "Trash/Recycling",
    "request_reason": "Illegal Dumping",
    "date_created": "2025-12-15T13:02:46.000",
    "date_modified": "2025-12-15T13:02:48.000",
    "request_status": "Pending",
    "responsible_agency": "Department of Sanitation",
    "final_address": "1800 BLK N Roman St",
    "address_councildis": "D",
    "status": "Pending",
    "rowid": "1245684",
    "final_x": "3683123.51036",
    "final_y": "538745.245788",
    "longitude": "-90.06269087033081",
    "latitude": "29.97531322764924",
    "geocoded_column": {
      "latitude": "29.97531322764924",
      "longitude": "-90.06269087033081"
    }
  },
  {
    "service_request": "2025-1245683",
    "request_type": "Abandoned Vehicles",
    "request_reason": "Abandoned/Junk Vehicles",
    "date_created": "2025-12-15T13:00:16.000",
    "date_modified": "2025-12-15T13:00:21.000",
    "request_status": "Pending",
    "responsible_agency": "Department of Public Works",
    "final_address": "1644 Amelia St",
    "address_councildis": "B",
    "status": "Pending",
    "rowid": "1245683",
    "final_x": "3673020.92846",
    "final_y": "521476.188601",
    "longitude": "-90.09518692317081",
    "latitude": "29.928133206650998",
    "geocoded_column": {
      "latitude": "29.928133206650998",
      "longitude": "-90.09518692317081"
    }
  },
  {
    "service_request": "2025-1245682",
    "request_type": "Trash/Recycling",
    "request_reason": "Request a Large Item Pick Up",
    "date_created": "2025-12-15T12:58:59.000",
    "date_modified": "2025-12-15T15:20:44.000",
    "request_status": "Pending",
    "responsible_agency": "Department of Sanitation",
    "final_address": "79 S Wren St",
    "address_councildis": "D",
    "status": "Assigned to Contractor",
    "contractor": "IV Waste",
    "rowid": "1245682",
    "final_x": "3673042.46171",
    "final_y": "555727.497049",
    "longitude": "-90.09394944094153",
    "latitude": "30.0223120158236",
    "geocoded_column": {
      "latitude": "30.0223120158236",
      "longitude": "-90.09394944094153"
    }
  },
  {
    "service_request": "2025-1245681",
    "request_type": "Trash/Recycling",
    "request_reason": "Request a Large Item Pick Up",
    "date_created": "2025-12-15T12:53:28.000",
    "date_modified": "2025-12-15T12:53:30.000",
    "request_status": "Pending",
    "responsible_agency": "Department of Sanitation",
    "final_address": "310 S Scott St",
    "address_councildis": "A",
    "status": "Assigned to Contractor",
    "contractor": "IV Waste",
    "rowid": "1245681",
    "final_x": "3671253.20276",
    "final_y": "537075.164872",
    "longitude": "-90.10023732443071",
    "latitude": "29.971077671904176",
    "geocoded_column": {
      "latitude": "29.971077671904176",
      "longitude": "-90.10023732443071"
    }
  },
  {
    "service_request": "2025-1245680",
    "request_type": "Traffic Signals",
    "request_reason": "Traffic Signal Malfunctioning or Damaged",
    "date_created": "2025-12-15T12:53:09.000",
    "date_modified": "2025-12-15T12:53:10.000",
    "request_status": "Pending",
    "responsible_agency": "Department of Public Works",
    "final_address": "N MIRO ST & ST BERNARD AVE",
    "address_councildis": "D",
    "status": "Pending",
    "rowid": "1245680",
    "final_x": "3681139.6",
    "final_y": "539920.98",
    "longitude": "-90.06891560989456",
    "latitude": "29.978606431550983",
    "geocoded_column": {
      "latitude": "29.978606431550983",
      "longitude": "-90.06891560989456"
    }
  },
  {
    "service_request": "2025-1245679",
    "request_type": "Trash/Recycling",
    "request_reason": "Repair Trash Cart",
    "date_created": "2025-12-15T12:51:42.000",
    "date_modified": "2025-12-15T12:51:44.000",
    "request_status": "Pending",
    "responsible_agency": "Department of Sanitation",
    "final_address": "2530 Calhoun St",
    "address_councildis": "A",
    "status": "Assigned to Contractor",
    "contractor": "IV Waste",
    "rowid": "1245679",
    "final_x": "3666242.07418",
    "final_y": "526278.572478",
    "longitude": "-90.11642531566282",
    "latitude": "29.941537902565965",
    "geocoded_column": {
      "latitude": "29.941537902565965",
      "longitude": "-90.11642531566282"
    }
  },
  {
    "service_request": "2025-1245678",
    "request_type": "Trash/Recycling",
    "request_reason": "Request a Large Item Pick Up",
    "date_created": "2025-12-15T12:45:01.000",
    "date_modified": "2025-12-15T12:45:03.000",
    "request_status": "Pending",
    "responsible_agency": "Department of Sanitation",
    "final_address": "1020 Wilson Dr",
    "address_councildis": "A",
    "status": "Assigned to Contractor",
    "contractor": "IV Waste",
    "rowid": "1245678",
    "final_x": "3674466.1284",
    "final_y": "540613.270347",
    "longitude": "-90.08996921526396",
    "latitude": "29.980710791618765",
    "geocoded_column": {
      "latitude": "29.980710791618765",
      "longitude": "-90.08996921526396"
    }
  },
  {
    "service_request": "2025-1245677",
    "request_type": "Trash/Recycling",
    "request_reason": "Request a Large Item Pick Up",
    "date_created": "2025-12-15T12:42:36.000",
    "date_modified": "2025-12-15T12:42:37.000",
    "request_status": "Pending",
    "responsible_agency": "Department of Sanitation",
    "final_address": "4615 Painters St",
    "address_councildis": "D",
    "status": "Assigned to Contractor",
    "contractor": "IV Waste",
    "rowid": "1245677",
    "final_x": "3686356.42255",
    "final_y": "549761.84546",
    "longitude": "-90.0520914449711",
    "latitude": "30.005505970927153",
    "geocoded_column": {
      "latitude": "30.005505970927153",
      "longitude": "-90.0520914449711"
    }
  },
  {
    "service_request": "2025-1245676",
    "request_type": "Trash/Recycling",
    "request_reason": "Request a Large Item Pick Up",
    "date_created": "2025-12-15T12:38:11.000",
    "date_modified": "2025-12-15T12:38:13.000",
    "request_status": "Pending",
    "responsible_agency": "Department of Sanitation",
    "final_address": "1832 Harmony St",
    "address_councildis": "B",
    "status": "Assigned to Contractor",
    "contractor": "IV Waste",
    "rowid": "1245676",
    "final_x": "3674379.45832",
    "final_y": "522728.51577",
    "longitude": "-90.09085547744436",
    "latitude": "29.931536266806262",
    "geocoded_column": {
      "latitude": "29.931536266806262",
      "longitude": "-90.09085547744436"
    }
  },
  {
    "service_request": "2025-1245675",
    "request_type": "Trash/Recycling",
    "request_reason": "Request a Large Item Pick Up",
    "date_created": "2025-12-15T12:36:37.000",
    "date_modified": "2025-12-15T12:36:40.000",
    "request_status": "Pending",
    "responsible_agency": "Department of Sanitation",
    "final_address": "2361 Abundance St",
    "address_councildis": "D",
    "status": "Assigned to Contractor",
    "contractor": "IV Waste",
    "rowid": "1245675",
    "final_x": "3685705.36783",
    "final_y": "543829.077134",
    "longitude": "-90.05435747473769",
    "latitude": "29.989212991365694",
    "geocoded_column": {
      "latitude": "29.989212991365694",
      "longitude": "-90.05435747473769"
    }
  },
  {
    "service_request": "2025-1245674",
    "request_type": "Abandoned Vehicles",
    "request_reason": "Abandoned/Junk Vehicles",
    "date_created": "2025-12-15T12:34:25.000",
    "date_modified": "2025-12-15T12:34:26.000",
    "request_status": "Pending",
    "responsible_agency": "Department of Public Works",
    "final_address": "4238 St Charles Ave",
    "address_councildis": "B",
    "status": "Pending",
    "rowid": "1245674",
    "final_x": "3671334.07195",
    "final_y": "520822.535417",
    "longitude": "-90.10053416144487",
    "latitude": "29.92638588149361",
    "geocoded_column": {
      "latitude": "29.92638588149361",
      "longitude": "-90.10053416144487"
    }
  },
  {
    "service_request": "2025-1245673",
    "request_type": "Trash/Recycling",
    "request_reason": "Request a Large Item Pick Up",
    "date_created": "2025-12-15T12:33:46.000",
    "date_modified": "2025-12-15T12:33:49.000",
    "request_status": "Pending",
    "responsible_agency": "Department of Sanitation",
    "final_address": "7620 Hansbrough Ave",
    "address_councildis": "E",
    "status": "Assigned to Contractor",
    "contractor": "Waste Pro",
    "rowid": "1245673",
    "final_x": "3707578.44171",
    "final_y": "564487.094049",
    "longitude": "-89.98449933284098",
    "latitude": "30.0453251012345",
    "geocoded_column": {
      "latitude": "30.0453251012345",
      "longitude": "-89.98449933284098"
    }
  },
  {
    "service_request": "2025-1245672",
    "request_type": "Trash/Recycling",
    "request_reason": "Request a Large Item Pick Up",
    "date_created": "2025-12-15T12:27:54.000",
    "date_modified": "2025-12-15T12:27:56.000",
    "request_status": "Pending",
    "responsible_agency": "Department of Sanitation",
    "final_address": "9942 Morrison Rd",
    "address_councildis": "E",
    "status": "Assigned to Contractor",
    "contractor": "Waste Pro",
    "rowid": "1245672",
    "final_x": "3708481.37867",
    "final_y": "563253.320288",
    "longitude": "-89.98169163711995",
    "latitude": "30.041903459723144",
    "geocoded_column": {
      "latitude": "30.041903459723144",
      "longitude": "-89.98169163711995"
    }
  },
  {
    "service_request": "2025-1245671",
    "request_type": "Trash/Recycling",
    "request_reason": "Replace Trash Cart",
    "date_created": "2025-12-15T12:25:38.000",
    "date_modified": "2025-12-15T14:50:26.000",
    "request_status": "Pending",
    "responsible_agency": "Department of Sanitation",
    "final_address": "1252 Southlawn Blvd",
    "address_councildis": "C",
    "status": "Assigned to Contractor",
    "contractor": "Richards Disposal",
    "rowid": "1245671",
    "final_x": "3695235.22038",
    "final_y": "526793.782782",
    "longitude": "-90.02487007144022",
    "latitude": "29.942076049423783",
    "geocoded_column": {
      "latitude": "29.942076049423783",
      "longitude": "-90.02487007144022"
    }
  },
  {
    "service_request": "2025-1245670",
    "request_type": "Trash/Recycling",
    "request_reason": "Request a Large Item Pick Up",
    "date_created": "2025-12-15T12:22:18.000",
    "date_modified": "2025-12-15T12:22:19.000",
    "request_status": "Pending",
    "responsible_agency": "Department of Sanitation",
    "final_address": "6059 Dorothea St",
    "address_councildis": "D",
    "status": "Assigned to Contractor",
    "contractor": "Waste Pro",
    "rowid": "1245670",
    "final_x": "3695811.93962",
    "final_y": "557386.719515",
    "longitude": "-90.02194382182032",
    "latitude": "30.0261774040424",
    "geocoded_column": {
      "latitude": "30.0261774040424",
      "longitude": "-90.02194382182032"
    }
  },
  {
    "service_request": "2025-1245669",
    "request_type": "Trash/Recycling",
    "request_reason": "Repair Trash Cart",
    "date_created": "2025-12-15T12:10:35.000",
    "date_modified": "2025-12-15T12:10:36.000",
    "request_status": "Pending",
    "responsible_agency": "Department of Sanitation",
    "final_address": "430 First St",
    "address_councildis": "B",
    "status": "Assigned to Contractor",
    "contractor": "IV Waste",
    "rowid": "1245669",
    "final_x": "3679389.13538",
    "final_y": "519458.123703",
    "longitude": "-90.07515388322592",
    "latitude": "29.922393439278995",
    "geocoded_column": {
      "latitude": "29.922393439278995",
      "longitude": "-90.07515388322592"
    }
  },
  {
    "service_request": "2025-1245668",
    "request_type": "Trash/Recycling",
    "request_reason": "Request a Large Item Pick Up",
    "date_created": "2025-12-15T12:09:27.000",
    "date_modified": "2025-12-15T12:09:28.000",
    "request_status": "Pending",
    "responsible_agency": "Department of Sanitation",
    "final_address": "7835 Michigan St",
    "address_councildis": "E",
    "status": "Assigned to Contractor",
    "contractor": "Waste Pro",
    "rowid": "1245668",
    "final_x": "3711270.26168",
    "final_y": "567329.280996",
    "longitude": "-89.97272484704715",
    "latitude": "30.053019954498765",
    "geocoded_column": {
      "latitude": "30.053019954498765",
      "longitude": "-89.97272484704715"
    }
  },
  {
    "service_request": "2025-1245666",
    "request_type": "Parks & Parkways",
    "request_reason": "Request Tree Service (Right of Way/Public Property)",
    "date_created": "2025-12-15T12:09:22.000",
    "date_modified": "2025-12-15T12:09:24.000",
    "request_status": "Pending",
    "responsible_agency": "Department of Parks & Parkway",
    "final_address": "2068 Treasure St",
    "address_councildis": "D",
    "status": "Pending",
    "rowid": "1245666",
    "final_x": "3683529.54005",
    "final_y": "543935.530446",
    "longitude": "-90.06122653530261",
    "latitude": "29.989572299819738",
    "geocoded_column": {
      "latitude": "29.989572299819738",
      "longitude": "-90.06122653530261"
    }
  },
  {
    "service_request": "2025-1245667",
    "request_type": "Property Maintenance",
    "request_reason": "Property Maintenance",
    "date_created": "2025-12-15T12:09:22.000",
    "date_modified": "2025-12-15T12:09:24.000",
    "request_status": "Pending",
    "responsible_agency": "Department of Code Enforcement",
    "final_address": "4928 Cartier Ave",
    "address_councildis": "D",
    "status": "Pending",
    "rowid": "1245667",
    "final_x": "3677673.11438",
    "final_y": "550467.417812",
    "longitude": "-90.07949957400453",
    "latitude": "30.007710158796847",
    "geocoded_column": {
      "latitude": "30.007710158796847",
      "longitude": "-90.07949957400453"
    }
  },
  {
    "service_request": "2025-1245665",
    "request_type": "Trash/Recycling",
    "request_reason": "Order Recycling Cart",
    "date_created": "2025-12-15T12:06:49.000",
    "date_modified": "2025-12-15T12:06:50.000",
    "request_status": "Pending",
    "responsible_agency": "Department of Sanitation",
    "final_address": "1621 Audubon St",
    "address_councildis": "A",
    "status": "Pending",
    "rowid": "1245665",
    "final_x": "3665337.71994",
    "final_y": "527624.635967",
    "longitude": "-90.11923552356963",
    "latitude": "29.945265522800355",
    "geocoded_column": {
      "latitude": "29.945265522800355",
      "longitude": "-90.11923552356963"
    }
  },
  {
    "service_request": "2025-1245664",
    "request_type": "Trash/Recycling",
    "request_reason": "Repair Trash Cart",
    "date_created": "2025-12-15T12:06:35.000",
    "date_modified": "2025-12-15T12:06:38.000",
    "request_status": "Pending",
    "responsible_agency": "Department of Sanitation",
    "final_address": "3301 Frenchmen St",
    "address_councildis": "D",
    "status": "Assigned to Contractor",
    "contractor": "IV Waste",
    "rowid": "1245664",
    "final_x": "3683950.16143",
    "final_y": "544787.080399",
    "longitude": "-90.05986801870907",
    "latitude": "29.991900912959977",
    "geocoded_column": {
      "latitude": "29.991900912959977",
      "longitude": "-90.05986801870907"
    }
  },
  {
    "service_request": "2025-1245663",
    "request_type": "Drainage",
    "request_reason": "Catch Basin Frame and Cover Missing or Damaged",
    "date_created": "2025-12-15T12:05:18.000",
    "date_modified": "2025-12-15T12:05:19.000",
    "request_status": "Pending",
    "responsible_agency": "Sewerage & Water Board",
    "final_address": "8401 Pritchard Pl",
    "address_councildis": "A",
    "status": "Pending",
    "rowid": "1245663",
    "final_x": "3665267.44999",
    "final_y": "533659.927109",
    "longitude": "-90.11925548756278",
    "latitude": "29.961862658802644",
    "geocoded_column": {
      "latitude": "29.961862658802644",
      "longitude": "-90.11925548756278"
    }
  },
  {
    "service_request": "2025-1245662",
    "request_type": "Trash/Recycling",
    "request_reason": "Request a Large Item Pick Up",
    "date_created": "2025-12-15T12:02:42.000",
    "date_modified": "2025-12-15T12:02:44.000",
    "request_status": "Pending",
    "responsible_agency": "Department of Sanitation",
    "final_address": "4452 Cessna Ct",
    "address_councildis": "D",
    "status": "Assigned to Contractor",
    "contractor": "Waste Pro",
    "rowid": "1245662",
    "final_x": "3696542.70551",
    "final_y": "552688.555094",
    "longitude": "-90.0198048849489",
    "latitude": "30.013236212390012",
    "geocoded_column": {
      "latitude": "30.013236212390012",
      "longitude": "-90.0198048849489"
    }
  },
  {
    "service_request": "2025-1245661",
    "request_type": "Trash/Recycling",
    "request_reason": "Illegal Dumping",
    "date_created": "2025-12-15T11:59:35.000",
    "date_modified": "2025-12-15T11:59:36.000",
    "request_status": "Pending",
    "responsible_agency": "Department of Sanitation",
    "final_address": "6801 Mayo Rd",
    "address_councildis": "E",
    "status": "Pending",
    "rowid": "1245661",
    "final_x": "3702182.34026",
    "final_y": "557172.671771",
    "longitude": "-90.00182213699544",
    "latitude": "30.025386847267303",
    "geocoded_column": {
      "latitude": "30.025386847267303",
      "longitude": "-90.00182213699544"
    }
  },
  {
    "service_request": "2025-1245660",
    "request_type": "Trash/Recycling",
    "request_reason": "Missed Trash Pick-Up",
    "date_created": "2025-12-15T11:55:03.000",
    "date_modified": "2025-12-15T11:55:05.000",
    "request_status": "Pending",
    "responsible_agency": "Department of Sanitation",
    "final_address": "7681 Morel St",
    "address_councildis": "E",
    "status": "Assigned to Contractor",
    "contractor": "Waste Pro",
    "rowid": "1245660",
    "final_x": "3718626.12626",
    "final_y": "572179.197673",
    "longitude": "-89.94929008734655",
    "latitude": "30.066112988220663",
    "geocoded_column": {
      "latitude": "30.066112988220663",
      "longitude": "-89.94929008734655"
    }
  },
  {
    "service_request": "2025-1245659",
    "request_type": "Trash/Recycling",
    "request_reason": "Repair Trash Cart",
    "date_created": "2025-12-15T11:53:38.000",
    "date_modified": "2025-12-15T11:53:39.000",
    "request_status": "Pending",
    "responsible_agency": "Department of Sanitation",
    "final_address": "1361 Moss St",
    "address_councildis": "A",
    "status": "Assigned to Contractor",
    "contractor": "IV Waste",
    "rowid": "1245659",
    "final_x": "3674575.60948",
    "final_y": "540707.513739",
    "longitude": "-90.08962019471527",
    "latitude": "29.98096666157201",
    "geocoded_column": {
      "latitude": "29.98096666157201",
      "longitude": "-90.08962019471527"
    }
  },
  {
    "service_request": "2025-1245658",
    "request_type": "Trash/Recycling",
    "request_reason": "Request a Large Item Pick Up",
    "date_created": "2025-12-15T11:51:37.000",
    "date_modified": "2025-12-15T11:51:39.000",
    "request_status": "Pending",
    "responsible_agency": "Department of Sanitation",
    "final_address": "7736 Keats St",
    "address_councildis": "E",
    "status": "Assigned to Contractor",
    "contractor": "Waste Pro",
    "rowid": "1245658",
    "final_x": "3696090.21872",
    "final_y": "559470.083549",
    "longitude": "-90.02098910068682",
    "latitude": "30.03189709923643",
    "geocoded_column": {
      "latitude": "30.03189709923643",
      "longitude": "-90.02098910068682"
    }
  },
  {
    "service_request": "2025-1245657",
    "request_type": "Trash/Recycling",
    "request_reason": "Request a Large Item Pick Up",
    "date_created": "2025-12-15T11:49:10.000",
    "date_modified": "2025-12-15T11:49:12.000",
    "request_status": "Pending",
    "responsible_agency": "Department of Sanitation",
    "final_address": "1514 Poland Ave",
    "address_councildis": "D",
    "status": "Assigned to Contractor",
    "contractor": "IV Waste",
    "rowid": "1245657",
    "final_x": "3693381.87677",
    "final_y": "536629.449031",
    "longitude": "-90.03036833577038",
    "latitude": "29.969178759585933",
    "geocoded_column": {
      "latitude": "29.969178759585933",
      "longitude": "-90.03036833577038"
    }
  },
  {
    "service_request": "2025-1245656",
    "request_type": "Trash/Recycling",
    "request_reason": "Repair Trash Cart",
    "date_created": "2025-12-15T11:48:24.000",
    "date_modified": "2025-12-15T11:48:26.000",
    "request_status": "Pending",
    "responsible_agency": "Department of Sanitation",
    "final_address": "3302 Grand-Route St John St",
    "address_councildis": "A",
    "status": "Assigned to Contractor",
    "contractor": "IV Waste",
    "rowid": "1245656",
    "final_x": "3675744.43137",
    "final_y": "540292.957515",
    "longitude": "-90.08594278394419",
    "latitude": "29.979791839135352",
    "geocoded_column": {
      "latitude": "29.979791839135352",
      "longitude": "-90.08594278394419"
    }
  },
  {
    "service_request": "2025-1245655",
    "request_type": "Trash/Recycling",
    "request_reason": "Request a Large Item Pick Up",
    "date_created": "2025-12-15T11:45:50.000",
    "date_modified": "2025-12-15T11:47:15.000",
    "request_status": "Pending",
    "responsible_agency": "Department of Sanitation",
    "final_address": "2609 Frenchmen St",
    "address_councildis": "D",
    "status": "Assigned to Contractor",
    "contractor": "IV Waste",
    "rowid": "1245655",
    "final_x": "3684166.79017",
    "final_y": "541902.624268",
    "longitude": "-90.05928504320632",
    "latitude": "29.98396305851507",
    "geocoded_column": {
      "latitude": "29.98396305851507",
      "longitude": "-90.05928504320632"
    }
  },
  {
    "service_request": "2025-1245654",
    "request_type": "Trash/Recycling",
    "request_reason": "Repair Trash Cart",
    "date_created": "2025-12-15T11:45:24.000",
    "date_modified": "2025-12-15T11:45:26.000",
    "request_status": "Pending",
    "responsible_agency": "Department of Sanitation",
    "final_address": "1908 Brutus St",
    "address_councildis": "D",
    "status": "Assigned to Contractor",
    "contractor": "IV Waste",
    "rowid": "1245654",
    "final_x": "3681745.71324",
    "final_y": "550093.057556",
    "longitude": "-90.06664612573265",
    "latitude": "30.006557638255906",
    "geocoded_column": {
      "latitude": "30.006557638255906",
      "longitude": "-90.06664612573265"
    }
  },
  {
    "service_request": "2025-1245653",
    "request_type": "Trash/Recycling",
    "request_reason": "Request a Large Item Pick Up",
    "date_created": "2025-12-15T11:45:05.000",
    "date_modified": "2025-12-15T11:45:07.000",
    "request_status": "Pending",
    "responsible_agency": "Department of Sanitation",
    "final_address": "1000 Lowerline St",
    "address_councildis": "A",
    "status": "Assigned to Contractor",
    "contractor": "IV Waste",
    "rowid": "1245653",
    "final_x": "3663274.68762",
    "final_y": "526288.52915",
    "longitude": "-90.1257936565094",
    "latitude": "29.941651600673485",
    "geocoded_column": {
      "latitude": "29.941651600673485",
      "longitude": "-90.1257936565094"
    }
  },
  {
    "service_request": "2025-1245652",
    "request_type": "Streetlights",
    "request_reason": "Streetlight Outage/Malfunction",
    "date_created": "2025-12-15T11:42:59.000",
    "date_modified": "2025-12-15T11:43:01.000",
    "request_status": "Pending",
    "responsible_agency": "Department of Public Works",
    "final_address": "4627 Lancelot Dr",
    "address_councildis": "E",
    "status": "Pending",
    "rowid": "1245652",
    "final_x": "3707606.11307",
    "final_y": "554657.221976",
    "longitude": "-89.98477751145343",
    "latitude": "30.018295924388337",
    "geocoded_column": {
      "latitude": "30.018295924388337",
      "longitude": "-89.98477751145343"
    }
  },