[
  {
    "service_request": "2024-1081050",
    "request_type": "Roads/Drainage",
    "request_reason": "Pothole",
    "date_created": "2024-04-02T23:15:33.000",
    "date_modified": "2024-04-02T23:15:33.000",
    "request_status": "Pending",
    "responsible_agency": "Department of Public Works",
    "final_address": "4200 Perrier St",
    "address_councildis": "B",
    "status": "Pending",
    "rowid": "1081050",
    "final_x": "3671579.76411",
    "final_y": "520095.16844",
    "longitude": "-90.09978329705561",
    "latitude": "29.924378584144126",
    "geocoded_column": {
      "latitude": "29.924378584144126",
      "longitude": "-90.09978329705561"
    }
  },
  {
    "service_request": "2024-1081049",
    "request_type": "Trash/Recycling",
    "request_reason": "Request a Large Item Pick Up",
    "date_created": "2024-04-02T22:45:25.000",
    "date_modified": "2024-04-02T22:45:26.000",
    "request_status": "Pending",
    "responsible_agency": "Department of Sanitation",
    "final_address": "4744 Cardenas Dr",
    "address_councildis": "E",
    "status": "Assigned to Contractor",
    "rowid": "1081049",
    "final_x": "3713611.42341",
    "final_y": "556371.594778",
    "longitude": "-89.9657385190626",
    "latitude": "30.02281407098994",
    "geocoded_column": {
      "latitude": "30.02281407098994",
      "longitude": "-89.9657385190626"
    }
  },
  {
    "service_request": "2024-1081048",
    "request_type": "Roads/Drainage",
    "request_reason": "Man hole cover issue",
    "date_created": "2024-04-02T22:38:15.000",
    "date_modified": "2024-04-02T22:38:15.000",
    "request_status": "Pending",
    "responsible_agency": "Department of Public Works",
    "final_address": "400 BLK Saint Philip St",
    "address_councildis": "C",
    "status": "Pending",
    "rowid": "1081048",
    "final_x": "3683666.22548",
    "final_y": "532994.297972",
    "longitude": "-90.06117848596988",
    "latitude": "29.9594835489567",
    "geocoded_column": {
      "latitude": "29.9594835489567",
      "longitude": "-90.06117848596988"
    }
  },
  {
    "service_request": "2024-1081047",
    "request_type": "Mosquito, Termite & Rodent Control",
    "request_reason": "Mosquito Complaint",
    "date_created": "2024-04-02T22:37:23.000",
    "date_modified": "2024-04-02T22:37:23.000",
    "request_status": "Pending",
    "responsible_agency": "Mosquito, Termite & Rodent Control Board",
    "final_address": "2448 Lake Oaks Prkwy",
    "address_councildis": "D",
    "status": "Pending",
    "rowid": "1081047",
    "final_x": "3684930.61993",
    "final_y": "558422.48022",
    "longitude": "-90.0562909279451",
    "latitude": "30.029363295135287",
    "geocoded_column": {
      "latitude": "30.029363295135287",
      "longitude": "-90.0562909279451"
    }
  },
  {
    "service_request": "2024-1081046",
    "request_type": "Traffic Signals/Signs/Striping/Streetlights",
    "request_reason": "Street Light Outage/Malfunction",
    "date_created": "2024-04-02T22:16:02.000",
    "date_modified": "2024-04-02T22:16:03.000",
    "request_status": "Pending",
    "responsible_agency": "Department of Public Works",
    "final_address": "GENERAL MEYER AVE & WOODLAND DR & WOODLAND PL",
    "address_councildis": "C",
    "status": "Assigned to Contractor",
    "contractor": "Legacy Professional Services",
    "rowid": "1081046",
    "final_x": "3705605.3",
    "final_y": "521490.58",
    "longitude": "-89.99232571732016",
    "latitude": "29.92716442391466",
    "geocoded_column": {
      "latitude": "29.92716442391466",
      "longitude": "-89.99232571732016"
    }
  },
  {
    "service_request": "2024-1081044",
    "request_type": "Trash/Recycling",
    "request_reason": "Request a Large Item Pick Up",
    "date_created": "2024-04-02T21:21:16.000",
    "date_modified": "2024-04-02T21:21:17.000",
    "request_status": "Pending",
    "responsible_agency": "Department of Sanitation",
    "final_address": "2337 Annunciation St",
    "address_councildis": "B",
    "status": "Assigned to Contractor",
    "contractor": "IV Waste",
    "rowid": "1081044",
    "final_x": "3678948.29666",
    "final_y": "520802.683961",
    "longitude": "-90.07649887813808",
    "latitude": "29.926103845163027",
    "geocoded_column": {
      "latitude": "29.926103845163027",
      "longitude": "-90.07649887813808"
    }
  },
  {
    "service_request": "2024-1081043",
    "request_type": "Trash/Recycling",
    "request_reason": "Missed Trash Pick-Up",
    "date_created": "2024-04-02T20:39:16.000",
    "date_modified": "2024-04-02T20:39:17.000",
    "request_status": "Pending",
    "responsible_agency": "Department of Sanitation",
    "final_address": "9037 Green St",
    "address_councildis": "A",
    "status": "Assigned to Contractor",
    "contractor": "IV Waste",
    "rowid": "1081043",
    "final_x": "3660614.4905",
    "final_y": "532039.712067",
    "longitude": "-90.13400242875093",
    "latitude": "29.957542331551803",
    "geocoded_column": {
      "latitude": "29.957542331551803",
      "longitude": "-90.13400242875093"
    }
  },
  {
    "service_request": "2024-1081042",
    "request_type": "Trash/Recycling",
    "request_reason": "Request a Large Item Pick Up",
    "date_created": "2024-04-02T20:36:36.000",
    "date_modified": "2024-04-02T20:36:36.000",
    "request_status": "Pending",
    "responsible_agency": "Department of Sanitation",
    "final_address": "4634 Toulouse St",
    "address_councildis": "A",
    "status": "Assigned to Contractor",
    "contractor": "IV Waste",
    "rowid": "1081042",
    "final_x": "3670270.66215",
    "final_y": "541157.783372",
    "longitude": "-90.10320190722202",
    "latitude": "29.982332529519535",
    "geocoded_column": {
      "latitude": "29.982332529519535",
      "longitude": "-90.10320190722202"
    }
  },
  {
    "service_request": "2024-1081041",
    "request_type": "Trash/Recycling",
    "request_reason": "Replace Trash Cart",
    "date_created": "2024-04-02T20:07:22.000",
    "date_modified": "2024-04-02T20:07:22.000",
    "request_status": "Pending",
    "responsible_agency": "Department of Sanitation",
    "final_address": "3219 De Soto St",
    "address_councildis": "A",
    "status": "Assigned to Contractor",
    "contractor": "IV Waste",
    "rowid": "1081041",
    "final_x": "3675880.23701",
    "final_y": "540064.189323",
    "longitude": "-90.0855217222257",
    "latitude": "29.97915873944059",
    "geocoded_column": {
      "latitude": "29.97915873944059",
      "longitude": "-90.0855217222257"
    }
  },
  {
    "service_request": "2024-1081039",
    "request_type": "Trash/Recycling",
    "request_reason": "MIssed Recycling Pick-Up",
    "date_created": "2024-04-02T20:03:59.000",
    "date_modified": "2024-04-02T20:03:59.000",
    "request_status": "Pending",
    "responsible_agency": "Department of Sanitation",
    "final_address": "3729 Baudin St",
    "address_councildis": "B",
    "status": "Assigned to Contractor",
    "contractor": "IV Waste",
    "rowid": "1081039",
    "final_x": "3671180.62183",
    "final_y": "536310.323783",
    "longitude": "-90.10049253392934",
    "latitude": "29.96897676356218",
    "geocoded_column": {
      "latitude": "29.96897676356218",
      "longitude": "-90.10049253392934"
    }
  },
  {
    "service_request": "2024-1081038",
    "request_type": "Property Maintenance",
    "request_reason": "Property Maintenance",
    "date_created": "2024-04-02T20:02:29.000",
    "date_modified": "2024-04-02T20:02:29.000",
    "request_status": "Pending",
    "responsible_agency": "Department of Code Enforcement",
    "final_address": "2231 Baronne St",
    "address_councildis": "B",
    "status": "Pending",
    "rowid": "1081038",
    "final_x": "3676762.32059",
    "final_y": "524360.768892",
    "longitude": "-90.08327684207367",
    "latitude": "29.93595316729669",
    "geocoded_column": {
      "latitude": "29.93595316729669",
      "longitude": "-90.08327684207367"
    }
  },
  {
    "service_request": "2024-1081037",
    "request_type": "Trash/Recycling",
    "request_reason": "Order Recycling Cart",
    "date_created": "2024-04-02T20:00:35.000",
    "date_modified": "2024-04-02T20:00:35.000",
    "request_status": "Pending",
    "responsible_agency": "Department of Sanitation",
    "final_address": "2619 St Thomas St",
    "address_councildis": "B",
    "status": "Pending",
    "rowid": "1081037",
    "final_x": "3678390.75522",
    "final_y": "519558.592184",
    "longitude": "-90.07830189009151",
    "latitude": "29.922699800909108",
    "geocoded_column": {
      "latitude": "29.922699800909108",
      "longitude": "-90.07830189009151"
    }
  },
  {
    "service_request": "2024-1081036",
    "request_type": "Trash/Recycling",
    "request_reason": "Order Trash Cart",
    "date_created": "2024-04-02T19:59:20.000",
    "date_modified": "2024-04-02T19:59:20.000",
    "request_status": "Pending",
    "responsible_agency": "Department of Sanitation",
    "final_address": "2619 St Thomas St",
    "address_councildis": "B",
    "status": "Assigned to Contractor",
    "contractor": "IV Waste",
    "rowid": "1081036",
    "final_x": "3678390.75522",
    "final_y": "519558.592184",
    "longitude": "-90.07830189009151",
    "latitude": "29.922699800909108",
    "geocoded_column": {
      "latitude": "29.922699800909108",
      "longitude": "-90.07830189009151"
    }
  },
  {
    "service_request": "2024-1081033",
    "request_type": "Traffic Signals/Signs/Striping/Streetlights",
    "request_reason": "Street Light Outage/Malfunction",
    "date_created": "2024-04-02T19:45:25.000",
    "date_modified": "2024-04-02T19:45:26.000",
    "request_status": "Pending",
    "responsible_agency": "Department of Public Works",
    "final_address": "REPUBLIC ST & INDUSTRY ST",
    "address_councildis": "D",
    "status": "Assigned to Contractor",
    "contractor": "Legacy Professional Services",
    "rowid": "1081033",
    "final_x": "3680695.2",
    "final_y": "542636.88",
    "longitude": "-90.07022463250898",
    "latitude": "29.98608768518892",
    "geocoded_column": {
      "latitude": "29.98608768518892",
      "longitude": "-90.07022463250898"
    }
  },
  {
    "service_request": "2024-1081032",
    "request_type": "Roads/Drainage",
    "request_reason": "Street Flooding / Drainage",
    "date_created": "2024-04-02T19:39:00.000",
    "date_modified": "2024-04-02T19:39:00.000",
    "request_status": "Pending",
    "responsible_agency": "Department of Public Works",
    "final_address": "4610 Orleans Ave",
    "address_councildis": "A",
    "status": "Pending",
    "rowid": "1081032",
    "final_x": "3670697.16481",
    "final_y": "541504.044556",
    "longitude": "-90.10184304558328",
    "latitude": "29.98327203278501",
    "geocoded_column": {
      "latitude": "29.98327203278501",
      "longitude": "-90.10184304558328"
    }
  },
  {
    "service_request": "2024-1081031",
    "request_type": "Trash/Recycling",
    "request_reason": "Request a Large Item Pick Up",
    "date_created": "2024-04-02T19:34:48.000",
    "date_modified": "2024-04-02T19:34:49.000",
    "request_status": "Pending",
    "responsible_agency": "Department of Sanitation",
    "final_address": "2515 Milan St",
    "address_councildis": "B",
    "status": "Assigned to Contractor",
    "contractor": "IV Waste",
    "rowid": "1081031",
    "final_x": "3671317.80635",
    "final_y": "524250.24582",
    "longitude": "-90.10046908645111",
    "latitude": "29.93581146401201",
    "geocoded_column": {
      "latitude": "29.93581146401201",
      "longitude": "-90.10046908645111"
    }
  },
  {
    "service_request": "2024-1081030",
    "request_type": "Property Maintenance",
    "request_reason": "Property Maintenance",
    "date_created": "2024-04-02T19:33:03.000",
    "date_modified": "2024-04-02T19:33:03.000",
    "request_status": "Pending",
    "responsible_agency": "Department of Code Enforcement",
    "final_address": "5998 Bullard Ave",
    "address_councildis": "E",
    "status": "Pending",
    "rowid": "1081030",
    "final_x": "3715583.42021",
    "final_y": "563755.698913",
    "longitude": "-89.95922773196618",
    "latitude": "30.043052532258418",
    "geocoded_column": {
      "latitude": "30.043052532258418",
      "longitude": "-89.95922773196618"
    }
  },
  {
    "service_request": "2024-1081029",
    "request_type": "Trash/Recycling",
    "request_reason": "Request a Large Item Pick Up",
    "date_created": "2024-04-02T19:32:48.000",
    "date_modified": "2024-04-02T19:32:49.000",
    "request_status": "Pending",
    "responsible_agency": "Department of Sanitation",
    "final_address": "2729 Short St",
    "address_councildis": "A",
    "status": "Assigned to Contractor",
    "contractor": "IV Waste",
    "rowid": "1081029",
    "final_x": "3666116.99277",
    "final_y": "532196.167811",
    "longitude": "-90.11662183795845",
    "latitude": "29.957813022992926",
    "geocoded_column": {
      "latitude": "29.957813022992926",
      "longitude": "-90.11662183795845"
    }
  },
  {
    "service_request": "2024-1081028",
    "request_type": "Property Maintenance",
    "request_reason": "Property Maintenance",
    "date_created": "2024-04-02T19:29:20.000",
    "date_modified": "2024-04-02T19:29:20.000",
    "request_status": "Pending",
    "responsible_agency": "Department of Code Enforcement",
    "final_address": "11958 Hayne Blvd",
    "address_councildis": "E",
    "status": "Pending",
    "rowid": "1081028",
    "final_x": "3712326.16901",
    "final_y": "568853.843685",
    "longitude": "-89.9693300836147",
    "latitude": "30.057177362032537",
    "geocoded_column": {
      "latitude": "30.057177362032537",
      "longitude": "-89.9693300836147"
    }
  },
  {
    "service_request": "2024-1081027",
    "request_type": "Traffic Signals/Signs/Striping/Streetlights",
    "request_reason": "Street Light Outage/Malfunction",
    "date_created": "2024-04-02T19:25:29.000",
    "date_modified": "2024-04-02T19:25:30.000",
    "request_status": "Pending",
    "responsible_agency": "Department of Public Works",
    "final_address": "5828 S Miro St",
    "address_councildis": "A",
    "status": "Assigned to Contractor",
    "contractor": "Legacy Professional Services",
    "rowid": "1081027",
    "final_x": "3667697.77754",
    "final_y": "527847.965439",
    "longitude": "-90.11177653264801",
    "latitude": "29.94581063599555",
    "geocoded_column": {
      "latitude": "29.94581063599555",
      "longitude": "-90.11177653264801"
    }
  },
  {
    "service_request": "2024-1081026",
    "request_type": "Property Maintenance",
    "request_reason": "Property Maintenance",
    "date_created": "2024-04-02T19:24:26.000",
    "date_modified": "2024-04-02T19:24:26.000",
    "request_status": "Pending",
    "responsible_agency": "Department of Code Enforcement",
    "final_address": "13499 Morrison Rd",
    "address_councildis": "E",
    "status": "Pending",
    "rowid": "1081026",
    "final_x": "3716935.10866",
    "final_y": "569439.455846",
    "longitude": "-89.95473977244595",
    "latitude": "30.0586358913449",
    "geocoded_column": {
      "latitude": "30.0586358913449",
      "longitude": "-89.95473977244595"
    }
  },
  {
    "service_request": "2024-1081025",
    "request_type": "Property Maintenance",
    "request_reason": "Property Maintenance",
    "date_created": "2024-04-02T19:22:12.000",
    "date_modified": "2024-04-02T19:22:12.000",
    "request_status": "Pending",
    "responsible_agency": "Department of Code Enforcement",
    "final_address": "13200 Curran Rd",
    "address_councildis": "E",
    "status": "Pending",
    "rowid": "1081025",
    "final_x": "3716040.56626",
    "final_y": "569933.30231",
    "longitude": "-89.95754856199753",
    "latitude": "30.060023327151576",
    "geocoded_column": {
      "latitude": "30.060023327151576",
      "longitude": "-89.95754856199753"
    }
  },
  {
    "service_request": "2024-1081024",
    "request_type": "Trash/Recycling",
    "request_reason": "Request a Large Item Pick Up",
    "date_created": "2024-04-02T19:21:23.000",
    "date_modified": "2024-04-02T19:21:24.000",
    "request_status": "Pending",
    "responsible_agency": "Department of Sanitation",
    "final_address": "1617 Patterson St",
    "address_councildis": "C",
    "status": "Assigned to Contractor",
    "contractor": "Richards Disposal",
    "rowid": "1081024",
    "final_x": "3690489.74435",
    "final_y": "530926.226178",
    "longitude": "-90.03970521146455",
    "latitude": "29.95358699853307",
    "geocoded_column": {
      "latitude": "29.95358699853307",
      "longitude": "-90.03970521146455"
    }
  },
  {
    "service_request": "2024-1081023",
    "request_type": "Trash/Recycling",
    "request_reason": "Request a Large Item Pick Up",
    "date_created": "2024-04-02T19:19:56.000",
    "date_modified": "2024-04-02T19:19:57.000",
    "request_status": "Pending",
    "responsible_agency": "Department of Sanitation",
    "final_address": "6930 Martin Dr",
    "address_councildis": "E",
    "status": "Assigned to Contractor",
    "rowid": "1081023",
    "final_x": "3699030.9153",
    "final_y": "557926.290267",
    "longitude": "-90.01175264948685",
    "latitude": "30.027559326171158",
    "geocoded_column": {
      "latitude": "30.027559326171158",
      "longitude": "-90.01175264948685"
    }
  },
  {
    "service_request": "2024-1081022",
    "request_type": "Property Maintenance",
    "request_reason": "Property Maintenance",
    "date_created": "2024-04-02T19:18:17.000",
    "date_modified": "2024-04-02T19:18:17.000",
    "request_status": "Pending",
    "responsible_agency": "Department of Code Enforcement",
    "final_address": "6600 Morrison Rd",
    "address_councildis": "E",
    "status": "Pending",
    "rowid": "1081022",
    "final_x": "3698428.45098",
    "final_y": "558152.841243",
    "longitude": "-90.0136481332858",
    "latitude": "30.02820134692633",
    "geocoded_column": {
      "latitude": "30.02820134692633",
      "longitude": "-90.0136481332858"
    }
  },
  {
    "service_request": "2024-1081021",
    "request_type": "Traffic Signals/Signs/Striping/Streetlights",
    "request_reason": "Street Light Outage/Malfunction",
    "date_created": "2024-04-02T19:11:28.000",
    "date_modified": "2024-04-02T19:11:29.000",
    "request_status": "Pending",
    "responsible_agency": "Department of Public Works",
    "final_address": "3210 Vincennes Pl",
    "address_councildis": "A",
    "status": "Assigned to Contractor",
    "contractor": "Legacy Professional Services",
    "rowid": "1081021",
    "final_x": "3667750.39162",
    "final_y": "527960.293951",
    "longitude": "-90.11160663041233",
    "latitude": "29.946117960575016",
    "geocoded_column": {
      "latitude": "29.946117960575016",
      "longitude": "-90.11160663041233"
    }
  },
  {
    "service_request": "2024-1081020",
    "request_type": "Trash/Recycling",
    "request_reason": "Replace Trash Cart",
    "date_created": "2024-04-02T19:09:47.000",
    "date_modified": "2024-04-02T19:09:48.000",
    "request_status": "Pending",
    "responsible_agency": "Department of Sanitation",
    "final_address": "1820 Hillary St",
    "address_councildis": "A",
    "status": "Assigned to Contractor",
    "contractor": "IV Waste",
    "rowid": "1081020",
    "final_x": "3664752.85479",
    "final_y": "528920.621952",
    "longitude": "-90.12103884419172",
    "latitude": "29.948846093639155",
    "geocoded_column": {
      "latitude": "29.948846093639155",
      "longitude": "-90.12103884419172"
    }
  },
  {
    "service_request": "2024-1081019",
    "request_type": "Trash/Recycling",
    "request_reason": "Missed Trash Pick-Up",
    "date_created": "2024-04-02T18:59:19.000",
    "date_modified": "2024-04-02T18:59:19.000",
    "request_status": "Pending",
    "responsible_agency": "Department of Sanitation",
    "final_address": "1300 N Broad St, New Orleans, Louisiana, 70119",
    "address_councildis": "D",
    "status": "Assigned to Contractor",
    "contractor": "IV Waste",
    "rowid": "1081019",
    "final_x": "3678119.03803",
    "final_y": "538717.037385",
    "longitude": "-90.07849731140278",
    "latitude": "29.975387308563494",
    "geocoded_column": {
      "latitude": "29.975387308563494",
      "longitude": "-90.07849731140278"
    }
  },
  {
    "service_request": "2024-1081018",
    "request_type": "Trash/Recycling",
    "request_reason": "Request a Large Item Pick Up",
    "date_created": "2024-04-02T18:46:15.000",
    "date_modified": "2024-04-02T18:46:16.000",
    "request_status": "Pending",
    "responsible_agency": "Department of Sanitation",
    "final_address": "1530 Painters St",
    "address_councildis": "C",
    "status": "Assigned to Contractor",
    "contractor": "IV Waste",
    "rowid": "1081018",
    "final_x": "3687399.4582",
    "final_y": "538189.277577",
    "longitude": "-90.04920599689585",
    "latitude": "29.97365343804609",
    "geocoded_column": {
      "latitude": "29.97365343804609",
      "longitude": "-90.04920599689585"
    }
  },
  {
    "service_request": "2024-1081017",
    "request_type": "Roads/Drainage",
    "request_reason": "Catch Basin - Clogged",
    "date_created": "2024-04-02T18:45:39.000",
    "date_modified": "2024-04-02T18:45:39.000",
    "request_status": "Pending",
    "responsible_agency": "Department of Public Works",
    "final_address": "10800 BLK Morrison Rd",
    "address_councildis": "E",
    "status": "Pending",
    "rowid": "1081017",
    "final_x": "3710541.74227",
    "final_y": "564668.83108",
    "longitude": "-89.97512715068801",
    "latitude": "30.04572855795153",
    "geocoded_column": {
      "latitude": "30.04572855795153",
      "longitude": "-89.97512715068801"
    }
  },
  {
    "service_request": "2024-1081016",
    "request_type": "Trash/Recycling",
    "request_reason": "Request a Large Item Pick Up",
    "date_created": "2024-04-02T18:43:01.000",
    "date_modified": "2024-04-02T18:43:02.000",
    "request_status": "Pending",
    "responsible_agency": "Department of Sanitation",
    "final_address": "133 38Th St",
    "address_councildis": "A",
    "status": "Assigned to Contractor",
    "contractor": "IV Waste",
    "rowid": "1081016",
    "final_x": "3665997.0768",
    "final_y": "552690.276118",
    "longitude": "-90.11631315289726",
    "latitude": "30.014168383393713",
    "geocoded_column": {
      "latitude": "30.014168383393713",
      "longitude": "-90.11631315289726"
    }
  },
  {
    "service_request": "2024-1081015",
    "request_type": "Mosquito, Termite & Rodent Control",
    "request_reason": "Non-Rodent Complaint (Mice, Possums, Snakes)",
    "date_created": "2024-04-02T18:41:45.000",
    "date_modified": "2024-04-02T18:41:45.000",
    "request_status": "Pending",
    "responsible_agency": "Mosquito, Termite & Rodent Control Board",
    "final_address": "2623 Banks St",
    "address_councildis": "B",
    "status": "Pending",
    "rowid": "1081015",
    "final_x": "3674921.80539",
    "final_y": "533998.000837",
    "longitude": "-90.08875692925093",
    "latitude": "29.962507445275044",
    "geocoded_column": {
      "latitude": "29.962507445275044",
      "longitude": "-90.08875692925093"
    }
  },
  {
    "service_request": "2024-1081014",
    "request_type": "Property Maintenance",
    "request_reason": "Property Maintenance",
    "date_created": "2024-04-02T18:32:26.000",
    "date_modified": "2024-04-02T18:32:26.000",
    "request_status": "Pending",
    "responsible_agency": "Department of Code Enforcement",
    "final_address": "VERNA ST & ST VINCENT ST",
    "address_councildis": "A",
    "status": "Pending",
    "rowid": "1081014",
    "final_x": "3675989.4",
    "final_y": "541816.28",
    "longitude": "-90.08511666066013",
    "latitude": "29.98397311554523",
    "geocoded_column": {
      "latitude": "29.98397311554523",
      "longitude": "-90.08511666066013"
    }
  },
  {
    "service_request": "2024-1081013",
    "request_type": "Trash/Recycling",
    "request_reason": "MIssed Recycling Pick-Up",
    "date_created": "2024-04-02T18:16:54.000",
    "date_modified": "2024-04-02T18:16:55.000",
    "request_status": "Pending",
    "responsible_agency": "Department of Sanitation",
    "final_address": "418 S Scott St",
    "address_councildis": "B",
    "status": "Assigned to Contractor",
    "contractor": "IV Waste",
    "rowid": "1081013",
    "final_x": "3670952.65121",
    "final_y": "536682.005383",
    "longitude": "-90.1011998601443",
    "latitude": "29.970005505535237",
    "geocoded_column": {
      "latitude": "29.970005505535237",
      "longitude": "-90.1011998601443"
    }
  },
  {
    "service_request": "2024-1081011",
    "request_type": "Trash/Recycling",
    "request_reason": "Order Trash Cart",
    "date_created": "2024-04-02T18:12:01.000",
    "date_modified": "2024-04-02T18:12:02.000",
    "request_status": "Pending",
    "responsible_agency": "Department of Sanitation",
    "final_address": "8002 Cohn St",
    "address_councildis": "A",
    "status": "Assigned to Contractor",
    "contractor": "IV Waste",
    "rowid": "1081011",
    "final_x": "3663883.72839",
    "final_y": "529887.555329",
    "longitude": "-90.12375083334992",
    "latitude": "29.951530103922668",
    "geocoded_column": {
      "latitude": "29.951530103922668",
      "longitude": "-90.12375083334992"
    }
  },
  {
    "service_request": "2024-1081010",
    "request_type": "Abandoned Vehicles",
    "request_reason": "Abandoned/Junk Vehicles",
    "date_created": "2024-04-02T18:07:04.000",
    "date_modified": "2024-04-02T18:07:04.000",
    "request_status": "Pending",
    "responsible_agency": "Department of Public Works",
    "final_address": "1916 Fourth St",
    "address_councildis": "B",
    "status": "Pending",
    "rowid": "1081010",
    "final_x": "3675471.31841",
    "final_y": "523731.389435",
    "longitude": "-90.08737417430945",
    "latitude": "29.93426124305468",
    "geocoded_column": {
      "latitude": "29.93426124305468",
      "longitude": "-90.08737417430945"
    }
  },
  {
    "service_request": "2024-1081009",
    "request_type": "Trash/Recycling",
    "request_reason": "Replace Trash Cart",
    "date_created": "2024-04-02T18:05:30.000",
    "date_modified": "2024-04-02T18:05:30.000",
    "request_status": "Pending",
    "responsible_agency": "Department of Sanitation",
    "final_address": "3536 Paris Ave",
    "address_councildis": "D",
    "status": "Assigned to Contractor",
    "contractor": "IV Waste",
    "rowid": "1081009",
    "final_x": "3679609.30843",
    "final_y": "545439.638352",
    "longitude": "-90.07355720716443",
    "latitude": "29.993827155580327",
    "geocoded_column": {
      "latitude": "29.993827155580327",
      "longitude": "-90.07355720716443"
    }
  },
  {
    "service_request": "2024-1081008",
    "request_type": "Trash/Recycling",
    "request_reason": "Request a Large Item Pick Up",
    "date_created": "2024-04-02T17:57:47.000",
    "date_modified": "2024-04-02T17:57:48.000",
    "request_status": "Pending",
    "responsible_agency": "Department of Sanitation",
    "final_address": "3401 Annunciation St",
    "address_councildis": "B",
    "status": "Assigned to Contractor",
    "contractor": "IV Waste",
    "rowid": "1081008",
    "final_x": "3675348.05326",
    "final_y": "518605.898231",
    "longitude": "-90.08793918760863",
    "latitude": "29.920171485210638",
    "geocoded_column": {
      "latitude": "29.920171485210638",
      "longitude": "-90.08793918760863"
    }
  },
  {
    "service_request": "2024-1081007",
    "request_type": "Trash/Recycling",
    "request_reason": "Start Trash Service",
    "date_created": "2024-04-02T17:57:30.000",
    "date_modified": "2024-04-02T17:57:31.000",
    "request_status": "Pending",
    "responsible_agency": "Department of Sanitation",
    "final_address": "7120 W Renaissance Ct",
    "address_councildis": "E",
    "status": "Assigned to Contractor",
    "rowid": "1081007",
    "final_x": "3716634.00344",
    "final_y": "567580.962532",
    "longitude": "-89.9557621520704",
    "latitude": "30.053535759147852",
    "geocoded_column": {
      "latitude": "30.053535759147852",
      "longitude": "-89.9557621520704"
    }
  },
  {
    "service_request": "2024-1081006",
    "request_type": "Traffic Signals/Signs/Striping/Streetlights",
    "request_reason": "Traffic Signal Malfunctioning/Damaged",
    "date_created": "2024-04-02T17:56:53.000",
    "date_modified": "2024-04-02T17:56:53.000",
    "request_status": "Pending",
    "responsible_agency": "Department of Public Works",
    "final_address": "GENERAL MEYER AVE & WOODLAND DR & WOODLAND PL",
    "address_councildis": "C",
    "status": "Pending",
    "rowid": "1081006",
    "final_x": "3705605.3",
    "final_y": "521490.58",
    "longitude": "-89.99232571732016",
    "latitude": "29.92716442391466",
    "geocoded_column": {
      "latitude": "29.92716442391466",
      "longitude": "-89.99232571732016"
    }
  },
  {
    "service_request": "2024-1081005",
    "request_type": "Roads/Drainage",
    "request_reason": "Man hole cover issue",
    "date_created": "2024-04-02T17:54:56.000",
    "date_modified": "2024-04-02T17:54:56.000",
    "request_status": "Pending",
    "responsible_agency": "Department of Public Works",
    "final_address": "MARSHALL FOCH ST & BROOKS ST",
    "address_councildis": "A",
    "status": "Pending",
    "rowid": "1081005",
    "final_x": "3669761.7",
    "final_y": "546502.38",
    "longitude": "-90.10462844672169",
    "latitude": "29.997043351406376",
    "geocoded_column": {
      "latitude": "29.997043351406376",
      "longitude": "-90.10462844672169"
    }
  },
  {
    "service_request": "2024-1081004",
    "request_type": "Trash/Recycling",
    "request_reason": "Missed Trash Pick-Up",
    "date_created": "2024-04-02T17:46:32.000",
    "date_modified": "2024-04-02T17:46:32.000",
    "request_status": "Pending",
    "responsible_agency": "Department of Sanitation",
    "final_address": "4000 BLK Saint Charles Ave",
    "address_councildis": "B",
    "status": "Assigned to Contractor",
    "contractor": "IV Waste",
    "rowid": "1081004",
    "final_x": "3672131.27808",
    "final_y": "521017.086034",
    "longitude": "-90.09801097926801",
    "latitude": "29.92689722508852",
    "geocoded_column": {
      "latitude": "29.92689722508852",
      "longitude": "-90.09801097926801"
    }
  },
  {
    "service_request": "2024-1081003",
    "request_type": "Property Maintenance",
    "request_reason": "Property Maintenance",
    "date_created": "2024-04-02T17:44:23.000",
    "date_modified": "2024-04-02T17:44:23.000",
    "request_status": "Pending",
    "responsible_agency": "Department of Code Enforcement",
    "final_address": "4535 LaSalle St",
    "address_councildis": "B",
    "status": "Pending",
    "rowid": "1081003",
    "final_x": "3669877.05959",
    "final_y": "523673.428155",
    "longitude": "-90.10503708211353",
    "latitude": "29.934267946992573",
    "geocoded_column": {
      "latitude": "29.934267946992573",
      "longitude": "-90.10503708211353"
    }
  },
  {
    "service_request": "2024-1081002",
    "request_type": "Trash/Recycling",
    "request_reason": "Repair Recycling Cart",
    "date_created": "2024-04-02T17:41:47.000",
    "date_modified": "2024-04-02T17:41:47.000",
    "request_status": "Pending",
    "responsible_agency": "Department of Sanitation",
    "final_address": "5922 Marshal Foch St",
    "address_councildis": "A",
    "status": "Pending",
    "rowid": "1081002",
    "final_x": "3669687.36385",
    "final_y": "546714.013649",
    "longitude": "-90.10485610438451",
    "latitude": "29.997627462283",
    "geocoded_column": {
      "latitude": "29.997627462283",
      "longitude": "-90.10485610438451"
    }
  },
  {
    "service_request": "2024-1081001",
    "request_type": "Trash/Recycling",
    "request_reason": "Replace Trash Cart",
    "date_created": "2024-04-02T17:36:39.000",
    "date_modified": "2024-04-02T17:36:39.000",
    "request_status": "Pending",
    "responsible_agency": "Department of Sanitation",
    "final_address": "4682 Evangeline Dr",
    "address_councildis": "E",
    "status": "Assigned to Contractor",
    "rowid": "1081001",
    "final_x": "3709072.51064",
    "final_y": "555425.061657",
    "longitude": "-89.9801156322122",
    "latitude": "30.02035964943668",
    "geocoded_column": {
      "latitude": "30.02035964943668",
      "longitude": "-89.9801156322122"
    }
  },
  {
    "service_request": "2024-1081000",
    "request_type": "Trash/Recycling",
    "request_reason": "Repair Recycling Cart",
    "date_created": "2024-04-02T17:29:08.000",
    "date_modified": "2024-04-02T17:29:08.000",
    "request_status": "Pending",
    "responsible_agency": "Department of Sanitation",
    "final_address": "301 Aurora Dr",
    "address_councildis": "C",
    "status": "Pending",
    "rowid": "1081000",
    "final_x": "3707039.18462",
    "final_y": "520304.987128",
    "longitude": "-89.98784329752648",
    "latitude": "29.92385823809515",
    "geocoded_column": {
      "latitude": "29.92385823809515",
      "longitude": "-89.98784329752648"
    }
  },
  {
    "service_request": "2024-1080999",
    "request_type": "Roads/Drainage",
    "request_reason": "Street Subsidence (Sinking)",
    "date_created": "2024-04-02T17:29:02.000",
    "date_modified": "2024-04-02T17:29:02.000",
    "request_status": "Pending",
    "responsible_agency": "Department of Public Works",
    "final_address": "2429 Conti St",
    "address_councildis": "B",
    "status": "Pending",
    "rowid": "1080999",
    "final_x": "3676963.07067",
    "final_y": "535393.503942",
    "longitude": "-90.08226277618003",
    "latitude": "29.966283483867137",
    "geocoded_column": {
      "latitude": "29.966283483867137",
      "longitude": "-90.08226277618003"
    }
  },
  {
    "service_request": "2024-1080998",
    "request_type": "Trash/Recycling",
    "request_reason": "Request a Large Item Pick Up",
    "date_created": "2024-04-02T17:19:18.000",
    "date_modified": "2024-04-02T17:19:18.000",
    "request_status": "Pending",
    "responsible_agency": "Department of Sanitation",
    "final_address": "4532 Marais St",
    "address_councildis": "D",
    "status": "Assigned to Contractor",
    "contractor": "IV Waste",
    "rowid": "1080998",
    "final_x": "3693664.95325",
    "final_y": "535127.238086",
    "longitude": "-90.02952834458507",
    "latitude": "29.96503935715986",
    "geocoded_column": {
      "latitude": "29.96503935715986",
      "longitude": "-90.02952834458507"
    }
  },
  {
    "service_request": "2024-1080997",
    "request_type": "Trash/Recycling",
    "request_reason": "Missed Trash Pick-Up",
    "date_created": "2024-04-02T17:17:07.000",
    "date_modified": "2024-04-02T17:17:08.000",
    "request_status": "Pending",
    "responsible_agency": "Department of Sanitation",
    "final_address": "3005 Desoto St, New Orleans, Louisiana, 70119",
    "status": "Assigned to Contractor",
    "rowid": "1080997",
    "longitude": "0.0",
    "latitude": "0.0",
    "geocoded_column": {
      "latitude": "0.0",
      "longitude": "0.0"
    }
  },
  {
    "service_request": "2024-1080996",
    "request_type": "Trash/Recycling",
    "request_reason": "Order Trash Cart",
    "date_created": "2024-04-02T17:10:31.000",
    "date_modified": "2024-04-02T17:10:32.000",
    "request_status": "Pending",
    "responsible_agency": "Department of Sanitation",
    "final_address": "30 forest oaks Dr. New Orleans LA 70131",
    "address_councildis": "C",
    "status": "Assigned to Contractor",
    "contractor": "Richards Disposal",
    "rowid": "1080996",
    "final_x": "3722388.64255",
    "final_y": "510252.565871",
    "longitude": "-89.93977717787448",
    "latitude": "29.895713160679822",
    "geocoded_column": {
      "latitude": "29.895713160679822",
      "longitude": "-89.93977717787448"
    }
  },
  {
    "service_request": "2024-1080995",
    "request_type": "Trash/Recycling",
    "request_reason": "Missed Trash Pick-Up",
    "date_created": "2024-04-02T16:59:53.000",
    "date_modified": "2024-04-02T16:59:53.000",
    "request_status": "Pending",
    "responsible_agency": "Department of Sanitation",
    "final_address": "301 Morgan St",
    "address_councildis": "C",
    "status": "Assigned to Contractor",
    "contractor": "Richards Disposal",
    "rowid": "1080995",
    "final_x": "3686099.18716",
    "final_y": "531077.400002",
    "longitude": "-90.0535633843756",
    "latitude": "29.954138240771446",
    "geocoded_column": {
      "latitude": "29.954138240771446",
      "longitude": "-90.0535633843756"
    }
  },
  {
    "service_request": "2024-1080994",
    "request_type": "Trash/Recycling",
    "request_reason": "Replace Trash Cart",
    "date_created": "2024-04-02T16:58:29.000",
    "date_modified": "2024-04-02T16:58:30.000",
    "request_status": "Pending",
    "responsible_agency": "Department of Sanitation",
    "final_address": "4669 Stephen Girard Ave",
    "address_councildis": "D",
    "status": "Assigned to Contractor",
    "contractor": "IV Waste",
    "rowid": "1080994",
    "final_x": "3691522.24515",
    "final_y": "550692.236884",
    "longitude": "-90.03573823488163",
    "latitude": "30.007904366913316",
    "geocoded_column": {
      "latitude": "30.007904366913316",
      "longitude": "-90.03573823488163"
    }
  },
  {
    "service_request": "2024-1080993",
    "request_type": "Trash/Recycling",
    "request_reason": "MIssed Recycling Pick-Up",
    "date_created": "2024-04-02T16:56:29.000",
    "date_modified": "2024-04-02T16:56:30.000",
    "request_status": "Pending",
    "responsible_agency": "Department of Sanitation",
    "final_address": "7717 Patterson Rd",
    "address_councildis": "C",
    "status": "Assigned to Contractor",
    "contractor": "Richards Disposal",
    "rowid": "1080993",
    "final_x": "3712843.87038",
    "final_y": "518904.731575",
    "longitude": "-89.96957280025387",
    "latitude": "29.919819335098083",
    "geocoded_column": {
      "latitude": "29.919819335098083",
      "longitude": "-89.96957280025387"
    }
  },
  {
    "service_request": "2024-1080992",
    "request_type": "Abandoned Vehicles",
    "request_reason": "Abandoned/Junk Vehicles",
    "date_created": "2024-04-02T16:53:14.000",
    "date_modified": "2024-04-02T16:53:14.000",
    "request_status": "Pending",
    "responsible_agency": "Department of Public Works",
    "final_address": "N DUPRE ST & ORLEANS AVE",
    "address_councildis": "A",
    "status": "Pending",
    "rowid": "1080992",
    "final_x": "3676036.9",
    "final_y": "537523.58",
    "longitude": "-90.08511433095447",
    "latitude": "29.97216824183648",
    "geocoded_column": {
      "latitude": "29.97216824183648",
      "longitude": "-90.08511433095447"
    }
  },
  {
    "service_request": "2024-1080991",
    "request_type": "Abandoned Vehicles",
    "request_reason": "Abandoned/Junk Vehicles",
    "date_created": "2024-04-02T16:52:38.000",
    "date_modified": "2024-04-02T16:52:38.000",
    "request_status": "Pending",
    "responsible_agency": "Department of Public Works",
    "final_address": "1020 N Rendon St",
    "address_councildis": "A",
    "status": "Pending",
    "rowid": "1080991",
    "final_x": "3675834.05307",
    "final_y": "539319.179914",
    "longitude": "-90.08569321001306",
    "latitude": "29.97711160213015",
    "geocoded_column": {
      "latitude": "29.97711160213015",
      "longitude": "-90.08569321001306"
    }
  },
  {
    "service_request": "2024-1080990",
    "request_type": "Roads/Drainage",
    "request_reason": "Street Flooding / Drainage",
    "date_created": "2024-04-02T16:52:23.000",
    "date_modified": "2024-04-02T16:52:23.000",
    "request_status": "Pending",
    "responsible_agency": "Department of Public Works",
    "final_address": "1125 Arabella St",
    "address_councildis": "A",
    "status": "Pending",
    "rowid": "1080990",
    "final_x": "3666128.78957",
    "final_y": "520125.580728",
    "longitude": "-90.11698919442864",
    "latitude": "29.92462244020303",
    "geocoded_column": {
      "latitude": "29.92462244020303",
      "longitude": "-90.11698919442864"
    }
  },
  {
    "service_request": "2024-1080989",
    "request_type": "Roads/Drainage",
    "request_reason": "Catch Basin - Clogged",
    "date_created": "2024-04-02T16:50:11.000",
    "date_modified": "2024-04-02T16:50:12.000",
    "request_status": "Pending",
    "responsible_agency": "Department of Public Works",
    "final_address": "1033 Nashville Ave",
    "address_councildis": "A",
    "status": "Pending",
    "rowid": "1080989",
    "final_x": "3665787.88103",
    "final_y": "519913.63852",
    "longitude": "-90.11807242785439",
    "latitude": "29.92404961208322",
    "geocoded_column": {
      "latitude": "29.92404961208322",
      "longitude": "-90.11807242785439"
    }
  },
  {
    "service_request": "2024-1080988",
    "request_type": "Trash/Recycling",
    "request_reason": "Missed Trash Pick-Up",
    "date_created": "2024-04-02T16:49:30.000",
    "date_modified": "2024-04-02T17:11:35.000",
    "case_close_date": "2024-04-02T12:11:35.000",
    "request_status": "Closed",
    "responsible_agency": "Department of Sanitation",
    "final_address": "6431 Avenue B",
    "address_councildis": "A",
    "status": "Assigned to Contractor",
    "contractor": "IV Waste",
    "contractor_action": "Invalid Request",
    "rowid": "1080988",
    "final_x": "3665734.81517",
    "final_y": "551081.885461",
    "longitude": "-90.11719570593893",
    "latitude": "30.009753527219818",
    "geocoded_column": {
      "latitude": "30.009753527219818",
      "longitude": "-90.11719570593893"
    }
  },
  {
    "service_request": "2024-1080987",
    "request_type": "Mosquito, Termite & Rodent Control",
    "request_reason": "Rodent Complaint (Rats)",
    "date_created": "2024-04-02T16:44:12.000",
    "date_modified": "2024-04-02T16:44:12.000",
    "request_status": "Pending",
    "responsible_agency": "Mosquito, Termite & Rodent Control Board",
    "final_address": "8320 Belfast St",
    "address_councildis": "A",
    "status": "Pending",
    "rowid": "1080987",
    "final_x": "3664921.48096",
    "final_y": "532926.514948",
    "longitude": "-90.1203725241988",
    "latitude": "29.959856090570707",
    "geocoded_column": {
      "latitude": "29.959856090570707",
      "longitude": "-90.1203725241988"
    }
  },
  {
    "service_request": "2024-1080986",
    "request_type": "Mosquito, Termite & Rodent Control",
    "request_reason": "Rodent Complaint (Rats)",
    "date_created": "2024-04-02T16:41:49.000",
    "date_modified": "2024-04-02T16:43:57.000",
    "request_status": "Pending",
    "responsible_agency": "Mosquito, Termite & Rodent Control Board",
    "final_address": "8326 Belfast St",
    "address_councildis": "A",
    "status": "Pending",
    "rowid": "1080986",
    "final_x": "3664882.55962",
    "final_y": "532960.986308",
    "longitude": "-90.12049427749008",
    "latitude": "29.959952008371992",
    "geocoded_column": {
      "latitude": "29.959952008371992",
      "longitude": "-90.12049427749008"
    }
  },
  {
    "service_request": "2024-1080985",
    "request_type": "Trash/Recycling",
    "request_reason": "Request a Large Item Pick Up",
    "date_created": "2024-04-02T16:39:51.000",
    "date_modified": "2024-04-02T16:39:52.000",
    "request_status": "Pending",
    "responsible_agency": "Department of Sanitation",
    "final_address": "4734 Charlmark Dr",
    "address_councildis": "E",
    "status": "Assigned to Contractor",
    "rowid": "1080985",
    "final_x": "3711354.95314",
    "final_y": "555961.204825",
    "longitude": "-89.97288377304533",
    "latitude": "30.021759518618346",
    "geocoded_column": {
      "latitude": "30.021759518618346",
      "longitude": "-89.97288377304533"
    }
  },
  {
    "service_request": "2024-1080984",
    "request_type": "Property Maintenance",
    "request_reason": "Property Maintenance",
    "date_created": "2024-04-02T16:35:25.000",
    "date_modified": "2024-04-02T16:35:26.000",
    "request_status": "Pending",
    "responsible_agency": "Department of Code Enforcement",
    "final_address": "4615 Earhart Blvd",
    "address_councildis": "B",
    "status": "Pending",
    "rowid": "1080984",
    "final_x": "3669413.62055",
    "final_y": "531978.024835",
    "longitude": "-90.10621937924948",
    "latitude": "29.957116537254553",
    "geocoded_column": {
      "latitude": "29.957116537254553",
      "longitude": "-90.10621937924948"
    }
  },
  {
    "service_request": "2024-1080983",
    "request_type": "Trash/Recycling",
    "request_reason": "Order Recycling Cart",
    "date_created": "2024-04-02T16:32:21.000",
    "date_modified": "2024-04-02T16:32:21.000",
    "request_status": "Pending",
    "responsible_agency": "Department of Sanitation",
    "final_address": "614 N Salcedo St",
    "address_councildis": "A",
    "status": "Pending",
    "rowid": "1080983",
    "final_x": "3675292.37461",
    "final_y": "537600.147272",
    "longitude": "-90.0874630404143",
    "latitude": "29.972401055779482",
    "geocoded_column": {
      "latitude": "29.972401055779482",
      "longitude": "-90.0874630404143"
    }
  },
  {
    "service_request": "2024-1080982",
    "request_type": "Abandoned Vehicles",
    "request_reason": "Abandoned/Junk Vehicles",
    "date_created": "2024-04-02T16:31:07.000",
    "date_modified": "2024-04-02T16:31:08.000",
    "request_status": "Pending",
    "responsible_agency": "Department of Public Works",
    "final_address": "6230 Stratford Pl",
    "address_councildis": "C",
    "status": "Pending",
    "rowid": "1080982",
    "final_x": "3707136.29892",
    "final_y": "516238.682548",
    "longitude": "-89.98768748598104",
    "latitude": "29.912674177682373",
    "geocoded_column": {
      "latitude": "29.912674177682373",
      "longitude": "-89.98768748598104"
    }
  },
  {
    "service_request": "2024-1080981",
    "request_type": "Abandoned Vehicles",
    "request_reason": "Abandoned/Junk Vehicles",
    "date_created": "2024-04-02T16:28:54.000",
    "date_modified": "2024-04-02T16:28:54.000",
    "request_status": "Pending",
    "responsible_agency": "Department of Public Works",
    "final_address": "6200 Stratford Pl",
    "address_councildis": "C",
    "status": "Pending",
    "rowid": "1080981",
    "final_x": "3706926.2682",
    "final_y": "516215.02322",
    "longitude": "-89.98835127369813",
    "latitude": "29.912615903222868",
    "geocoded_column": {
      "latitude": "29.912615903222868",
      "longitude": "-89.98835127369813"
    }
  },
  {
    "service_request": "2024-1080980",
    "request_type": "Trash/Recycling",
    "request_reason": "Replace Trash Cart",
    "date_created": "2024-04-02T16:27:04.000",
    "date_modified": "2024-04-02T16:27:05.000",
    "request_status": "Pending",
    "responsible_agency": "Department of Sanitation",
    "final_address": "6040 Patton St",
    "address_councildis": "A",
    "status": "Assigned to Contractor",
    "contractor": "IV Waste",
    "rowid": "1080980",
    "final_x": "3664142.86912",
    "final_y": "518597.098487",
    "longitude": "-90.12330905652195",
    "latitude": "29.920477409010847",
    "geocoded_column": {
      "latitude": "29.920477409010847",
      "longitude": "-90.12330905652195"
    }
  },
  {
    "service_request": "2024-1080978",
    "request_type": "Trash/Recycling",
    "request_reason": "Repair Trash Cart",
    "date_created": "2024-04-02T16:20:30.000",
    "date_modified": "2024-04-02T16:20:31.000",
    "request_status": "Pending",
    "responsible_agency": "Department of Sanitation",
    "final_address": "311 N White St",
    "address_councildis": "B",
    "status": "Assigned to Contractor",
    "contractor": "IV Waste",
    "rowid": "1080978",
    "final_x": "3675410.74478",
    "final_y": "536220.932167",
    "longitude": "-90.08713657927754",
    "latitude": "29.968605143552526",
    "geocoded_column": {
      "latitude": "29.968605143552526",
      "longitude": "-90.08713657927754"
    }
  },
  {
    "service_request": "2024-1080977",
    "request_type": "Abandoned Vehicles",
    "request_reason": "Abandoned/Junk Vehicles",
    "date_created": "2024-04-02T16:16:18.000",
    "date_modified": "2024-04-02T16:16:18.000",
    "request_status": "Pending",
    "responsible_agency": "Department of Public Works",
    "final_address": "3007 Jefferson Ave",
    "address_councildis": "B",
    "status": "Pending",
    "rowid": "1080977",
    "final_x": "3668527.99156",
    "final_y": "526417.842366",
    "longitude": "-90.10920350068555",
    "latitude": "29.94185389816711",
    "geocoded_column": {
      "latitude": "29.94185389816711",
      "longitude": "-90.10920350068555"
    }
  },
  {
    "service_request": "2024-1080976",
    "request_type": "Trash/Recycling",
    "request_reason": "Request a Large Item Pick Up",
    "date_created": "2024-04-02T16:12:22.000",
    "date_modified": "2024-04-02T16:12:23.000",
    "request_status": "Pending",
    "responsible_agency": "Department of Sanitation",
    "final_address": "8931 Curran Blvd, New Orleans, Louisiana, 70127",
    "address_councildis": "E",
    "status": "Assigned to Contractor",
    "rowid": "1080976",
    "final_x": "3705128.51908",
    "final_y": "563120.404384",
    "longitude": "-89.99229276547621",
    "latitude": "30.04164631631388",
    "geocoded_column": {
      "latitude": "30.04164631631388",
      "longitude": "-89.99229276547621"
    }
  },
  {
    "service_request": "2024-1080975",
    "request_type": "Trash/Recycling",
    "request_reason": "Illegal Dumping",
    "date_created": "2024-04-02T16:12:03.000",
    "date_modified": "2024-04-02T16:12:04.000",
    "request_status": "Pending",
    "responsible_agency": "Department of Sanitation",
    "final_address": "2730 Jackson Ave",
    "address_councildis": "B",
    "status": "Pending",
    "rowid": "1080975",
    "final_x": "3674841.38568",
    "final_y": "527228.387839",
    "longitude": "-90.08924298914286",
    "latitude": "29.94389566329224",
    "geocoded_column": {
      "latitude": "29.94389566329224",
      "longitude": "-90.08924298914286"
    }
  },
  {
    "service_request": "2024-1080974",
    "request_type": "Trash/Recycling",
    "request_reason": "Repair Recycling Cart",
    "date_created": "2024-04-02T16:11:02.000",
    "date_modified": "2024-04-02T16:11:03.000",
    "request_status": "Pending",
    "responsible_agency": "Department of Sanitation",
    "final_address": "1 Snipe St",
    "address_councildis": "D",
    "status": "Pending",
    "rowid": "1080974",
    "final_x": "3671986.64155",
    "final_y": "556476.96905",
    "longitude": "-90.09726003531594",
    "latitude": "30.02440415364398",
    "geocoded_column": {
      "latitude": "30.02440415364398",
      "longitude": "-90.09726003531594"
    }
  },
  {
    "service_request": "2024-1080973",
    "request_type": "Roads/Drainage",
    "request_reason": "Accessibility Ramps, Curbs and Sidewalk Repair",
    "date_created": "2024-04-02T16:08:19.000",
    "date_modified": "2024-04-02T16:08:19.000",
    "request_status": "Pending",
    "responsible_agency": "Department of Public Works",
    "final_address": "712 Dublin St",
    "address_councildis": "A",
    "status": "Pending",
    "rowid": "1080973",
    "final_x": "3660572.23117",
    "final_y": "527471.663679",
    "longitude": "-90.13428681563155",
    "latitude": "29.94498287834324",
    "geocoded_column": {
      "latitude": "29.94498287834324",
      "longitude": "-90.13428681563155"
    }
  },
  {
    "service_request": "2024-1080971",
    "request_type": "Trash/Recycling",
    "request_reason": "Missed Trash Pick-Up",
    "date_created": "2024-04-02T16:06:54.000",
    "date_modified": "2024-04-02T16:06:55.000",
    "case_close_date": "2024-04-01T19:00:00.000",
    "request_status": "Pending",
    "responsible_agency": "Department of Sanitation",
    "final_address": "7852 Arcadia Ln",
    "address_councildis": "E",
    "status": "Assigned to Contractor",
    "rowid": "1080971",
    "final_x": "3711880.27192",
    "final_y": "567759.980452",
    "longitude": "-89.97078060219611",
    "latitude": "30.05418427181588",
    "geocoded_column": {
      "latitude": "30.05418427181588",
      "longitude": "-89.97078060219611"
    }
  },
  {
    "service_request": "2024-1080970",
    "request_type": "Property Maintenance",
    "request_reason": "Property Maintenance",
    "date_created": "2024-04-02T16:06:46.000",
    "date_modified": "2024-04-02T16:06:46.000",
    "request_status": "Pending",
    "responsible_agency": "Department of Code Enforcement",
    "final_address": "5345 Baccich St",
    "address_councildis": "D",
    "status": "Pending",
    "rowid": "1080970",
    "final_x": "3687737.78761",
    "final_y": "552679.790294",
    "longitude": "-90.04762397909339",
    "latitude": "30.01348670726616",
    "geocoded_column": {
      "latitude": "30.01348670726616",
      "longitude": "-90.04762397909339"
    }
  },
  {
    "service_request": "2024-1080968",
    "request_type": "Property Maintenance",
    "request_reason": "Property Maintenance",
    "date_created": "2024-04-02T16:01:12.000",
    "date_modified": "2024-04-02T16:01:12.000",
    "request_status": "Pending",
    "responsible_agency": "Department of Code Enforcement",
    "final_address": "5345 Baccich St",
    "address_councildis": "D",
    "status": "Pending",
    "rowid": "1080968",
    "final_x": "3687737.78761",
    "final_y": "552679.790294",
    "longitude": "-90.04762397909339",
    "latitude": "30.01348670726616",
    "geocoded_column": {
      "latitude": "30.01348670726616",
      "longitude": "-90.04762397909339"
    }
  },
  {
    "service_request": "2024-1080967",
    "request_type": "Trash/Recycling",
    "request_reason": "Missed Trash Pick-Up",
    "date_created": "2024-04-02T15:58:57.000",
    "date_modified": "2024-04-02T15:58:58.000",
    "request_status": "Pending",
    "responsible_agency": "Department of Sanitation",
    "final_address": "7367 Trapier Ave",
    "address_councildis": "E",
    "status": "Assigned to Contractor",
    "rowid": "1080967",
    "final_x": "3706909.40023",
    "final_y": "563122.102944",
    "longitude": "-89.9866645111776",
    "latitude": "30.041593557100008",
    "geocoded_column": {
      "latitude": "30.041593557100008",
      "longitude": "-89.9866645111776"
    }
  },
  {
    "service_request": "2024-1080966",
    "request_type": "Trash/Recycling",
    "request_reason": "Repair Recycling Cart",
    "date_created": "2024-04-02T15:58:56.000",
    "date_modified": "2024-04-02T15:58:57.000",
    "request_status": "Pending",
    "responsible_agency": "Department of Sanitation",
    "final_address": "4670 Baccich St",
    "address_councildis": "D",
    "status": "Pending",
    "rowid": "1080966",
    "final_x": "3687701.30639",
    "final_y": "550322.771348",
    "longitude": "-90.0478227870191",
    "latitude": "30.00700689465503",
    "geocoded_column": {
      "latitude": "30.00700689465503",
      "longitude": "-90.0478227870191"
    }
  },
  {
    "service_request": "2024-1080965",
    "request_type": "Trash/Recycling",
    "request_reason": "Request a Large Item Pick Up",
    "date_created": "2024-04-02T15:58:42.000",
    "date_modified": "2024-04-02T15:58:43.000",
    "request_status": "Pending",
    "responsible_agency": "Department of Sanitation",
    "final_address": "3538 Franklin Ave",
    "address_councildis": "D",
    "status": "Assigned to Contractor",
    "contractor": "IV Waste",
    "rowid": "1080965",
    "final_x": "3687099.52079",
    "final_y": "546005.878032",
    "longitude": "-90.04987674784888",
    "latitude": "29.99515555159787",
    "geocoded_column": {
      "latitude": "29.99515555159787",
      "longitude": "-90.04987674784888"
    }
  },
  {
    "service_request": "2024-1080964",
    "request_type": "Trash/Recycling",
    "request_reason": "Request a Large Item Pick Up",
    "date_created": "2024-04-02T15:54:39.000",
    "date_modified": "2024-04-02T15:54:40.000",
    "request_status": "Pending",
    "responsible_agency": "Department of Sanitation",
    "final_address": "4423 Arts St",
    "address_councildis": "D",
    "status": "Assigned to Contractor",
    "contractor": "IV Waste",
    "rowid": "1080964",
    "final_x": "3686088.0861",
    "final_y": "549046.049491",
    "longitude": "-90.0529644464407",
    "latitude": "30.003546039102535",
    "geocoded_column": {
      "latitude": "30.003546039102535",
      "longitude": "-90.0529644464407"
    }
  },
  {
    "service_request": "2024-1080963",
    "request_type": "Trash/Recycling",
    "request_reason": "Replace Trash Cart",
    "date_created": "2024-04-02T15:54:18.000",
    "date_modified": "2024-04-02T15:54:19.000",
    "request_status": "Pending",
    "responsible_agency": "Department of Sanitation",
    "final_address": "1807 Jena St",
    "address_councildis": "B",
    "status": "Assigned to Contractor",
    "contractor": "IV Waste",
    "rowid": "1080963",
    "final_x": "3670403.79175",
    "final_y": "521631.027449",
    "longitude": "-90.10344340853035",
    "latitude": "29.92863646440958",
    "geocoded_column": {
      "latitude": "29.92863646440958",
      "longitude": "-90.10344340853035"
    }
  },
  {
    "service_request": "2024-1080962",
    "request_type": "Trash/Recycling",
    "request_reason": "Replace Trash Cart",
    "date_created": "2024-04-02T15:50:39.000",
    "date_modified": "2024-04-02T15:50:40.000",
    "request_status": "Pending",
    "responsible_agency": "Department of Sanitation",
    "final_address": "7719 S Claiborne Ave",
    "address_councildis": "A",
    "status": "Assigned to Contractor",
    "contractor": "IV Waste",
    "rowid": "1080962",
    "final_x": "3665942.77652",
    "final_y": "530730.73357",
    "longitude": "-90.11722107725627",
    "latitude": "29.953788642700193",
    "geocoded_column": {
      "latitude": "29.953788642700193",
      "longitude": "-90.11722107725627"
    }
  },
  {
    "service_request": "2024-1080961",
    "request_type": "Trash/Recycling",
    "request_reason": "Illegal Dumping",
    "date_created": "2024-04-02T15:46:30.000",
    "date_modified": "2024-04-02T15:47:41.000",
    "request_status": "Pending",
    "responsible_agency": "Department of Sanitation",
    "final_address": "5200 St Claude Ave",
    "address_councildis": "E",
    "status": "Pending",
    "rowid": "1080961",
    "final_x": "3696551.15568",
    "final_y": "534076.914565",
    "longitude": "-90.02045193770105",
    "latitude": "29.962060723542958",
    "geocoded_column": {
      "latitude": "29.962060723542958",
      "longitude": "-90.02045193770105"
    }
  },
  {
    "service_request": "2024-1080960",
    "request_type": "Traffic Signals/Signs/Striping/Streetlights",
    "request_reason": "Street Light Outage/Malfunction",
    "date_created": "2024-04-02T15:41:29.000",
    "date_modified": "2024-04-02T15:41:29.000",
    "request_status": "Pending",
    "responsible_agency": "Department of Public Works",
    "final_address": "523 Atlantic Ave",
    "address_councildis": "C",
    "status": "Assigned to Contractor",
    "contractor": "Legacy Professional Services",
    "rowid": "1080960",
    "final_x": "3688751.96399",
    "final_y": "529711.562817",
    "longitude": "-90.04523549071311",
    "latitude": "29.95030092355476",
    "geocoded_column": {
      "latitude": "29.95030092355476",
      "longitude": "-90.04523549071311"
    }
  },
  {
    "service_request": "2024-1080959",
    "request_type": "Trash/Recycling",
    "request_reason": "Request a Large Item Pick Up",
    "date_created": "2024-04-02T15:39:04.000",
    "date_modified": "2024-04-02T15:39:04.000",
    "request_status": "Pending",
    "responsible_agency": "Department of Sanitation",
    "final_address": "1532 Delery St",
    "address_councildis": "E",
    "status": "Assigned to Contractor",
    "rowid": "1080959",
    "final_x": "3701049.46378",
    "final_y": "534568.074885",
    "longitude": "-90.00622909890456",
    "latitude": "29.96326875242297",
    "geocoded_column": {
      "latitude": "29.96326875242297",
      "longitude": "-90.00622909890456"
    }
  },
  {
    "service_request": "2024-1080958",
    "request_type": "Abandoned Vehicles",
    "request_reason": "Abandoned/Junk Vehicles",
    "date_created": "2024-04-02T15:38:03.000",
    "date_modified": "2024-04-02T15:38:03.000",
    "request_status": "Pending",
    "responsible_agency": "Department of Public Works",
    "final_address": "525 Atlantic Ave",
    "address_councildis": "C",
    "status": "Pending",
    "rowid": "1080958",
    "final_x": "3688750.48598",
    "final_y": "529680.192705",
    "longitude": "-90.04524127094955",
    "latitude": "29.95021471219894",
    "geocoded_column": {
      "latitude": "29.95021471219894",
      "longitude": "-90.04524127094955"
    }
  },
  {
    "service_request": "2024-1080957",
    "request_type": "Abandoned Vehicles",
    "request_reason": "Abandoned/Junk Vehicles",
    "date_created": "2024-04-02T15:34:40.000",
    "date_modified": "2024-04-02T15:34:40.000",
    "request_status": "Pending",
    "responsible_agency": "Department of Public Works",
    "final_address": "ROSEDALE DR & VIRGINIA ST",
    "address_councildis": "A",
    "status": "Pending",
    "rowid": "1080957",
    "final_x": "3668771.4",
    "final_y": "541942.28",
    "longitude": "-90.10791082620794",
    "latitude": "29.98453380073547",
    "geocoded_column": {
      "latitude": "29.98453380073547",
      "longitude": "-90.10791082620794"
    }
  },
  {
    "service_request": "2024-1080956",
    "request_type": "Trash/Recycling",
    "request_reason": "Missed Trash Pick-Up",
    "date_created": "2024-04-02T15:30:46.000",
    "date_modified": "2024-04-02T15:30:47.000",
    "request_status": "Pending",
    "responsible_agency": "Department of Sanitation",
    "final_address": "7160 Queensway Dr",
    "address_councildis": "E",
    "status": "Assigned to Contractor",
    "rowid": "1080956",
    "final_x": "3718782.91935",
    "final_y": "569925.195558",
    "longitude": "-89.94888053769145",
    "latitude": "30.059910215933495",
    "geocoded_column": {
      "latitude": "30.059910215933495",
      "longitude": "-89.94888053769145"
    }
  },
  {
    "service_request": "2024-1080955",
    "request_type": "Parks & Parkways",
    "request_reason": "Request Tree Service (Right of Way/Public Property)",
    "date_created": "2024-04-02T15:30:30.000",
    "date_modified": "2024-04-02T15:30:30.000",
    "request_status": "Pending",
    "responsible_agency": "Department of Parks & Parkway",
    "final_address": "EVERGREEN AVE & MARDI GRAS BLVD",
    "address_councildis": "C",
    "status": "Pending",
    "rowid": "1080955",
    "final_x": "3688180.7",
    "final_y": "525274.28",
    "longitude": "-90.04719649839132",
    "latitude": "29.938117552108114",
    "geocoded_column": {
      "latitude": "29.938117552108114",
      "longitude": "-90.04719649839132"
    }
  },
  {
    "service_request": "2024-1080954",
    "request_type": "Trash/Recycling",
    "request_reason": "Repair Trash Cart",
    "date_created": "2024-04-02T15:29:36.000",
    "date_modified": "2024-04-02T15:29:36.000",
    "request_status": "Pending",
    "responsible_agency": "Department of Sanitation",
    "final_address": "4910 Lancelot Dr",
    "address_councildis": "E",
    "status": "Assigned to Contractor",
    "rowid": "1080954",
    "final_x": "3707274.47576",
    "final_y": "556523.590874",
    "longitude": "-89.98575600038606",
    "latitude": "30.02343844215454",
    "geocoded_column": {
      "latitude": "30.02343844215454",
      "longitude": "-89.98575600038606"
    }
  },
  {
    "service_request": "2024-1080953",
    "request_type": "Trash/Recycling",
    "request_reason": "Order Trash Cart",
    "date_created": "2024-04-02T15:26:01.000",
    "date_modified": "2024-04-02T15:26:01.000",
    "request_status": "Pending",
    "responsible_agency": "Department of Sanitation",
    "final_address": "3022 Louisiana Avenue Prkwy",
    "address_councildis": "B",
    "status": "Assigned to Contractor",
    "contractor": "IV Waste",
    "rowid": "1080953",
    "final_x": "3672059.01223",
    "final_y": "526380.881342",
    "longitude": "-90.09805656696768",
    "latitude": "29.941648069901706",
    "geocoded_column": {
      "latitude": "29.941648069901706",
      "longitude": "-90.09805656696768"
    }
  },
  {
    "service_request": "2024-1080952",
    "request_type": "Trash/Recycling",
    "request_reason": "Order Trash Cart",
    "date_created": "2024-04-02T15:25:46.000",
    "date_modified": "2024-04-02T15:25:47.000",
    "request_status": "Pending",
    "responsible_agency": "Department of Sanitation",
    "final_address": "3020 Louisiana Avenue Prkwy",
    "address_councildis": "B",
    "status": "Assigned to Contractor",
    "contractor": "IV Waste",
    "rowid": "1080952",
    "final_x": "3672063.17889",
    "final_y": "526369.770366",
    "longitude": "-90.09804379013383",
    "latitude": "29.941617394827876",
    "geocoded_column": {
      "latitude": "29.941617394827876",
      "longitude": "-90.09804379013383"
    }
  },
  {
    "service_request": "2024-1080951",
    "request_type": "Trash/Recycling",
    "request_reason": "Request a Large Item Pick Up",
    "date_created": "2024-04-02T15:24:47.000",
    "date_modified": "2024-04-02T15:24:48.000",
    "request_status": "Pending",
    "responsible_agency": "Department of Sanitation",
    "final_address": "39 Grand Canyon Dr",
    "address_councildis": "C",
    "status": "Assigned to Contractor",
    "contractor": "Richards Disposal",
    "rowid": "1080951",
    "final_x": "3699520.8266",
    "final_y": "516826.552501",
    "longitude": "-90.01170253864645",
    "latitude": "29.914534338902897",
    "geocoded_column": {
      "latitude": "29.914534338902897",
      "longitude": "-90.01170253864645"
    }
  },
  {
    "service_request": "2024-1080950",
    "request_type": "Trash/Recycling",
    "request_reason": "MIssed Recycling Pick-Up",
    "date_created": "2024-04-02T15:24:25.000",
    "date_modified": "2024-04-02T17:16:24.000",
    "case_close_date": "2024-04-02T12:16:24.000",
    "request_status": "Closed",
    "responsible_agency": "Department of Sanitation",
    "final_address": "422 S Scott St",
    "address_councildis": "B",
    "status": "Assigned to Contractor",
    "contractor": "IV Waste",
    "contractor_action": "Invalid Request",
    "rowid": "1080950",
    "final_x": "3670939.61243",
    "final_y": "536640.728071",
    "longitude": "-90.10124243970867",
    "latitude": "29.96989239231165",
    "geocoded_column": {
      "latitude": "29.96989239231165",
      "longitude": "-90.10124243970867"
    }
  },
  {
    "service_request": "2024-1080949",
    "request_type": "Trash/Recycling",
    "request_reason": "Request a Large Item Pick Up",
    "date_created": "2024-04-02T15:21:33.000",
    "date_modified": "2024-04-02T15:21:34.000",
    "request_status": "Pending",
    "responsible_agency": "Department of Sanitation",
    "final_address": "1128 Merrill St",
    "address_councildis": "C",
    "status": "Assigned to Contractor",
    "contractor": "Richards Disposal",
    "rowid": "1080949",
    "final_x": "3695025.78755",
    "final_y": "527825.559807",
    "longitude": "-90.02549411188558",
    "latitude": "29.944919653530647",
    "geocoded_column": {
      "latitude": "29.944919653530647",
      "longitude": "-90.02549411188558"
    }
  },
  {
    "service_request": "2024-1080948",
    "request_type": "Trash/Recycling",
    "request_reason": "Missed Trash Pick-Up",
    "date_created": "2024-04-02T15:19:59.000",
    "date_modified": "2024-04-02T17:01:06.000",
    "case_close_date": "2024-04-01T19:00:00.000",
    "request_status": "Closed",
    "responsible_agency": "Department of Sanitation",
    "final_address": "4167 Dumaine St",
    "address_councildis": "A",
    "status": "Assigned to Contractor",
    "contractor": "IV Waste",
    "contractor_action": "Invalid Request",
    "rowid": "1080948",
    "final_x": "3672667.33902",
    "final_y": "541020.299211",
    "longitude": "-90.0956367046887",
    "latitude": "29.981883529319383",
    "geocoded_column": {
      "latitude": "29.981883529319383",
      "longitude": "-90.0956367046887"
    }
  },
  {
    "service_request": "2024-1080947",
    "request_type": "Trash/Recycling",
    "request_reason": "Missed Trash Pick-Up",
    "date_created": "2024-04-02T15:19:55.000",
    "date_modified": "2024-04-02T17:19:49.000",
    "case_close_date": "2024-04-02T12:19:49.000",
    "request_status": "Closed",
    "responsible_agency": "Department of Sanitation",
    "final_address": "6616 Bellaire Dr",
    "address_councildis": "A",
    "status": "Invalid Request",
    "contractor": "IV Waste",
    "contractor_action": "Invalid Request",
    "rowid": "1080947",
    "final_x": "3664489.51303",
    "final_y": "552229.846038",
    "longitude": "-90.12109170797584",
    "latitude": "30.012946302779707",
    "geocoded_column": {
      "latitude": "30.012946302779707",
      "longitude": "-90.12109170797584"
    }
  },
  {
    "service_request": "2024-1080946",
    "request_type": "Trash/Recycling",
    "request_reason": "Request a Large Item Pick Up",
    "date_created": "2024-04-02T15:19:18.000",
    "date_modified": "2024-04-02T15:19:19.000",
    "request_status": "Pending",
    "responsible_agency": "Department of Sanitation",
    "final_address": "11228 Will Stutley Dr",
    "address_councildis": "E",
    "status": "Assigned to Contractor",
    "rowid": "1080946",
    "final_x": "3716794.96293",
    "final_y": "558190.161307",
    "longitude": "-89.9556102911253",
    "latitude": "30.027709543505843",
    "geocoded_column": {
      "latitude": "30.027709543505843",
      "longitude": "-89.9556102911253"
    }
  },
  {
    "service_request": "2024-1080945",
    "request_type": "Roads/Drainage",
    "request_reason": "Pothole",
    "date_created": "2024-04-02T15:19:12.000",
    "date_modified": "2024-04-02T15:19:13.000",
    "request_status": "Pending",
    "responsible_agency": "Department of Public Works",
    "final_address": "8601 Morrison Rd",
    "address_councildis": "E",
    "status": "Pending",
    "rowid": "1080945",
    "final_x": "3704604.6099",
    "final_y": "561448.912415",
    "longitude": "-89.9940102432698",
    "latitude": "30.037067221306245",
    "geocoded_column": {
      "latitude": "30.037067221306245",
      "longitude": "-89.9940102432698"
    }
  },
  {
    "service_request": "2024-1080944",
    "request_type": "Trash/Recycling",
    "request_reason": "Request a Large Item Pick Up",
    "date_created": "2024-04-02T15:18:13.000",
    "date_modified": "2024-04-02T15:18:14.000",
    "request_status": "Pending",
    "responsible_agency": "Department of Sanitation",
    "final_address": "4858 Redwood St",
    "address_councildis": "E",
    "status": "Assigned to Contractor",
    "rowid": "1080944",
    "final_x": "3712344.51646",
    "final_y": "556850.575578",
    "longitude": "-89.96972360249306",
    "latitude": "30.02417259549946",
    "geocoded_column": {
      "latitude": "30.02417259549946",
      "longitude": "-89.96972360249306"
    }
  },
  {
    "service_request": "2024-1080943",
    "request_type": "Trash/Recycling",
    "request_reason": "Order Trash Cart",
    "date_created": "2024-04-02T15:17:51.000",
    "date_modified": "2024-04-02T15:17:51.000",
    "request_status": "Pending",
    "responsible_agency": "Department of Sanitation",
    "final_address": "4664 Bonita Dr",
    "address_councildis": "E",
    "status": "Assigned to Contractor",
    "rowid": "1080943",
    "final_x": "3704477.82212",
    "final_y": "554844.729496",
    "longitude": "-89.9946547481912",
    "latitude": "30.018912360856106",
    "geocoded_column": {
      "latitude": "30.018912360856106",
      "longitude": "-89.9946547481912"
    }
  },
  {
    "service_request": "2024-1080942",
    "request_type": "Traffic Signals/Signs/Striping/Streetlights",
    "request_reason": "Traffic Sign Missing/Damaged",
    "date_created": "2024-04-02T15:14:45.000",
    "date_modified": "2024-04-02T15:14:45.000",
    "request_status": "Pending",
    "responsible_agency": "Department of Public Works",
    "final_address": "DOWNMAN RD & CHEF MENTEUR HWY & CHEF MENTEUR BRIDGE",
    "address_councildis": "E",
    "status": "Pending",
    "rowid": "1080942",
    "final_x": "3696226.0",
    "final_y": "551412.88",
    "longitude": "-90.02085166660345",
    "latitude": "30.009738562374903",
    "geocoded_column": {
      "latitude": "30.009738562374903",
      "longitude": "-90.02085166660345"
    }
  },
  {
    "service_request": "2024-1080941",
    "request_type": "Parks & Parkways",
    "request_reason": "Request Tree Service (Right of Way/Public Property)",
    "date_created": "2024-04-02T15:11:39.000",
    "date_modified": "2024-04-02T15:11:39.000",
    "request_status": "Pending",
    "responsible_agency": "Department of Parks & Parkway",
    "final_address": "1622 King Dr",
    "address_councildis": "D",
    "status": "Pending",
    "rowid": "1080941",
    "final_x": "3680145.86082",
    "final_y": "549966.630164",
    "longitude": "-90.07170486605632",
    "latitude": "30.006258540902817",
    "geocoded_column": {
      "latitude": "30.006258540902817",
      "longitude": "-90.07170486605632"
    }
  },
  {
    "service_request": "2024-1080940",
    "request_type": "Trash/Recycling",
    "request_reason": "Request a Large Item Pick Up",
    "date_created": "2024-04-02T15:10:50.000",
    "date_modified": "2024-04-02T15:10:51.000",
    "request_status": "Pending",
    "responsible_agency": "Department of Sanitation",
    "final_address": "820 Peniston St",
    "address_councildis": "B",
    "status": "Assigned to Contractor",
    "contractor": "IV Waste",
    "rowid": "1080940",
    "final_x": "3673386.35489",
    "final_y": "518855.676983",
    "longitude": "-90.09412281687504",
    "latitude": "29.920916778081793",
    "geocoded_column": {
      "latitude": "29.920916778081793",
      "longitude": "-90.09412281687504"
    }
  },
  {
    "service_request": "2024-1080939",
    "request_type": "Trash/Recycling",
    "request_reason": "Request a Large Item Pick Up",
    "date_created": "2024-04-02T15:05:46.000",
    "date_modified": "2024-04-02T15:05:46.000",
    "request_status": "Pending",
    "responsible_agency": "Department of Sanitation",
    "final_address": "5134 Timber Crest Dr",
    "address_councildis": "C",
    "status": "Assigned to Contractor",
    "contractor": "Richards Disposal",
    "rowid": "1080939",
    "final_x": "3703202.1898",
    "final_y": "511258.926256",
    "longitude": "-90.00028741917225",
    "latitude": "29.89910799173849",
    "geocoded_column": {
      "latitude": "29.89910799173849",
      "longitude": "-90.00028741917225"
    }
  },
  {
    "service_request": "2024-1080938",
    "request_type": "Trash/Recycling",
    "request_reason": "Request a Large Item Pick Up",
    "date_created": "2024-04-02T15:05:29.000",
    "date_modified": "2024-04-02T15:05:30.000",
    "request_status": "Pending",
    "responsible_agency": "Department of Sanitation",
    "final_address": "10311 Brookfield Dr",
    "address_councildis": "E",
    "status": "Assigned to Contractor",
    "rowid": "1080938",
    "final_x": "3710438.59787",
    "final_y": "563194.590688",
    "longitude": "-89.9755083481934",
    "latitude": "30.04167834977917",
    "geocoded_column": {
      "latitude": "30.04167834977917",
      "longitude": "-89.9755083481934"
    }
  },
  {
    "service_request": "2024-1080937",
    "request_type": "Trash/Recycling",
    "request_reason": "Missed Trash Pick-Up",
    "date_created": "2024-04-02T15:04:51.000",
    "date_modified": "2024-04-02T15:04:52.000",
    "request_status": "Pending",
    "responsible_agency": "Department of Sanitation",
    "final_address": "10740 Dwyer Rd",
    "address_councildis": "E",
    "status": "Assigned to Contractor",
    "rowid": "1080937",
    "final_x": "3715190.35275",
    "final_y": "558247.877532",
    "longitude": "-89.96067849876772",
    "latitude": "30.027921191897622",
    "geocoded_column": {
      "latitude": "30.027921191897622",
      "longitude": "-89.96067849876772"
    }
  },
  {
    "service_request": "2024-1080936",
    "request_type": "Roads/Drainage",
    "request_reason": "Street Flooding / Drainage",
    "date_created": "2024-04-02T15:00:12.000",
    "date_modified": "2024-04-02T15:00:12.000",
    "request_status": "Pending",
    "responsible_agency": "Department of Public Works",
    "final_address": "1538 Dublin St",
    "address_councildis": "A",
    "status": "Pending",
    "rowid": "1080936",
    "final_x": "3662591.93472",
    "final_y": "529647.607489",
    "longitude": "-90.12783768142836",
    "latitude": "29.95090775740007",
    "geocoded_column": {
      "latitude": "29.95090775740007",
      "longitude": "-90.12783768142836"
    }
  },
  {
    "service_request": "2024-1080935",
    "request_type": "Trash/Recycling",
    "request_reason": "Replace Trash Cart",
    "date_created": "2024-04-02T14:59:04.000",
    "date_modified": "2024-04-02T14:59:04.000",
    "request_status": "Pending",
    "responsible_agency": "Department of Sanitation",
    "final_address": "13225 Willowbrook Dr",
    "address_councildis": "E",
    "status": "Assigned to Contractor",
    "rowid": "1080935",
    "final_x": "3726757.58925",
    "final_y": "564012.137761",
    "longitude": "-89.9239033156921",
    "latitude": "30.043384444096866",
    "geocoded_column": {
      "latitude": "30.043384444096866",
      "longitude": "-89.9239033156921"
    }
  },
  {
    "service_request": "2024-1080934",
    "request_type": "Trash/Recycling",
    "request_reason": "Request a Large Item Pick Up",
    "date_created": "2024-04-02T14:55:54.000",
    "date_modified": "2024-04-02T14:56:25.000",
    "request_status": "Pending",
    "responsible_agency": "Department of Sanitation",
    "final_address": "7901 Pompano St",
    "address_councildis": "E",
    "status": "Assigned to Contractor",
    "contractor": "Waste Pro",
    "rowid": "1080934",
    "final_x": "3700298.91882",
    "final_y": "561491.217119",
    "longitude": "-90.00761555137743",
    "latitude": "30.037321221032563",
    "geocoded_column": {
      "latitude": "30.037321221032563",
      "longitude": "-90.00761555137743"
    }
  },
  {
    "service_request": "2024-1080933",
    "request_type": "Trash/Recycling",
    "request_reason": "Request a Large Item Pick Up",
    "date_created": "2024-04-02T14:55:43.000",
    "date_modified": "2024-04-02T14:55:44.000",
    "request_status": "Pending",
    "responsible_agency": "Department of Sanitation",
    "final_address": "1722 St Roch Ave",
    "address_councildis": "D",
    "status": "Assigned to Contractor",
    "contractor": "IV Waste",
    "rowid": "1080933",
    "final_x": "3686211.47151",
    "final_y": "538814.473865",
    "longitude": "-90.0529358419957",
    "latitude": "29.975409063014112",
    "geocoded_column": {
      "latitude": "29.975409063014112",
      "longitude": "-90.0529358419957"
    }
  },
  {
    "service_request": "2024-1080932",
    "request_type": "Trash/Recycling",
    "request_reason": "Dead Animal Pick Up",
    "date_created": "2024-04-02T14:54:46.000",
    "date_modified": "2024-04-02T16:36:52.000",
    "case_close_date": "2024-04-02T11:36:52.000",
    "request_status": "Closed",
    "responsible_agency": "Department of Sanitation",
    "final_address": "1011 Thalia St",
    "address_councildis": "B",
    "status": "Assigned to Contractor",
    "contractor": "IV Waste",
    "contractor_action": "Completed",
    "rowid": "1080932",
    "final_x": "3680811.89211",
    "final_y": "525199.300669",
    "longitude": "-90.07046308684633",
    "latitude": "29.938136753165008",
    "geocoded_column": {
      "latitude": "29.938136753165008",
      "longitude": "-90.07046308684633"
    }
  },
  {
    "service_request": "2024-1080931",
    "request_type": "Trash/Recycling",
    "request_reason": "Order Recycling Cart",
    "date_created": "2024-04-02T14:48:16.000",
    "date_modified": "2024-04-02T14:48:45.000",
    "request_status": "Pending",
    "responsible_agency": "Department of Sanitation",
    "final_address": "4938 Montegut Dr",
    "address_councildis": "D",
    "status": "Pending",
    "rowid": "1080931",
    "final_x": "3689687.12374",
    "final_y": "551645.522837",
    "longitude": "-90.0415019592096",
    "latitude": "30.010582566975717",
    "geocoded_column": {
      "latitude": "30.010582566975717",
      "longitude": "-90.0415019592096"
    }
  },
  {
    "service_request": "2024-1080930",
    "request_type": "Trash/Recycling",
    "request_reason": "Order Recycling Cart",
    "date_created": "2024-04-02T14:44:56.000",
    "date_modified": "2024-04-02T14:44:56.000",
    "request_status": "Pending",
    "responsible_agency": "Department of Sanitation",
    "final_address": "842 Royal Street",
    "address_councildis": "C",
    "status": "Pending",
    "rowid": "1080930",
    "final_x": "3683000.74428",
    "final_y": "533014.718916",
    "longitude": "-90.06327920276037",
    "latitude": "29.959559998437275",
    "geocoded_column": {
      "latitude": "29.959559998437275",
      "longitude": "-90.06327920276037"
    }
  },
  {
    "service_request": "2024-1080929",
    "request_type": "Trash/Recycling",
    "request_reason": "Missed Trash Pick-Up",
    "date_created": "2024-04-02T14:38:37.000",
    "date_modified": "2024-04-02T14:40:02.000",
    "request_status": "Pending",
    "responsible_agency": "Department of Sanitation",
    "final_address": "10951 Roger Dr Apt B",
    "address_councildis": "E",
    "status": "Assigned to Contractor",
    "contractor": "Waste Pro",
    "rowid": "1080929",
    "final_x": "3712055.11282",
    "final_y": "563454.614432",
    "longitude": "-89.97038984242478",
    "latitude": "30.04234054045688",
    "geocoded_column": {
      "latitude": "30.04234054045688",
      "longitude": "-89.97038984242478"
    }
  },
  {
    "service_request": "2024-1080928",
    "request_type": "Trash/Recycling",
    "request_reason": "Order Trash Cart",
    "date_created": "2024-04-02T14:35:28.000",
    "date_modified": "2024-04-02T14:39:24.000",
    "request_status": "Pending",
    "responsible_agency": "Department of Sanitation",
    "final_address": "10951 Roger Dr Apt B",
    "address_councildis": "E",
    "status": "Assigned to Contractor",
    "contractor": "Waste Pro",
    "rowid": "1080928",
    "final_x": "3712055.11282",
    "final_y": "563454.614432",
    "longitude": "-89.97038984242478",
    "latitude": "30.04234054045688",
    "geocoded_column": {
      "latitude": "30.04234054045688",
      "longitude": "-89.97038984242478"
    }
  },
  {
    "service_request": "2024-1080927",
    "request_type": "Trash/Recycling",
    "request_reason": "Replace Trash Cart",
    "date_created": "2024-04-02T14:33:31.000",
    "date_modified": "2024-04-02T14:40:58.000",
    "request_status": "Pending",
    "responsible_agency": "Department of Sanitation",
    "final_address": "1500 Reynes St",
    "address_councildis": "E",
    "status": "Assigned to Contractor",
    "contractor": "Waste Pro",
    "rowid": "1080927",
    "final_x": "3696313.11031",
    "final_y": "535793.648263",
    "longitude": "-90.02114156261764",
    "latitude": "29.966788628962043",
    "geocoded_column": {
      "latitude": "29.966788628962043",
      "longitude": "-90.02114156261764"
    }
  },
  {
    "service_request": "2024-1080926",
    "request_type": "Abandoned Vehicles",
    "request_reason": "Abandoned/Junk Vehicles",
    "date_created": "2024-04-02T14:31:53.000",
    "date_modified": "2024-04-02T14:31:53.000",
    "request_status": "Pending",
    "responsible_agency": "Department of Public Works",
    "final_address": "7700 Cohn St",
    "address_councildis": "A",
    "status": "Pending",
    "rowid": "1080926",
    "final_x": "3664637.7209",
    "final_y": "529203.05536",
    "longitude": "-90.12139294082709",
    "latitude": "29.949626043219176",
    "geocoded_column": {
      "latitude": "29.949626043219176",
      "longitude": "-90.12139294082709"
    }
  },
  {
    "service_request": "2024-1080925",
    "request_type": "Roads/Drainage",
    "request_reason": "Street Subsidence (Sinking)",
    "date_created": "2024-04-02T14:28:22.000",
    "date_modified": "2024-04-02T14:28:22.000",
    "request_status": "Pending",
    "responsible_agency": "Department of Public Works",
    "final_address": "1525 Erie St",
    "address_councildis": "C",
    "status": "Pending",
    "rowid": "1080925",
    "final_x": "3690196.41456",
    "final_y": "522393.58777",
    "longitude": "-90.04093530551678",
    "latitude": "29.930134257767932",
    "geocoded_column": {
      "latitude": "29.930134257767932",
      "longitude": "-90.04093530551678"
    }
  },
  {
    "service_request": "2024-1080923",
    "request_type": "Trash/Recycling",
    "request_reason": "Order Trash Cart",
    "date_created": "2024-04-02T14:19:41.000",
    "date_modified": "2024-04-02T14:41:21.000",
    "request_status": "Pending",
    "responsible_agency": "Department of Sanitation",
    "final_address": "10951 Roger Dr Apt D",
    "address_councildis": "E",
    "status": "Assigned to Contractor",
    "contractor": "Waste Pro",
    "rowid": "1080923",
    "final_x": "3712042.61278",
    "final_y": "563476.28112",
    "longitude": "-89.97042853255273",
    "latitude": "30.042400523955024",
    "geocoded_column": {
      "latitude": "30.042400523955024",
      "longitude": "-89.97042853255273"
    }
  },
  {
    "service_request": "2024-1080922",
    "request_type": "Parks & Parkways",
    "request_reason": "Request Tree Service (Right of Way/Public Property)",
    "date_created": "2024-04-02T14:18:06.000",
    "date_modified": "2024-04-02T14:18:07.000",
    "request_status": "Pending",
    "responsible_agency": "Department of Parks & Parkway",
    "final_address": "2721 Milan St",
    "address_councildis": "B",
    "status": "Pending",
    "rowid": "1080922",
    "final_x": "3671242.40455",
    "final_y": "525001.945405",
    "longitude": "-90.10068160256061",
    "latitude": "29.937880625162116",
    "geocoded_column": {
      "latitude": "29.937880625162116",
      "longitude": "-90.10068160256061"
    }
  },
  {
    "service_request": "2024-1080921",
    "request_type": "Trash/Recycling",
    "request_reason": "Request a Large Item Pick Up",
    "date_created": "2024-04-02T14:17:54.000",
    "date_modified": "2024-04-02T17:13:32.000",
    "case_close_date": "2024-04-02T12:13:32.000",
    "request_status": "Closed",
    "responsible_agency": "Department of Sanitation",
    "final_address": "4712 Charlene Dr",
    "address_councildis": "E",
    "status": "Assigned to Contractor",
    "contractor": "Waste Pro",
    "contractor_action": "Completed",
    "rowid": "1080921",
    "final_x": "3707865.74961",
    "final_y": "555319.713689",
    "longitude": "-89.9839325130393",
    "latitude": "30.02010911494464",
    "geocoded_column": {
      "latitude": "30.02010911494464",
      "longitude": "-89.9839325130393"
    }
  },
  {
    "service_request": "2024-1080920",
    "request_type": "Trash/Recycling",
    "request_reason": "Request a Large Item Pick Up",
    "date_created": "2024-04-02T14:17:12.000",
    "date_modified": "2024-04-02T14:17:13.000",
    "request_status": "Pending",
    "responsible_agency": "Department of Sanitation",
    "final_address": "1532 Delery St",
    "address_councildis": "E",
    "status": "Assigned to Contractor",
    "rowid": "1080920",
    "final_x": "3701049.46378",
    "final_y": "534568.074885",
    "longitude": "-90.00622909890456",
    "latitude": "29.96326875242297",
    "geocoded_column": {
      "latitude": "29.96326875242297",
      "longitude": "-90.00622909890456"
    }
  },
  {
    "service_request": "2024-1080919",
    "request_type": "Roads/Drainage",
    "request_reason": "Pothole",
    "date_created": "2024-04-02T14:17:01.000",
    "date_modified": "2024-04-02T14:17:02.000",
    "request_status": "Pending",
    "responsible_agency": "Department of Public Works",
    "final_address": "OAK ST & MONROE ST",
    "address_councildis": "A",
    "status": "Pending",
    "rowid": "1080919",
    "final_x": "3660389.1",
    "final_y": "529803.18",
    "longitude": "-90.13478802098518",
    "latitude": "29.951399072271673",
    "geocoded_column": {
      "latitude": "29.951399072271673",
      "longitude": "-90.13478802098518"
    }
  },
  {
    "service_request": "2024-1080918",
    "request_type": "Traffic Signals/Signs/Striping/Streetlights",
    "request_reason": "Street Light Outage/Malfunction",
    "date_created": "2024-04-02T14:16:27.000",
    "date_modified": "2024-04-02T14:16:28.000",
    "request_status": "Pending",
    "responsible_agency": "Department of Public Works",
    "final_address": "9339 Stroelitz St",
    "address_councildis": "A",
    "status": "Assigned to Contractor",
    "contractor": "Legacy Professional Services",
    "rowid": "1080918",
    "final_x": "3664634.96986",
    "final_y": "538047.056265",
    "longitude": "-90.12110620278995",
    "latitude": "29.97394422742938",
    "geocoded_column": {
      "latitude": "29.97394422742938",
      "longitude": "-90.12110620278995"
    }
  },
  {
    "service_request": "2024-1080917",
    "request_type": "Trash/Recycling",
    "request_reason": "Replace Trash Cart",
    "date_created": "2024-04-02T14:16:02.000",
    "date_modified": "2024-04-02T14:16:03.000",
    "request_status": "Pending",
    "responsible_agency": "Department of Sanitation",
    "final_address": "436 S Norman C Francis Prkwy",
    "address_councildis": "B",
    "status": "Assigned to Contractor",
    "contractor": "IV Waste",
    "rowid": "1080917",
    "final_x": "3672386.35284",
    "final_y": "535411.189702",
    "longitude": "-90.09671539224095",
    "latitude": "29.96646872136742",
    "geocoded_column": {
      "latitude": "29.96646872136742",
      "longitude": "-90.09671539224095"
    }
  },
  {
    "service_request": "2024-1080916",
    "request_type": "Abandoned Vehicles",
    "request_reason": "Abandoned/Junk Vehicles",
    "date_created": "2024-04-02T14:15:54.000",
    "date_modified": "2024-04-02T14:15:55.000",
    "request_status": "Pending",
    "responsible_agency": "Department of Public Works",
    "final_address": "2032 Adams St",
    "address_councildis": "A",
    "status": "Pending",
    "rowid": "1080916",
    "final_x": "3665094.72538",
    "final_y": "529666.435585",
    "longitude": "-90.11993447038766",
    "latitude": "29.950886889948777",
    "geocoded_column": {
      "latitude": "29.950886889948777",
      "longitude": "-90.11993447038766"
    }
  },
  {
    "service_request": "2024-1080915",
    "request_type": "Trash/Recycling",
    "request_reason": "Replace Trash Cart",
    "date_created": "2024-04-02T14:13:12.000",
    "date_modified": "2024-04-02T14:13:12.000",
    "request_status": "Pending",
    "responsible_agency": "Department of Sanitation",
    "final_address": "1135 Washington Ave",
    "address_councildis": "B",
    "status": "Assigned to Contractor",
    "contractor": "IV Waste",
    "rowid": "1080915",
    "final_x": "3676929.66971",
    "final_y": "521095.761081",
    "longitude": "-90.08286100636046",
    "latitude": "29.92697044010774",
    "geocoded_column": {
      "latitude": "29.92697044010774",
      "longitude": "-90.08286100636046"
    }
  },
  {
    "service_request": "2024-1080913",
    "request_type": "Trash/Recycling",
    "request_reason": "Missed Trash Pick-Up",
    "date_created": "2024-04-02T14:10:09.000",
    "date_modified": "2024-04-02T14:10:10.000",
    "request_status": "Pending",
    "responsible_agency": "Department of Sanitation",
    "final_address": "7113 E Tamaron Blvd",
    "address_councildis": "E",
    "status": "Assigned to Contractor",
    "rowid": "1080913",
    "final_x": "3718659.41605",
    "final_y": "568993.591782",
    "longitude": "-89.94930648882243",
    "latitude": "30.05735279524369",
    "geocoded_column": {
      "latitude": "30.05735279524369",
      "longitude": "-89.94930648882243"
    }
  },
  {
    "service_request": "2024-1080912",
    "request_type": "Trash/Recycling",
    "request_reason": "Replace Recycling Cart",
    "date_created": "2024-04-02T14:09:52.000",
    "date_modified": "2024-04-02T14:09:52.000",
    "request_status": "Pending",
    "responsible_agency": "Department of Sanitation",
    "final_address": "1229 N Prieur St",
    "address_councildis": "D",
    "status": "Pending",
    "rowid": "1080912",
    "final_x": "3680133.41621",
    "final_y": "536965.043656",
    "longitude": "-90.07219626449839",
    "latitude": "29.97050911887782",
    "geocoded_column": {
      "latitude": "29.97050911887782",
      "longitude": "-90.07219626449839"
    }
  },
  {
    "service_request": "2024-1080911",
    "request_type": "Trash/Recycling",
    "request_reason": "Replace Recycling Cart",
    "date_created": "2024-04-02T14:09:34.000",
    "date_modified": "2024-04-02T14:09:35.000",
    "request_status": "Pending",
    "responsible_agency": "Department of Sanitation",
    "final_address": "1225 N Prieur St",
    "address_councildis": "D",
    "status": "Pending",
    "rowid": "1080911",
    "final_x": "3680076.21282",
    "final_y": "536964.140168",
    "longitude": "-90.07237695073533",
    "latitude": "29.97050836563708",
    "geocoded_column": {
      "latitude": "29.97050836563708",
      "longitude": "-90.07237695073533"
    }
  },
  {
    "service_request": "2024-1080910",
    "request_type": "Trash/Recycling",
    "request_reason": "Order Trash Cart",
    "date_created": "2024-04-02T14:07:39.000",
    "date_modified": "2024-04-02T14:07:39.000",
    "request_status": "Pending",
    "responsible_agency": "Department of Sanitation",
    "final_address": "305 Vallette St",
    "address_councildis": "C",
    "status": "Assigned to Contractor",
    "contractor": "Richards Disposal",
    "rowid": "1080910",
    "final_x": "3687518.14479",
    "final_y": "530729.834178",
    "longitude": "-90.04909519974422",
    "latitude": "29.95313890093693",
    "geocoded_column": {
      "latitude": "29.95313890093693",
      "longitude": "-90.04909519974422"
    }
  },
  {
    "service_request": "2024-1080909",
    "request_type": "Trash/Recycling",
    "request_reason": "Order Trash Cart",
    "date_created": "2024-04-02T14:06:42.000",
    "date_modified": "2024-04-02T14:06:43.000",
    "request_status": "Pending",
    "responsible_agency": "Department of Sanitation",
    "final_address": "1808 Felicity St",
    "address_councildis": "B",
    "status": "Assigned to Contractor",
    "contractor": "IV Waste",
    "rowid": "1080909",
    "final_x": "3677777.29518",
    "final_y": "525208.970557",
    "longitude": "-90.08004325494356",
    "latitude": "29.93825495695762",
    "geocoded_column": {
      "latitude": "29.93825495695762",
      "longitude": "-90.08004325494356"
    }
  },
  {
    "service_request": "2024-1080908",
    "request_type": "Roads/Drainage",
    "request_reason": "Pothole",
    "date_created": "2024-04-02T14:06:16.000",
    "date_modified": "2024-04-02T14:06:16.000",
    "request_status": "Pending",
    "responsible_agency": "Department of Public Works",
    "final_address": "MANDEVILLE ST & PRENTISS AVE",
    "address_councildis": "D",
    "status": "Pending",
    "rowid": "1080908",
    "final_x": "3684353.3",
    "final_y": "553899.58",
    "longitude": "-90.0582742841853",
    "latitude": "30.016944669211586",
    "geocoded_column": {
      "latitude": "30.016944669211586",
      "longitude": "-90.0582742841853"
    }
  },
  {
    "service_request": "2024-1080907",
    "request_type": "Trash/Recycling",
    "request_reason": "Replace Trash Cart",
    "date_created": "2024-04-02T13:59:50.000",
    "date_modified": "2024-04-02T13:59:51.000",
    "request_status": "Pending",
    "responsible_agency": "Department of Sanitation",
    "final_address": "1019 Melpomene St",
    "address_councildis": "B",
    "status": "Assigned to Contractor",
    "contractor": "IV Waste",
    "rowid": "1080907",
    "final_x": "3680665.21019",
    "final_y": "524868.98598",
    "longitude": "-90.07093766387912",
    "latitude": "29.937232941720655",
    "geocoded_column": {
      "latitude": "29.937232941720655",
      "longitude": "-90.07093766387912"
    }
  },
  {
    "service_request": "2024-1080905",
    "request_type": "Traffic Signals/Signs/Striping/Streetlights",
    "request_reason": "Street Light Outage/Malfunction",
    "date_created": "2024-04-02T13:54:22.000",
    "date_modified": "2024-04-02T13:54:22.000",
    "request_status": "Pending",
    "responsible_agency": "Department of Public Works",
    "final_address": "2407 S Miro St",
    "address_councildis": "B",
    "status": "Assigned to Contractor",
    "contractor": "Legacy Professional Services",
    "rowid": "1080905",
    "final_x": "3672921.32968",
    "final_y": "529034.314368",
    "longitude": "-90.09524353285602",
    "latitude": "29.94891855035227",
    "geocoded_column": {
      "latitude": "29.94891855035227",
      "longitude": "-90.09524353285602"
    }
  },
  {
    "service_request": "2024-1080904",
    "request_type": "Trash/Recycling",
    "request_reason": "Order Trash Cart",
    "date_created": "2024-04-02T13:51:54.000",
    "date_modified": "2024-04-02T13:51:55.000",
    "request_status": "Pending",
    "responsible_agency": "Department of Sanitation",
    "final_address": "2840 Bruxelles St",
    "address_councildis": "D",
    "status": "Assigned to Contractor",
    "contractor": "IV Waste",
    "rowid": "1080904",
    "final_x": "3680264.80911",
    "final_y": "542934.843469",
    "longitude": "-90.07157370463683",
    "latitude": "29.986920018711828",
    "geocoded_column": {
      "latitude": "29.986920018711828",
      "longitude": "-90.07157370463683"
    }
  },
  {
    "service_request": "2024-1080903",
    "request_type": "Trash/Recycling",
    "request_reason": "Order Recycling Cart",
    "date_created": "2024-04-02T13:48:13.000",
    "date_modified": "2024-04-02T13:48:13.000",
    "request_status": "Pending",
    "responsible_agency": "Department of Sanitation",
    "final_address": "938 Dante St",
    "address_councildis": "A",
    "status": "Pending",
    "rowid": "1080903",
    "final_x": "3660900.88454",
    "final_y": "528345.060864",
    "longitude": "-90.13322026832542",
    "latitude": "29.94737498160167",
    "geocoded_column": {
      "latitude": "29.94737498160167",
      "longitude": "-90.13322026832542"
    }
  },
  {
    "service_request": "2024-1080902",
    "request_type": "Traffic Signals/Signs/Striping/Streetlights",
    "request_reason": "Street Light Outage/Malfunction",
    "date_created": "2024-04-02T13:46:48.000",
    "date_modified": "2024-04-02T13:46:49.000",
    "request_status": "Pending",
    "responsible_agency": "Department of Public Works",
    "final_address": "330 S Bernadotte St",
    "address_councildis": "A",
    "status": "Assigned to Contractor",
    "contractor": "Legacy Professional Services",
    "rowid": "1080902",
    "final_x": "3668198.20423",
    "final_y": "539198.477898",
    "longitude": "-90.10981384470726",
    "latitude": "29.977006115700448",
    "geocoded_column": {
      "latitude": "29.977006115700448",
      "longitude": "-90.10981384470726"
    }
  },