[
  {
    "service_request": "2021-845116",
    "request_type": "Trash/Recycling",
    "request_reason": "Replace Trash Cart",
    "date_created": "2021-12-01T00:03:22.000",
    "date_modified": "2021-12-01T01:01:12.000",
    "request_status": "Pending",
    "responsible_agency": "Department of Sanitation",
    "final_address": "6631 Bamberry St",
    "address_councildis": "E",
    "status": "Assigned to Contractor",
    "contractor": "Metro Disposal",
    "rowid": "845116",
    "final_x": "3697957.19824",
    "final_y": "558801.046556",
    "longitude": "-90.01511369168621",
    "latitude": "30.029998578046648",
    "geocoded_column": {
      "latitude": "30.029998578046648",
      "longitude": "-90.01511369168621"
    }
  },
  {
    "service_request": "2021-845115",
    "request_type": "Traffic Signals/Signs/Striping/Streetlights",
    "request_reason": "Additional signage",
    "date_created": "2021-11-30T22:32:45.000",
    "date_modified": "2021-11-30T22:32:45.000",
    "request_status": "Pending",
    "responsible_agency": "Department of Public Works",
    "final_address": "339 Pelican Ave",
    "address_councildis": "C",
    "status": "Pending",
    "rowid": "845115",
    "final_x": "3686483.31727",
    "final_y": "530418.519618",
    "longitude": "-90.052373717104",
    "latitude": "29.95231474290083",
    "geocoded_column": {
      "latitude": "29.95231474290083",
      "longitude": "-90.052373717104"
    }
  },
  {
    "service_request": "2021-845114",
    "request_type": "Traffic Signals/Signs/Striping/Streetlights",
    "request_reason": "Street Light Outage/Malfunction",
    "date_created": "2021-11-30T22:01:41.000",
    "date_modified": "2021-11-30T23:01:17.000",
    "request_status": "Pending",
    "responsible_agency": "Department of Public Works",
    "final_address": "7584 Briarheath Dr",
    "address_councildis": "E",
    "status": "Pending",
    "contractor": "Royal Engineering",
    "rowid": "845114",
    "final_x": "3715243.51743",
    "final_y": "566509.159011",
    "longitude": "-89.96019767055077",
    "latitude": "30.05063463011493",
    "geocoded_column": {
      "latitude": "30.05063463011493",
      "longitude": "-89.96019767055077"
    }
  },
  {
    "service_request": "2021-845113",
    "request_type": "Trash/Recycling",
    "request_reason": "Request a Large Item Pick Up",
    "date_created": "2021-11-30T21:42:47.000",
    "date_modified": "2021-11-30T21:42:48.000",
    "request_status": "Pending",
    "responsible_agency": "Department of Sanitation",
    "final_address": "511 Bellecastle St",
    "address_councildis": "B",
    "status": "Assigned to Contractor",
    "contractor": "Richards Disposal",
    "rowid": "845113",
    "final_x": "3667685.32513",
    "final_y": "517305.812149",
    "longitude": "-90.11217058062803",
    "latitude": "29.91682343962668",
    "geocoded_column": {
      "latitude": "29.91682343962668",
      "longitude": "-90.11217058062803"
    }
  },
  {
    "service_request": "2021-845112",
    "request_type": "Traffic Signals/Signs/Striping/Streetlights",
    "request_reason": "Street Light Knocked Down/Leaning",
    "date_created": "2021-11-30T21:42:38.000",
    "date_modified": "2021-11-30T21:42:39.000",
    "request_status": "Pending",
    "responsible_agency": "Department of Public Works",
    "final_address": "4918 Good Dr",
    "address_councildis": "E",
    "status": "Pending",
    "contractor": "Royal Engineering",
    "rowid": "845112",
    "final_x": "3714646.06821",
    "final_y": "557517.767067",
    "longitude": "-89.96242598479554",
    "latitude": "30.025931595313065",
    "geocoded_column": {
      "latitude": "30.025931595313065",
      "longitude": "-89.96242598479554"
    }
  },
  {
    "service_request": "2021-845111",
    "request_type": "Traffic Signals/Signs/Striping/Streetlights",
    "request_reason": "Street Light Outage/Malfunction",
    "date_created": "2021-11-30T21:36:36.000",
    "date_modified": "2021-11-30T21:36:36.000",
    "request_status": "Pending",
    "responsible_agency": "Department of Public Works",
    "final_address": "1001 Stanton Rd",
    "address_councildis": "C",
    "status": "Pending",
    "contractor": "Royal Engineering",
    "rowid": "845111",
    "final_x": "3721620.78527",
    "final_y": "518114.21599",
    "longitude": "-89.94189904242201",
    "latitude": "29.917355551016247",
    "geocoded_column": {
      "latitude": "29.917355551016247",
      "longitude": "-89.94189904242201"
    }
  },
  {
    "service_request": "2021-845110",
    "request_type": "Traffic Signals/Signs/Striping/Streetlights",
    "request_reason": "Street Light Outage/Malfunction",
    "date_created": "2021-11-30T21:35:27.000",
    "date_modified": "2021-11-30T22:01:21.000",
    "request_status": "Pending",
    "responsible_agency": "Department of Public Works",
    "final_address": "7225 St Charles Ave",
    "address_councildis": "A",
    "status": "Pending",
    "contractor": "Royal Engineering",
    "rowid": "845110",
    "final_x": "3662838.83424",
    "final_y": "524946.496509",
    "longitude": "-90.12721434003612",
    "latitude": "29.937974060250124",
    "geocoded_column": {
      "latitude": "29.937974060250124",
      "longitude": "-90.12721434003612"
    }
  },
  {
    "service_request": "2021-845109",
    "request_type": "Trash/Recycling",
    "request_reason": "Replace Trash Cart",
    "date_created": "2021-11-30T21:30:40.000",
    "date_modified": "2021-11-30T22:01:22.000",
    "request_status": "Pending",
    "responsible_agency": "Department of Sanitation",
    "final_address": "4440 Frenchmen St",
    "address_councildis": "D",
    "status": "Assigned to Contractor",
    "contractor": "Metro Disposal",
    "rowid": "845109",
    "final_x": "3683487.90626",
    "final_y": "549105.675091",
    "longitude": "-90.06117673117043",
    "latitude": "30.00378962139877",
    "geocoded_column": {
      "latitude": "30.00378962139877",
      "longitude": "-90.06117673117043"
    }
  },
  {
    "service_request": "2021-845108",
    "request_type": "Property Maintenance",
    "request_reason": "Property Maintenance",
    "date_created": "2021-11-30T21:29:29.000",
    "date_modified": "2021-11-30T21:29:29.000",
    "request_status": "Pending",
    "responsible_agency": "Department of Code Enforcement",
    "final_address": "4900 Chrysler St",
    "address_councildis": "E",
    "status": "Pending",
    "rowid": "845108",
    "final_x": "3715165.85554",
    "final_y": "557436.721435",
    "longitude": "-89.96078661063744",
    "latitude": "30.02569164231877",
    "geocoded_column": {
      "latitude": "30.02569164231877",
      "longitude": "-89.96078661063744"
    }
  },
  {
    "service_request": "2021-845107",
    "request_type": "Property Maintenance",
    "request_reason": "Property Maintenance",
    "date_created": "2021-11-30T21:26:14.000",
    "date_modified": "2021-11-30T21:26:14.000",
    "request_status": "Pending",
    "responsible_agency": "Department of Code Enforcement",
    "final_address": "10703 Pressburg St",
    "address_councildis": "E",
    "status": "Pending",
    "rowid": "845107",
    "final_x": "3714897.60767",
    "final_y": "557393.959067",
    "longitude": "-89.96163584502749",
    "latitude": "30.02558289518457",
    "geocoded_column": {
      "latitude": "30.02558289518457",
      "longitude": "-89.96163584502749"
    }
  },
  {
    "service_request": "2021-845106",
    "request_type": "Trash/Recycling",
    "request_reason": "Replace Trash Cart",
    "date_created": "2021-11-30T21:25:45.000",
    "date_modified": "2021-11-30T22:01:24.000",
    "request_status": "Pending",
    "responsible_agency": "Department of Sanitation",
    "final_address": "7531 Berg Rd",
    "address_councildis": "E",
    "status": "Assigned to Contractor",
    "contractor": "Metro Disposal",
    "rowid": "845106",
    "final_x": "3712369.49042",
    "final_y": "566182.358627",
    "longitude": "-89.96929367372442",
    "latitude": "30.04983044889255",
    "geocoded_column": {
      "latitude": "30.04983044889255",
      "longitude": "-89.96929367372442"
    }
  },
  {
    "service_request": "2021-845105",
    "request_type": "Traffic Signals/Signs/Striping/Streetlights",
    "request_reason": "Street Light Outage/Malfunction",
    "date_created": "2021-11-30T21:19:09.000",
    "date_modified": "2021-11-30T22:01:26.000",
    "request_status": "Pending",
    "responsible_agency": "Department of Public Works",
    "final_address": "1900 Perdido St",
    "address_councildis": "B",
    "status": "Pending",
    "contractor": "Royal Engineering",
    "rowid": "845105",
    "final_x": "3676823.49704",
    "final_y": "531279.316418",
    "longitude": "-90.082845338559",
    "latitude": "29.954975044886236",
    "geocoded_column": {
      "latitude": "29.954975044886236",
      "longitude": "-90.082845338559"
    }
  },
  {
    "service_request": "2021-845104",
    "request_type": "Traffic Signals/Signs/Striping/Streetlights",
    "request_reason": "Street Light Outage/Malfunction",
    "date_created": "2021-11-30T20:57:15.000",
    "date_modified": "2021-11-30T20:57:15.000",
    "request_status": "Pending",
    "responsible_agency": "Department of Public Works",
    "final_address": "3001 Lafitte Ave",
    "address_councildis": "A",
    "status": "Pending",
    "contractor": "Royal Engineering",
    "rowid": "845104",
    "final_x": "3675264.68577",
    "final_y": "537175.236808",
    "longitude": "-90.08756507643518",
    "latitude": "29.97123352437133",
    "geocoded_column": {
      "latitude": "29.97123352437133",
      "longitude": "-90.08756507643518"
    }
  },
  {
    "service_request": "2021-845103",
    "request_type": "Health Related Questions",
    "request_reason": "Noise Ordinance Complaint",
    "date_created": "2021-11-30T20:50:53.000",
    "date_modified": "2021-11-30T20:50:53.000",
    "request_status": "Pending",
    "responsible_agency": "Health Department",
    "final_address": "7825 St Charles Ave",
    "address_councildis": "A",
    "status": "Pending",
    "rowid": "845103",
    "final_x": "3661288.29766",
    "final_y": "526266.981438",
    "longitude": "-90.13206583714769",
    "latitude": "29.94164976209271",
    "geocoded_column": {
      "latitude": "29.94164976209271",
      "longitude": "-90.13206583714769"
    }
  },
  {
    "service_request": "2021-845101",
    "request_type": "Abandoned Vehicles",
    "request_reason": "Abandoned/Junk Vehicles",
    "date_created": "2021-11-30T20:12:12.000",
    "date_modified": "2021-11-30T20:12:12.000",
    "request_status": "Pending",
    "responsible_agency": "Department of Public Works",
    "final_address": "6610 Curran Rd",
    "address_councildis": "E",
    "status": "Pending",
    "rowid": "845101",
    "final_x": "3697477.35543",
    "final_y": "559715.130589",
    "longitude": "-90.01659679286861",
    "latitude": "30.032527127984128",
    "geocoded_column": {
      "latitude": "30.032527127984128",
      "longitude": "-90.01659679286861"
    }
  },
  {
    "service_request": "2021-845099",
    "request_type": "Traffic Signals/Signs/Striping/Streetlights",
    "request_reason": "Street Light Outage/Malfunction",
    "date_created": "2021-11-30T19:56:18.000",
    "date_modified": "2021-11-30T19:56:19.000",
    "request_status": "Pending",
    "responsible_agency": "Department of Public Works",
    "final_address": "439 Seguin St",
    "address_councildis": "C",
    "status": "Pending",
    "contractor": "Royal Engineering",
    "rowid": "845099",
    "final_x": "3686305.19439",
    "final_y": "529940.842433",
    "longitude": "-90.05295299966981",
    "latitude": "29.95100676797503",
    "geocoded_column": {
      "latitude": "29.95100676797503",
      "longitude": "-90.05295299966981"
    }
  },
  {
    "service_request": "2021-845098",
    "request_type": "Traffic Signals/Signs/Striping/Streetlights",
    "request_reason": "Street Light Outage/Malfunction",
    "date_created": "2021-11-30T19:54:21.000",
    "date_modified": "2021-11-30T19:54:22.000",
    "request_status": "Pending",
    "responsible_agency": "Department of Public Works",
    "final_address": "425 Seguin St",
    "address_councildis": "C",
    "status": "Pending",
    "contractor": "Royal Engineering",
    "rowid": "845098",
    "final_x": "3686290.46095",
    "final_y": "530074.582081",
    "longitude": "-90.05299480187871",
    "latitude": "29.951374959017915",
    "geocoded_column": {
      "latitude": "29.951374959017915",
      "longitude": "-90.05299480187871"
    }
  },
  {
    "service_request": "2021-845097",
    "request_type": "Trash/Recycling",
    "request_reason": "Request a Large Item Pick Up",
    "date_created": "2021-11-30T19:39:44.000",
    "date_modified": "2021-11-30T20:01:43.000",
    "request_status": "Pending",
    "responsible_agency": "Department of Sanitation",
    "final_address": "1937 S Lopez St",
    "address_councildis": "B",
    "status": "Assigned to Contractor",
    "contractor": "Richards Disposal",
    "rowid": "845097",
    "final_x": "3669402.5051",
    "final_y": "529832.735489",
    "longitude": "-90.10632701868576",
    "latitude": "29.95121802381621",
    "geocoded_column": {
      "latitude": "29.95121802381621",
      "longitude": "-90.10632701868576"
    }
  },
  {
    "service_request": "2021-845096",
    "request_type": "Traffic Signals/Signs/Striping/Streetlights",
    "request_reason": "Street Light Outage/Malfunction",
    "date_created": "2021-11-30T19:36:34.000",
    "date_modified": "2021-11-30T19:36:35.000",
    "request_status": "Pending",
    "responsible_agency": "Department of Public Works",
    "final_address": "2200 BLK Lake Oaks Pkwy",
    "address_councildis": "D",
    "status": "Pending",
    "contractor": "Royal Engineering",
    "rowid": "845096",
    "final_x": "3684427.13537",
    "final_y": "558424.7166",
    "longitude": "-90.05788184733372",
    "latitude": "30.02938486387656",
    "geocoded_column": {
      "latitude": "30.02938486387656",
      "longitude": "-90.05788184733372"
    }
  },
  {
    "service_request": "2021-845095",
    "request_type": "Trash/Recycling",
    "request_reason": "Missed Trash Pick-Up",
    "date_created": "2021-11-30T19:33:18.000",
    "date_modified": "2021-11-30T19:33:19.000",
    "request_status": "Pending",
    "responsible_agency": "Department of Sanitation",
    "final_address": "1918 Deslonde St",
    "address_councildis": "E",
    "status": "Assigned to Contractor",
    "contractor": "Metro Disposal",
    "rowid": "845095",
    "final_x": "3696242.37187",
    "final_y": "537588.785032",
    "longitude": "-90.02130004060591",
    "latitude": "29.971726841461106",
    "geocoded_column": {
      "latitude": "29.971726841461106",
      "longitude": "-90.02130004060591"
    }
  },
  {
    "service_request": "2021-845094",
    "request_type": "Trash/Recycling",
    "request_reason": "Illegal Dumping",
    "date_created": "2021-11-30T19:21:08.000",
    "date_modified": "2021-11-30T19:21:08.000",
    "request_status": "Pending",
    "responsible_agency": "Department of Sanitation",
    "final_address": "2425 Law St",
    "address_councildis": "D",
    "status": "Pending",
    "rowid": "845094",
    "final_x": "3685634.551",
    "final_y": "541966.329996",
    "longitude": "-90.05464682423352",
    "latitude": "29.984093271117256",
    "geocoded_column": {
      "latitude": "29.984093271117256",
      "longitude": "-90.05464682423352"
    }
  },
  {
    "service_request": "2021-845093",
    "request_type": "COVID-19",
    "request_reason": "COVID-19 Business Non-Compliance",
    "date_created": "2021-11-30T19:15:50.000",
    "date_modified": "2021-11-30T20:01:45.000",
    "request_status": "Pending",
    "responsible_agency": "Safety and Permits",
    "final_address": "930 Poydras St",
    "address_councildis": "B",
    "status": "Pending",
    "rowid": "845093",
    "final_x": "3679659.53346",
    "final_y": "529542.218497",
    "longitude": "-90.0739504909318",
    "latitude": "29.950113201883553",
    "geocoded_column": {
      "latitude": "29.950113201883553",
      "longitude": "-90.0739504909318"
    }
  },
  {
    "service_request": "2021-845092",
    "request_type": "Traffic Signals/Signs/Striping/Streetlights",
    "request_reason": "Street Light Outage/Malfunction",
    "date_created": "2021-11-30T19:10:07.000",
    "date_modified": "2021-11-30T19:10:07.000",
    "request_status": "Pending",
    "responsible_agency": "Department of Public Works",
    "final_address": "2200 BLK General Pershing St",
    "address_councildis": "B",
    "status": "Pending",
    "contractor": "Royal Engineering",
    "rowid": "845092",
    "final_x": "3671017.2324",
    "final_y": "523210.241425",
    "longitude": "-90.10145330444718",
    "latitude": "29.932960676423445",
    "geocoded_column": {
      "latitude": "29.932960676423445",
      "longitude": "-90.10145330444718"
    }
  },
  {
    "service_request": "2021-845091",
    "request_type": "Trash/Recycling",
    "request_reason": "Replace Trash Cart",
    "date_created": "2021-11-30T19:09:21.000",
    "date_modified": "2021-11-30T19:09:22.000",
    "request_status": "Pending",
    "responsible_agency": "Department of Sanitation",
    "final_address": "1420 Burgundy St",
    "address_councildis": "C",
    "status": "Assigned to Contractor",
    "contractor": "Metro Disposal",
    "rowid": "845091",
    "final_x": "3683325.54786",
    "final_y": "535225.78567",
    "longitude": "-90.06217609317846",
    "latitude": "29.965629769685354",
    "geocoded_column": {
      "latitude": "29.965629769685354",
      "longitude": "-90.06217609317846"
    }
  },
  {
    "service_request": "2021-845090",
    "request_type": "Traffic Signals/Signs/Striping/Streetlights",
    "request_reason": "Traffic Signal Malfunctioning/Damaged",
    "date_created": "2021-11-30T18:57:46.000",
    "date_modified": "2021-11-30T18:57:47.000",
    "request_status": "Pending",
    "responsible_agency": "Department of Public Works",
    "final_address": "CANAL ST & BASIN ST & ELK PL",
    "address_councildis": "B",
    "status": "Pending",
    "rowid": "845090",
    "final_x": "3679822.4",
    "final_y": "531657.68",
    "longitude": "-90.07336279679207",
    "latitude": "29.955925085622518",
    "geocoded_column": {
      "latitude": "29.955925085622518",
      "longitude": "-90.07336279679207"
    }
  },
  {
    "service_request": "2021-845088",
    "request_type": "Abandoned Vehicles",
    "request_reason": "Abandoned/Junk Vehicles",
    "date_created": "2021-11-30T18:35:56.000",
    "date_modified": "2021-11-30T19:01:06.000",
    "request_status": "Pending",
    "responsible_agency": "Department of Public Works",
    "final_address": "2829 Banks St",
    "address_councildis": "B",
    "status": "Pending",
    "rowid": "845088",
    "final_x": "3673998.818",
    "final_y": "534690.525446",
    "longitude": "-90.0916479021723",
    "latitude": "29.964439188930573",
    "geocoded_column": {
      "latitude": "29.964439188930573",
      "longitude": "-90.0916479021723"
    }
  },
  {
    "service_request": "2021-845087",
    "request_type": "Traffic Signals/Signs/Striping/Streetlights",
    "request_reason": "Street Name Sign Damaged or Missing",
    "date_created": "2021-11-30T18:35:13.000",
    "date_modified": "2021-11-30T18:35:13.000",
    "request_status": "Pending",
    "responsible_agency": "Department of Public Works",
    "final_address": "5793 Vermillion Blvd",
    "address_councildis": "D",
    "status": "Pending",
    "rowid": "845087",
    "final_x": "3683239.58204",
    "final_y": "554609.179096",
    "longitude": "-90.06176828648198",
    "latitude": "30.018929836536074",
    "geocoded_column": {
      "latitude": "30.018929836536074",
      "longitude": "-90.06176828648198"
    }
  },
  {
    "service_request": "2021-845086",
    "request_type": "Traffic Signals/Signs/Striping/Streetlights",
    "request_reason": "Street Name Sign Damaged or Missing",
    "date_created": "2021-11-30T18:32:10.000",
    "date_modified": "2021-11-30T18:32:10.000",
    "request_status": "Pending",
    "responsible_agency": "Department of Public Works",
    "final_address": "5793 Vermillion Blvd",
    "address_councildis": "D",
    "status": "Pending",
    "rowid": "845086",
    "final_x": "3683239.58204",
    "final_y": "554609.179096",
    "longitude": "-90.06176828648198",
    "latitude": "30.018929836536074",
    "geocoded_column": {
      "latitude": "30.018929836536074",
      "longitude": "-90.06176828648198"
    }
  },
  {
    "service_request": "2021-845085",
    "request_type": "Trash/Recycling",
    "request_reason": "Order Trash Cart",
    "date_created": "2021-11-30T18:30:04.000",
    "date_modified": "2021-11-30T19:01:07.000",
    "request_status": "Pending",
    "responsible_agency": "Department of Sanitation",
    "final_address": "1447 Andry St",
    "address_councildis": "E",
    "status": "Assigned to Contractor",
    "contractor": "Metro Disposal",
    "rowid": "845085",
    "final_x": "3697598.10621",
    "final_y": "535392.896902",
    "longitude": "-90.01709810987155",
    "latitude": "29.965646180698332",
    "geocoded_column": {
      "latitude": "29.965646180698332",
      "longitude": "-90.01709810987155"
    }
  },
  {
    "service_request": "2021-845084",
    "request_type": "Trash/Recycling",
    "request_reason": "Order Recycling Cart",
    "date_created": "2021-11-30T18:24:32.000",
    "date_modified": "2021-11-30T19:01:09.000",
    "request_status": "Pending",
    "responsible_agency": "Department of Sanitation",
    "final_address": "3005 Baudin St",
    "address_councildis": "B",
    "status": "Pending",
    "rowid": "845084",
    "final_x": "3673341.989",
    "final_y": "534662.70887",
    "longitude": "-90.0937230714851",
    "latitude": "29.964382257604527",
    "geocoded_column": {
      "latitude": "29.964382257604527",
      "longitude": "-90.0937230714851"
    }
  },
  {
    "service_request": "2021-845083",
    "request_type": "Traffic Signals/Signs/Striping/Streetlights",
    "request_reason": "Street Light Outage/Malfunction",
    "date_created": "2021-11-30T18:13:02.000",
    "date_modified": "2021-11-30T18:13:02.000",
    "request_status": "Pending",
    "responsible_agency": "Department of Public Works",
    "final_address": "2429 Feliciana St",
    "address_councildis": "D",
    "status": "Pending",
    "contractor": "Royal Engineering",
    "rowid": "845083",
    "final_x": "3690052.93091",
    "final_y": "541194.26702",
    "longitude": "-90.04071872834196",
    "latitude": "29.981834058623583",
    "geocoded_column": {
      "latitude": "29.981834058623583",
      "longitude": "-90.04071872834196"
    }
  },
  {
    "service_request": "2021-845082",
    "request_type": "Trash/Recycling",
    "request_reason": "Repair Trash Cart",
    "date_created": "2021-11-30T18:11:36.000",
    "date_modified": "2021-11-30T19:01:10.000",
    "request_status": "Pending",
    "responsible_agency": "Department of Sanitation",
    "final_address": "230 Abalon Ct",
    "address_councildis": "C",
    "status": "Assigned to Contractor",
    "contractor": "Richards Disposal",
    "rowid": "845082",
    "final_x": "3689118.53321",
    "final_y": "530904.514818",
    "longitude": "-90.04403567789913",
    "latitude": "29.95356979512036",
    "geocoded_column": {
      "latitude": "29.95356979512036",
      "longitude": "-90.04403567789913"
    }
  },
  {
    "service_request": "2021-845081",
    "request_type": "Trash/Recycling",
    "request_reason": "Dead Animal Pick Up",
    "date_created": "2021-11-30T18:10:29.000",
    "date_modified": "2021-11-30T18:10:30.000",
    "request_status": "Pending",
    "responsible_agency": "Department of Sanitation",
    "final_address": "10926 Curran Rd",
    "address_councildis": "E",
    "status": "Assigned to Contractor",
    "contractor": "Metro Disposal",
    "rowid": "845081",
    "final_x": "3710272.24657",
    "final_y": "565892.021347",
    "longitude": "-89.97593308640121",
    "latitude": "30.04910061912183",
    "geocoded_column": {
      "latitude": "30.04910061912183",
      "longitude": "-89.97593308640121"
    }
  },
  {
    "service_request": "2021-845080",
    "request_type": "Trash/Recycling",
    "request_reason": "Replace Trash Cart",
    "date_created": "2021-11-30T18:05:30.000",
    "date_modified": "2021-11-30T19:01:11.000",
    "request_status": "Pending",
    "responsible_agency": "Department of Sanitation",
    "final_address": "230 Abalon Ct, New Orleans, Louisiana, 70114",
    "address_councildis": "C",
    "status": "Assigned to Contractor",
    "contractor": "Richards Disposal",
    "rowid": "845080",
    "final_x": "3689118.53321",
    "final_y": "530904.514818",
    "longitude": "-90.04403567789913",
    "latitude": "29.95356979512036",
    "geocoded_column": {
      "latitude": "29.95356979512036",
      "longitude": "-90.04403567789913"
    }
  },
  {
    "service_request": "2021-845079",
    "request_type": "Traffic Signals/Signs/Striping/Streetlights",
    "request_reason": "Street Light Outage/Malfunction",
    "date_created": "2021-11-30T17:39:13.000",
    "date_modified": "2021-11-30T17:39:13.000",
    "request_status": "Pending",
    "responsible_agency": "Department of Public Works",
    "final_address": "4726 Rosemont Pl",
    "address_councildis": "E",
    "status": "Pending",
    "contractor": "Royal Engineering",
    "rowid": "845079",
    "final_x": "3702676.54577",
    "final_y": "554804.42396",
    "longitude": "-90.0003475868234",
    "latitude": "30.018859276852496",
    "geocoded_column": {
      "latitude": "30.018859276852496",
      "longitude": "-90.0003475868234"
    }
  },
  {
    "service_request": "2021-845078",
    "request_type": "Abandoned Vehicles",
    "request_reason": "Abandoned/Junk Vehicles",
    "date_created": "2021-11-30T17:37:41.000",
    "date_modified": "2021-11-30T17:37:42.000",
    "request_status": "Pending",
    "responsible_agency": "Department of Public Works",
    "final_address": "7691 Vincent Rd",
    "address_councildis": "E",
    "status": "Pending",
    "rowid": "845078",
    "final_x": "3718281.87871",
    "final_y": "571874.637928",
    "longitude": "-89.9503899095613",
    "latitude": "30.06528700511062",
    "geocoded_column": {
      "latitude": "30.06528700511062",
      "longitude": "-89.9503899095613"
    }
  },
  {
    "service_request": "2021-845077",
    "request_type": "Abandoned Vehicles",
    "request_reason": "Abandoned/Junk Vehicles",
    "date_created": "2021-11-30T17:18:37.000",
    "date_modified": "2021-11-30T17:18:37.000",
    "request_status": "Pending",
    "responsible_agency": "Department of Public Works",
    "final_address": "1422 Tricou St",
    "address_councildis": "E",
    "status": "Pending",
    "rowid": "845077",
    "final_x": "3700597.91517",
    "final_y": "534308.916677",
    "longitude": "-90.0076644966865",
    "latitude": "29.96257053263513",
    "geocoded_column": {
      "latitude": "29.96257053263513",
      "longitude": "-90.0076644966865"
    }
  },
  {
    "service_request": "2021-845076",
    "request_type": "Trash/Recycling",
    "request_reason": "Request a Large Item Pick Up",
    "date_created": "2021-11-30T17:17:18.000",
    "date_modified": "2021-11-30T17:17:19.000",
    "request_status": "Pending",
    "responsible_agency": "Department of Sanitation",
    "final_address": "8237 Apricot St",
    "address_councildis": "A",
    "status": "Assigned to Contractor",
    "contractor": "Richards Disposal",
    "rowid": "845076",
    "final_x": "3665372.41389",
    "final_y": "533087.166724",
    "longitude": "-90.11894319578644",
    "latitude": "29.960284697163896",
    "geocoded_column": {
      "latitude": "29.960284697163896",
      "longitude": "-90.11894319578644"
    }
  },
  {
    "service_request": "2021-845075",
    "request_type": "Trash/Recycling",
    "request_reason": "Illegal Dumping",
    "date_created": "2021-11-30T17:14:31.000",
    "date_modified": "2021-11-30T17:14:31.000",
    "request_status": "Pending",
    "responsible_agency": "Department of Sanitation",
    "final_address": "2002 St Andrew St",
    "address_councildis": "B",
    "status": "Pending",
    "rowid": "845075",
    "final_x": "3677175.29915",
    "final_y": "525435.747901",
    "longitude": "-90.08193599532034",
    "latitude": "29.938896611416606",
    "geocoded_column": {
      "latitude": "29.938896611416606",
      "longitude": "-90.08193599532034"
    }
  },
  {
    "service_request": "2021-845073",
    "request_type": "Trash/Recycling",
    "request_reason": "Replace Trash Cart",
    "date_created": "2021-11-30T17:12:23.000",
    "date_modified": "2021-11-30T17:12:23.000",
    "request_status": "Pending",
    "responsible_agency": "Department of Sanitation",
    "final_address": "1228 St Maurice Ave",
    "address_councildis": "E",
    "status": "Assigned to Contractor",
    "contractor": "Metro Disposal",
    "rowid": "845073",
    "final_x": "3700027.14608",
    "final_y": "533749.466501",
    "longitude": "-90.00948730720519",
    "latitude": "29.96105038946888",
    "geocoded_column": {
      "latitude": "29.96105038946888",
      "longitude": "-90.00948730720519"
    }
  },
  {
    "service_request": "2021-845072",
    "request_type": "Traffic Signals/Signs/Striping/Streetlights",
    "request_reason": "Street Light Outage/Malfunction",
    "date_created": "2021-11-30T17:11:16.000",
    "date_modified": "2021-11-30T18:00:56.000",
    "request_status": "Pending",
    "responsible_agency": "Department of Public Works",
    "final_address": "4201 Eden St",
    "address_councildis": "B",
    "status": "Pending",
    "contractor": "Royal Engineering",
    "rowid": "845072",
    "final_x": "3670456.00923",
    "final_y": "530352.18061",
    "longitude": "-90.10298295470119",
    "latitude": "29.95261526536419",
    "geocoded_column": {
      "latitude": "29.95261526536419",
      "longitude": "-90.10298295470119"
    }
  },
  {
    "service_request": "2021-845071",
    "request_type": "Trash/Recycling",
    "request_reason": "Repair Trash Cart",
    "date_created": "2021-11-30T17:11:08.000",
    "date_modified": "2021-11-30T18:00:58.000",
    "request_status": "Pending",
    "responsible_agency": "Department of Sanitation",
    "final_address": "8816 Olive St",
    "address_councildis": "A",
    "status": "Assigned to Contractor",
    "contractor": "Richards Disposal",
    "rowid": "845071",
    "final_x": "3665262.2882",
    "final_y": "535933.801031",
    "longitude": "-90.1191957023921",
    "latitude": "29.9681152133565",
    "geocoded_column": {
      "latitude": "29.9681152133565",
      "longitude": "-90.1191957023921"
    }
  },
  {
    "service_request": "2021-845070",
    "request_type": "Roads/Drainage",
    "request_reason": "Street Subsidence (Sinking)",
    "date_created": "2021-11-30T17:10:14.000",
    "date_modified": "2021-11-30T18:01:00.000",
    "request_status": "Pending",
    "responsible_agency": "Department of Public Works",
    "final_address": "2738 Clover St",
    "address_councildis": "D",
    "status": "Pending",
    "rowid": "845070",
    "final_x": "3688145.78249",
    "final_y": "546641.166033",
    "longitude": "-90.04654918922182",
    "latitude": "29.99687009924181",
    "geocoded_column": {
      "latitude": "29.99687009924181",
      "longitude": "-90.04654918922182"
    }
  },
  {
    "service_request": "2021-845069",
    "request_type": "Safety & Permits",
    "request_reason": "Licenses & Permits",
    "date_created": "2021-11-30T17:08:12.000",
    "date_modified": "2021-11-30T18:01:03.000",
    "request_status": "Pending",
    "responsible_agency": "Safety and Permits",
    "final_address": "4601 Conti St",
    "address_councildis": "A",
    "status": "Pending",
    "rowid": "845069",
    "final_x": "3670116.93134",
    "final_y": "540602.184651",
    "longitude": "-90.1037062973921",
    "latitude": "29.980809359046724",
    "geocoded_column": {
      "latitude": "29.980809359046724",
      "longitude": "-90.1037062973921"
    }
  },
  {
    "service_request": "2021-845068",
    "request_type": "Mosquito, Termite & Rodent Control",
    "request_reason": "Non-Rodent Complaint (Mice, Possums, Snakes)",
    "date_created": "2021-11-30T17:01:50.000",
    "date_modified": "2021-11-30T17:01:50.000",
    "request_status": "Pending",
    "responsible_agency": "Mosquito, Termite & Rodent Control Board",
    "final_address": "1928 Poydras St",
    "address_councildis": "B",
    "status": "Pending",
    "rowid": "845068",
    "final_x": "3676503.32379",
    "final_y": "530756.585346",
    "longitude": "-90.08387432445255",
    "latitude": "29.953547313097427",
    "geocoded_column": {
      "latitude": "29.953547313097427",
      "longitude": "-90.08387432445255"
    }
  },
  {
    "service_request": "2021-845067",
    "request_type": "Abandoned Vehicles",
    "request_reason": "Abandoned/Junk Vehicles",
    "date_created": "2021-11-30T17:01:38.000",
    "date_modified": "2021-11-30T17:02:44.000",
    "request_status": "Pending",
    "responsible_agency": "Department of Public Works",
    "final_address": "500 Ptolemy St",
    "address_councildis": "C",
    "status": "Pending",
    "rowid": "845067",
    "final_x": "3687185.35791",
    "final_y": "526089.843902",
    "longitude": "-90.05031004472679",
    "latitude": "29.94039075943768",
    "geocoded_column": {
      "latitude": "29.94039075943768",
      "longitude": "-90.05031004472679"
    }
  },
  {
    "service_request": "2021-845066",
    "request_type": "Roads/Drainage",
    "request_reason": "Street Subsidence (Sinking)",
    "date_created": "2021-11-30T16:55:21.000",
    "date_modified": "2021-11-30T17:01:11.000",
    "request_status": "Pending",
    "responsible_agency": "Department of Public Works",
    "final_address": "1125 Burgundy St",
    "address_councildis": "C",
    "status": "Pending",
    "rowid": "845066",
    "final_x": "3682684.52834",
    "final_y": "534473.445061",
    "longitude": "-90.0642267199163",
    "latitude": "29.963580629472204",
    "geocoded_column": {
      "latitude": "29.963580629472204",
      "longitude": "-90.0642267199163"
    }
  },
  {
    "service_request": "2021-845065",
    "request_type": "Trash/Recycling",
    "request_reason": "Missed Trash Pick-Up",
    "date_created": "2021-11-30T16:54:57.000",
    "date_modified": "2021-11-30T16:54:57.000",
    "request_status": "Pending",
    "responsible_agency": "Department of Sanitation",
    "final_address": "1928 Josephine St",
    "address_councildis": "B",
    "status": "Assigned to Contractor",
    "contractor": "Richards Disposal",
    "rowid": "845065",
    "final_x": "3676941.49179",
    "final_y": "525151.262333",
    "longitude": "-90.08268395556635",
    "latitude": "29.93812138877633",
    "geocoded_column": {
      "latitude": "29.93812138877633",
      "longitude": "-90.08268395556635"
    }
  },
  {
    "service_request": "2021-845064",
    "request_type": "Trash/Recycling",
    "request_reason": "Replace Trash Cart",
    "date_created": "2021-11-30T16:54:22.000",
    "date_modified": "2021-11-30T17:01:16.000",
    "request_status": "Pending",
    "responsible_agency": "Department of Sanitation",
    "final_address": "830 Webster St",
    "address_councildis": "A",
    "status": "Assigned to Contractor",
    "contractor": "Richards Disposal",
    "rowid": "845064",
    "final_x": "3664172.55405",
    "final_y": "519671.699448",
    "longitude": "-90.12317953062946",
    "latitude": "29.923431363819518",
    "geocoded_column": {
      "latitude": "29.923431363819518",
      "longitude": "-90.12317953062946"
    }
  },
  {
    "service_request": "2021-845063",
    "request_type": "Trash/Recycling",
    "request_reason": "Repair Trash Cart",
    "date_created": "2021-11-30T16:53:13.000",
    "date_modified": "2021-11-30T17:01:19.000",
    "request_status": "Pending",
    "responsible_agency": "Department of Sanitation",
    "final_address": "828 Webster St",
    "address_councildis": "A",
    "status": "Assigned to Contractor",
    "contractor": "Richards Disposal",
    "rowid": "845063",
    "final_x": "3664167.69293",
    "final_y": "519658.157816",
    "longitude": "-90.12319532687978",
    "latitude": "29.923394269737162",
    "geocoded_column": {
      "latitude": "29.923394269737162",
      "longitude": "-90.12319532687978"
    }
  },
  {
    "service_request": "2021-845062",
    "request_type": "Trash/Recycling",
    "request_reason": "Replace Trash Cart",
    "date_created": "2021-11-30T16:48:03.000",
    "date_modified": "2021-11-30T17:01:21.000",
    "request_status": "Pending",
    "responsible_agency": "Department of Sanitation",
    "final_address": "8321 Lomond Rd",
    "address_councildis": "E",
    "status": "Assigned to Contractor",
    "contractor": "Metro Disposal",
    "rowid": "845062",
    "final_x": "3703156.15761",
    "final_y": "561882.427359",
    "longitude": "-89.9985716825372",
    "latitude": "30.03830568988394",
    "geocoded_column": {
      "latitude": "30.03830568988394",
      "longitude": "-89.9985716825372"
    }
  },
  {
    "service_request": "2021-845061",
    "request_type": "Traffic Signals/Signs/Striping/Streetlights",
    "request_reason": "Street Light Outage/Malfunction",
    "date_created": "2021-11-30T16:47:41.000",
    "date_modified": "2021-11-30T16:47:41.000",
    "request_status": "Pending",
    "responsible_agency": "Department of Public Works",
    "final_address": "1625 Second St",
    "address_councildis": "B",
    "status": "Pending",
    "contractor": "Royal Engineering",
    "rowid": "845061",
    "final_x": "3676585.63374",
    "final_y": "523271.875899",
    "longitude": "-90.08387213207477",
    "latitude": "29.932964366761016",
    "geocoded_column": {
      "latitude": "29.932964366761016",
      "longitude": "-90.08387213207477"
    }
  },
  {
    "service_request": "2021-845060",
    "request_type": "Roads/Drainage",
    "request_reason": "Street Subsidence (Sinking)",
    "date_created": "2021-11-30T16:42:41.000",
    "date_modified": "2021-11-30T16:42:41.000",
    "request_status": "Pending",
    "responsible_agency": "Department of Public Works",
    "final_address": "923 Delachaise St",
    "address_councildis": "B",
    "status": "Pending",
    "rowid": "845060",
    "final_x": "3674922.96885",
    "final_y": "518988.207287",
    "longitude": "-90.08926787572791",
    "latitude": "29.92123540959581",
    "geocoded_column": {
      "latitude": "29.92123540959581",
      "longitude": "-90.08926787572791"
    }
  },
  {
    "service_request": "2021-845059",
    "request_type": "Trash/Recycling",
    "request_reason": "Illegal Dumping",
    "date_created": "2021-11-30T16:41:33.000",
    "date_modified": "2021-11-30T16:41:33.000",
    "request_status": "Pending",
    "responsible_agency": "Department of Sanitation",
    "final_address": "5118 N Roman St",
    "address_councildis": "E",
    "status": "Pending",
    "rowid": "845059",
    "final_x": "3697151.49015",
    "final_y": "536740.86548",
    "longitude": "-90.01845965031049",
    "latitude": "29.969366711943636",
    "geocoded_column": {
      "latitude": "29.969366711943636",
      "longitude": "-90.01845965031049"
    }
  },
  {
    "service_request": "2021-845058",
    "request_type": "Abandoned Vehicles",
    "request_reason": "Abandoned/Junk Vehicles",
    "date_created": "2021-11-30T16:38:47.000",
    "date_modified": "2021-11-30T17:01:23.000",
    "request_status": "Pending",
    "responsible_agency": "Department of Public Works",
    "final_address": "1333 St Roch Ave",
    "address_councildis": "C",
    "status": "Pending",
    "rowid": "845058",
    "final_x": "3686490.11023",
    "final_y": "537428.218184",
    "longitude": "-90.05210478234869",
    "latitude": "29.971588781275116",
    "geocoded_column": {
      "latitude": "29.971588781275116",
      "longitude": "-90.05210478234869"
    }
  },
  {
    "service_request": "2021-845057",
    "request_type": "Abandoned Vehicles",
    "request_reason": "Abandoned/Junk Vehicles",
    "date_created": "2021-11-30T16:37:26.000",
    "date_modified": "2021-11-30T16:37:26.000",
    "request_status": "Pending",
    "responsible_agency": "Department of Public Works",
    "final_address": "829 Tricou St",
    "address_councildis": "E",
    "status": "Pending",
    "rowid": "845057",
    "final_x": "3699841.19165",
    "final_y": "532197.796675",
    "longitude": "-90.01013109642403",
    "latitude": "29.956789756109632",
    "geocoded_column": {
      "latitude": "29.956789756109632",
      "longitude": "-90.01013109642403"
    }
  },
  {
    "service_request": "2021-845056",
    "request_type": "Abandoned Vehicles",
    "request_reason": "Abandoned/Junk Vehicles",
    "date_created": "2021-11-30T16:36:57.000",
    "date_modified": "2021-11-30T16:36:57.000",
    "request_status": "Pending",
    "responsible_agency": "Department of Public Works",
    "final_address": "2700 S Derbigny St",
    "address_councildis": "B",
    "status": "Pending",
    "rowid": "845056",
    "final_x": "3673189.81953",
    "final_y": "527165.230143",
    "longitude": "-90.09445959958566",
    "latitude": "29.943771203490638",
    "geocoded_column": {
      "latitude": "29.943771203490638",
      "longitude": "-90.09445959958566"
    }
  },
  {
    "service_request": "2021-845055",
    "request_type": "Trash/Recycling",
    "request_reason": "Repair Trash Cart",
    "date_created": "2021-11-30T16:31:33.000",
    "date_modified": "2021-11-30T17:01:25.000",
    "request_status": "Pending",
    "responsible_agency": "Department of Sanitation",
    "final_address": "1812 Terpsichore St",
    "address_councildis": "B",
    "status": "Assigned to Contractor",
    "contractor": "Richards Disposal",
    "rowid": "845055",
    "final_x": "3678142.9725",
    "final_y": "525805.565693",
    "longitude": "-90.07886815610391",
    "latitude": "29.939884393775156",
    "geocoded_column": {
      "latitude": "29.939884393775156",
      "longitude": "-90.07886815610391"
    }
  },
  {
    "service_request": "2021-845054",
    "request_type": "Trash/Recycling",
    "request_reason": "Request a Large Item Pick Up",
    "date_created": "2021-11-30T16:30:56.000",
    "date_modified": "2021-11-30T16:30:57.000",
    "request_status": "Pending",
    "responsible_agency": "Department of Sanitation",
    "final_address": "1657 Rousselin Dr",
    "address_councildis": "D",
    "status": "Assigned to Contractor",
    "contractor": "Metro Disposal",
    "rowid": "845054",
    "final_x": "3679583.41442",
    "final_y": "540403.201163",
    "longitude": "-90.073813879894",
    "latitude": "29.97997949852187",
    "geocoded_column": {
      "latitude": "29.97997949852187",
      "longitude": "-90.073813879894"
    }
  },
  {
    "service_request": "2021-845053",
    "request_type": "Roads/Drainage",
    "request_reason": "Damaged Sidewalk",
    "date_created": "2021-11-30T16:13:21.000",
    "date_modified": "2021-11-30T17:01:27.000",
    "request_status": "Pending",
    "responsible_agency": "Department of Public Works",
    "final_address": "7431 Dartmoor Dr",
    "address_councildis": "E",
    "status": "Pending",
    "rowid": "845053",
    "final_x": "3704973.47313",
    "final_y": "562159.900127",
    "longitude": "-89.99281827648744",
    "latitude": "30.03901029740254",
    "geocoded_column": {
      "latitude": "30.03901029740254",
      "longitude": "-89.99281827648744"
    }
  },
  {
    "service_request": "2021-845050",
    "request_type": "Trash/Recycling",
    "request_reason": "Request a Large Item Pick Up",
    "date_created": "2021-11-30T16:07:49.000",
    "date_modified": "2021-11-30T17:01:29.000",
    "request_status": "Pending",
    "responsible_agency": "Department of Sanitation",
    "final_address": "208 Chartres St",
    "address_councildis": "C",
    "status": "Assigned to Contractor",
    "contractor": "Empire Services",
    "rowid": "845050",
    "final_x": "3681800.4758",
    "final_y": "530837.645698",
    "longitude": "-90.0671453372047",
    "latitude": "29.95361031318125",
    "geocoded_column": {
      "latitude": "29.95361031318125",
      "longitude": "-90.0671453372047"
    }
  },
  {
    "service_request": "2021-845049",
    "request_type": "Trash/Recycling",
    "request_reason": "Request a Large Item Pick Up",
    "date_created": "2021-11-30T16:03:18.000",
    "date_modified": "2021-11-30T16:03:20.000",
    "request_status": "Pending",
    "responsible_agency": "Department of Sanitation",
    "final_address": "7301 Wayside Dr",
    "address_councildis": "E",
    "status": "Assigned to Contractor",
    "contractor": "Metro Disposal",
    "rowid": "845049",
    "final_x": "3717127.64383",
    "final_y": "568646.471845",
    "longitude": "-89.9541613635904",
    "latitude": "30.056449142733285",
    "geocoded_column": {
      "latitude": "30.056449142733285",
      "longitude": "-89.9541613635904"
    }
  },
  {
    "service_request": "2021-845047",
    "request_type": "Parks & Parkways",
    "request_reason": "Request Tree Service (Right of Way/Public Property)",
    "date_created": "2021-11-30T16:02:34.000",
    "date_modified": "2021-11-30T17:01:32.000",
    "request_status": "Pending",
    "responsible_agency": "Department of Parks & Parkway",
    "final_address": "4621 St Charles Ave",
    "address_councildis": "B",
    "status": "Pending",
    "rowid": "845047",
    "final_x": "3669895.69921",
    "final_y": "520877.121401",
    "longitude": "-90.10507286571492",
    "latitude": "29.926578449300383",
    "geocoded_column": {
      "latitude": "29.926578449300383",
      "longitude": "-90.10507286571492"
    }
  },
  {
    "service_request": "2021-845046",
    "request_type": "Roads/Drainage",
    "request_reason": "Man hole cover issue",
    "date_created": "2021-11-30T15:57:36.000",
    "date_modified": "2021-11-30T16:01:01.000",
    "request_status": "Pending",
    "responsible_agency": "Department of Public Works",
    "final_address": "GRAVIER ST & S DERBIGNY ST",
    "address_councildis": "B",
    "status": "Pending",
    "rowid": "845046",
    "final_x": "3677269.1",
    "final_y": "531676.48",
    "longitude": "-90.08142458956948",
    "latitude": "29.956053732351375",
    "geocoded_column": {
      "latitude": "29.956053732351375",
      "longitude": "-90.08142458956948"
    }
  },
  {
    "service_request": "2021-845045",
    "request_type": "Trash/Recycling",
    "request_reason": "Start Trash Service",
    "date_created": "2021-11-30T15:52:23.000",
    "date_modified": "2021-11-30T16:01:02.000",
    "request_status": "Pending",
    "responsible_agency": "Department of Sanitation",
    "final_address": "1524 N Miro St",
    "address_councildis": "D",
    "status": "Assigned to Contractor",
    "contractor": "Metro Disposal",
    "rowid": "845045",
    "final_x": "3680250.00597",
    "final_y": "538621.938697",
    "longitude": "-90.07177044944933",
    "latitude": "29.97506148005349",
    "geocoded_column": {
      "latitude": "29.97506148005349",
      "longitude": "-90.07177044944933"
    }
  },
  {
    "service_request": "2021-845044",
    "request_type": "Trash/Recycling",
    "request_reason": "Replace Trash Cart",
    "date_created": "2021-11-30T15:50:12.000",
    "date_modified": "2021-11-30T16:01:04.000",
    "request_status": "Pending",
    "responsible_agency": "Department of Sanitation",
    "final_address": "2634 Constance St",
    "address_councildis": "B",
    "status": "Assigned to Contractor",
    "contractor": "Richards Disposal",
    "rowid": "845044",
    "final_x": "3677568.48654",
    "final_y": "520677.208377",
    "longitude": "-90.08085887046292",
    "latitude": "29.92580037139369",
    "geocoded_column": {
      "latitude": "29.92580037139369",
      "longitude": "-90.08085887046292"
    }
  },
  {
    "service_request": "2021-845043",
    "request_type": "Trash/Recycling",
    "request_reason": "Start Trash Service",
    "date_created": "2021-11-30T15:44:44.000",
    "date_modified": "2021-11-30T16:01:06.000",
    "request_status": "Pending",
    "responsible_agency": "Department of Sanitation",
    "final_address": "1612 Lauradale Dr",
    "address_councildis": "C",
    "status": "Assigned to Contractor",
    "contractor": "Richards Disposal",
    "rowid": "845043",
    "final_x": "3692823.2719",
    "final_y": "525329.830717",
    "longitude": "-90.03253755086095",
    "latitude": "29.93812619582925",
    "geocoded_column": {
      "latitude": "29.93812619582925",
      "longitude": "-90.03253755086095"
    }
  },
  {
    "service_request": "2021-845041",
    "request_type": "Trash/Recycling",
    "request_reason": "Order Trash Cart",
    "date_created": "2021-11-30T15:44:04.000",
    "date_modified": "2021-11-30T16:01:10.000",
    "request_status": "Pending",
    "responsible_agency": "Department of Sanitation",
    "final_address": "1612 Lauradale Dr",
    "address_councildis": "C",
    "status": "Assigned to Contractor",
    "contractor": "Richards Disposal",
    "rowid": "845041",
    "final_x": "3692823.2719",
    "final_y": "525329.830717",
    "longitude": "-90.03253755086095",
    "latitude": "29.93812619582925",
    "geocoded_column": {
      "latitude": "29.93812619582925",
      "longitude": "-90.03253755086095"
    }
  },
  {
    "service_request": "2021-845040",
    "request_type": "Abandoned Vehicles",
    "request_reason": "Abandoned/Junk Vehicles",
    "date_created": "2021-11-30T15:41:34.000",
    "date_modified": "2021-11-30T16:01:11.000",
    "request_status": "Pending",
    "responsible_agency": "Department of Public Works",
    "final_address": "300 BLK S Bernadotte St",
    "address_councildis": "A",
    "status": "Pending",
    "rowid": "845040",
    "final_x": "3668224.43812",
    "final_y": "539278.118082",
    "longitude": "-90.10972830339851",
    "latitude": "29.977224329127306",
    "geocoded_column": {
      "latitude": "29.977224329127306",
      "longitude": "-90.10972830339851"
    }
  },
  {
    "service_request": "2021-845039",
    "request_type": "Traffic Signals/Signs/Striping/Streetlights",
    "request_reason": "Street Light Outage/Malfunction",
    "date_created": "2021-11-30T15:37:17.000",
    "date_modified": "2021-11-30T16:01:14.000",
    "request_status": "Pending",
    "responsible_agency": "Department of Public Works",
    "final_address": "316 28Th St",
    "address_councildis": "A",
    "status": "Pending",
    "contractor": "Royal Engineering",
    "rowid": "845039",
    "final_x": "3665061.53229",
    "final_y": "550195.059156",
    "longitude": "-90.11935254051393",
    "latitude": "30.007334694176233",
    "geocoded_column": {
      "latitude": "30.007334694176233",
      "longitude": "-90.11935254051393"
    }
  },
  {
    "service_request": "2021-845038",
    "request_type": "Traffic Signals/Signs/Striping/Streetlights",
    "request_reason": "Street Light Outage/Malfunction",
    "date_created": "2021-11-30T15:36:31.000",
    "date_modified": "2021-11-30T16:01:15.000",
    "request_status": "Pending",
    "responsible_agency": "Department of Public Works",
    "final_address": "316 28Th St",
    "address_councildis": "A",
    "status": "Pending",
    "contractor": "Royal Engineering",
    "rowid": "845038",
    "final_x": "3665061.53229",
    "final_y": "550195.059156",
    "longitude": "-90.11935254051393",
    "latitude": "30.007334694176233",
    "geocoded_column": {
      "latitude": "30.007334694176233",
      "longitude": "-90.11935254051393"
    }
  },
  {
    "service_request": "2021-845037",
    "request_type": "Abandoned Vehicles",
    "request_reason": "Abandoned/Junk Vehicles",
    "date_created": "2021-11-30T15:34:45.000",
    "date_modified": "2021-11-30T15:34:45.000",
    "request_status": "Pending",
    "responsible_agency": "Department of Public Works",
    "final_address": "927 Caffin Ave",
    "address_councildis": "E",
    "status": "Pending",
    "rowid": "845037",
    "final_x": "3697927.68138",
    "final_y": "533186.190852",
    "longitude": "-90.01613743846853",
    "latitude": "29.959568110431164",
    "geocoded_column": {
      "latitude": "29.959568110431164",
      "longitude": "-90.01613743846853"
    }
  },
  {
    "service_request": "2021-845036",
    "request_type": "Property Maintenance",
    "request_reason": "Property Maintenance",
    "date_created": "2021-11-30T15:33:46.000",
    "date_modified": "2021-11-30T16:01:16.000",
    "request_status": "Pending",
    "responsible_agency": "Department of Code Enforcement",
    "final_address": "5317 Law St",
    "address_councildis": "E",
    "status": "Pending",
    "rowid": "845036",
    "final_x": "3698537.37341",
    "final_y": "539679.516554",
    "longitude": "-90.01397608963512",
    "latitude": "29.977403141382734",
    "geocoded_column": {
      "latitude": "29.977403141382734",
      "longitude": "-90.01397608963512"
    }
  },
  {
    "service_request": "2021-845035",
    "request_type": "Abandoned Vehicles",
    "request_reason": "Abandoned/Junk Vehicles",
    "date_created": "2021-11-30T15:32:19.000",
    "date_modified": "2021-11-30T15:32:19.000",
    "request_status": "Pending",
    "responsible_agency": "Department of Public Works",
    "final_address": "925 Caffin Ave",
    "address_councildis": "E",
    "status": "Pending",
    "rowid": "845035",
    "final_x": "3697923.77552",
    "final_y": "533171.86842",
    "longitude": "-90.01615029209783",
    "latitude": "29.95952885228087",
    "geocoded_column": {
      "latitude": "29.95952885228087",
      "longitude": "-90.01615029209783"
    }
  },
  {
    "service_request": "2021-845034",
    "request_type": "Traffic Signals/Signs/Striping/Streetlights",
    "request_reason": "Traffic Signal Malfunctioning/Damaged",
    "date_created": "2021-11-30T15:28:55.000",
    "date_modified": "2021-11-30T16:01:19.000",
    "request_status": "Pending",
    "responsible_agency": "Department of Public Works",
    "final_address": "N GALVEZ ST & CAFFIN AVE",
    "address_councildis": "E",
    "status": "Pending",
    "rowid": "845034",
    "final_x": "3699050.23",
    "final_y": "537501.51",
    "longitude": "-90.0124356254096",
    "latitude": "29.97139816350514",
    "geocoded_column": {
      "latitude": "29.97139816350514",
      "longitude": "-90.0124356254096"
    }
  },
  {
    "service_request": "2021-845033",
    "request_type": "Abandoned Vehicles",
    "request_reason": "Abandoned/Junk Vehicles",
    "date_created": "2021-11-30T15:25:40.000",
    "date_modified": "2021-11-30T15:25:41.000",
    "request_status": "Pending",
    "responsible_agency": "Department of Public Works",
    "final_address": "7710 W Laverne St",
    "address_councildis": "D",
    "status": "Pending",
    "rowid": "845033",
    "final_x": "3695021.53501",
    "final_y": "558893.278172",
    "longitude": "-90.02438700992424",
    "latitude": "30.030344716249836",
    "geocoded_column": {
      "latitude": "30.030344716249836",
      "longitude": "-90.02438700992424"
    }
  },
  {
    "service_request": "2021-845032",
    "request_type": "Roads/Drainage",
    "request_reason": "Pothole",
    "date_created": "2021-11-30T15:23:21.000",
    "date_modified": "2021-11-30T15:23:21.000",
    "request_status": "Pending",
    "responsible_agency": "Department of Public Works",
    "final_address": "6825 Vicksburg St",
    "address_councildis": "A",
    "status": "Pending",
    "rowid": "845032",
    "final_x": "3669469.31636",
    "final_y": "552838.83119",
    "longitude": "-90.10533755869214",
    "latitude": "30.01447499530783",
    "geocoded_column": {
      "latitude": "30.01447499530783",
      "longitude": "-90.10533755869214"
    }
  },
  {
    "service_request": "2021-845031",
    "request_type": "Trash/Recycling",
    "request_reason": "Replace Trash Cart",
    "date_created": "2021-11-30T15:22:21.000",
    "date_modified": "2021-11-30T15:22:22.000",
    "request_status": "Pending",
    "responsible_agency": "Department of Sanitation",
    "final_address": "510 N Solomon St",
    "address_councildis": "A",
    "status": "Assigned to Contractor",
    "contractor": "Richards Disposal",
    "rowid": "845031",
    "final_x": "3671572.02567",
    "final_y": "539971.583243",
    "longitude": "-90.0991319102808",
    "latitude": "29.979032403932614",
    "geocoded_column": {
      "latitude": "29.979032403932614",
      "longitude": "-90.0991319102808"
    }
  },
  {
    "service_request": "2021-845028",
    "request_type": "Trash/Recycling",
    "request_reason": "Repair Recycling Cart",
    "date_created": "2021-11-30T15:19:12.000",
    "date_modified": "2021-11-30T16:01:23.000",
    "request_status": "Pending",
    "responsible_agency": "Department of Sanitation",
    "final_address": "3460 Wall Blvd",
    "address_councildis": "C",
    "status": "Pending",
    "rowid": "845028",
    "final_x": "3696916.94275",
    "final_y": "523904.63462",
    "longitude": "-90.01966511744463",
    "latitude": "29.934078979007033",
    "geocoded_column": {
      "latitude": "29.934078979007033",
      "longitude": "-90.01966511744463"
    }
  },
  {
    "service_request": "2021-845026",
    "request_type": "Abandoned Vehicles",
    "request_reason": "Abandoned/Junk Vehicles",
    "date_created": "2021-11-30T15:17:55.000",
    "date_modified": "2021-11-30T15:17:55.000",
    "request_status": "Pending",
    "responsible_agency": "Department of Public Works",
    "final_address": "7691 Vincent Rd",
    "address_councildis": "E",
    "status": "Pending",
    "rowid": "845026",
    "final_x": "3718281.87871",
    "final_y": "571874.637928",
    "longitude": "-89.9503899095613",
    "latitude": "30.06528700511062",
    "geocoded_column": {
      "latitude": "30.06528700511062",
      "longitude": "-89.9503899095613"
    }
  },
  {
    "service_request": "2021-845025",
    "request_type": "Trash/Recycling",
    "request_reason": "Order Trash Cart",
    "date_created": "2021-11-30T15:17:25.000",
    "date_modified": "2021-11-30T16:01:24.000",
    "request_status": "Pending",
    "responsible_agency": "Department of Sanitation",
    "final_address": "1211 Farragut St",
    "address_councildis": "C",
    "status": "Assigned to Contractor",
    "contractor": "Richards Disposal",
    "rowid": "845025",
    "final_x": "3692323.83267",
    "final_y": "526831.732606",
    "longitude": "-90.03406055373507",
    "latitude": "29.94227149222676",
    "geocoded_column": {
      "latitude": "29.94227149222676",
      "longitude": "-90.03406055373507"
    }
  },
  {
    "service_request": "2021-845024",
    "request_type": "Parks & Parkways",
    "request_reason": "Request Tree Service (Right of Way/Public Property)",
    "date_created": "2021-11-30T15:17:07.000",
    "date_modified": "2021-11-30T15:17:08.000",
    "request_status": "Pending",
    "responsible_agency": "Department of Parks & Parkway",
    "final_address": "1240 Carondelet St",
    "address_councildis": "B",
    "status": "Pending",
    "rowid": "845024",
    "final_x": "3679179.78882",
    "final_y": "526300.749758",
    "longitude": "-90.07557761492541",
    "latitude": "29.94121473342994",
    "geocoded_column": {
      "latitude": "29.94121473342994",
      "longitude": "-90.07557761492541"
    }
  },
  {
    "service_request": "2021-845023",
    "request_type": "Trash/Recycling",
    "request_reason": "Repair Trash Cart",
    "date_created": "2021-11-30T15:15:52.000",
    "date_modified": "2021-11-30T15:15:52.000",
    "request_status": "Pending",
    "responsible_agency": "Department of Sanitation",
    "final_address": "7910 Alabama St",
    "address_councildis": "D",
    "status": "Assigned to Contractor",
    "contractor": "Metro Disposal",
    "rowid": "845023",
    "final_x": "3694566.07267",
    "final_y": "559362.853981",
    "longitude": "-90.02580933622197",
    "latitude": "30.031650168884997",
    "geocoded_column": {
      "latitude": "30.031650168884997",
      "longitude": "-90.02580933622197"
    }
  },
  {
    "service_request": "2021-845022",
    "request_type": "Trash/Recycling",
    "request_reason": "Missed Trash Pick-Up",
    "date_created": "2021-11-30T15:15:03.000",
    "date_modified": "2021-11-30T15:15:04.000",
    "request_status": "Pending",
    "responsible_agency": "Department of Sanitation",
    "final_address": "7910 Alabama St",
    "address_councildis": "D",
    "status": "Assigned to Contractor",
    "contractor": "Metro Disposal",
    "rowid": "845022",
    "final_x": "3694566.07267",
    "final_y": "559362.853981",
    "longitude": "-90.02580933622197",
    "latitude": "30.031650168884997",
    "geocoded_column": {
      "latitude": "30.031650168884997",
      "longitude": "-90.02580933622197"
    }
  },
  {
    "service_request": "2021-845021",
    "request_type": "Trash/Recycling",
    "request_reason": "Repair Trash Cart",
    "date_created": "2021-11-30T15:14:30.000",
    "date_modified": "2021-11-30T15:14:31.000",
    "request_status": "Pending",
    "responsible_agency": "Department of Sanitation",
    "final_address": "5600 Ada Pl",
    "address_councildis": "A",
    "status": "Assigned to Contractor",
    "contractor": "Metro Disposal",
    "rowid": "845021",
    "final_x": "3668571.45402",
    "final_y": "544685.853327",
    "longitude": "-90.10844973403857",
    "latitude": "29.992083568706533",
    "geocoded_column": {
      "latitude": "29.992083568706533",
      "longitude": "-90.10844973403857"
    }
  },
  {
    "service_request": "2021-845020",
    "request_type": "Traffic Signals/Signs/Striping/Streetlights",
    "request_reason": "Traffic Sign Missing/Damaged",
    "date_created": "2021-11-30T15:14:12.000",
    "date_modified": "2021-11-30T15:14:13.000",
    "request_status": "Pending",
    "responsible_agency": "Department of Public Works",
    "final_address": "KENTUCKY ST & N VILLERE ST",
    "address_councildis": "D",
    "status": "Pending",
    "rowid": "845020",
    "final_x": "3693591.3",
    "final_y": "536041.78",
    "longitude": "-90.02972807915094",
    "latitude": "29.96755632829141",
    "geocoded_column": {
      "latitude": "29.96755632829141",
      "longitude": "-90.02972807915094"
    }
  },
  {
    "service_request": "2021-845019",
    "request_type": "Trash/Recycling",
    "request_reason": "Order Recycling Cart",
    "date_created": "2021-11-30T15:11:57.000",
    "date_modified": "2021-11-30T16:01:26.000",
    "request_status": "Pending",
    "responsible_agency": "Department of Sanitation",
    "final_address": "205 Elmira Ave",
    "address_councildis": "C",
    "status": "Pending",
    "rowid": "845019",
    "final_x": "3688221.74524",
    "final_y": "531124.602754",
    "longitude": "-90.04685954653962",
    "latitude": "29.954202676578298",
    "geocoded_column": {
      "latitude": "29.954202676578298",
      "longitude": "-90.04685954653962"
    }
  },
  {
    "service_request": "2021-845018",
    "request_type": "Property Maintenance",
    "request_reason": "Property Maintenance",
    "date_created": "2021-11-30T15:11:09.000",
    "date_modified": "2021-11-30T15:11:09.000",
    "request_status": "Pending",
    "responsible_agency": "Department of Code Enforcement",
    "final_address": "2204 Dauphine St",
    "address_councildis": "C",
    "status": "Pending",
    "rowid": "845018",
    "final_x": "3685206.46537",
    "final_y": "535208.937478",
    "longitude": "-90.05623683368493",
    "latitude": "29.965525933835124",
    "geocoded_column": {
      "latitude": "29.965525933835124",
      "longitude": "-90.05623683368493"
    }
  },
  {
    "service_request": "2021-845017",
    "request_type": "Trash/Recycling",
    "request_reason": "Start Trash Service",
    "date_created": "2021-11-30T15:10:16.000",
    "date_modified": "2021-11-30T16:01:28.000",
    "request_status": "Pending",
    "responsible_agency": "Department of Sanitation",
    "final_address": "205 Elmira Ave",
    "address_councildis": "C",
    "status": "Assigned to Contractor",
    "contractor": "Richards Disposal",
    "rowid": "845017",
    "final_x": "3688221.74524",
    "final_y": "531124.602754",
    "longitude": "-90.04685954653962",
    "latitude": "29.954202676578298",
    "geocoded_column": {
      "latitude": "29.954202676578298",
      "longitude": "-90.04685954653962"
    }
  },
  {
    "service_request": "2021-845016",
    "request_type": "Trash/Recycling",
    "request_reason": "Request a Large Item Pick Up",
    "date_created": "2021-11-30T15:07:12.000",
    "date_modified": "2021-11-30T16:01:29.000",
    "request_status": "Pending",
    "responsible_agency": "Department of Sanitation",
    "final_address": "6601 Dorian St",
    "address_councildis": "D",
    "status": "Assigned to Contractor",
    "contractor": "Metro Disposal",
    "rowid": "845016",
    "final_x": "3696525.33507",
    "final_y": "555381.504089",
    "longitude": "-90.01976222869723",
    "latitude": "30.02064135427605",
    "geocoded_column": {
      "latitude": "30.02064135427605",
      "longitude": "-90.01976222869723"
    }
  },
  {
    "service_request": "2021-845015",
    "request_type": "Safety & Permits",
    "request_reason": "Licenses & Permits",
    "date_created": "2021-11-30T15:06:41.000",
    "date_modified": "2021-11-30T15:06:41.000",
    "request_status": "Pending",
    "responsible_agency": "Safety and Permits",
    "status": "Pending",
    "rowid": "845015",
    "longitude": "0.0",
    "latitude": "0.0",
    "geocoded_column": {
      "latitude": "0.0",
      "longitude": "0.0"
    }
  },
  {
    "service_request": "2021-845014",
    "request_type": "Roads/Drainage",
    "request_reason": "WaterMain Break",
    "date_created": "2021-11-30T15:05:25.000",
    "date_modified": "2021-11-30T15:05:25.000",
    "request_status": "Closed",
    "responsible_agency": "Department of Public Works",
    "final_address": "5000 Canal St",
    "address_councildis": "A",
    "status": "Invalid Case",
    "rowid": "845014",
    "final_x": "3668116.39751",
    "final_y": "540478.898187",
    "longitude": "-90.1100290436831",
    "latitude": "29.980529241365396",
    "geocoded_column": {
      "latitude": "29.980529241365396",
      "longitude": "-90.1100290436831"
    }
  },
  {
    "service_request": "2021-845013",
    "request_type": "Traffic Signals/Signs/Striping/Streetlights",
    "request_reason": "Traffic Signal Malfunctioning/Damaged",
    "date_created": "2021-11-30T15:05:20.000",
    "date_modified": "2021-11-30T16:01:31.000",
    "request_status": "Pending",
    "responsible_agency": "Department of Public Works",
    "final_address": "CANAL ST & MARAIS ST",
    "address_councildis": "C",
    "status": "Pending",
    "rowid": "845013",
    "final_x": "3679223.8",
    "final_y": "532222.78",
    "longitude": "-90.07523337606597",
    "latitude": "29.957497005146642",
    "geocoded_column": {
      "latitude": "29.957497005146642",
      "longitude": "-90.07523337606597"
    }
  },
  {
    "service_request": "2021-845012",
    "request_type": "Traffic Signals/Signs/Striping/Streetlights",
    "request_reason": "Traffic Signal Malfunctioning/Damaged",
    "date_created": "2021-11-30T14:53:05.000",
    "date_modified": "2021-11-30T15:01:59.000",
    "request_status": "Pending",
    "responsible_agency": "Department of Public Works",
    "final_address": "CANAL ST & MARAIS ST",
    "address_councildis": "C",
    "status": "Pending",
    "rowid": "845012",
    "final_x": "3679223.8",
    "final_y": "532222.78",
    "longitude": "-90.07523337606597",
    "latitude": "29.957497005146642",
    "geocoded_column": {
      "latitude": "29.957497005146642",
      "longitude": "-90.07523337606597"
    }
  },
  {
    "service_request": "2021-845010",
    "request_type": "Abandoned Vehicles",
    "request_reason": "Abandoned/Junk Vehicles",
    "date_created": "2021-11-30T14:43:19.000",
    "date_modified": "2021-11-30T14:43:19.000",
    "request_status": "Pending",
    "responsible_agency": "Department of Public Works",
    "final_address": "2301 Constance St",
    "address_councildis": "B",
    "status": "Pending",
    "rowid": "845010",
    "final_x": "3678646.74344",
    "final_y": "521498.347705",
    "longitude": "-90.07742672490593",
    "latitude": "29.928025785048142",
    "geocoded_column": {
      "latitude": "29.928025785048142",
      "longitude": "-90.07742672490593"
    }
  },
  {
    "service_request": "2021-845009",
    "request_type": "Roads/Drainage",
    "request_reason": "Street Subsidence (Sinking)",
    "date_created": "2021-11-30T14:40:17.000",
    "date_modified": "2021-11-30T15:02:07.000",
    "request_status": "Pending",
    "responsible_agency": "Department of Public Works",
    "final_address": "4758 Read Blvd",
    "address_councildis": "E",
    "status": "Pending",
    "rowid": "845009",
    "final_x": "3712653.13093",
    "final_y": "556314.855258",
    "longitude": "-89.96876860729782",
    "latitude": "30.02268947370376",
    "geocoded_column": {
      "latitude": "30.02268947370376",
      "longitude": "-89.96876860729782"
    }
  },
  {
    "service_request": "2021-845007",
    "request_type": "Trash/Recycling",
    "request_reason": "Request a Large Item Pick Up",
    "date_created": "2021-11-30T14:38:00.000",
    "date_modified": "2021-11-30T14:38:01.000",
    "request_status": "Pending",
    "responsible_agency": "Department of Sanitation",
    "final_address": "28 English Turn Dr",
    "address_councildis": "C",
    "status": "Assigned to Contractor",
    "contractor": "Richards Disposal",
    "rowid": "845007",
    "final_x": "3720275.13791",
    "final_y": "514566.431923",
    "longitude": "-89.94628199001066",
    "latitude": "29.90764527551761",
    "geocoded_column": {
      "latitude": "29.90764527551761",
      "longitude": "-89.94628199001066"
    }
  },
  {
    "service_request": "2021-845006",
    "request_type": "Abandoned Vehicles",
    "request_reason": "Abandoned/Junk Vehicles",
    "date_created": "2021-11-30T14:35:36.000",
    "date_modified": "2021-11-30T14:35:36.000",
    "request_status": "Pending",
    "responsible_agency": "Department of Public Works",
    "final_address": "2301 Constance St",
    "address_councildis": "B",
    "status": "Pending",
    "rowid": "845006",
    "final_x": "3678646.74344",
    "final_y": "521498.347705",
    "longitude": "-90.07742672490593",
    "latitude": "29.928025785048142",
    "geocoded_column": {
      "latitude": "29.928025785048142",
      "longitude": "-90.07742672490593"
    }
  },
  {
    "service_request": "2021-845005",
    "request_type": "Trash/Recycling",
    "request_reason": "Request a Large Item Pick Up",
    "date_created": "2021-11-30T14:32:03.000",
    "date_modified": "2021-11-30T15:02:11.000",
    "request_status": "Pending",
    "responsible_agency": "Department of Sanitation",
    "final_address": "928 Second St",
    "address_councildis": "B",
    "status": "Assigned to Contractor",
    "contractor": "Richards Disposal",
    "rowid": "845005",
    "final_x": "3678055.51765",
    "final_y": "520897.950585",
    "longitude": "-90.07931383250035",
    "latitude": "29.926392693641716",
    "geocoded_column": {
      "latitude": "29.926392693641716",
      "longitude": "-90.07931383250035"
    }
  },
  {
    "service_request": "2021-845003",
    "request_type": "Trash/Recycling",
    "request_reason": "Repair Trash Cart",
    "date_created": "2021-11-30T14:31:15.000",
    "date_modified": "2021-11-30T14:31:16.000",
    "request_status": "Pending",
    "responsible_agency": "Department of Sanitation",
    "final_address": "2330 Valmont St",
    "address_councildis": "B",
    "status": "Assigned to Contractor",
    "contractor": "Richards Disposal",
    "rowid": "845003",
    "final_x": "3668168.89204",
    "final_y": "524215.12038",
    "longitude": "-90.11041147932266",
    "latitude": "29.935807665462335",
    "geocoded_column": {
      "latitude": "29.935807665462335",
      "longitude": "-90.11041147932266"
    }
  },
  {
    "service_request": "2021-845002",
    "request_type": "Trash/Recycling",
    "request_reason": "Order Recycling Cart",
    "date_created": "2021-11-30T14:30:40.000",
    "date_modified": "2021-11-30T15:02:17.000",
    "request_status": "Pending",
    "responsible_agency": "Department of Sanitation",
    "final_address": "8100 Curran Rd",
    "address_councildis": "E",
    "status": "Pending",
    "rowid": "845002",
    "final_x": "3702470.73457",
    "final_y": "561670.616799",
    "longitude": "-90.0007455680989",
    "latitude": "30.03774522985472",
    "geocoded_column": {
      "latitude": "30.03774522985472",
      "longitude": "-90.0007455680989"
    }
  },
  {
    "service_request": "2021-845001",
    "request_type": "Trash/Recycling",
    "request_reason": "Order Recycling Cart",
    "date_created": "2021-11-30T14:26:07.000",
    "date_modified": "2021-11-30T14:26:07.000",
    "request_status": "Pending",
    "responsible_agency": "Department of Sanitation",
    "final_address": "1444 Tennessee St",
    "address_councildis": "E",
    "status": "Pending",
    "rowid": "845001",
    "final_x": "3696048.02166",
    "final_y": "535786.894599",
    "longitude": "-90.02197895157941",
    "latitude": "29.96677840335483",
    "geocoded_column": {
      "latitude": "29.96677840335483",
      "longitude": "-90.02197895157941"
    }
  },
  {
    "service_request": "2021-845000",
    "request_type": "Trash/Recycling",
    "request_reason": "Start Trash Service",
    "date_created": "2021-11-30T14:20:54.000",
    "date_modified": "2021-11-30T15:02:20.000",
    "request_status": "Pending",
    "responsible_agency": "Department of Sanitation",
    "final_address": "331 N Derbigny St",
    "address_councildis": "B",
    "status": "Assigned to Contractor",
    "contractor": "Richards Disposal",
    "rowid": "845000",
    "final_x": "3678708.40706",
    "final_y": "533891.157893",
    "longitude": "-90.07680306262961",
    "latitude": "29.9621000296573",
    "geocoded_column": {
      "latitude": "29.9621000296573",
      "longitude": "-90.07680306262961"
    }
  },
  {
    "service_request": "2021-844999",
    "request_type": "Roads/Drainage",
    "request_reason": "Pothole",
    "date_created": "2021-11-30T14:20:45.000",
    "date_modified": "2021-11-30T14:20:45.000",
    "request_status": "Pending",
    "responsible_agency": "Department of Public Works",
    "final_address": "7000 BLK Chestnut St",
    "address_councildis": "A",
    "status": "Pending",
    "rowid": "844999",
    "final_x": "3661636.6242",
    "final_y": "521548.945535",
    "longitude": "-90.13112238049938",
    "latitude": "29.928666605040494",
    "geocoded_column": {
      "latitude": "29.928666605040494",
      "longitude": "-90.13112238049938"
    }
  },
  {
    "service_request": "2021-844998",
    "request_type": "Trash/Recycling",
    "request_reason": "Start Trash Service",
    "date_created": "2021-11-30T14:20:22.000",
    "date_modified": "2021-11-30T15:02:22.000",
    "request_status": "Pending",
    "responsible_agency": "Department of Sanitation",
    "final_address": "329 N Derbigny St",
    "address_councildis": "B",
    "status": "Assigned to Contractor",
    "contractor": "Richards Disposal",
    "rowid": "844998",
    "final_x": "3678698.68482",
    "final_y": "533881.436869",
    "longitude": "-90.07683410062025",
    "latitude": "29.96207359328885",
    "geocoded_column": {
      "latitude": "29.96207359328885",
      "longitude": "-90.07683410062025"
    }
  },
  {
    "service_request": "2021-844994",
    "request_type": "Roads/Drainage",
    "request_reason": "WaterMain Break",
    "date_created": "2021-11-30T14:06:43.000",
    "date_modified": "2021-11-30T14:06:43.000",
    "request_status": "Closed",
    "responsible_agency": "Department of Public Works",
    "final_address": "6654 Louisville St",
    "address_councildis": "A",
    "status": "Invalid Case",
    "rowid": "844994",
    "final_x": "3668059.41351",
    "final_y": "551917.204118",
    "longitude": "-90.1098232644216",
    "latitude": "30.011982316341307",
    "geocoded_column": {
      "latitude": "30.011982316341307",
      "longitude": "-90.1098232644216"
    }
  },
  {
    "service_request": "2021-844993",
    "request_type": "Trash/Recycling",
    "request_reason": "Request a Large Item Pick Up",
    "date_created": "2021-11-30T14:01:53.000",
    "date_modified": "2021-11-30T14:01:54.000",
    "request_status": "Pending",
    "responsible_agency": "Department of Sanitation",
    "final_address": "2622 Lepage St",
    "address_councildis": "A",
    "status": "Assigned to Contractor",
    "contractor": "Metro Disposal",
    "rowid": "844993",
    "final_x": "3678281.98498",
    "final_y": "539515.917386",
    "longitude": "-90.07795503814211",
    "latitude": "29.977579045569932",
    "geocoded_column": {
      "latitude": "29.977579045569932",
      "longitude": "-90.07795503814211"
    }
  },
  {
    "service_request": "2021-844992",
    "request_type": "Trash/Recycling",
    "request_reason": "Request a Large Item Pick Up",
    "date_created": "2021-11-30T13:51:32.000",
    "date_modified": "2021-11-30T14:01:51.000",
    "request_status": "Pending",
    "responsible_agency": "Department of Sanitation",
    "final_address": "3719 Banks St",
    "address_councildis": "A",
    "status": "Assigned to Contractor",
    "contractor": "Richards Disposal",
    "rowid": "844992",
    "final_x": "3671519.4571",
    "final_y": "536582.600199",
    "longitude": "-90.09941320749552",
    "latitude": "29.969715403595544",
    "geocoded_column": {
      "latitude": "29.969715403595544",
      "longitude": "-90.09941320749552"
    }
  },
  {
    "service_request": "2021-844990",
    "request_type": "Property Maintenance",
    "request_reason": "Property Maintenance",
    "date_created": "2021-11-30T13:48:46.000",
    "date_modified": "2021-11-30T13:48:46.000",
    "request_status": "Pending",
    "responsible_agency": "Department of Code Enforcement",
    "final_address": "2400 Magazine St",
    "address_councildis": "B",
    "status": "Pending",
    "rowid": "844990",
    "final_x": "3678071.20245",
    "final_y": "521434.307385",
    "longitude": "-90.07924578920101",
    "latitude": "29.927867028146228",
    "geocoded_column": {
      "latitude": "29.927867028146228",
      "longitude": "-90.07924578920101"
    }
  },
  {
    "service_request": "2021-844989",
    "request_type": "Traffic Signals/Signs/Striping/Streetlights",
    "request_reason": "Traffic Sign Missing/Damaged",
    "date_created": "2021-11-30T13:48:04.000",
    "date_modified": "2021-11-30T13:48:04.000",
    "request_status": "Pending",
    "responsible_agency": "Department of Public Works",
    "final_address": "N ROMAN ST & LESSEPS ST",
    "address_councildis": "D",
    "status": "Pending",
    "rowid": "844989",
    "final_x": "3693353.1",
    "final_y": "537707.88",
    "longitude": "-90.03042048829381",
    "latitude": "29.972144961576635",
    "geocoded_column": {
      "latitude": "29.972144961576635",
      "longitude": "-90.03042048829381"
    }
  },
  {
    "service_request": "2021-844988",
    "request_type": "Traffic Signals/Signs/Striping/Streetlights",
    "request_reason": "Traffic Sign Missing/Damaged",
    "date_created": "2021-11-30T13:46:01.000",
    "date_modified": "2021-11-30T13:46:02.000",
    "request_status": "Pending",
    "responsible_agency": "Department of Public Works",
    "final_address": "ST PHILIP ST & N SALCEDO ST",
    "address_councildis": "A",
    "status": "Pending",
    "rowid": "844988",
    "final_x": "3676160.2",
    "final_y": "538812.08",
    "longitude": "-90.08468058429936",
    "latitude": "29.97570748253802",
    "geocoded_column": {
      "latitude": "29.97570748253802",
      "longitude": "-90.08468058429936"
    }
  },
  {
    "service_request": "2021-844987",
    "request_type": "Trash/Recycling",
    "request_reason": "Replace Trash Cart",
    "date_created": "2021-11-30T13:44:52.000",
    "date_modified": "2021-11-30T13:44:53.000",
    "request_status": "Pending",
    "responsible_agency": "Department of Sanitation",
    "final_address": "228 22Nd St",
    "address_councildis": "A",
    "status": "Assigned to Contractor",
    "contractor": "Metro Disposal",
    "rowid": "844987",
    "final_x": "3665546.80948",
    "final_y": "549260.978835",
    "longitude": "-90.11785071111241",
    "latitude": "30.0047521510563",
    "geocoded_column": {
      "latitude": "30.0047521510563",
      "longitude": "-90.11785071111241"
    }
  },
  {
    "service_request": "2021-844986",
    "request_type": "Trash/Recycling",
    "request_reason": "Request a Large Item Pick Up",
    "date_created": "2021-11-30T13:41:58.000",
    "date_modified": "2021-11-30T13:41:58.000",
    "request_status": "Pending",
    "responsible_agency": "Department of Sanitation",
    "final_address": "1210 Frenchmen St",
    "address_councildis": "C",
    "status": "Assigned to Contractor",
    "contractor": "Metro Disposal",
    "rowid": "844986",
    "final_x": "3684522.08495",
    "final_y": "536744.435912",
    "longitude": "-90.0583441185649",
    "latitude": "29.969768978702696",
    "geocoded_column": {
      "latitude": "29.969768978702696",
      "longitude": "-90.0583441185649"
    }
  },
  {
    "service_request": "2021-844985",
    "request_type": "Trash/Recycling",
    "request_reason": "Request a Large Item Pick Up",
    "date_created": "2021-11-30T13:38:57.000",
    "date_modified": "2021-11-30T14:01:55.000",
    "request_status": "Pending",
    "responsible_agency": "Department of Sanitation",
    "final_address": "1014 Music St",
    "address_councildis": "C",
    "status": "Assigned to Contractor",
    "contractor": "Metro Disposal",
    "rowid": "844985",
    "final_x": "3686834.91478",
    "final_y": "536227.466311",
    "longitude": "-90.05105827747268",
    "latitude": "29.968276527251867",
    "geocoded_column": {
      "latitude": "29.968276527251867",
      "longitude": "-90.05105827747268"
    }
  },
  {
    "service_request": "2021-844984",
    "request_type": "Traffic Signals/Signs/Striping/Streetlights",
    "request_reason": "Street Light Outage/Malfunction",
    "date_created": "2021-11-30T13:38:12.000",
    "date_modified": "2021-11-30T14:01:57.000",
    "request_status": "Pending",
    "responsible_agency": "Department of Public Works",
    "final_address": "100 BLK Saint John Ct",
    "address_councildis": "A",
    "status": "Pending",
    "contractor": "Royal Engineering",
    "rowid": "844984",
    "final_x": "3674824.90261",
    "final_y": "540119.371649",
    "longitude": "-90.08885299006738",
    "latitude": "29.979342030148644",
    "geocoded_column": {
      "latitude": "29.979342030148644",
      "longitude": "-90.08885299006738"
    }
  },
  {
    "service_request": "2021-844983",
    "request_type": "Traffic Signals/Signs/Striping/Streetlights",
    "request_reason": "Street Light Outage/Malfunction",
    "date_created": "2021-11-30T13:37:43.000",
    "date_modified": "2021-11-30T14:01:58.000",
    "request_status": "Pending",
    "responsible_agency": "Department of Public Works",
    "final_address": "100 BLK Saint John Ct",
    "address_councildis": "A",
    "status": "Pending",
    "contractor": "Royal Engineering",
    "rowid": "844983",
    "final_x": "3674824.90261",
    "final_y": "540119.371649",
    "longitude": "-90.08885299006738",
    "latitude": "29.979342030148644",
    "geocoded_column": {
      "latitude": "29.979342030148644",
      "longitude": "-90.08885299006738"
    }
  },
  {
    "service_request": "2021-844982",
    "request_type": "Roads/Drainage",
    "request_reason": "Pothole",
    "date_created": "2021-11-30T13:34:53.000",
    "date_modified": "2021-11-30T13:34:53.000",
    "request_status": "Pending",
    "responsible_agency": "Department of Public Works",
    "final_address": "1031 Congress St",
    "address_councildis": "C",
    "status": "Pending",
    "rowid": "844982",
    "final_x": "3690702.97174",
    "final_y": "535385.953158",
    "longitude": "-90.03887284734326",
    "latitude": "29.96584307256384",
    "geocoded_column": {
      "latitude": "29.96584307256384",
      "longitude": "-90.03887284734326"
    }
  },
  {
    "service_request": "2021-844981",
    "request_type": "Trash/Recycling",
    "request_reason": "Replace Trash Cart",
    "date_created": "2021-11-30T13:29:09.000",
    "date_modified": "2021-11-30T14:02:00.000",
    "request_status": "Pending",
    "responsible_agency": "Department of Sanitation",
    "final_address": "2778 Madrid St",
    "address_councildis": "D",
    "status": "Assigned to Contractor",
    "contractor": "Metro Disposal",
    "rowid": "844981",
    "final_x": "3687737.16329",
    "final_y": "555593.169113",
    "longitude": "-90.04752266012942",
    "latitude": "30.021497441125817",
    "geocoded_column": {
      "latitude": "30.021497441125817",
      "longitude": "-90.04752266012942"
    }
  },
  {
    "service_request": "2021-844980",
    "request_type": "Trash/Recycling",
    "request_reason": "Request a Large Item Pick Up",
    "date_created": "2021-11-30T13:28:16.000",
    "date_modified": "2021-11-30T14:02:06.000",
    "request_status": "Pending",
    "responsible_agency": "Department of Sanitation",
    "final_address": "838 Mandeville St",
    "address_councildis": "C",
    "status": "Assigned to Contractor",
    "contractor": "Metro Disposal",
    "rowid": "844980",
    "final_x": "3685806.60847",
    "final_y": "535599.033158",
    "longitude": "-90.05432786050307",
    "latitude": "29.966580155856843",
    "geocoded_column": {
      "latitude": "29.966580155856843",
      "longitude": "-90.05432786050307"
    }
  },
  {
    "service_request": "2021-844979",
    "request_type": "Abandoned Vehicles",
    "request_reason": "Vehicle Blocking Your Driveway",
    "date_created": "2021-11-30T13:26:42.000",
    "date_modified": "2021-11-30T14:02:10.000",
    "request_status": "Pending",
    "responsible_agency": "Department of Public Works",
    "final_address": "5635 Franklin Ave",
    "address_councildis": "D",
    "status": "Pending",
    "rowid": "844979",
    "final_x": "3686603.10876",
    "final_y": "553907.886103",
    "longitude": "-90.05116554363646",
    "latitude": "30.016898478251804",
    "geocoded_column": {
      "latitude": "30.016898478251804",
      "longitude": "-90.05116554363646"
    }
  },
  {
    "service_request": "2021-844978",
    "request_type": "Abandoned Vehicles",
    "request_reason": "Abandoned/Junk Vehicles",
    "date_created": "2021-11-30T13:25:58.000",
    "date_modified": "2021-11-30T13:25:58.000",
    "request_status": "Pending",
    "responsible_agency": "Department of Public Works",
    "final_address": "1801 Iberville St",
    "address_councildis": "B",
    "status": "Pending",
    "rowid": "844978",
    "final_x": "3678298.68846",
    "final_y": "533511.949316",
    "longitude": "-90.07811001037194",
    "latitude": "29.96106968234191",
    "geocoded_column": {
      "latitude": "29.96106968234191",
      "longitude": "-90.07811001037194"
    }
  },
  {
    "service_request": "2021-844977",
    "request_type": "Abandoned Vehicles",
    "request_reason": "Abandoned/Junk Vehicles",
    "date_created": "2021-11-30T13:23:25.000",
    "date_modified": "2021-11-30T13:23:26.000",
    "request_status": "Pending",
    "responsible_agency": "Department of Public Works",
    "final_address": "1801 Iberville St",
    "address_councildis": "B",
    "status": "Pending",
    "rowid": "844977",
    "final_x": "3678298.68846",
    "final_y": "533511.949316",
    "longitude": "-90.07811001037194",
    "latitude": "29.96106968234191",
    "geocoded_column": {
      "latitude": "29.96106968234191",
      "longitude": "-90.07811001037194"
    }
  },
  {
    "service_request": "2021-844976",
    "request_type": "Trash/Recycling",
    "request_reason": "Repair Trash Cart",
    "date_created": "2021-11-30T13:23:24.000",
    "date_modified": "2021-11-30T14:02:13.000",
    "request_status": "Pending",
    "responsible_agency": "Department of Sanitation",
    "final_address": "2123 Palmer Ave",
    "address_councildis": "A",
    "status": "Assigned to Contractor",
    "contractor": "Richards Disposal",
    "rowid": "844976",
    "final_x": "3666104.6914",
    "final_y": "524747.537724",
    "longitude": "-90.11691037746233",
    "latitude": "29.93733205869784",
    "geocoded_column": {
      "latitude": "29.93733205869784",
      "longitude": "-90.11691037746233"
    }
  },
  {
    "service_request": "2021-844975",
    "request_type": "Abandoned Vehicles",
    "request_reason": "Abandoned/Junk Vehicles",
    "date_created": "2021-11-30T13:14:26.000",
    "date_modified": "2021-11-30T14:02:16.000",
    "request_status": "Pending",
    "responsible_agency": "Department of Public Works",
    "final_address": "ROYAL ST & BARTHOLOMEW ST",
    "address_councildis": "C",
    "status": "Pending",
    "rowid": "844975",
    "final_x": "3691425.3",
    "final_y": "533807.68",
    "longitude": "-90.0366481695114",
    "latitude": "29.961480917364504",
    "geocoded_column": {
      "latitude": "29.961480917364504",
      "longitude": "-90.0366481695114"
    }
  },
  {
    "service_request": "2021-844973",
    "request_type": "Trash/Recycling",
    "request_reason": "Replace Trash Cart",
    "date_created": "2021-11-30T13:10:21.000",
    "date_modified": "2021-11-30T13:10:22.000",
    "request_status": "Pending",
    "responsible_agency": "Department of Sanitation",
    "final_address": "1927 Gentilly Blvd",
    "address_councildis": "A",
    "status": "Assigned to Contractor",
    "contractor": "Metro Disposal",
    "rowid": "844973",
    "final_x": "3679037.96418",
    "final_y": "543378.166286",
    "longitude": "-90.07543348718198",
    "latitude": "29.98817609100967",
    "geocoded_column": {
      "latitude": "29.98817609100967",
      "longitude": "-90.07543348718198"
    }
  },
  {
    "service_request": "2021-844972",
    "request_type": "Safety & Permits",
    "request_reason": "Licenses & Permits",
    "date_created": "2021-11-30T13:10:01.000",
    "date_modified": "2021-11-30T13:10:01.000",
    "request_status": "Pending",
    "responsible_agency": "Safety and Permits",
    "final_address": "PRYTANIA ST & EXPOSITION BLVD",
    "address_councildis": "A",
    "status": "Pending",
    "rowid": "844972",
    "final_x": "3663872.3",
    "final_y": "521396.78",
    "longitude": "-90.12406985607483",
    "latitude": "29.928183510248257",
    "geocoded_column": {
      "latitude": "29.928183510248257",
      "longitude": "-90.12406985607483"
    }
  },
  {
    "service_request": "2021-844970",
    "request_type": "Abandoned Vehicles",
    "request_reason": "Abandoned/Junk Vehicles",
    "date_created": "2021-11-30T13:08:49.000",
    "date_modified": "2021-11-30T14:02:18.000",
    "request_status": "Pending",
    "responsible_agency": "Department of Public Works",
    "final_address": "605 S Cortez St",
    "address_councildis": "B",
    "status": "Pending",
    "rowid": "844970",
    "final_x": "3670796.41646",
    "final_y": "535978.971399",
    "longitude": "-90.10171713078084",
    "latitude": "29.96807701647906",
    "geocoded_column": {
      "latitude": "29.96807701647906",
      "longitude": "-90.10171713078084"
    }
  },
  {
    "service_request": "2021-844969",
    "request_type": "Traffic Signals/Signs/Striping/Streetlights",
    "request_reason": "Street Light Knocked Down/Leaning",
    "date_created": "2021-11-30T13:08:30.000",
    "date_modified": "2021-11-30T13:08:30.000",
    "request_status": "Pending",
    "responsible_agency": "Department of Public Works",
    "final_address": "1927 Gentilly Blvd",
    "address_councildis": "A",
    "status": "Pending",
    "contractor": "Royal Engineering",
    "rowid": "844969",
    "final_x": "3679037.96418",
    "final_y": "543378.166286",
    "longitude": "-90.07543348718198",
    "latitude": "29.98817609100967",
    "geocoded_column": {
      "latitude": "29.98817609100967",
      "longitude": "-90.07543348718198"
    }
  },
  {
    "service_request": "2021-844966",
    "request_type": "Parks & Parkways",
    "request_reason": "Request Tree Service (Right of Way/Public Property)",
    "date_created": "2021-11-30T13:08:13.000",
    "date_modified": "2021-11-30T13:08:14.000",
    "request_status": "Pending",
    "responsible_agency": "Department of Parks & Parkway",
    "final_address": "5203 Pitt St",
    "address_councildis": "B",
    "status": "Pending",
    "rowid": "844966",
    "final_x": "3668056.60557",
    "final_y": "520488.290616",
    "longitude": "-90.11089149314375",
    "latitude": "29.925563366387376",
    "geocoded_column": {
      "latitude": "29.925563366387376",
      "longitude": "-90.11089149314375"
    }
  },
  {
    "service_request": "2021-844965",
    "request_type": "Trash/Recycling",
    "request_reason": "Request a Large Item Pick Up",
    "date_created": "2021-11-30T13:06:13.000",
    "date_modified": "2021-11-30T14:02:21.000",
    "request_status": "Pending",
    "responsible_agency": "Department of Sanitation",
    "final_address": "4031 Ulloa St",
    "address_councildis": "A",
    "status": "Assigned to Contractor",
    "contractor": "Richards Disposal",
    "rowid": "844965",
    "final_x": "3669861.37946",
    "final_y": "536370.184583",
    "longitude": "-90.10465677361671",
    "latitude": "29.96918032368568",
    "geocoded_column": {
      "latitude": "29.96918032368568",
      "longitude": "-90.10465677361671"
    }
  },
  {
    "service_request": "2021-844963",
    "request_type": "Parks & Parkways",
    "request_reason": "Request Tree Service (Right of Way/Public Property)",
    "date_created": "2021-11-30T13:04:05.000",
    "date_modified": "2021-11-30T14:16:34.000",
    "case_close_date": "2021-11-30T08:16:34.000",
    "request_status": "Closed",
    "responsible_agency": "Department of Parks & Parkway",
    "final_address": "12931 N Lake Carmel Dr",
    "address_councildis": "E",
    "status": "Resolved",
    "rowid": "844963",
    "final_x": "3716398.40108",
    "final_y": "568261.887653",
    "longitude": "-89.9564809609765",
    "latitude": "30.055415809071206",
    "geocoded_column": {
      "latitude": "30.055415809071206",
      "longitude": "-89.9564809609765"
    }
  },
  {
    "service_request": "2021-844961",
    "request_type": "Traffic Signals/Signs/Striping/Streetlights",
    "request_reason": "Street Light Outage/Malfunction",
    "date_created": "2021-11-30T12:56:04.000",
    "date_modified": "2021-11-30T12:56:06.000",
    "request_status": "Pending",
    "responsible_agency": "Department of Public Works",
    "final_address": "2100 Marengo St",
    "address_councildis": "B",
    "status": "Pending",
    "contractor": "Royal Engineering",
    "rowid": "844961",
    "final_x": "3671721.72622",
    "final_y": "522785.658043",
    "longitude": "-90.09924369999155",
    "latitude": "29.931772364350966",
    "geocoded_column": {
      "latitude": "29.931772364350966",
      "longitude": "-90.09924369999155"
    }
  },
  {
    "service_request": "2021-844960",
    "request_type": "Traffic Signals/Signs/Striping/Streetlights",
    "request_reason": "Street Light Outage/Malfunction",
    "date_created": "2021-11-30T12:54:25.000",
    "date_modified": "2021-11-30T12:54:26.000",
    "request_status": "Pending",
    "responsible_agency": "Department of Public Works",
    "final_address": "2011 Marengo St",
    "address_councildis": "B",
    "status": "Pending",
    "contractor": "Royal Engineering",
    "rowid": "844960",
    "final_x": "3671860.95726",
    "final_y": "522537.35929",
    "longitude": "-90.09881260719386",
    "latitude": "29.93108549878096",
    "geocoded_column": {
      "latitude": "29.93108549878096",
      "longitude": "-90.09881260719386"
    }
  },
  {
    "service_request": "2021-844959",
    "request_type": "Abandoned Vehicles",
    "request_reason": "Abandoned/Junk Vehicles",
    "date_created": "2021-11-30T12:45:25.000",
    "date_modified": "2021-11-30T12:45:25.000",
    "request_status": "Pending",
    "responsible_agency": "Department of Public Works",
    "final_address": "1400 Alabo St",
    "address_councildis": "E",
    "status": "Pending",
    "rowid": "844959",
    "final_x": "3699161.10916",
    "final_y": "534696.648518",
    "longitude": "-90.01218758897838",
    "latitude": "29.963682285964676",
    "geocoded_column": {
      "latitude": "29.963682285964676",
      "longitude": "-90.01218758897838"
    }
  },
  {
    "service_request": "2021-844958",
    "request_type": "Traffic Signals/Signs/Striping/Streetlights",
    "request_reason": "Traffic Sign Missing/Damaged",
    "date_created": "2021-11-30T12:44:25.000",
    "date_modified": "2021-11-30T12:44:25.000",
    "request_status": "Pending",
    "responsible_agency": "Department of Public Works",
    "final_address": "N TONTI ST & ALLEN ST",
    "address_councildis": "D",
    "status": "Pending",
    "rowid": "844958",
    "final_x": "3682419.0",
    "final_y": "540545.58",
    "longitude": "-90.06485295498824",
    "latitude": "29.980284981805752",
    "geocoded_column": {
      "latitude": "29.980284981805752",
      "longitude": "-90.06485295498824"
    }
  },
  {
    "service_request": "2021-844957",
    "request_type": "Trash/Recycling",
    "request_reason": "Request a Large Item Pick Up",
    "date_created": "2021-11-30T12:44:24.000",
    "date_modified": "2021-11-30T13:02:10.000",
    "request_status": "Pending",
    "responsible_agency": "Department of Sanitation",
    "final_address": "7227 S Claiborne Ave",
    "address_councildis": "A",
    "status": "Assigned to Contractor",
    "contractor": "Richards Disposal",
    "rowid": "844957",
    "final_x": "3666351.10618",
    "final_y": "530074.076417",
    "longitude": "-90.11595376542205",
    "latitude": "29.951971126773017",
    "geocoded_column": {
      "latitude": "29.951971126773017",
      "longitude": "-90.11595376542205"
    }
  },
  {
    "service_request": "2021-844956",
    "request_type": "Trash/Recycling",
    "request_reason": "Repair Trash Cart",
    "date_created": "2021-11-30T12:43:05.000",
    "date_modified": "2021-11-30T13:02:13.000",
    "request_status": "Pending",
    "responsible_agency": "Department of Sanitation",
    "final_address": "7212 Maple St",
    "address_councildis": "A",
    "status": "Assigned to Contractor",
    "contractor": "Richards Disposal",
    "rowid": "844956",
    "final_x": "3663278.04563",
    "final_y": "525345.915837",
    "longitude": "-90.12581441673446",
    "latitude": "29.93905961695891",
    "geocoded_column": {
      "latitude": "29.93905961695891",
      "longitude": "-90.12581441673446"
    }
  },
  {
    "service_request": "2021-844955",
    "request_type": "Traffic Signals/Signs/Striping/Streetlights",
    "request_reason": "Traffic Sign Missing/Damaged",
    "date_created": "2021-11-30T12:42:33.000",
    "date_modified": "2021-11-30T12:42:33.000",
    "request_status": "Pending",
    "responsible_agency": "Department of Public Works",
    "final_address": "2627 Magnolia St",
    "address_councildis": "B",
    "status": "Pending",
    "rowid": "844955",
    "final_x": "3674031.2971",
    "final_y": "526098.505726",
    "longitude": "-90.09183931531943",
    "latitude": "29.940813017841453",
    "geocoded_column": {
      "latitude": "29.940813017841453",
      "longitude": "-90.09183931531943"
    }
  },