[
  {
    "service_request": "2025-1238567",
    "request_type": "Streetlights",
    "request_reason": "Streetlight Outage/Malfunction",
    "date_created": "2025-11-06T22:37:52.000",
    "date_modified": "2025-11-06T22:37:53.000",
    "request_status": "Pending",
    "responsible_agency": "Department of Public Works",
    "final_address": "321 St Charles Ave HM",
    "address_councildis": "B",
    "status": "Pending",
    "rowid": "1238567",
    "final_x": "3680779.31509",
    "final_y": "529867.385153",
    "longitude": "-90.07040349997493",
    "latitude": "29.950973411965517",
    "geocoded_column": {
      "latitude": "29.950973411965517",
      "longitude": "-90.07040349997493"
    }
  },
  {
    "service_request": "2025-1238566",
    "request_type": "Trash/Recycling",
    "request_reason": "Request a Large Item Pick Up",
    "date_created": "2025-11-06T22:32:35.000",
    "date_modified": "2025-11-06T22:32:37.000",
    "request_status": "Pending",
    "responsible_agency": "Department of Sanitation",
    "final_address": "4733 Camelot Dr",
    "address_councildis": "E",
    "status": "Assigned to Contractor",
    "contractor": "Waste Pro",
    "rowid": "1238566",
    "final_x": "3708447.8908",
    "final_y": "555583.744921",
    "longitude": "-89.98208330869649",
    "latitude": "30.020816234917078",
    "geocoded_column": {
      "latitude": "30.020816234917078",
      "longitude": "-89.98208330869649"
    }
  },
  {
    "service_request": "2025-1238565",
    "request_type": "Streetlights",
    "request_reason": "Streetlight Outage/Malfunction",
    "date_created": "2025-11-06T22:28:00.000",
    "date_modified": "2025-11-06T22:28:02.000",
    "request_status": "Pending",
    "responsible_agency": "Department of Public Works",
    "final_address": "104 St Charles Ave",
    "address_councildis": "B",
    "status": "Pending",
    "rowid": "1238565",
    "final_x": "3681125.96872",
    "final_y": "530513.066306",
    "longitude": "-90.06928645233668",
    "latitude": "29.952738306913446",
    "geocoded_column": {
      "latitude": "29.952738306913446",
      "longitude": "-90.06928645233668"
    }
  },
  {
    "service_request": "2025-1238564",
    "request_type": "Streetlights",
    "request_reason": "Streetlight Outage/Malfunction",
    "date_created": "2025-11-06T21:41:51.000",
    "date_modified": "2025-11-06T21:41:54.000",
    "request_status": "Pending",
    "responsible_agency": "Department of Public Works",
    "final_address": "2708 Octavia St",
    "address_councildis": "A",
    "status": "Pending",
    "rowid": "1238564",
    "final_x": "3667854.99533",
    "final_y": "525457.428989",
    "longitude": "-90.11136063414558",
    "latitude": "29.93923282324112",
    "geocoded_column": {
      "latitude": "29.93923282324112",
      "longitude": "-90.11136063414558"
    }
  },
  {
    "service_request": "2025-1238563",
    "request_type": "Trash/Recycling",
    "request_reason": "Request a Large Item Pick Up",
    "date_created": "2025-11-06T21:18:21.000",
    "date_modified": "2025-11-06T21:18:23.000",
    "request_status": "Pending",
    "responsible_agency": "Department of Sanitation",
    "final_address": "1715 France St",
    "address_councildis": "D",
    "status": "Assigned to Contractor",
    "contractor": "IV Waste",
    "rowid": "1238563",
    "final_x": "3693020.20886",
    "final_y": "537521.33044",
    "longitude": "-90.03147850327866",
    "latitude": "29.97164242045645",
    "geocoded_column": {
      "latitude": "29.97164242045645",
      "longitude": "-90.03147850327866"
    }
  },
  {
    "service_request": "2025-1238562",
    "request_type": "Trash/Recycling",
    "request_reason": "Replace Trash Cart",
    "date_created": "2025-11-06T21:08:05.000",
    "date_modified": "2025-11-06T21:08:07.000",
    "request_status": "Pending",
    "responsible_agency": "Department of Sanitation",
    "final_address": "3219 Octavia St",
    "address_councildis": "A",
    "status": "Assigned to Contractor",
    "contractor": "IV Waste",
    "rowid": "1238562",
    "final_x": "3668424.4585",
    "final_y": "527570.566207",
    "longitude": "-90.10949150578085",
    "latitude": "29.945026556441217",
    "geocoded_column": {
      "latitude": "29.945026556441217",
      "longitude": "-90.10949150578085"
    }
  },
  {
    "service_request": "2025-1238561",
    "request_type": "Trash/Recycling",
    "request_reason": "Replace Trash Cart",
    "date_created": "2025-11-06T21:08:05.000",
    "date_modified": "2025-11-06T21:08:07.000",
    "request_status": "Pending",
    "responsible_agency": "Department of Sanitation",
    "final_address": "3219 Octavia St",
    "address_councildis": "A",
    "status": "Assigned to Contractor",
    "contractor": "IV Waste",
    "rowid": "1238561",
    "final_x": "3668424.4585",
    "final_y": "527570.566207",
    "longitude": "-90.10949150578085",
    "latitude": "29.945026556441217",
    "geocoded_column": {
      "latitude": "29.945026556441217",
      "longitude": "-90.10949150578085"
    }
  },
  {
    "service_request": "2025-1238559",
    "request_type": "New Orleans Recreation Development Commission (NORDC)",
    "request_reason": "Facilities and Parks Maintenance/Clean Up",
    "date_created": "2025-11-06T20:55:49.000",
    "date_modified": "2025-11-06T20:55:51.000",
    "request_status": "Pending",
    "responsible_agency": "New Orleans Recreation Development Commission",
    "final_address": "900 N Villere St",
    "address_councildis": "C",
    "status": "Pending",
    "rowid": "1238559",
    "final_x": "3680924.13883",
    "final_y": "534788.790598",
    "longitude": "-90.06977486220028",
    "latitude": "29.964501216402365",
    "geocoded_column": {
      "latitude": "29.964501216402365",
      "longitude": "-90.06977486220028"
    }
  },
  {
    "service_request": "2025-1238558",
    "request_type": "Streetlights",
    "request_reason": "Streetlight Outage/Malfunction",
    "date_created": "2025-11-06T20:33:20.000",
    "date_modified": "2025-11-06T20:33:23.000",
    "request_status": "Pending",
    "responsible_agency": "Department of Public Works",
    "final_address": "4533 Mendez St",
    "address_councildis": "D",
    "status": "Pending",
    "rowid": "1238558",
    "final_x": "3690492.53795",
    "final_y": "553911.546007",
    "longitude": "-90.03887647751424",
    "latitude": "30.01678829914333",
    "geocoded_column": {
      "latitude": "30.01678829914333",
      "longitude": "-90.03887647751424"
    }
  },
  {
    "service_request": "2025-1238557",
    "request_type": "Trash/Recycling",
    "request_reason": "Damaged Caused By Contractor",
    "date_created": "2025-11-06T20:14:48.000",
    "date_modified": "2025-11-06T20:14:50.000",
    "request_status": "Pending",
    "responsible_agency": "Department of Sanitation",
    "final_address": "622 Valence St",
    "address_councildis": "B",
    "status": "Assigned to Contractor",
    "contractor": "IV Waste",
    "rowid": "1238557",
    "final_x": "3669972.0971",
    "final_y": "517860.520438",
    "longitude": "-90.1049337849221",
    "latitude": "29.918281502012675",
    "geocoded_column": {
      "latitude": "29.918281502012675",
      "longitude": "-90.1049337849221"
    }
  },
  {
    "service_request": "2025-1238556",
    "request_type": "Streetlights",
    "request_reason": "Streetlight Outage/Malfunction",
    "date_created": "2025-11-06T20:05:26.000",
    "date_modified": "2025-11-06T20:05:28.000",
    "request_status": "Pending",
    "responsible_agency": "Department of Public Works",
    "final_address": "700 BLK Audubon St",
    "address_councildis": "A",
    "status": "Pending",
    "rowid": "1238556",
    "final_x": "3663585.45823",
    "final_y": "525083.966024",
    "longitude": "-90.12485259597871",
    "latitude": "29.938330426879272",
    "geocoded_column": {
      "latitude": "29.938330426879272",
      "longitude": "-90.12485259597871"
    }
  },
  {
    "service_request": "2025-1238555",
    "request_type": "Trash/Recycling",
    "request_reason": "Order Trash Cart",
    "date_created": "2025-11-06T19:11:40.000",
    "date_modified": "2025-11-06T19:11:43.000",
    "request_status": "Pending",
    "responsible_agency": "Department of Sanitation",
    "final_address": "1558 Harrison Ave",
    "address_councildis": "D",
    "status": "Assigned to Contractor",
    "contractor": "IV Waste",
    "rowid": "1238555",
    "final_x": "3679250.36559",
    "final_y": "547641.907986",
    "longitude": "-90.0746146353374",
    "latitude": "29.999893464118653",
    "geocoded_column": {
      "latitude": "29.999893464118653",
      "longitude": "-90.0746146353374"
    }
  },
  {
    "service_request": "2025-1238554",
    "request_type": "Streetlights",
    "request_reason": "Streetlight Outage/Malfunction",
    "date_created": "2025-11-06T18:52:56.000",
    "date_modified": "2025-11-06T18:52:58.000",
    "request_status": "Pending",
    "responsible_agency": "Department of Public Works",
    "final_address": "0 BLK Agriculture Pl",
    "address_councildis": "D",
    "status": "Pending",
    "rowid": "1238554",
    "final_x": "3689891.40135",
    "final_y": "543419.290574",
    "longitude": "-90.04114966127275",
    "latitude": "29.987957086684915",
    "geocoded_column": {
      "latitude": "29.987957086684915",
      "longitude": "-90.04114966127275"
    }
  },
  {
    "service_request": "2025-1238553",
    "request_type": "Trash/Recycling",
    "request_reason": "Order Trash Cart",
    "date_created": "2025-11-06T18:51:56.000",
    "date_modified": "2025-11-06T18:51:58.000",
    "request_status": "Pending",
    "responsible_agency": "Department of Sanitation",
    "final_address": "1560 Magazine St",
    "address_councildis": "B",
    "status": "Assigned to Contractor",
    "contractor": "IV Waste",
    "rowid": "1238553",
    "final_x": "3680120.88258",
    "final_y": "523330.113147",
    "longitude": "-90.07270958943897",
    "latitude": "29.933018028175855",
    "geocoded_column": {
      "latitude": "29.933018028175855",
      "longitude": "-90.07270958943897"
    }
  },
  {
    "service_request": "2025-1238552",
    "request_type": "Streetlights",
    "request_reason": "Streetlight Outage/Malfunction",
    "date_created": "2025-11-06T18:49:27.000",
    "date_modified": "2025-11-06T18:49:28.000",
    "request_status": "Pending",
    "responsible_agency": "Department of Public Works",
    "final_address": "0 BLK Agriculture Pl",
    "address_councildis": "D",
    "status": "Pending",
    "rowid": "1238552",
    "final_x": "3689891.40135",
    "final_y": "543419.290574",
    "longitude": "-90.04114966127275",
    "latitude": "29.987957086684915",
    "geocoded_column": {
      "latitude": "29.987957086684915",
      "longitude": "-90.04114966127275"
    }
  },
  {
    "service_request": "2025-1238551",
    "request_type": "Trash/Recycling",
    "request_reason": "Request a Large Item Pick Up",
    "date_created": "2025-11-06T18:48:01.000",
    "date_modified": "2025-11-06T18:48:03.000",
    "request_status": "Pending",
    "responsible_agency": "Department of Sanitation",
    "final_address": "5018 LaSalle St",
    "address_councildis": "B",
    "status": "Assigned to Contractor",
    "contractor": "IV Waste",
    "rowid": "1238551",
    "final_x": "3668624.17454",
    "final_y": "523534.229051",
    "longitude": "-90.10899710860669",
    "latitude": "29.93392206392847",
    "geocoded_column": {
      "latitude": "29.93392206392847",
      "longitude": "-90.10899710860669"
    }
  },
  {
    "service_request": "2025-1238550",
    "request_type": "Trash/Recycling",
    "request_reason": "Illegal Dumping",
    "date_created": "2025-11-06T18:32:52.000",
    "date_modified": "2025-11-06T18:32:53.000",
    "request_status": "Pending",
    "responsible_agency": "Department of Sanitation",
    "final_address": "2612 Rousseau St",
    "address_councildis": "B",
    "status": "Pending",
    "rowid": "1238550",
    "final_x": "3678700.0804",
    "final_y": "519172.404087",
    "longitude": "-90.07733883562607",
    "latitude": "29.921628589364385",
    "geocoded_column": {
      "latitude": "29.921628589364385",
      "longitude": "-90.07733883562607"
    }
  },
  {
    "service_request": "2025-1238549",
    "request_type": "Streetlights",
    "request_reason": "Streetlight Outage/Malfunction",
    "date_created": "2025-11-06T18:32:25.000",
    "date_modified": "2025-11-06T18:32:26.000",
    "request_status": "Pending",
    "responsible_agency": "Department of Public Works",
    "final_address": "1213 Pleasant St",
    "address_councildis": "B",
    "status": "Pending",
    "rowid": "1238549",
    "final_x": "3675354.13563",
    "final_y": "520319.593848",
    "longitude": "-90.08786119179513",
    "latitude": "29.924883414904546",
    "geocoded_column": {
      "latitude": "29.924883414904546",
      "longitude": "-90.08786119179513"
    }
  },
  {
    "service_request": "2025-1238548",
    "request_type": "Streetlights",
    "request_reason": "Streetlight Outage/Malfunction",
    "date_created": "2025-11-06T18:31:40.000",
    "date_modified": "2025-11-06T18:31:42.000",
    "request_status": "Pending",
    "responsible_agency": "Department of Public Works",
    "final_address": "0 BLK N Oak Ridge Ct",
    "address_councildis": "E",
    "status": "Pending",
    "rowid": "1238548",
    "final_x": "3713382.83173",
    "final_y": "567868.908997",
    "longitude": "-89.96602730569832",
    "latitude": "30.054434566801945",
    "geocoded_column": {
      "latitude": "30.054434566801945",
      "longitude": "-89.96602730569832"
    }
  },
  {
    "service_request": "2025-1238547",
    "request_type": "Property Maintenance",
    "request_reason": "Property Maintenance",
    "date_created": "2025-11-06T18:28:51.000",
    "date_modified": "2025-11-06T18:28:53.000",
    "request_status": "Pending",
    "responsible_agency": "Department of Code Enforcement",
    "final_address": "2205 Alvar St",
    "address_councildis": "D",
    "status": "Pending",
    "rowid": "1238547",
    "final_x": "3692587.93251",
    "final_y": "539593.512586",
    "longitude": "-90.0327694122913",
    "latitude": "29.977353681201784",
    "geocoded_column": {
      "latitude": "29.977353681201784",
      "longitude": "-90.0327694122913"
    }
  },
  {
    "service_request": "2025-1238546",
    "request_type": "Abandoned Vehicles",
    "request_reason": "Abandoned/Junk Vehicles",
    "date_created": "2025-11-06T18:11:47.000",
    "date_modified": "2025-11-06T18:11:50.000",
    "request_status": "Pending",
    "responsible_agency": "Department of Public Works",
    "final_address": "4023 Tchoupitoulas St",
    "address_councildis": "B",
    "status": "Pending",
    "rowid": "1238546",
    "final_x": "3672456.92334",
    "final_y": "517628.933814",
    "longitude": "-90.09709839396619",
    "latitude": "29.917571230941423",
    "geocoded_column": {
      "latitude": "29.917571230941423",
      "longitude": "-90.09709839396619"
    }
  },
  {
    "service_request": "2025-1238545",
    "request_type": "General Services",
    "request_reason": "General Service Request",
    "date_created": "2025-11-06T18:08:37.000",
    "date_modified": "2025-11-06T18:08:39.000",
    "request_status": "Pending",
    "responsible_agency": "Orleans Parish Communication District",
    "final_address": "2214 Alvar St",
    "address_councildis": "D",
    "status": "Pending",
    "rowid": "1238545",
    "final_x": "3692502.30019",
    "final_y": "539662.220938",
    "longitude": "-90.03303740390415",
    "latitude": "29.97754527689163",
    "geocoded_column": {
      "latitude": "29.97754527689163",
      "longitude": "-90.03303740390415"
    }
  },
  {
    "service_request": "2025-1238544",
    "request_type": "Trash/Recycling",
    "request_reason": "Request a Large Item Pick Up",
    "date_created": "2025-11-06T17:38:25.000",
    "date_modified": "2025-11-06T17:38:27.000",
    "request_status": "Pending",
    "responsible_agency": "Department of Sanitation",
    "final_address": "5661 Clements Dr",
    "address_councildis": "E",
    "status": "Assigned to Contractor",
    "contractor": "Waste Pro",
    "rowid": "1238544",
    "final_x": "3702569.44305",
    "final_y": "556412.327386",
    "longitude": "-90.00062690190053",
    "latitude": "30.02328381908828",
    "geocoded_column": {
      "latitude": "30.02328381908828",
      "longitude": "-90.00062690190053"
    }
  },
  {
    "service_request": "2025-1238543",
    "request_type": "Trash/Recycling",
    "request_reason": "Return Recycling Cart",
    "date_created": "2025-11-06T17:31:29.000",
    "date_modified": "2025-11-06T17:31:31.000",
    "request_status": "Pending",
    "responsible_agency": "Department of Sanitation",
    "final_address": "4703 Palmyra St",
    "address_councildis": "A",
    "status": "Pending",
    "rowid": "1238543",
    "final_x": "3668621.70241",
    "final_y": "539276.990282",
    "longitude": "-90.10847364674828",
    "latitude": "29.977209557333264",
    "geocoded_column": {
      "latitude": "29.977209557333264",
      "longitude": "-90.10847364674828"
    }
  },
  {
    "service_request": "2025-1238542",
    "request_type": "Trash/Recycling",
    "request_reason": "MIssed Recycling Pick-Up",
    "date_created": "2025-11-06T17:14:24.000",
    "date_modified": "2025-11-06T17:14:27.000",
    "request_status": "Pending",
    "responsible_agency": "Department of Sanitation",
    "final_address": "5718 Marais St",
    "address_councildis": "E",
    "status": "Assigned to Contractor",
    "contractor": "Waste Pro",
    "rowid": "1238542",
    "final_x": "3698589.3697",
    "final_y": "533903.940421",
    "longitude": "-90.01402189622308",
    "latitude": "29.96152073489703",
    "geocoded_column": {
      "latitude": "29.96152073489703",
      "longitude": "-90.01402189622308"
    }
  },
  {
    "service_request": "2025-1238541",
    "request_type": "Trash/Recycling",
    "request_reason": "Order Recycling Cart",
    "date_created": "2025-11-06T17:04:56.000",
    "date_modified": "2025-11-06T17:04:58.000",
    "request_status": "Pending",
    "responsible_agency": "Department of Sanitation",
    "final_address": "1140 Deslonde St",
    "address_councildis": "E",
    "status": "Pending",
    "rowid": "1238541",
    "final_x": "3695434.24803",
    "final_y": "534694.135302",
    "longitude": "-90.02395667158133",
    "latitude": "29.963793003103792",
    "geocoded_column": {
      "latitude": "29.963793003103792",
      "longitude": "-90.02395667158133"
    }
  },
  {
    "service_request": "2025-1238540",
    "request_type": "Trash/Recycling",
    "request_reason": "Order Trash Cart",
    "date_created": "2025-11-06T16:53:42.000",
    "date_modified": "2025-11-06T16:53:45.000",
    "request_status": "Pending",
    "responsible_agency": "Department of Sanitation",
    "final_address": "1709 St Maurice Ave",
    "address_councildis": "E",
    "status": "Assigned to Contractor",
    "contractor": "Waste Pro",
    "rowid": "1238540",
    "final_x": "3700783.98679",
    "final_y": "535414.312326",
    "longitude": "-90.00703650758007",
    "latitude": "29.965604053313783",
    "geocoded_column": {
      "latitude": "29.965604053313783",
      "longitude": "-90.00703650758007"
    }
  },
  {
    "service_request": "2025-1238539",
    "request_type": "Trash/Recycling",
    "request_reason": "Request a Large Item Pick Up",
    "date_created": "2025-11-06T16:49:30.000",
    "date_modified": "2025-11-06T16:49:32.000",
    "request_status": "Pending",
    "responsible_agency": "Department of Sanitation",
    "final_address": "4724 Crowder Blvd",
    "address_councildis": "E",
    "status": "Assigned to Contractor",
    "contractor": "Waste Pro",
    "rowid": "1238539",
    "final_x": "3706335.09406",
    "final_y": "555549.775961",
    "longitude": "-89.98876033236083",
    "latitude": "30.02079117251032",
    "geocoded_column": {
      "latitude": "30.02079117251032",
      "longitude": "-89.98876033236083"
    }
  },
  {
    "service_request": "2025-1238538",
    "request_type": "Trash/Recycling",
    "request_reason": "Missed Trash Pick-Up",
    "date_created": "2025-11-06T16:41:13.000",
    "date_modified": "2025-11-06T16:41:15.000",
    "request_status": "Pending",
    "responsible_agency": "Department of Sanitation",
    "final_address": "931 Fats Domino Ave",
    "address_councildis": "E",
    "status": "Assigned to Contractor",
    "contractor": "Waste Pro",
    "rowid": "1238538",
    "final_x": "3697931.89629",
    "final_y": "533218.8489",
    "longitude": "-90.01612294333694",
    "latitude": "29.959657775251515",
    "geocoded_column": {
      "latitude": "29.959657775251515",
      "longitude": "-90.01612294333694"
    }
  },
  {
    "service_request": "2025-1238537",
    "request_type": "Abandoned Vehicles",
    "request_reason": "Abandoned/Junk Vehicles",
    "date_created": "2025-11-06T16:34:55.000",
    "date_modified": "2025-11-06T16:34:57.000",
    "request_status": "Pending",
    "responsible_agency": "Department of Public Works",
    "final_address": "5936 Magazine St Unit 2",
    "address_councildis": "A",
    "status": "Pending",
    "rowid": "1238537",
    "final_x": "3664934.66074",
    "final_y": "519074.215031",
    "longitude": "-90.1207937931124",
    "latitude": "29.921766315235317",
    "geocoded_column": {
      "latitude": "29.921766315235317",
      "longitude": "-90.1207937931124"
    }
  },
  {
    "service_request": "2025-1238536",
    "request_type": "Abandoned Vehicles",
    "request_reason": "Abandoned/Junk Vehicles",
    "date_created": "2025-11-06T16:32:47.000",
    "date_modified": "2025-11-06T16:32:50.000",
    "request_status": "Pending",
    "responsible_agency": "Department of Public Works",
    "final_address": "5936 Magazine St Unit 2",
    "address_councildis": "A",
    "status": "Pending",
    "rowid": "1238536",
    "final_x": "3664934.66074",
    "final_y": "519074.215031",
    "longitude": "-90.1207937931124",
    "latitude": "29.921766315235317",
    "geocoded_column": {
      "latitude": "29.921766315235317",
      "longitude": "-90.1207937931124"
    }
  },
  {
    "service_request": "2025-1238535",
    "request_type": "Trash/Recycling",
    "request_reason": "Request a Large Item Pick Up",
    "date_created": "2025-11-06T16:24:57.000",
    "date_modified": "2025-11-06T16:25:06.000",
    "request_status": "Pending",
    "responsible_agency": "Department of Sanitation",
    "final_address": "7710 Shubert St",
    "address_councildis": "E",
    "status": "Assigned to Contractor",
    "contractor": "Waste Pro",
    "rowid": "1238535",
    "final_x": "3695601.0223",
    "final_y": "559083.746524",
    "longitude": "-90.02254894836254",
    "latitude": "30.03085021683157",
    "geocoded_column": {
      "latitude": "30.03085021683157",
      "longitude": "-90.02254894836254"
    }
  },
  {
    "service_request": "2025-1238534",
    "request_type": "Property Maintenance",
    "request_reason": "Property Maintenance",
    "date_created": "2025-11-06T16:15:57.000",
    "date_modified": "2025-11-06T16:15:59.000",
    "request_status": "Pending",
    "responsible_agency": "Department of Code Enforcement",
    "final_address": "2709 Chartres St",
    "address_councildis": "C",
    "status": "Pending",
    "rowid": "1238534",
    "final_x": "3687046.93494",
    "final_y": "534565.778053",
    "longitude": "-90.05044746317381",
    "latitude": "29.963700936834208",
    "geocoded_column": {
      "latitude": "29.963700936834208",
      "longitude": "-90.05044746317381"
    }
  },
  {
    "service_request": "2025-1238533",
    "request_type": "Trash/Recycling",
    "request_reason": "Request a Large Item Pick Up",
    "date_created": "2025-11-06T16:13:14.000",
    "date_modified": "2025-11-06T16:13:16.000",
    "request_status": "Pending",
    "responsible_agency": "Department of Sanitation",
    "final_address": "4805 Annette St",
    "address_councildis": "D",
    "status": "Assigned to Contractor",
    "contractor": "IV Waste",
    "rowid": "1238533",
    "final_x": "3682060.10287",
    "final_y": "550204.21154",
    "longitude": "-90.06564900409558",
    "latitude": "30.006853711624547",
    "geocoded_column": {
      "latitude": "30.006853711624547",
      "longitude": "-90.06564900409558"
    }
  },
  {
    "service_request": "2025-1238532",
    "request_type": "Trash/Recycling",
    "request_reason": "Repair Recycling Cart",
    "date_created": "2025-11-06T16:11:30.000",
    "date_modified": "2025-11-06T16:11:31.000",
    "request_status": "Pending",
    "responsible_agency": "Department of Sanitation",
    "final_address": "1014 Harding Dr",
    "address_councildis": "A",
    "status": "Pending",
    "rowid": "1238532",
    "final_x": "3674619.37185",
    "final_y": "540363.425291",
    "longitude": "-90.08949377077678",
    "latitude": "29.98001923026748",
    "geocoded_column": {
      "latitude": "29.98001923026748",
      "longitude": "-90.08949377077678"
    }
  },
  {
    "service_request": "2025-1238531",
    "request_type": "Trash/Recycling",
    "request_reason": "Request a Large Item Pick Up",
    "date_created": "2025-11-06T16:08:17.000",
    "date_modified": "2025-11-06T16:08:21.000",
    "request_status": "Pending",
    "responsible_agency": "Department of Sanitation",
    "final_address": "3705 S Galvez St",
    "address_councildis": "B",
    "status": "Assigned to Contractor",
    "contractor": "IV Waste",
    "rowid": "1238531",
    "final_x": "3671309.13185",
    "final_y": "527747.024447",
    "longitude": "-90.10037768511513",
    "latitude": "29.945426725206378",
    "geocoded_column": {
      "latitude": "29.945426725206378",
      "longitude": "-90.10037768511513"
    }
  },
  {
    "service_request": "2025-1238530",
    "request_type": "Trash/Recycling",
    "request_reason": "Request a Large Item Pick Up",
    "date_created": "2025-11-06T16:05:02.000",
    "date_modified": "2025-11-06T16:05:04.000",
    "request_status": "Pending",
    "responsible_agency": "Department of Sanitation",
    "final_address": "4618 Cardenas Dr",
    "address_councildis": "E",
    "status": "Assigned to Contractor",
    "contractor": "Waste Pro",
    "rowid": "1238530",
    "final_x": "3713682.30047",
    "final_y": "555661.887833",
    "longitude": "-89.965541335007",
    "latitude": "30.020860330598527",
    "geocoded_column": {
      "latitude": "30.020860330598527",
      "longitude": "-89.965541335007"
    }
  },
  {
    "service_request": "2025-1238529",
    "request_type": "Trash/Recycling",
    "request_reason": "Request a Large Item Pick Up",
    "date_created": "2025-11-06T16:03:18.000",
    "date_modified": "2025-11-06T16:03:21.000",
    "request_status": "Pending",
    "responsible_agency": "Department of Sanitation",
    "final_address": "7625 Primrose Dr",
    "address_councildis": "E",
    "status": "Assigned to Contractor",
    "contractor": "Waste Pro",
    "rowid": "1238529",
    "final_x": "3701795.87697",
    "final_y": "561330.805278",
    "longitude": "-90.00289073707225",
    "latitude": "30.036832443931306",
    "geocoded_column": {
      "latitude": "30.036832443931306",
      "longitude": "-90.00289073707225"
    }
  },
  {
    "service_request": "2025-1238528",
    "request_type": "Trash/Recycling",
    "request_reason": "Order Trash Cart",
    "date_created": "2025-11-06T16:03:16.000",
    "date_modified": "2025-11-06T16:03:18.000",
    "request_status": "Pending",
    "responsible_agency": "Department of Sanitation",
    "final_address": "816 N Dorgenois St",
    "address_councildis": "D",
    "status": "Assigned to Contractor",
    "contractor": "IV Waste",
    "rowid": "1238528",
    "final_x": "3677488.00027",
    "final_y": "536979.51668",
    "longitude": "-90.08055029690476",
    "latitude": "29.97062870865787",
    "geocoded_column": {
      "latitude": "29.97062870865787",
      "longitude": "-90.08055029690476"
    }
  },
  {
    "service_request": "2025-1238527",
    "request_type": "Streetlights",
    "request_reason": "Streetlight Outage/Malfunction",
    "date_created": "2025-11-06T16:01:35.000",
    "date_modified": "2025-11-06T16:01:38.000",
    "request_status": "Pending",
    "responsible_agency": "Department of Public Works",
    "final_address": "0 BLK French Market Pl",
    "address_councildis": "C",
    "status": "Pending",
    "rowid": "1238527",
    "final_x": "3684510.60863",
    "final_y": "533473.450557",
    "longitude": "-90.05849529192028",
    "latitude": "29.960775249897164",
    "geocoded_column": {
      "latitude": "29.960775249897164",
      "longitude": "-90.05849529192028"
    }
  },
  {
    "service_request": "2025-1238526",
    "request_type": "Drainage",
    "request_reason": "Illegal Dumping (Sewer Odor)",
    "date_created": "2025-11-06T15:58:56.000",
    "date_modified": "2025-11-06T15:59:58.000",
    "request_status": "Pending",
    "responsible_agency": "Sewerage & Water Board",
    "final_address": "4529 Bonita Dr",
    "address_councildis": "E",
    "status": "Pending",
    "rowid": "1238526",
    "final_x": "3704661.87844",
    "final_y": "553903.904535",
    "longitude": "-89.99410794336404",
    "latitude": "30.01631954007418",
    "geocoded_column": {
      "latitude": "30.01631954007418",
      "longitude": "-89.99410794336404"
    }
  },
  {
    "service_request": "2025-1238525",
    "request_type": "Trash/Recycling",
    "request_reason": "Return Recycling Cart",
    "date_created": "2025-11-06T15:56:15.000",
    "date_modified": "2025-11-06T15:56:17.000",
    "request_status": "Pending",
    "responsible_agency": "Department of Sanitation",
    "final_address": "3131 N Rampart St",
    "address_councildis": "C",
    "status": "Pending",
    "rowid": "1238525",
    "final_x": "3689141.01417",
    "final_y": "535537.28743",
    "longitude": "-90.04380006491748",
    "latitude": "29.96630761549722",
    "geocoded_column": {
      "latitude": "29.96630761549722",
      "longitude": "-90.04380006491748"
    }
  },
  {
    "service_request": "2025-1238524",
    "request_type": "Trash/Recycling",
    "request_reason": "Request a Large Item Pick Up",
    "date_created": "2025-11-06T15:42:09.000",
    "date_modified": "2025-11-06T15:42:10.000",
    "request_status": "Pending",
    "responsible_agency": "Department of Sanitation",
    "final_address": "1310 Short St",
    "address_councildis": "A",
    "status": "Assigned to Contractor",
    "contractor": "IV Waste",
    "rowid": "1238524",
    "final_x": "3662584.95021",
    "final_y": "528454.064128",
    "longitude": "-90.12789938122155",
    "latitude": "29.947626098641337",
    "geocoded_column": {
      "latitude": "29.947626098641337",
      "longitude": "-90.12789938122155"
    }
  },
  {
    "service_request": "2025-1238523",
    "request_type": "Streetlights",
    "request_reason": "Streetlight Outage/Malfunction",
    "date_created": "2025-11-06T15:41:35.000",
    "date_modified": "2025-11-06T15:41:36.000",
    "request_status": "Pending",
    "responsible_agency": "Department of Public Works",
    "final_address": "HAYNE BLVD & LAFOURCHE ST",
    "address_councildis": "E",
    "status": "Pending",
    "rowid": "1238523",
    "final_x": "3709355.5",
    "final_y": "566939.18",
    "longitude": "-89.97879140763798",
    "latitude": "30.052009712069765",
    "geocoded_column": {
      "latitude": "30.052009712069765",
      "longitude": "-89.97879140763798"
    }
  },
  {
    "service_request": "2025-1238522",
    "request_type": "Streetlights",
    "request_reason": "Streetlight Outage/Malfunction",
    "date_created": "2025-11-06T15:38:11.000",
    "date_modified": "2025-11-06T15:38:13.000",
    "request_status": "Pending",
    "responsible_agency": "Department of Public Works",
    "final_address": "2440 Cumberland Ct",
    "address_councildis": "C",
    "status": "Pending",
    "rowid": "1238522",
    "final_x": "3705096.27313",
    "final_y": "522186.69721",
    "longitude": "-89.99390688459454",
    "latitude": "29.929094873846218",
    "geocoded_column": {
      "latitude": "29.929094873846218",
      "longitude": "-89.99390688459454"
    }
  },
  {
    "service_request": "2025-1238521",
    "request_type": "Trash/Recycling",
    "request_reason": "Repair Trash Cart",
    "date_created": "2025-11-06T15:36:25.000",
    "date_modified": "2025-11-06T15:36:27.000",
    "request_status": "Pending",
    "responsible_agency": "Department of Sanitation",
    "final_address": "2440 Cumberland Ct",
    "address_councildis": "C",
    "status": "Assigned to Contractor",
    "contractor": "Richards Disposal",
    "rowid": "1238521",
    "final_x": "3705096.27313",
    "final_y": "522186.69721",
    "longitude": "-89.99390688459454",
    "latitude": "29.929094873846218",
    "geocoded_column": {
      "latitude": "29.929094873846218",
      "longitude": "-89.99390688459454"
    }
  },
  {
    "service_request": "2025-1238520",
    "request_type": "Trash/Recycling",
    "request_reason": "Order Trash Cart",
    "date_created": "2025-11-06T15:35:11.000",
    "date_modified": "2025-11-06T15:36:26.000",
    "request_status": "Pending",
    "responsible_agency": "Department of Sanitation",
    "final_address": "3504 S Miro St",
    "address_councildis": "B",
    "status": "Assigned to Contractor",
    "contractor": "IV Waste",
    "rowid": "1238520",
    "final_x": "3671250.49556",
    "final_y": "527935.844991",
    "longitude": "-90.10055640516944",
    "latitude": "29.945947654729967",
    "geocoded_column": {
      "latitude": "29.945947654729967",
      "longitude": "-90.10055640516944"
    }
  },
  {
    "service_request": "2025-1238519",
    "request_type": "Trash/Recycling",
    "request_reason": "Repair Trash Cart",
    "date_created": "2025-11-06T15:29:31.000",
    "date_modified": "2025-11-06T15:29:33.000",
    "request_status": "Pending",
    "responsible_agency": "Department of Sanitation",
    "final_address": "2217 Valmont St",
    "address_councildis": "B",
    "status": "Assigned to Contractor",
    "contractor": "IV Waste",
    "rowid": "1238519",
    "final_x": "3668247.39572",
    "final_y": "523735.993659",
    "longitude": "-90.11017978778507",
    "latitude": "29.93448791652818",
    "geocoded_column": {
      "latitude": "29.93448791652818",
      "longitude": "-90.11017978778507"
    }
  },
  {
    "service_request": "2025-1238518",
    "request_type": "Streetlights",
    "request_reason": "Streetlight Outage/Malfunction",
    "date_created": "2025-11-06T15:28:31.000",
    "date_modified": "2025-11-06T15:28:34.000",
    "request_status": "Pending",
    "responsible_agency": "Department of Public Works",
    "final_address": "S CARROLLTON AVE & TULANE AVE",
    "address_councildis": "A",
    "status": "Pending",
    "rowid": "1238518",
    "final_x": "3669337.8",
    "final_y": "536308.78",
    "longitude": "-90.10631235722039",
    "latitude": "29.96902690865695",
    "geocoded_column": {
      "latitude": "29.96902690865695",
      "longitude": "-90.10631235722039"
    }
  },
  {
    "service_request": "2025-1238517",
    "request_type": "Trash/Recycling",
    "request_reason": "Request a Large Item Pick Up",
    "date_created": "2025-11-06T15:26:47.000",
    "date_modified": "2025-11-06T15:26:49.000",
    "request_status": "Pending",
    "responsible_agency": "Department of Sanitation",
    "final_address": "622 Nashville Ave",
    "address_councildis": "A",
    "status": "Assigned to Contractor",
    "contractor": "IV Waste",
    "rowid": "1238517",
    "final_x": "3665331.76192",
    "final_y": "518538.530295",
    "longitude": "-90.11955822089102",
    "latitude": "29.920281789372734",
    "geocoded_column": {
      "latitude": "29.920281789372734",
      "longitude": "-90.11955822089102"
    }
  },
  {
    "service_request": "2025-1238516",
    "request_type": "Streetlights",
    "request_reason": "Streetlight Outage/Malfunction",
    "date_created": "2025-11-06T15:22:26.000",
    "date_modified": "2025-11-06T15:22:29.000",
    "request_status": "Pending",
    "responsible_agency": "Department of Public Works",
    "final_address": "2820 Donner Dr",
    "address_councildis": "C",
    "status": "Pending",
    "rowid": "1238516",
    "final_x": "3692592.23107",
    "final_y": "519446.840887",
    "longitude": "-90.03347766027451",
    "latitude": "29.921957178159698",
    "geocoded_column": {
      "latitude": "29.921957178159698",
      "longitude": "-90.03347766027451"
    }
  },
  {
    "service_request": "2025-1238515",
    "request_type": "Drainage",
    "request_reason": "Drainage Manhole Cover Missing or Damaged",
    "date_created": "2025-11-06T15:22:12.000",
    "date_modified": "2025-11-06T15:24:08.000",
    "request_status": "Pending",
    "responsible_agency": "Sewerage & Water Board",
    "final_address": "2453 N Rampart St",
    "address_councildis": "C",
    "status": "Pending",
    "rowid": "1238515",
    "final_x": "3686249.06825",
    "final_y": "536068.870151",
    "longitude": "-90.05291399960619",
    "latitude": "29.96785845681803",
    "geocoded_column": {
      "latitude": "29.96785845681803",
      "longitude": "-90.05291399960619"
    }
  },
  {
    "service_request": "2025-1238514",
    "request_type": "Trash/Recycling",
    "request_reason": "Request a Large Item Pick Up",
    "date_created": "2025-11-06T15:21:44.000",
    "date_modified": "2025-11-06T15:21:46.000",
    "request_status": "Pending",
    "responsible_agency": "Department of Sanitation",
    "final_address": "5544 Jacquelyn Ct",
    "address_councildis": "A",
    "status": "Assigned to Contractor",
    "contractor": "IV Waste",
    "rowid": "1238514",
    "final_x": "3664446.43271",
    "final_y": "544517.725391",
    "longitude": "-90.12148551709647",
    "latitude": "29.991741877067664",
    "geocoded_column": {
      "latitude": "29.991741877067664",
      "longitude": "-90.12148551709647"
    }
  },
  {
    "service_request": "2025-1238513",
    "request_type": "Trash/Recycling",
    "request_reason": "Request a Large Item Pick Up",
    "date_created": "2025-11-06T15:21:22.000",
    "date_modified": "2025-11-06T15:21:24.000",
    "request_status": "Pending",
    "responsible_agency": "Department of Sanitation",
    "final_address": "4112 Thalia St",
    "address_councildis": "B",
    "status": "Assigned to Contractor",
    "contractor": "IV Waste",
    "rowid": "1238513",
    "final_x": "3671421.91265",
    "final_y": "530766.54189",
    "longitude": "-90.09991897681881",
    "latitude": "29.953726068904764",
    "geocoded_column": {
      "latitude": "29.953726068904764",
      "longitude": "-90.09991897681881"
    }
  },
  {
    "service_request": "2025-1238512",
    "request_type": "Trash/Recycling",
    "request_reason": "Order Second Trash Cart",
    "date_created": "2025-11-06T15:19:38.000",
    "date_modified": "2025-11-06T15:19:40.000",
    "request_status": "Pending",
    "responsible_agency": "Department of Sanitation",
    "final_address": "1710 N Robertson St",
    "address_councildis": "C",
    "status": "Assigned to Contractor",
    "contractor": "IV Waste",
    "rowid": "1238512",
    "final_x": "3683159.80162",
    "final_y": "537607.826312",
    "longitude": "-90.06261609066338",
    "latitude": "29.972184612846874",
    "geocoded_column": {
      "latitude": "29.972184612846874",
      "longitude": "-90.06261609066338"
    }
  },
  {
    "service_request": "2025-1238511",
    "request_type": "Trash/Recycling",
    "request_reason": "Order Trash Cart",
    "date_created": "2025-11-06T15:17:51.000",
    "date_modified": "2025-11-06T15:17:52.000",
    "request_status": "Pending",
    "responsible_agency": "Department of Sanitation",
    "final_address": "1710 N Robertson St",
    "address_councildis": "C",
    "status": "Assigned to Contractor",
    "contractor": "IV Waste",
    "rowid": "1238511",
    "final_x": "3683159.80162",
    "final_y": "537607.826312",
    "longitude": "-90.06261609066338",
    "latitude": "29.972184612846874",
    "geocoded_column": {
      "latitude": "29.972184612846874",
      "longitude": "-90.06261609066338"
    }
  },
  {
    "service_request": "2025-1238510",
    "request_type": "Trash/Recycling",
    "request_reason": "Request a Large Item Pick Up",
    "date_created": "2025-11-06T15:17:35.000",
    "date_modified": "2025-11-06T15:17:37.000",
    "request_status": "Pending",
    "responsible_agency": "Department of Sanitation",
    "final_address": "2401 Jasmine St",
    "address_councildis": "D",
    "status": "Assigned to Contractor",
    "contractor": "IV Waste",
    "rowid": "1238510",
    "final_x": "3685607.42934",
    "final_y": "548018.73621",
    "longitude": "-90.05451913634228",
    "latitude": "30.000736058041092",
    "geocoded_column": {
      "latitude": "30.000736058041092",
      "longitude": "-90.05451913634228"
    }
  },
  {
    "service_request": "2025-1238509",
    "request_type": "Streetlights",
    "request_reason": "Streetlight Outage/Malfunction",
    "date_created": "2025-11-06T15:16:32.000",
    "date_modified": "2025-11-06T15:16:33.000",
    "request_status": "Pending",
    "responsible_agency": "Department of Public Works",
    "final_address": "PARIS AVE & LAFRENIERE ST",
    "address_councildis": "D",
    "status": "Pending",
    "rowid": "1238509",
    "final_x": "3679743.9",
    "final_y": "545146.28",
    "longitude": "-90.07314224376665",
    "latitude": "29.993016454129926",
    "geocoded_column": {
      "latitude": "29.993016454129926",
      "longitude": "-90.07314224376665"
    }
  },
  {
    "service_request": "2025-1238508",
    "request_type": "Trash/Recycling",
    "request_reason": "Order Second Trash Cart",
    "date_created": "2025-11-06T15:14:48.000",
    "date_modified": "2025-11-06T15:18:45.000",
    "request_status": "Pending",
    "responsible_agency": "Department of Sanitation",
    "final_address": "1710 N Robertson St",
    "address_councildis": "C",
    "status": "Assigned to Contractor",
    "contractor": "IV Waste",
    "rowid": "1238508",
    "final_x": "3683159.80162",
    "final_y": "537607.826312",
    "longitude": "-90.06261609066338",
    "latitude": "29.972184612846874",
    "geocoded_column": {
      "latitude": "29.972184612846874",
      "longitude": "-90.06261609066338"
    }
  },
  {
    "service_request": "2025-1238507",
    "request_type": "Trash/Recycling",
    "request_reason": "Order Trash Cart",
    "date_created": "2025-11-06T15:13:58.000",
    "date_modified": "2025-11-06T15:19:09.000",
    "request_status": "Pending",
    "responsible_agency": "Department of Sanitation",
    "final_address": "1710 N Robertson St",
    "address_councildis": "C",
    "status": "Assigned to Contractor",
    "contractor": "IV Waste",
    "rowid": "1238507",
    "final_x": "3683159.80162",
    "final_y": "537607.826312",
    "longitude": "-90.06261609066338",
    "latitude": "29.972184612846874",
    "geocoded_column": {
      "latitude": "29.972184612846874",
      "longitude": "-90.06261609066338"
    }
  },
  {
    "service_request": "2025-1238506",
    "request_type": "Drainage",
    "request_reason": "Catch Basin Frame and Cover Missing or Damaged",
    "date_created": "2025-11-06T15:12:25.000",
    "date_modified": "2025-11-06T15:13:59.000",
    "request_status": "Pending",
    "responsible_agency": "Sewerage & Water Board",
    "final_address": "3220 N Dorgenois St",
    "address_councildis": "D",
    "status": "Pending",
    "rowid": "1238506",
    "final_x": "3691023.80086",
    "final_y": "541061.590732",
    "longitude": "-90.03765701098337",
    "latitude": "29.98143909550792",
    "geocoded_column": {
      "latitude": "29.98143909550792",
      "longitude": "-90.03765701098337"
    }
  },
  {
    "service_request": "2025-1238505",
    "request_type": "Property Maintenance",
    "request_reason": "Property Maintenance",
    "date_created": "2025-11-06T15:09:14.000",
    "date_modified": "2025-11-06T15:09:16.000",
    "request_status": "Pending",
    "responsible_agency": "Department of Code Enforcement",
    "final_address": "4026 Tall Timbers Dr",
    "address_councildis": "C",
    "status": "Pending",
    "rowid": "1238505",
    "final_x": "3704320.35274",
    "final_y": "513642.257714",
    "longitude": "-89.99667094467236",
    "latitude": "29.905625527649697",
    "geocoded_column": {
      "latitude": "29.905625527649697",
      "longitude": "-89.99667094467236"
    }
  },
  {
    "service_request": "2025-1238504",
    "request_type": "Trash/Recycling",
    "request_reason": "Request a Large Item Pick Up",
    "date_created": "2025-11-06T15:08:20.000",
    "date_modified": "2025-11-06T15:08:22.000",
    "request_status": "Pending",
    "responsible_agency": "Department of Sanitation",
    "final_address": "4611 Nighthart St",
    "address_councildis": "E",
    "status": "Assigned to Contractor",
    "contractor": "Waste Pro",
    "rowid": "1238504",
    "final_x": "3716218.80376",
    "final_y": "556488.17929",
    "longitude": "-89.95749546672843",
    "latitude": "30.02304880640438",
    "geocoded_column": {
      "latitude": "30.02304880640438",
      "longitude": "-89.95749546672843"
    }
  },
  {
    "service_request": "2025-1238503",
    "request_type": "Trash/Recycling",
    "request_reason": "Request a Large Item Pick Up",
    "date_created": "2025-11-06T15:03:19.000",
    "date_modified": "2025-11-06T15:03:22.000",
    "request_status": "Pending",
    "responsible_agency": "Department of Sanitation",
    "final_address": "8419 Beechwood Ct",
    "address_councildis": "E",
    "status": "Assigned to Contractor",
    "contractor": "Waste Pro",
    "rowid": "1238503",
    "final_x": "3704155.51671",
    "final_y": "560668.513054",
    "longitude": "-89.99545826237454",
    "latitude": "30.03493585494704",
    "geocoded_column": {
      "latitude": "30.03493585494704",
      "longitude": "-89.99545826237454"
    }
  },
  {
    "service_request": "2025-1238502",
    "request_type": "Trash/Recycling",
    "request_reason": "Request a Large Item Pick Up",
    "date_created": "2025-11-06T14:59:00.000",
    "date_modified": "2025-11-06T15:04:09.000",
    "request_status": "Pending",
    "responsible_agency": "Department of Sanitation",
    "final_address": "3620 Rue Mignon",
    "address_councildis": "C",
    "status": "Assigned to Contractor",
    "contractor": "Richards Disposal",
    "rowid": "1238502",
    "final_x": "3703378.41111",
    "final_y": "517270.811381",
    "longitude": "-89.99951044240807",
    "latitude": "29.915632990983504",
    "geocoded_column": {
      "latitude": "29.915632990983504",
      "longitude": "-89.99951044240807"
    }
  },
  {
    "service_request": "2025-1238501",
    "request_type": "Trash/Recycling",
    "request_reason": "Request a Large Item Pick Up",
    "date_created": "2025-11-06T14:58:48.000",
    "date_modified": "2025-11-06T14:58:49.000",
    "request_status": "Pending",
    "responsible_agency": "Department of Sanitation",
    "final_address": "2518 S Galvez St",
    "address_councildis": "B",
    "status": "Assigned to Contractor",
    "contractor": "IV Waste",
    "rowid": "1238501",
    "final_x": "3672891.36417",
    "final_y": "528501.233472",
    "longitude": "-90.09535633219392",
    "latitude": "29.947453643618978",
    "geocoded_column": {
      "latitude": "29.947453643618978",
      "longitude": "-90.09535633219392"
    }
  },
  {
    "service_request": "2025-1238500",
    "request_type": "Streetlights",
    "request_reason": "Streetlight Outage/Malfunction",
    "date_created": "2025-11-06T14:57:28.000",
    "date_modified": "2025-11-06T14:57:30.000",
    "request_status": "Pending",
    "responsible_agency": "Department of Public Works",
    "final_address": "100 BLK Baronne St",
    "address_councildis": "B",
    "status": "Pending",
    "rowid": "1238500",
    "final_x": "3680400.33733",
    "final_y": "530892.199486",
    "longitude": "-90.07156448832164",
    "latitude": "29.95380278606142",
    "geocoded_column": {
      "latitude": "29.95380278606142",
      "longitude": "-90.07156448832164"
    }
  },
  {
    "service_request": "2025-1238499",
    "request_type": "Streetlights",
    "request_reason": "Streetlight Outage/Malfunction",
    "date_created": "2025-11-06T14:56:27.000",
    "date_modified": "2025-11-06T14:56:31.000",
    "request_status": "Pending",
    "responsible_agency": "Department of Public Works",
    "final_address": "6802 Vicksburg St",
    "address_councildis": "A",
    "status": "Pending",
    "rowid": "1238499",
    "final_x": "3669309.70382",
    "final_y": "552698.282326",
    "longitude": "-90.10584661422472",
    "latitude": "30.014093238023392",
    "geocoded_column": {
      "latitude": "30.014093238023392",
      "longitude": "-90.10584661422472"
    }
  },
  {
    "service_request": "2025-1238498",
    "request_type": "Abandoned Vehicles",
    "request_reason": "Abandoned/Junk Vehicles",
    "date_created": "2025-11-06T14:54:37.000",
    "date_modified": "2025-11-06T14:54:39.000",
    "request_status": "Pending",
    "responsible_agency": "Department of Public Works",
    "final_address": "1220 Elysian Fields Ave",
    "address_councildis": "C",
    "status": "Pending",
    "rowid": "1238498",
    "final_x": "3684827.58127",
    "final_y": "536827.220744",
    "longitude": "-90.0573764235588",
    "latitude": "29.96998725780862",
    "geocoded_column": {
      "latitude": "29.96998725780862",
      "longitude": "-90.0573764235588"
    }
  },
  {
    "service_request": "2025-1238497",
    "request_type": "Trash/Recycling",
    "request_reason": "Request a Large Item Pick Up",
    "date_created": "2025-11-06T14:53:42.000",
    "date_modified": "2025-11-06T14:53:44.000",
    "request_status": "Pending",
    "responsible_agency": "Department of Sanitation",
    "final_address": "7570 Pebble Dr",
    "address_councildis": "E",
    "status": "Assigned to Contractor",
    "contractor": "Waste Pro",
    "rowid": "1238497",
    "final_x": "3715270.01669",
    "final_y": "568638.873445",
    "longitude": "-89.96003324174454",
    "latitude": "30.056489597969772",
    "geocoded_column": {
      "latitude": "30.056489597969772",
      "longitude": "-89.96003324174454"
    }
  },
  {
    "service_request": "2025-1238496",
    "request_type": "Trash/Recycling",
    "request_reason": "Request a Large Item Pick Up",
    "date_created": "2025-11-06T14:53:27.000",
    "date_modified": "2025-11-06T14:53:29.000",
    "request_status": "Pending",
    "responsible_agency": "Department of Sanitation",
    "final_address": "6040 Wales St",
    "address_councildis": "E",
    "status": "Assigned to Contractor",
    "contractor": "Waste Pro",
    "rowid": "1238496",
    "final_x": "3695284.00758",
    "final_y": "559451.573917",
    "longitude": "-90.0235374315557",
    "latitude": "30.031871569216527",
    "geocoded_column": {
      "latitude": "30.031871569216527",
      "longitude": "-90.0235374315557"
    }
  },
  {
    "service_request": "2025-1238495",
    "request_type": "Trash/Recycling",
    "request_reason": "Repair Trash Cart",
    "date_created": "2025-11-06T14:37:14.000",
    "date_modified": "2025-11-06T14:38:09.000",
    "request_status": "Pending",
    "responsible_agency": "Department of Sanitation",
    "final_address": "1524 Conery St",
    "address_councildis": "B",
    "status": "Assigned to Contractor",
    "contractor": "IV Waste",
    "rowid": "1238495",
    "final_x": "3675858.32347",
    "final_y": "522104.044794",
    "longitude": "-90.08620832636798",
    "latitude": "29.929774998362685",
    "geocoded_column": {
      "latitude": "29.929774998362685",
      "longitude": "-90.08620832636798"
    }
  },
  {
    "service_request": "2025-1238494",
    "request_type": "Trash/Recycling",
    "request_reason": "Request a Large Item Pick Up",
    "date_created": "2025-11-06T14:25:39.000",
    "date_modified": "2025-11-06T14:26:46.000",
    "request_status": "Pending",
    "responsible_agency": "Department of Sanitation",
    "final_address": "6320 Dover Pl",
    "address_councildis": "C",
    "status": "Assigned to Contractor",
    "contractor": "Richards Disposal",
    "rowid": "1238494",
    "final_x": "3707489.11115",
    "final_y": "519133.996599",
    "longitude": "-89.98646650316168",
    "latitude": "29.92062388836001",
    "geocoded_column": {
      "latitude": "29.92062388836001",
      "longitude": "-89.98646650316168"
    }
  },
  {
    "service_request": "2025-1238493",
    "request_type": "Mosquito, Termite & Rodent Control",
    "request_reason": "Rodent Complaint (Mice & Rats)",
    "date_created": "2025-11-06T14:19:12.000",
    "date_modified": "2025-11-06T14:19:14.000",
    "request_status": "Pending",
    "responsible_agency": "Mosquito, Termite & Rodent Control Board",
    "final_address": "2700 BLK Lapeyrouse St",
    "address_councildis": "D",
    "status": "Pending",
    "rowid": "1238493",
    "final_x": "3678483.16367",
    "final_y": "540631.194116",
    "longitude": "-90.07728103530674",
    "latitude": "29.980639608797453",
    "geocoded_column": {
      "latitude": "29.980639608797453",
      "longitude": "-90.07728103530674"
    }
  },
  {
    "service_request": "2025-1238492",
    "request_type": "Abandoned Vehicles",
    "request_reason": "Abandoned/Junk Vehicles",
    "date_created": "2025-11-06T14:16:36.000",
    "date_modified": "2025-11-06T14:19:55.000",
    "request_status": "Pending",
    "responsible_agency": "Department of Public Works",
    "final_address": "1515 Clouet St",
    "address_councildis": "D",
    "status": "Pending",
    "rowid": "1238492",
    "final_x": "3689440.94467",
    "final_y": "537611.117256",
    "longitude": "-90.04277913047018",
    "latitude": "29.972000634706838",
    "geocoded_column": {
      "latitude": "29.972000634706838",
      "longitude": "-90.04277913047018"
    }
  },
  {
    "service_request": "2025-1238491",
    "request_type": "Trash/Recycling",
    "request_reason": "Repair Trash Cart",
    "date_created": "2025-11-06T14:14:47.000",
    "date_modified": "2025-11-06T14:14:50.000",
    "request_status": "Pending",
    "responsible_agency": "Department of Sanitation",
    "final_address": "8530 Apricot St",
    "address_councildis": "A",
    "status": "Assigned to Contractor",
    "contractor": "IV Waste",
    "rowid": "1238491",
    "final_x": "3664564.0818",
    "final_y": "533722.960645",
    "longitude": "-90.12147451720699",
    "latitude": "29.962056453645307",
    "geocoded_column": {
      "latitude": "29.962056453645307",
      "longitude": "-90.12147451720699"
    }
  },
  {
    "service_request": "2025-1238490",
    "request_type": "Traffic Signals",
    "request_reason": "Traffic Signal Malfunctioning or Damaged",
    "date_created": "2025-11-06T14:09:06.000",
    "date_modified": "2025-11-06T14:09:07.000",
    "request_status": "Pending",
    "responsible_agency": "Department of Public Works",
    "final_address": "ST CHARLES AVE & GRAVIER ST",
    "address_councildis": "B",
    "status": "Pending",
    "rowid": "1238490",
    "final_x": "3680892.5",
    "final_y": "530056.48",
    "longitude": "-90.07003953648476",
    "latitude": "29.95148992836467",
    "geocoded_column": {
      "latitude": "29.95148992836467",
      "longitude": "-90.07003953648476"
    }
  },
  {
    "service_request": "2025-1238489",
    "request_type": "Trash/Recycling",
    "request_reason": "Illegal Dumping",
    "date_created": "2025-11-06T14:06:09.000",
    "date_modified": "2025-11-06T14:11:18.000",
    "request_status": "Pending",
    "responsible_agency": "Department of Sanitation",
    "final_address": "1031 Egania St",
    "address_councildis": "E",
    "status": "Pending",
    "rowid": "1238489",
    "final_x": "3696789.70301",
    "final_y": "533877.453061",
    "longitude": "-90.01970586667764",
    "latitude": "29.961504757533483",
    "geocoded_column": {
      "latitude": "29.961504757533483",
      "longitude": "-90.01970586667764"
    }
  },
  {
    "service_request": "2025-1238488",
    "request_type": "Trash/Recycling",
    "request_reason": "Request a Large Item Pick Up",
    "date_created": "2025-11-06T14:06:03.000",
    "date_modified": "2025-11-06T14:06:05.000",
    "request_status": "Pending",
    "responsible_agency": "Department of Sanitation",
    "final_address": "933 Pleasant St",
    "address_councildis": "B",
    "status": "Assigned to Contractor",
    "contractor": "IV Waste",
    "rowid": "1238488",
    "final_x": "3675793.66312",
    "final_y": "519473.507895",
    "longitude": "-90.08650280854377",
    "latitude": "29.922543807724495",
    "geocoded_column": {
      "latitude": "29.922543807724495",
      "longitude": "-90.08650280854377"
    }
  },
  {
    "service_request": "2025-1238487",
    "request_type": "Roads and Streets",
    "request_reason": "Pothole",
    "date_created": "2025-11-06T13:57:40.000",
    "date_modified": "2025-11-06T13:57:42.000",
    "request_status": "Pending",
    "responsible_agency": "Department of Public Works",
    "final_address": "1129 Spain St",
    "address_councildis": "C",
    "status": "Pending",
    "rowid": "1238487",
    "final_x": "3686151.95324",
    "final_y": "536713.939335",
    "longitude": "-90.05319793212811",
    "latitude": "29.969635156094157",
    "geocoded_column": {
      "latitude": "29.969635156094157",
      "longitude": "-90.05319793212811"
    }
  },
  {
    "service_request": "2025-1238486",
    "request_type": "Trash/Recycling",
    "request_reason": "Change Size of Trash Cart",
    "date_created": "2025-11-06T13:57:31.000",
    "date_modified": "2025-11-06T13:57:33.000",
    "request_status": "Pending",
    "responsible_agency": "Department of Sanitation",
    "final_address": "1015 Josephine St",
    "address_councildis": "B",
    "status": "Assigned to Contractor",
    "contractor": "IV Waste",
    "rowid": "1238486",
    "final_x": "3679330.15829",
    "final_y": "522147.883706",
    "longitude": "-90.07524682787553",
    "latitude": "29.929791181969897",
    "geocoded_column": {
      "latitude": "29.929791181969897",
      "longitude": "-90.07524682787553"
    }
  },
  {
    "service_request": "2025-1238485",
    "request_type": "Trash/Recycling",
    "request_reason": "Request a Large Item Pick Up",
    "date_created": "2025-11-06T13:55:09.000",
    "date_modified": "2025-11-06T13:55:11.000",
    "request_status": "Pending",
    "responsible_agency": "Department of Sanitation",
    "final_address": "8126 Lincoln Beach Blvd",
    "address_councildis": "E",
    "status": "Assigned to Contractor",
    "contractor": "Waste Pro",
    "rowid": "1238485",
    "final_x": "3702220.6369",
    "final_y": "562973.010208",
    "longitude": "-90.00148809218318",
    "latitude": "30.041334296213567",
    "geocoded_column": {
      "latitude": "30.041334296213567",
      "longitude": "-90.00148809218318"
    }
  },
  {
    "service_request": "2025-1238484",
    "request_type": "Trash/Recycling",
    "request_reason": "Request a Large Item Pick Up",
    "date_created": "2025-11-06T13:54:55.000",
    "date_modified": "2025-11-06T13:54:57.000",
    "request_status": "Pending",
    "responsible_agency": "Department of Sanitation",
    "final_address": "5062 Stephen Girard Ave",
    "address_councildis": "D",
    "status": "Assigned to Contractor",
    "contractor": "IV Waste",
    "rowid": "1238484",
    "final_x": "3693075.81936",
    "final_y": "551205.015573",
    "longitude": "-90.03081163495635",
    "latitude": "30.0092658516872",
    "geocoded_column": {
      "latitude": "30.0092658516872",
      "longitude": "-90.03081163495635"
    }
  },
  {
    "service_request": "2025-1238483",
    "request_type": "Trash/Recycling",
    "request_reason": "Illegal Dumping",
    "date_created": "2025-11-06T13:51:15.000",
    "date_modified": "2025-11-06T14:20:34.000",
    "request_status": "Pending",
    "responsible_agency": "Department of Sanitation",
    "final_address": "4400 BLK Lurline St",
    "address_councildis": "E",
    "status": "Assigned to Contractor",
    "rowid": "1238483",
    "final_x": "3712098.85201",
    "final_y": "554871.547525",
    "longitude": "-89.97057422009183",
    "latitude": "30.01873908207394",
    "geocoded_column": {
      "latitude": "30.01873908207394",
      "longitude": "-89.97057422009183"
    }
  },
  {
    "service_request": "2025-1238482",
    "request_type": "Trash/Recycling",
    "request_reason": "Illegal Dumping",
    "date_created": "2025-11-06T13:50:17.000",
    "date_modified": "2025-11-06T13:50:19.000",
    "request_status": "Pending",
    "responsible_agency": "Department of Sanitation",
    "final_address": "COHN ST & ADAMS ST",
    "address_councildis": "A",
    "status": "Pending",
    "rowid": "1238482",
    "final_x": "3664710.9",
    "final_y": "529198.78",
    "longitude": "-90.1211620229836",
    "latitude": "29.949612158898095",
    "geocoded_column": {
      "latitude": "29.949612158898095",
      "longitude": "-90.1211620229836"
    }
  },
  {
    "service_request": "2025-1238481",
    "request_type": "Healthy Homes",
    "request_reason": "Healthy Homes",
    "date_created": "2025-11-06T13:47:16.000",
    "date_modified": "2025-11-06T14:05:08.000",
    "request_status": "Pending",
    "responsible_agency": "Department of Code Enforcement",
    "final_address": "1513 Virginia Marie St",
    "address_councildis": "D",
    "status": "Pending",
    "rowid": "1238481",
    "final_x": "3678942.38146",
    "final_y": "548857.522323",
    "longitude": "-90.07554541760943",
    "latitude": "30.003245270510984",
    "geocoded_column": {
      "latitude": "30.003245270510984",
      "longitude": "-90.07554541760943"
    }
  },
  {
    "service_request": "2025-1238480",
    "request_type": "Trash/Recycling",
    "request_reason": "Request a Large Item Pick Up",
    "date_created": "2025-11-06T13:30:32.000",
    "date_modified": "2025-11-06T13:30:34.000",
    "request_status": "Pending",
    "responsible_agency": "Department of Sanitation",
    "final_address": "6008 Elysian Fields Ave",
    "address_councildis": "D",
    "status": "Assigned to Contractor",
    "contractor": "IV Waste",
    "rowid": "1238480",
    "final_x": "3683338.39669",
    "final_y": "555007.968089",
    "longitude": "-90.06144208088067",
    "latitude": "30.020023344429955",
    "geocoded_column": {
      "latitude": "30.020023344429955",
      "longitude": "-90.06144208088067"
    }
  },
  {
    "service_request": "2025-1238479",
    "request_type": "Roads and Streets",
    "request_reason": "Pothole",
    "date_created": "2025-11-06T13:23:31.000",
    "date_modified": "2025-11-06T13:23:32.000",
    "request_status": "Pending",
    "responsible_agency": "Department of Public Works",
    "final_address": "1901 Mirabeau Ave",
    "address_councildis": "D",
    "status": "Pending",
    "rowid": "1238479",
    "final_x": "3681586.31247",
    "final_y": "550614.518164",
    "longitude": "-90.06713150850423",
    "latitude": "30.00799631137257",
    "geocoded_column": {
      "latitude": "30.00799631137257",
      "longitude": "-90.06713150850423"
    }
  },
  {
    "service_request": "2025-1238478",
    "request_type": "Trash/Recycling",
    "request_reason": "Request a Large Item Pick Up",
    "date_created": "2025-11-06T13:20:38.000",
    "date_modified": "2025-11-06T13:20:40.000",
    "request_status": "Pending",
    "responsible_agency": "Department of Sanitation",
    "final_address": "7122 W Laverne St",
    "address_councildis": "D",
    "status": "Assigned to Contractor",
    "contractor": "Waste Pro",
    "rowid": "1238478",
    "final_x": "3695799.67946",
    "final_y": "556805.91625",
    "longitude": "-90.02200356547591",
    "latitude": "30.024580801643932",
    "geocoded_column": {
      "latitude": "30.024580801643932",
      "longitude": "-90.02200356547591"
    }
  },
  {
    "service_request": "2025-1238477",
    "request_type": "Trash/Recycling",
    "request_reason": "Request a Large Item Pick Up",
    "date_created": "2025-11-06T13:19:20.000",
    "date_modified": "2025-11-06T13:19:53.000",
    "request_status": "Pending",
    "responsible_agency": "Department of Sanitation",
    "final_address": "2625 Leonidas St",
    "address_councildis": "A",
    "status": "Assigned to Contractor",
    "contractor": "IV Waste",
    "rowid": "1238477",
    "final_x": "3664214.81492",
    "final_y": "533434.16282",
    "longitude": "-90.12258709005992",
    "latitude": "29.96127250651932",
    "geocoded_column": {
      "latitude": "29.96127250651932",
      "longitude": "-90.12258709005992"
    }
  },
  {
    "service_request": "2025-1238476",
    "request_type": "Abandoned Vehicles",
    "request_reason": "Abandoned/Junk Vehicles",
    "date_created": "2025-11-06T13:18:16.000",
    "date_modified": "2025-11-06T13:18:18.000",
    "request_status": "Pending",
    "responsible_agency": "Department of Public Works",
    "final_address": "AUDUBON ST & BIRCH ST",
    "address_councildis": "A",
    "status": "Pending",
    "rowid": "1238476",
    "final_x": "3665211.7",
    "final_y": "527501.48",
    "longitude": "-90.1196375287247",
    "latitude": "29.944930554470105",
    "geocoded_column": {
      "latitude": "29.944930554470105",
      "longitude": "-90.1196375287247"
    }
  },
  {
    "service_request": "2025-1238475",
    "request_type": "Trash/Recycling",
    "request_reason": "Replace Trash Cart",
    "date_created": "2025-11-06T13:17:26.000",
    "date_modified": "2025-11-06T13:17:28.000",
    "request_status": "Pending",
    "responsible_agency": "Department of Sanitation",
    "final_address": "7181 Ridgefield Dr",
    "address_councildis": "E",
    "status": "Assigned to Contractor",
    "contractor": "Waste Pro",
    "rowid": "1238475",
    "final_x": "3718983.99999",
    "final_y": "570259.966823",
    "longitude": "-89.94823214897471",
    "latitude": "30.06082401556257",
    "geocoded_column": {
      "latitude": "30.06082401556257",
      "longitude": "-89.94823214897471"
    }
  },
  {
    "service_request": "2025-1238474",
    "request_type": "Safety & Permits",
    "request_reason": "Zoning Enforcement",
    "date_created": "2025-11-06T13:15:35.000",
    "date_modified": "2025-11-06T13:15:44.000",
    "request_status": "Pending",
    "responsible_agency": "Safety and Permits",
    "final_address": "7723 W Laverne St",
    "address_councildis": "E",
    "status": "Pending",
    "rowid": "1238474",
    "final_x": "3695089.29514",
    "final_y": "559013.467228",
    "longitude": "-90.02416854895547",
    "latitude": "30.030673061730806",
    "geocoded_column": {
      "latitude": "30.030673061730806",
      "longitude": "-90.02416854895547"
    }
  },
  {
    "service_request": "2025-1238473",
    "request_type": "Streetlights",
    "request_reason": "Streetlight Outage/Malfunction",
    "date_created": "2025-11-06T13:14:13.000",
    "date_modified": "2025-11-06T13:14:17.000",
    "request_status": "Pending",
    "responsible_agency": "Department of Public Works",
    "final_address": "2129 Onzaga St",
    "address_councildis": "D",
    "status": "Pending",
    "rowid": "1238473",
    "final_x": "3680818.74101",
    "final_y": "539325.358026",
    "longitude": "-90.0699497429598",
    "latitude": "29.9769784095683",
    "geocoded_column": {
      "latitude": "29.9769784095683",
      "longitude": "-90.0699497429598"
    }
  },
  {
    "service_request": "2025-1238472",
    "request_type": "Safety & Permits",
    "request_reason": "Zoning Enforcement",
    "date_created": "2025-11-06T13:10:19.000",
    "date_modified": "2025-11-06T13:10:21.000",
    "request_status": "Pending",
    "responsible_agency": "Safety and Permits",
    "final_address": "7723 W Laverne St",
    "address_councildis": "E",
    "status": "Pending",
    "rowid": "1238472",
    "final_x": "3695089.29514",
    "final_y": "559013.467228",
    "longitude": "-90.02416854895547",
    "latitude": "30.030673061730806",
    "geocoded_column": {
      "latitude": "30.030673061730806",
      "longitude": "-90.02416854895547"
    }
  },
  {
    "service_request": "2025-1238471",
    "request_type": "Abandoned Vehicles",
    "request_reason": "Abandoned/Junk Vehicles",
    "date_created": "2025-11-06T13:09:11.000",
    "date_modified": "2025-11-06T13:13:02.000",
    "request_status": "Pending",
    "responsible_agency": "Department of Public Works",
    "final_address": "1900 BLK Joliet St",
    "address_councildis": "A",
    "status": "Pending",
    "rowid": "1238471",
    "final_x": "3662679.62605",
    "final_y": "531283.864385",
    "longitude": "-90.12750642562241",
    "latitude": "29.95540439861835",
    "geocoded_column": {
      "latitude": "29.95540439861835",
      "longitude": "-90.12750642562241"
    }
  },
  {
    "service_request": "2025-1238470",
    "request_type": "Trash/Recycling",
    "request_reason": "Repair Trash Cart",
    "date_created": "2025-11-06T13:01:27.000",
    "date_modified": "2025-11-06T13:01:28.000",
    "request_status": "Pending",
    "responsible_agency": "Department of Sanitation",
    "final_address": "5432 Grand Bayou Dr",
    "address_councildis": "E",
    "status": "Assigned to Contractor",
    "contractor": "Waste Pro",
    "rowid": "1238470",
    "final_x": "3725948.91059",
    "final_y": "563737.593825",
    "longitude": "-89.92646969748021",
    "latitude": "30.04265688805647",
    "geocoded_column": {
      "latitude": "30.04265688805647",
      "longitude": "-89.92646969748021"
    }
  },
  {
    "service_request": "2025-1238469",
    "request_type": "Trash/Recycling",
    "request_reason": "Request a Large Item Pick Up",
    "date_created": "2025-11-06T13:01:09.000",
    "date_modified": "2025-11-06T13:01:10.000",
    "request_status": "Pending",
    "responsible_agency": "Department of Sanitation",
    "final_address": "7260 Queensway Dr",
    "address_councildis": "E",
    "status": "Assigned to Contractor",
    "contractor": "Waste Pro",
    "rowid": "1238469",
    "final_x": "3718469.87922",
    "final_y": "570314.857959",
    "longitude": "-89.94985515723555",
    "latitude": "30.060992021365877",
    "geocoded_column": {
      "latitude": "30.060992021365877",
      "longitude": "-89.94985515723555"
    }
  },
  {
    "service_request": "2025-1238468",
    "request_type": "Trash/Recycling",
    "request_reason": "Request a Large Item Pick Up",
    "date_created": "2025-11-06T13:00:47.000",
    "date_modified": "2025-11-06T13:00:50.000",
    "request_status": "Pending",
    "responsible_agency": "Department of Sanitation",
    "final_address": "5328 Dryades St",
    "address_councildis": "B",
    "status": "Assigned to Contractor",
    "contractor": "IV Waste",
    "rowid": "1238468",
    "final_x": "3667638.71924",
    "final_y": "521786.810362",
    "longitude": "-90.11216695160309",
    "latitude": "29.929146135816534",
    "geocoded_column": {
      "latitude": "29.929146135816534",
      "longitude": "-90.11216695160309"
    }
  },
  {
    "service_request": "2025-1238467",
    "request_type": "Roads and Streets",
    "request_reason": "Sidewalk Damaged or Missing",
    "date_created": "2025-11-06T13:00:10.000",
    "date_modified": "2025-11-06T13:00:14.000",
    "request_status": "Pending",
    "responsible_agency": "Department of Public Works",
    "final_address": "1840 Thalia St",
    "address_councildis": "B",
    "status": "Pending",
    "rowid": "1238467",
    "final_x": "3678285.10952",
    "final_y": "526424.228542",
    "longitude": "-90.07839801692222",
    "latitude": "29.941581232367827",
    "geocoded_column": {
      "latitude": "29.941581232367827",
      "longitude": "-90.07839801692222"
    }
  },
  {
    "service_request": "2025-1238466",
    "request_type": "Property Maintenance",
    "request_reason": "Property Maintenance",
    "date_created": "2025-11-06T12:59:35.000",
    "date_modified": "2025-11-06T12:59:37.000",
    "request_status": "Pending",
    "responsible_agency": "Department of Code Enforcement",
    "final_address": "3829 Louisiana Avenue Pkwy, New Orleans, Louisiana, 70125",
    "status": "Pending",
    "rowid": "1238466",
    "longitude": "0.0",
    "latitude": "0.0",
    "geocoded_column": {
      "latitude": "0.0",
      "longitude": "0.0"
    }
  },
  {
    "service_request": "2025-1238465",
    "request_type": "Trash/Recycling",
    "request_reason": "Request a Large Item Pick Up",
    "date_created": "2025-11-06T12:58:37.000",
    "date_modified": "2025-11-06T12:58:39.000",
    "request_status": "Pending",
    "responsible_agency": "Department of Sanitation",
    "final_address": "79 S Wren St",
    "address_councildis": "D",
    "status": "Assigned to Contractor",
    "contractor": "IV Waste",
    "rowid": "1238465",
    "final_x": "3673042.46171",
    "final_y": "555727.497049",
    "longitude": "-90.09394944094153",
    "latitude": "30.0223120158236",
    "geocoded_column": {
      "latitude": "30.0223120158236",
      "longitude": "-90.09394944094153"
    }
  },
  {
    "service_request": "2025-1238464",
    "request_type": "Trash/Recycling",
    "request_reason": "Request a Large Item Pick Up",
    "date_created": "2025-11-06T12:55:20.000",
    "date_modified": "2025-11-06T12:55:33.000",
    "request_status": "Pending",
    "responsible_agency": "Department of Sanitation",
    "final_address": "903 Belleville St",
    "address_councildis": "C",
    "status": "Assigned to Contractor",
    "contractor": "Richards Disposal",
    "rowid": "1238464",
    "final_x": "3687735.24892",
    "final_y": "528307.474432",
    "longitude": "-90.04849544697929",
    "latitude": "29.946471548057215",
    "geocoded_column": {
      "latitude": "29.946471548057215",
      "longitude": "-90.04849544697929"
    }
  },
  {
    "service_request": "2025-1238463",
    "request_type": "Trash/Recycling",
    "request_reason": "Request a Large Item Pick Up",
    "date_created": "2025-11-06T12:52:17.000",
    "date_modified": "2025-11-06T12:52:20.000",
    "request_status": "Pending",
    "responsible_agency": "Department of Sanitation",
    "final_address": "1130 Third St",
    "address_councildis": "B",
    "status": "Assigned to Contractor",
    "contractor": "IV Waste",
    "rowid": "1238463",
    "final_x": "3677401.18536",
    "final_y": "521353.852345",
    "longitude": "-90.08136365249929",
    "latitude": "29.927665949682126",
    "geocoded_column": {
      "latitude": "29.927665949682126",
      "longitude": "-90.08136365249929"
    }
  },
  {
    "service_request": "2025-1238462",
    "request_type": "Streetlights",
    "request_reason": "Streetlight Outage/Malfunction",
    "date_created": "2025-11-06T12:48:00.000",
    "date_modified": "2025-11-06T12:48:03.000",
    "request_status": "Pending",
    "responsible_agency": "Department of Public Works",
    "final_address": "3552 Mimosa Ct",
    "address_councildis": "C",
    "status": "Pending",
    "rowid": "1238462",
    "final_x": "3703399.66846",
    "final_y": "513083.710961",
    "longitude": "-89.99959717883951",
    "latitude": "29.904119213415232",
    "geocoded_column": {
      "latitude": "29.904119213415232",
      "longitude": "-89.99959717883951"
    }
  },
  {
    "service_request": "2025-1238461",
    "request_type": "Drainage",
    "request_reason": "Drainage Manhole Cover Missing or Damaged",
    "date_created": "2025-11-06T12:45:19.000",
    "date_modified": "2025-11-06T12:45:24.000",
    "request_status": "Pending",
    "responsible_agency": "Sewerage & Water Board",
    "final_address": "933 Peniston St",
    "address_councildis": "B",
    "status": "Pending",
    "rowid": "1238461",
    "final_x": "3673354.64776",
    "final_y": "519316.948599",
    "longitude": "-90.09420715642396",
    "latitude": "29.92218607035275",
    "geocoded_column": {
      "latitude": "29.92218607035275",
      "longitude": "-90.09420715642396"
    }
  },
  {
    "service_request": "2025-1238460",
    "request_type": "Trash/Recycling",
    "request_reason": "Repair Trash Cart",
    "date_created": "2025-11-06T12:39:25.000",
    "date_modified": "2025-11-06T12:39:27.000",
    "request_status": "Pending",
    "responsible_agency": "Department of Sanitation",
    "final_address": "3120 Laurel St",
    "address_councildis": "B",
    "status": "Assigned to Contractor",
    "contractor": "IV Waste",
    "rowid": "1238460",
    "final_x": "3676389.88654",
    "final_y": "519468.098231",
    "longitude": "-90.08462095561443",
    "latitude": "29.922511080295305",
    "geocoded_column": {
      "latitude": "29.922511080295305",
      "longitude": "-90.08462095561443"
    }
  },
  {
    "service_request": "2025-1238459",
    "request_type": "Trash/Recycling",
    "request_reason": "Repair Trash Cart",
    "date_created": "2025-11-06T12:37:04.000",
    "date_modified": "2025-11-06T12:37:07.000",
    "request_status": "Pending",
    "responsible_agency": "Department of Sanitation",
    "final_address": "1614 Pauger St",
    "address_councildis": "C",
    "status": "Assigned to Contractor",
    "contractor": "IV Waste",
    "rowid": "1238459",
    "final_x": "3683892.04508",
    "final_y": "535630.006534",
    "longitude": "-90.060372938542",
    "latitude": "29.9667239450432",
    "geocoded_column": {
      "latitude": "29.9667239450432",
      "longitude": "-90.060372938542"
    }
  },
  {
    "service_request": "2025-1238458",
    "request_type": "Trash/Recycling",
    "request_reason": "Request a Large Item Pick Up",
    "date_created": "2025-11-06T12:30:30.000",
    "date_modified": "2025-11-06T12:30:40.000",
    "request_status": "Pending",
    "responsible_agency": "Department of Sanitation",
    "final_address": "3444 Plymouth Pl",
    "address_councildis": "C",
    "status": "Assigned to Contractor",
    "contractor": "Richards Disposal",
    "rowid": "1238458",
    "final_x": "3702840.5226",
    "final_y": "518344.635894",
    "longitude": "-90.00116880462276",
    "latitude": "29.91860284535878",
    "geocoded_column": {
      "latitude": "29.91860284535878",
      "longitude": "-90.00116880462276"
    }
  },
  {
    "service_request": "2025-1238457",
    "request_type": "Streetlights",
    "request_reason": "Streetlight Outage/Malfunction",
    "date_created": "2025-11-06T12:25:58.000",
    "date_modified": "2025-11-06T12:26:00.000",
    "request_status": "Pending",
    "responsible_agency": "Department of Public Works",
    "final_address": "38 Curtis Dr",
    "address_councildis": "E",
    "status": "Pending",
    "rowid": "1238457",
    "final_x": "3697820.28861",
    "final_y": "560679.501598",
    "longitude": "-90.01547805338869",
    "latitude": "30.035167936172087",
    "geocoded_column": {
      "latitude": "30.035167936172087",
      "longitude": "-90.01547805338869"
    }
  },
  {
    "service_request": "2025-1238456",
    "request_type": "Trash/Recycling",
    "request_reason": "Request a Large Item Pick Up",
    "date_created": "2025-11-06T12:24:13.000",
    "date_modified": "2025-11-06T12:24:15.000",
    "request_status": "Pending",
    "responsible_agency": "Department of Sanitation",
    "final_address": "8 Curtis Dr",
    "address_councildis": "E",
    "status": "Assigned to Contractor",
    "contractor": "Waste Pro",
    "rowid": "1238456",
    "final_x": "3697689.92637",
    "final_y": "560638.780766",
    "longitude": "-90.01589149649521",
    "latitude": "30.035060091539236",
    "geocoded_column": {
      "latitude": "30.035060091539236",
      "longitude": "-90.01589149649521"
    }
  },
  {
    "service_request": "2025-1238455",
    "request_type": "Trash/Recycling",
    "request_reason": "Replace Trash Cart",
    "date_created": "2025-11-06T12:23:56.000",
    "date_modified": "2025-11-06T12:23:59.000",
    "request_status": "Pending",
    "responsible_agency": "Department of Sanitation",
    "final_address": "825 Pacific Ave",
    "address_councildis": "C",
    "status": "Assigned to Contractor",
    "contractor": "Richards Disposal",
    "rowid": "1238455",
    "final_x": "3688406.09404",
    "final_y": "528488.088832",
    "longitude": "-90.04637095218877",
    "latitude": "29.946947475320712",
    "geocoded_column": {
      "latitude": "29.946947475320712",
      "longitude": "-90.04637095218877"
    }
  },
  {
    "service_request": "2025-1238454",
    "request_type": "Trash/Recycling",
    "request_reason": "Request a Large Item Pick Up",
    "date_created": "2025-11-06T12:22:43.000",
    "date_modified": "2025-11-06T12:22:45.000",
    "request_status": "Pending",
    "responsible_agency": "Department of Sanitation",
    "final_address": "4723 Rosemont Pl",
    "address_councildis": "E",
    "status": "Assigned to Contractor",
    "contractor": "Waste Pro",
    "rowid": "1238454",
    "final_x": "3702790.60881",
    "final_y": "554802.080664",
    "longitude": "-89.99998727679329",
    "latitude": "30.018849184641194",
    "geocoded_column": {
      "latitude": "30.018849184641194",
      "longitude": "-89.99998727679329"
    }
  },
  {
    "service_request": "2025-1238453",
    "request_type": "Trash/Recycling",
    "request_reason": "Request a Large Item Pick Up",
    "date_created": "2025-11-06T12:21:05.000",
    "date_modified": "2025-11-06T12:21:06.000",
    "request_status": "Pending",
    "responsible_agency": "Department of Sanitation",
    "final_address": "4819 Rhodes Dr",
    "address_councildis": "E",
    "status": "Assigned to Contractor",
    "contractor": "Waste Pro",
    "rowid": "1238453",
    "final_x": "3702529.0858",
    "final_y": "554962.03356",
    "longitude": "-90.00080771351149",
    "latitude": "30.019297358852388",
    "geocoded_column": {
      "latitude": "30.019297358852388",
      "longitude": "-90.00080771351149"
    }
  },
  {
    "service_request": "2025-1238452",
    "request_type": "Abandoned Vehicles",
    "request_reason": "Abandoned/Junk Vehicles",
    "date_created": "2025-11-06T12:19:09.000",
    "date_modified": "2025-11-06T12:19:10.000",
    "request_status": "Pending",
    "responsible_agency": "Department of Public Works",
    "final_address": "2515 Canal St",
    "address_councildis": "B",
    "status": "Pending",
    "rowid": "1238452",
    "final_x": "3676077.50619",
    "final_y": "534688.35079",
    "longitude": "-90.08508363373424",
    "latitude": "29.964371107828054",
    "geocoded_column": {
      "latitude": "29.964371107828054",
      "longitude": "-90.08508363373424"
    }
  },
  {
    "service_request": "2025-1238451",
    "request_type": "Trash/Recycling",
    "request_reason": "Request a Large Item Pick Up",
    "date_created": "2025-11-06T12:15:26.000",
    "date_modified": "2025-11-06T12:15:28.000",
    "request_status": "Pending",
    "responsible_agency": "Department of Sanitation",
    "final_address": "5134 Lakeview Ct",
    "address_councildis": "E",
    "status": "Assigned to Contractor",
    "contractor": "Waste Pro",
    "rowid": "1238451",
    "final_x": "3698777.95773",
    "final_y": "556276.784474",
    "longitude": "-90.01261204887848",
    "latitude": "30.02303183619386",
    "geocoded_column": {
      "latitude": "30.02303183619386",
      "longitude": "-90.01261204887848"
    }
  },
  {
    "service_request": "2025-1238450",
    "request_type": "Property Maintenance",
    "request_reason": "Property Maintenance",
    "date_created": "2025-11-06T12:04:51.000",
    "date_modified": "2025-11-06T12:04:53.000",
    "request_status": "Pending",
    "responsible_agency": "Department of Code Enforcement",
    "final_address": "2515 Canal St",
    "address_councildis": "B",
    "status": "Pending",
    "rowid": "1238450",
    "final_x": "3676077.50619",
    "final_y": "534688.35079",
    "longitude": "-90.08508363373424",
    "latitude": "29.964371107828054",
    "geocoded_column": {
      "latitude": "29.964371107828054",
      "longitude": "-90.08508363373424"
    }
  },
  {
    "service_request": "2025-1238449",
    "request_type": "Trash/Recycling",
    "request_reason": "Missed Trash Pick-Up",
    "date_created": "2025-11-06T12:04:21.000",
    "date_modified": "2025-11-06T12:10:36.000",
    "case_close_date": "2025-11-06T06:10:36.000",
    "request_status": "Closed",
    "responsible_agency": "Department of Sanitation",
    "final_address": "2533 Gladiolus St",
    "address_councildis": "D",
    "status": "Invalid Request",
    "contractor": "IV Waste",
    "contractor_action": "Invalid",
    "rowid": "1238449",
    "final_x": "3686582.59004",
    "final_y": "547527.47573",
    "longitude": "-90.05145590215503",
    "latitude": "29.99935530804294",
    "geocoded_column": {
      "latitude": "29.99935530804294",
      "longitude": "-90.05145590215503"
    }
  },
  {
    "service_request": "2025-1238448",
    "request_type": "Trash/Recycling",
    "request_reason": "Request a Large Item Pick Up",
    "date_created": "2025-11-06T11:57:31.000",
    "date_modified": "2025-11-06T11:57:33.000",
    "request_status": "Pending",
    "responsible_agency": "Department of Sanitation",
    "final_address": "1114 Peniston St",
    "address_councildis": "B",
    "status": "Assigned to Contractor",
    "contractor": "IV Waste",
    "rowid": "1238448",
    "final_x": "3673108.52827",
    "final_y": "519883.284024",
    "longitude": "-90.09496473479635",
    "latitude": "29.923750627631325",
    "geocoded_column": {
      "latitude": "29.923750627631325",
      "longitude": "-90.09496473479635"
    }
  },
  {
    "service_request": "2025-1238447",
    "request_type": "Trash/Recycling",
    "request_reason": "Request a Large Item Pick Up",
    "date_created": "2025-11-06T11:56:17.000",
    "date_modified": "2025-11-06T11:56:19.000",
    "request_status": "Pending",
    "responsible_agency": "Department of Sanitation",
    "final_address": "7611 Trapier Ave",
    "address_councildis": "E",
    "status": "Assigned to Contractor",
    "contractor": "Waste Pro",
    "rowid": "1238447",
    "final_x": "3706680.47678",
    "final_y": "563534.696864",
    "longitude": "-89.98737267017428",
    "latitude": "30.04273542224488",
    "geocoded_column": {
      "latitude": "30.04273542224488",
      "longitude": "-89.98737267017428"
    }
  },
  {
    "service_request": "2025-1238446",
    "request_type": "Trash/Recycling",
    "request_reason": "Request a Large Item Pick Up",
    "date_created": "2025-11-06T11:52:43.000",
    "date_modified": "2025-11-06T11:52:45.000",
    "request_status": "Pending",
    "responsible_agency": "Department of Sanitation",
    "final_address": "20627 Old Spanish Trl",
    "address_councildis": "E",
    "status": "Assigned to Contractor",
    "contractor": "Waste Pro",
    "rowid": "1238446",
    "final_x": "3762266.86537",
    "final_y": "572354.348329",
    "longitude": "-89.81133188171937",
    "latitude": "30.065072944352593",
    "geocoded_column": {
      "latitude": "30.065072944352593",
      "longitude": "-89.81133188171937"
    }
  },
  {
    "service_request": "2025-1238445",
    "request_type": "Trash/Recycling",
    "request_reason": "Request a Large Item Pick Up",
    "date_created": "2025-11-06T11:51:45.000",
    "date_modified": "2025-11-06T11:51:47.000",
    "request_status": "Pending",
    "responsible_agency": "Department of Sanitation",
    "final_address": "6014 Kuebel Dr",
    "address_councildis": "E",
    "status": "Assigned to Contractor",
    "contractor": "Waste Pro",
    "rowid": "1238445",
    "final_x": "3694998.35088",
    "final_y": "559657.036829",
    "longitude": "-90.0244327023045",
    "latitude": "30.032445488926125",
    "geocoded_column": {
      "latitude": "30.032445488926125",
      "longitude": "-90.0244327023045"
    }
  },
  {
    "service_request": "2025-1238444",
    "request_type": "Property Maintenance",
    "request_reason": "Property Maintenance",
    "date_created": "2025-11-06T11:49:36.000",
    "date_modified": "2025-11-06T11:49:37.000",
    "request_status": "Pending",
    "responsible_agency": "Department of Code Enforcement",
    "final_address": "3618 Clematis St",
    "address_councildis": "D",
    "status": "Pending",
    "rowid": "1238444",
    "final_x": "3686273.66633",
    "final_y": "546154.716752",
    "longitude": "-90.05248027433014",
    "latitude": "29.99559021410322",
    "geocoded_column": {
      "latitude": "29.99559021410322",
      "longitude": "-90.05248027433014"
    }
  },
  {
    "service_request": "2025-1238443",
    "request_type": "Roads and Streets",
    "request_reason": "Street Subsidence (Sinking)",
    "date_created": "2025-11-06T11:48:28.000",
    "date_modified": "2025-11-06T11:48:29.000",
    "request_status": "Pending",
    "responsible_agency": "Sewerage & Water Board",
    "final_address": "4611 Reynes St",
    "address_councildis": "E",
    "status": "Pending",
    "rowid": "1238443",
    "final_x": "3699299.59709",
    "final_y": "554241.642968",
    "longitude": "-90.01103800310578",
    "latitude": "30.017419429675115",
    "geocoded_column": {
      "latitude": "30.017419429675115",
      "longitude": "-90.01103800310578"
    }
  },
  {
    "service_request": "2025-1238442",
    "request_type": "Trash/Recycling",
    "request_reason": "Repair Trash Cart",
    "date_created": "2025-11-06T11:48:25.000",
    "date_modified": "2025-11-06T11:48:27.000",
    "request_status": "Pending",
    "responsible_agency": "Department of Sanitation",
    "final_address": "1929 Robert St",
    "address_councildis": "B",
    "status": "Assigned to Contractor",
    "contractor": "IV Waste",
    "rowid": "1238442",
    "final_x": "3668815.97582",
    "final_y": "522719.571002",
    "longitude": "-90.10841909149799",
    "latitude": "29.931676378521193",
    "geocoded_column": {
      "latitude": "29.931676378521193",
      "longitude": "-90.10841909149799"
    }
  },
  {
    "service_request": "2025-1238441",
    "request_type": "Trash/Recycling",
    "request_reason": "Request a Large Item Pick Up",
    "date_created": "2025-11-06T11:47:19.000",
    "date_modified": "2025-11-06T11:47:21.000",
    "request_status": "Pending",
    "responsible_agency": "Department of Sanitation",
    "final_address": "4413 Flite St",
    "address_councildis": "D",
    "status": "Assigned to Contractor",
    "contractor": "Waste Pro",
    "rowid": "1238441",
    "final_x": "3696454.26858",
    "final_y": "552508.186774",
    "longitude": "-90.02009082832146",
    "latitude": "30.012743054458358",
    "geocoded_column": {
      "latitude": "30.012743054458358",
      "longitude": "-90.02009082832146"
    }
  },
  {
    "service_request": "2025-1238440",
    "request_type": "Trash/Recycling",
    "request_reason": "Missed Trash Pick-Up",
    "date_created": "2025-11-06T11:46:11.000",
    "date_modified": "2025-11-06T15:30:23.000",
    "request_status": "Pending",
    "responsible_agency": "Department of Sanitation",
    "final_address": "8701 Hammond St",
    "address_councildis": "E",
    "status": "Assigned to Contractor",
    "contractor": "Waste Pro",
    "rowid": "1238440",
    "final_x": "3707470.39441",
    "final_y": "555984.314969",
    "longitude": "-89.98515699276201",
    "latitude": "30.02194930637277",
    "geocoded_column": {
      "latitude": "30.02194930637277",
      "longitude": "-89.98515699276201"
    }
  },
  {
    "service_request": "2025-1238439",
    "request_type": "Trash/Recycling",
    "request_reason": "Request a Large Item Pick Up",
    "date_created": "2025-11-06T11:45:07.000",
    "date_modified": "2025-11-06T11:45:09.000",
    "request_status": "Pending",
    "responsible_agency": "Department of Sanitation",
    "final_address": "3925 Tchoupitoulas St",
    "address_councildis": "B",
    "status": "Assigned to Contractor",
    "contractor": "IV Waste",
    "rowid": "1238439",
    "final_x": "3673178.76161",
    "final_y": "517718.83359",
    "longitude": "-90.09481688323407",
    "latitude": "29.91779699293365",
    "geocoded_column": {
      "latitude": "29.91779699293365",
      "longitude": "-90.09481688323407"
    }
  },
  {
    "service_request": "2025-1238438",
    "request_type": "Trash/Recycling",
    "request_reason": "Order Recycling Cart",
    "date_created": "2025-11-06T11:44:07.000",
    "date_modified": "2025-11-06T11:44:09.000",
    "request_status": "Pending",
    "responsible_agency": "Department of Sanitation",
    "final_address": "1341 Constance St",
    "address_councildis": "B",
    "status": "Pending",
    "rowid": "1238438",
    "final_x": "3680791.87131",
    "final_y": "524831.842748",
    "longitude": "-90.07053907936634",
    "latitude": "29.93712697251274",
    "geocoded_column": {
      "latitude": "29.93712697251274",
      "longitude": "-90.07053907936634"
    }
  },
  {
    "service_request": "2025-1238437",
    "request_type": "Trash/Recycling",
    "request_reason": "Order Trash Cart",
    "date_created": "2025-11-06T11:42:57.000",
    "date_modified": "2025-11-06T11:42:59.000",
    "request_status": "Pending",
    "responsible_agency": "Department of Sanitation",
    "final_address": "1341 Constance St",
    "address_councildis": "B",
    "status": "Assigned to Contractor",
    "contractor": "IV Waste",
    "rowid": "1238437",
    "final_x": "3680791.87131",
    "final_y": "524831.842748",
    "longitude": "-90.07053907936634",
    "latitude": "29.93712697251274",
    "geocoded_column": {
      "latitude": "29.93712697251274",
      "longitude": "-90.07053907936634"
    }
  },
  {
    "service_request": "2025-1238436",
    "request_type": "Abandoned Vehicles",
    "request_reason": "Abandoned/Junk Vehicles",
    "date_created": "2025-11-06T11:42:37.000",
    "date_modified": "2025-11-06T11:42:39.000",
    "request_status": "Pending",
    "responsible_agency": "Department of Public Works",
    "final_address": "2515 Canal St",
    "address_councildis": "B",
    "status": "Pending",
    "rowid": "1238436",
    "final_x": "3676077.50619",
    "final_y": "534688.35079",
    "longitude": "-90.08508363373424",
    "latitude": "29.964371107828054",
    "geocoded_column": {
      "latitude": "29.964371107828054",
      "longitude": "-90.08508363373424"
    }
  },
  {
    "service_request": "2025-1238435",
    "request_type": "Trash/Recycling",
    "request_reason": "Request a Large Item Pick Up",
    "date_created": "2025-11-06T11:36:25.000",
    "date_modified": "2025-11-06T11:36:27.000",
    "request_status": "Pending",
    "responsible_agency": "Department of Sanitation",
    "final_address": "5542 Press Dr",
    "address_councildis": "D",
    "status": "Assigned to Contractor",
    "contractor": "IV Waste",
    "rowid": "1238435",
    "final_x": "3689250.23113",
    "final_y": "553852.963031",
    "longitude": "-90.04280371848783",
    "latitude": "30.01666574850605",
    "geocoded_column": {
      "latitude": "30.01666574850605",
      "longitude": "-90.04280371848783"
    }
  },
  {
    "service_request": "2025-1238434",
    "request_type": "Trash/Recycling",
    "request_reason": "Request a Large Item Pick Up",
    "date_created": "2025-11-06T11:35:47.000",
    "date_modified": "2025-11-06T11:35:48.000",
    "request_status": "Pending",
    "responsible_agency": "Department of Sanitation",
    "final_address": "7440 Alabama St",
    "address_councildis": "D",
    "status": "Assigned to Contractor",
    "contractor": "Waste Pro",
    "rowid": "1238434",
    "final_x": "3695001.17603",
    "final_y": "558056.641883",
    "longitude": "-90.02448154306744",
    "latitude": "30.028044924776378",
    "geocoded_column": {
      "latitude": "30.028044924776378",
      "longitude": "-90.02448154306744"
    }
  },
  {
    "service_request": "2025-1238433",
    "request_type": "Roads and Streets",
    "request_reason": "Abandoned Service Cut",
    "date_created": "2025-11-06T11:35:47.000",
    "date_modified": "2025-11-06T11:35:48.000",
    "request_status": "Pending",
    "responsible_agency": "Department of Public Works",
    "final_address": "1544 State St",
    "address_councildis": "A",
    "status": "Pending",
    "rowid": "1238433",
    "final_x": "3665606.7177",
    "final_y": "522201.550458",
    "longitude": "-90.11856773287175",
    "latitude": "29.93034592993008",
    "geocoded_column": {
      "latitude": "29.93034592993008",
      "longitude": "-90.11856773287175"
    }
  },
  {
    "service_request": "2025-1238432",
    "request_type": "Streetlights",
    "request_reason": "Streetlight Outage/Malfunction",
    "date_created": "2025-11-06T11:34:34.000",
    "date_modified": "2025-11-06T11:34:35.000",
    "request_status": "Pending",
    "responsible_agency": "Department of Public Works",
    "final_address": "11100 BLK Parkwood Ct S",
    "address_councildis": "E",
    "status": "Pending",
    "rowid": "1238432",
    "final_x": "3716673.98394",
    "final_y": "558975.679408",
    "longitude": "-89.95596273409089",
    "latitude": "30.02987340300051",
    "geocoded_column": {
      "latitude": "30.02987340300051",
      "longitude": "-89.95596273409089"
    }
  },
  {
    "service_request": "2025-1238431",
    "request_type": "Trash/Recycling",
    "request_reason": "Request a Large Item Pick Up",
    "date_created": "2025-11-06T11:29:55.000",
    "date_modified": "2025-11-06T11:29:57.000",
    "request_status": "Pending",
    "responsible_agency": "Department of Sanitation",
    "final_address": "1212 Mazant St",
    "address_councildis": "D",
    "status": "Assigned to Contractor",
    "contractor": "IV Waste",
    "rowid": "1238431",
    "final_x": "3692184.30377",
    "final_y": "535708.268039",
    "longitude": "-90.03418332740826",
    "latitude": "29.96668322722194",
    "geocoded_column": {
      "latitude": "29.96668322722194",
      "longitude": "-90.03418332740826"
    }
  },
  {
    "service_request": "2025-1238430",
    "request_type": "Trash/Recycling",
    "request_reason": "Replace Trash Cart",
    "date_created": "2025-11-06T11:29:05.000",
    "date_modified": "2025-11-06T11:29:07.000",
    "request_status": "Pending",
    "responsible_agency": "Department of Sanitation",
    "final_address": "5506 Camp St",
    "address_councildis": "A",
    "status": "Assigned to Contractor",
    "contractor": "IV Waste",
    "rowid": "1238430",
    "final_x": "3666439.04929",
    "final_y": "519157.082999",
    "longitude": "-90.1160422838497",
    "latitude": "29.921950316635296",
    "geocoded_column": {
      "latitude": "29.921950316635296",
      "longitude": "-90.1160422838497"
    }
  },
  {
    "service_request": "2025-1238429",
    "request_type": "Streetlights",
    "request_reason": "Streetlight Outage/Malfunction",
    "date_created": "2025-11-06T11:27:19.000",
    "date_modified": "2025-11-06T11:27:21.000",
    "request_status": "Pending",
    "responsible_agency": "Department of Public Works",
    "final_address": "2352 Annunciation St",
    "address_councildis": "B",
    "status": "Pending",
    "rowid": "1238429",
    "final_x": "3678835.92315",
    "final_y": "520647.370553",
    "longitude": "-90.07685898495332",
    "latitude": "29.92568017264135",
    "geocoded_column": {
      "latitude": "29.92568017264135",
      "longitude": "-90.07685898495332"
    }
  },
  {
    "service_request": "2025-1238428",
    "request_type": "Trash/Recycling",
    "request_reason": "Order Trash Cart",
    "date_created": "2025-11-06T11:25:57.000",
    "date_modified": "2025-11-06T11:25:58.000",
    "request_status": "Pending",
    "responsible_agency": "Department of Sanitation",
    "final_address": "1919 N Prieur St",
    "address_councildis": "D",
    "status": "Assigned to Contractor",
    "contractor": "IV Waste",
    "rowid": "1238428",
    "final_x": "3683065.68885",
    "final_y": "539211.25057",
    "longitude": "-90.06285716734261",
    "latitude": "29.97659634136984",
    "geocoded_column": {
      "latitude": "29.97659634136984",
      "longitude": "-90.06285716734261"
    }
  },