[
  {
    "service_request": "2024-1072036",
    "request_type": "Roads/Drainage",
    "request_reason": "Pothole",
    "date_created": "2024-03-03T23:03:25.000",
    "date_modified": "2024-03-03T23:03:25.000",
    "request_status": "Pending",
    "responsible_agency": "Department of Public Works",
    "final_address": "1200 BLK Amelia St",
    "address_councildis": "B",
    "status": "Pending",
    "rowid": "1072036",
    "final_x": "3673521.46558",
    "final_y": "519660.816109",
    "longitude": "-90.09366883741032",
    "latitude": "29.923126634409968",
    "geocoded_column": {
      "latitude": "29.923126634409968",
      "longitude": "-90.09366883741032"
    }
  },
  {
    "service_request": "2024-1072035",
    "request_type": "Trash/Recycling",
    "request_reason": "Request a Large Item Pick Up",
    "date_created": "2024-03-03T22:37:43.000",
    "date_modified": "2024-03-03T22:37:44.000",
    "request_status": "Pending",
    "responsible_agency": "Department of Sanitation",
    "final_address": "4908 Francisco Verrett Dr",
    "address_councildis": "E",
    "status": "Assigned to Contractor",
    "contractor": "Waste Pro",
    "rowid": "1072035",
    "final_x": "3704088.3514",
    "final_y": "555987.811545",
    "longitude": "-89.99584317077064",
    "latitude": "30.02206790165496",
    "geocoded_column": {
      "latitude": "30.02206790165496",
      "longitude": "-89.99584317077064"
    }
  },
  {
    "service_request": "2024-1072034",
    "request_type": "Trash/Recycling",
    "request_reason": "Request a Large Item Pick Up",
    "date_created": "2024-03-03T22:37:02.000",
    "date_modified": "2024-03-03T22:37:02.000",
    "request_status": "Pending",
    "responsible_agency": "Department of Sanitation",
    "final_address": "4908 Francisco Verrett Dr",
    "address_councildis": "E",
    "status": "Assigned to Contractor",
    "contractor": "Waste Pro",
    "rowid": "1072034",
    "final_x": "3704088.3514",
    "final_y": "555987.811545",
    "longitude": "-89.99584317077064",
    "latitude": "30.02206790165496",
    "geocoded_column": {
      "latitude": "30.02206790165496",
      "longitude": "-89.99584317077064"
    }
  },
  {
    "service_request": "2024-1072033",
    "request_type": "Traffic Signals/Signs/Striping/Streetlights",
    "request_reason": "Street Light Outage/Malfunction",
    "date_created": "2024-03-03T22:09:34.000",
    "date_modified": "2024-03-03T22:09:35.000",
    "request_status": "Pending",
    "responsible_agency": "Department of Public Works",
    "final_address": "1643 Bartholomew St",
    "address_councildis": "D",
    "status": "Assigned to Contractor",
    "contractor": "Legacy Professional Services",
    "rowid": "1072033",
    "final_x": "3692389.28189",
    "final_y": "537511.367176",
    "longitude": "-90.0334714147145",
    "latitude": "29.971634720325603",
    "geocoded_column": {
      "latitude": "29.971634720325603",
      "longitude": "-90.0334714147145"
    }
  },
  {
    "service_request": "2024-1072032",
    "request_type": "Roads/Drainage",
    "request_reason": "Street Flooding / Drainage",
    "date_created": "2024-03-03T22:08:15.000",
    "date_modified": "2024-03-03T22:08:15.000",
    "request_status": "Pending",
    "responsible_agency": "Department of Public Works",
    "final_address": "6638 Bellaire Dr",
    "address_councildis": "A",
    "status": "Pending",
    "rowid": "1072032",
    "final_x": "3664505.09805",
    "final_y": "552349.118102",
    "longitude": "-90.121038480625",
    "latitude": "30.01327380599966",
    "geocoded_column": {
      "latitude": "30.01327380599966",
      "longitude": "-90.121038480625"
    }
  },
  {
    "service_request": "2024-1072031",
    "request_type": "Trash/Recycling",
    "request_reason": "Request a Large Item Pick Up",
    "date_created": "2024-03-03T21:59:31.000",
    "date_modified": "2024-03-03T21:59:32.000",
    "request_status": "Pending",
    "responsible_agency": "Department of Sanitation",
    "final_address": "0 BLK Across St",
    "address_councildis": "E",
    "status": "Assigned to Contractor",
    "contractor": "Waste Pro",
    "rowid": "1072031",
    "final_x": "3711887.63918",
    "final_y": "553972.247814",
    "longitude": "-89.97127534652184",
    "latitude": "30.01627326470007",
    "geocoded_column": {
      "latitude": "30.01627326470007",
      "longitude": "-89.97127534652184"
    }
  },
  {
    "service_request": "2024-1072030",
    "request_type": "Trash/Recycling",
    "request_reason": "Request a Large Item Pick Up",
    "date_created": "2024-03-03T21:19:57.000",
    "date_modified": "2024-03-03T21:19:58.000",
    "request_status": "Pending",
    "responsible_agency": "Department of Sanitation",
    "final_address": "14755 Emory Rd",
    "address_councildis": "E",
    "status": "Assigned to Contractor",
    "contractor": "Waste Pro",
    "rowid": "1072030",
    "final_x": "3720492.16338",
    "final_y": "573811.711274",
    "longitude": "-89.94332875082092",
    "latitude": "30.070539604792785",
    "geocoded_column": {
      "latitude": "30.070539604792785",
      "longitude": "-89.94332875082092"
    }
  },
  {
    "service_request": "2024-1072029",
    "request_type": "Trash/Recycling",
    "request_reason": "Request a Large Item Pick Up",
    "date_created": "2024-03-03T20:53:51.000",
    "date_modified": "2024-03-03T20:53:51.000",
    "request_status": "Pending",
    "responsible_agency": "Department of Sanitation",
    "final_address": "1831 Audubon St, New Orleans, Louisiana, 70118",
    "address_councildis": "A",
    "status": "Assigned to Contractor",
    "contractor": "Richards Disposal",
    "rowid": "1072029",
    "final_x": "3665785.82298",
    "final_y": "528303.803392",
    "longitude": "-90.11779796714376",
    "latitude": "29.94711995113553",
    "geocoded_column": {
      "latitude": "29.94711995113553",
      "longitude": "-90.11779796714376"
    }
  },
  {
    "service_request": "2024-1072028",
    "request_type": "Traffic Signals/Signs/Striping/Streetlights",
    "request_reason": "Street Light Outage/Malfunction",
    "date_created": "2024-03-03T20:25:22.000",
    "date_modified": "2024-03-03T20:25:22.000",
    "request_status": "Pending",
    "responsible_agency": "Department of Public Works",
    "final_address": "5158 Toulon St",
    "address_councildis": "E",
    "status": "Assigned to Contractor",
    "contractor": "Legacy Professional Services",
    "rowid": "1072028",
    "final_x": "3723532.03878",
    "final_y": "562157.272607",
    "longitude": "-89.9341688573536",
    "latitude": "30.038393027031074",
    "geocoded_column": {
      "latitude": "30.038393027031074",
      "longitude": "-89.9341688573536"
    }
  },
  {
    "service_request": "2024-1072027",
    "request_type": "Traffic Signals/Signs/Striping/Streetlights",
    "request_reason": "Street Light Outage/Malfunction",
    "date_created": "2024-03-03T19:39:41.000",
    "date_modified": "2024-03-03T19:39:41.000",
    "request_status": "Pending",
    "responsible_agency": "Department of Public Works",
    "final_address": "10000 BLK Hayne Blvd",
    "address_councildis": "E",
    "status": "Assigned to Contractor",
    "contractor": "Legacy Professional Services",
    "rowid": "1072027",
    "final_x": "3707582.88959",
    "final_y": "565872.871323",
    "longitude": "-89.98443371688104",
    "latitude": "30.049135289965335",
    "geocoded_column": {
      "latitude": "30.049135289965335",
      "longitude": "-89.98443371688104"
    }
  },
  {
    "service_request": "2024-1072026",
    "request_type": "Traffic Signals/Signs/Striping/Streetlights",
    "request_reason": "Street Light Outage/Malfunction",
    "date_created": "2024-03-03T19:37:03.000",
    "date_modified": "2024-03-03T19:37:04.000",
    "request_status": "Pending",
    "responsible_agency": "Department of Public Works",
    "final_address": "5158 Toulon St",
    "address_councildis": "E",
    "status": "Assigned to Contractor",
    "contractor": "Legacy Professional Services",
    "rowid": "1072026",
    "final_x": "3723532.03878",
    "final_y": "562157.272607",
    "longitude": "-89.9341688573536",
    "latitude": "30.038393027031074",
    "geocoded_column": {
      "latitude": "30.038393027031074",
      "longitude": "-89.9341688573536"
    }
  },
  {
    "service_request": "2024-1072025",
    "request_type": "Traffic Signals/Signs/Striping/Streetlights",
    "request_reason": "Street Light Outage/Malfunction",
    "date_created": "2024-03-03T19:35:35.000",
    "date_modified": "2024-03-03T19:35:36.000",
    "request_status": "Pending",
    "responsible_agency": "Department of Public Works",
    "final_address": "5158 Toulon St",
    "address_councildis": "E",
    "status": "Assigned to Contractor",
    "contractor": "Legacy Professional Services",
    "rowid": "1072025",
    "final_x": "3723532.03878",
    "final_y": "562157.272607",
    "longitude": "-89.9341688573536",
    "latitude": "30.038393027031074",
    "geocoded_column": {
      "latitude": "30.038393027031074",
      "longitude": "-89.9341688573536"
    }
  },
  {
    "service_request": "2024-1072024",
    "request_type": "Property Maintenance",
    "request_reason": "Property Maintenance",
    "date_created": "2024-03-03T19:11:00.000",
    "date_modified": "2024-03-03T19:11:00.000",
    "request_status": "Pending",
    "responsible_agency": "Department of Code Enforcement",
    "final_address": "8523 Oak St",
    "address_councildis": "A",
    "status": "Pending",
    "rowid": "1072024",
    "final_x": "3660793.75469",
    "final_y": "529494.013249",
    "longitude": "-90.13352053449239",
    "latitude": "29.950537318127356",
    "geocoded_column": {
      "latitude": "29.950537318127356",
      "longitude": "-90.13352053449239"
    }
  },
  {
    "service_request": "2024-1072023",
    "request_type": "Property Maintenance",
    "request_reason": "Property Maintenance",
    "date_created": "2024-03-03T18:37:25.000",
    "date_modified": "2024-03-03T18:37:25.000",
    "request_status": "Pending",
    "responsible_agency": "Department of Code Enforcement",
    "final_address": "4329 Perlita St",
    "address_councildis": "D",
    "status": "Pending",
    "rowid": "1072023",
    "final_x": "3678900.30882",
    "final_y": "548335.132434",
    "longitude": "-90.07569644471369",
    "latitude": "30.0018101540209",
    "geocoded_column": {
      "latitude": "30.0018101540209",
      "longitude": "-90.07569644471369"
    }
  },
  {
    "service_request": "2024-1072022",
    "request_type": "Trash/Recycling",
    "request_reason": "Illegal Dumping",
    "date_created": "2024-03-03T18:34:55.000",
    "date_modified": "2024-03-03T18:34:55.000",
    "request_status": "Pending",
    "responsible_agency": "Department of Sanitation",
    "final_address": "4300 BLK Perlita St",
    "address_councildis": "D",
    "status": "Pending",
    "rowid": "1072022",
    "final_x": "3678819.77881",
    "final_y": "548279.815301",
    "longitude": "-90.07595276522083",
    "latitude": "30.00166048165346",
    "geocoded_column": {
      "latitude": "30.00166048165346",
      "longitude": "-90.07595276522083"
    }
  },
  {
    "service_request": "2024-1072021",
    "request_type": "Trash/Recycling",
    "request_reason": "Request a Large Item Pick Up",
    "date_created": "2024-03-03T18:26:39.000",
    "date_modified": "2024-03-03T18:26:40.000",
    "request_status": "Pending",
    "responsible_agency": "Department of Sanitation",
    "final_address": "6225 Cartier Dr",
    "address_councildis": "D",
    "status": "Assigned to Contractor",
    "contractor": "IV Waste",
    "rowid": "1072021",
    "final_x": "3677678.31694",
    "final_y": "555774.017689",
    "longitude": "-90.07929965647656",
    "latitude": "30.022301240489288",
    "geocoded_column": {
      "latitude": "30.022301240489288",
      "longitude": "-90.07929965647656"
    }
  },
  {
    "service_request": "2024-1072020",
    "request_type": "Roads/Drainage",
    "request_reason": "Catch Basin - Clogged",
    "date_created": "2024-03-03T18:20:09.000",
    "date_modified": "2024-03-03T18:20:09.000",
    "request_status": "Pending",
    "responsible_agency": "Department of Public Works",
    "final_address": "1028 S Carrollton Ave",
    "address_councildis": "A",
    "status": "Pending",
    "rowid": "1072020",
    "final_x": "3661629.3776",
    "final_y": "528031.567423",
    "longitude": "-90.13093051159083",
    "latitude": "29.946491974796704",
    "geocoded_column": {
      "latitude": "29.946491974796704",
      "longitude": "-90.13093051159083"
    }
  },
  {
    "service_request": "2024-1072019",
    "request_type": "Trash/Recycling",
    "request_reason": "Request a Large Item Pick Up",
    "date_created": "2024-03-03T18:11:19.000",
    "date_modified": "2024-03-03T18:11:19.000",
    "request_status": "Pending",
    "responsible_agency": "Department of Sanitation",
    "final_address": "4820 Carondelet St",
    "address_councildis": "B",
    "status": "Assigned to Contractor",
    "contractor": "Richards Disposal",
    "rowid": "1072019",
    "final_x": "3669162.42068",
    "final_y": "520989.668793",
    "longitude": "-90.10738383026269",
    "latitude": "29.926909511532198",
    "geocoded_column": {
      "latitude": "29.926909511532198",
      "longitude": "-90.10738383026269"
    }
  },
  {
    "service_request": "2024-1072018",
    "request_type": "Trash/Recycling",
    "request_reason": "Replace Trash Cart",
    "date_created": "2024-03-03T18:09:02.000",
    "date_modified": "2024-03-03T18:09:03.000",
    "request_status": "Pending",
    "responsible_agency": "Department of Sanitation",
    "final_address": "2628 Palmyra St",
    "address_councildis": "B",
    "status": "Assigned to Contractor",
    "contractor": "Richards Disposal",
    "rowid": "1072018",
    "final_x": "3675100.83118",
    "final_y": "534253.833157",
    "longitude": "-90.08818281082607",
    "latitude": "29.963205550045963",
    "geocoded_column": {
      "latitude": "29.963205550045963",
      "longitude": "-90.08818281082607"
    }
  },
  {
    "service_request": "2024-1072017",
    "request_type": "Mosquito, Termite & Rodent Control",
    "request_reason": "Mosquito Complaint",
    "date_created": "2024-03-03T18:05:28.000",
    "date_modified": "2024-03-03T18:05:28.000",
    "request_status": "Pending",
    "responsible_agency": "Mosquito, Termite & Rodent Control Board",
    "final_address": "6301 Eastover Dr",
    "address_councildis": "E",
    "status": "Pending",
    "rowid": "1072017",
    "final_x": "3717863.29727",
    "final_y": "564176.683361",
    "longitude": "-89.95200642885847",
    "latitude": "30.044134694630458",
    "geocoded_column": {
      "latitude": "30.044134694630458",
      "longitude": "-89.95200642885847"
    }
  },
  {
    "service_request": "2024-1072016",
    "request_type": "Abandoned Vehicles",
    "request_reason": "Abandoned/Junk Vehicles",
    "date_created": "2024-03-03T17:20:53.000",
    "date_modified": "2024-03-03T17:20:53.000",
    "request_status": "Pending",
    "responsible_agency": "Department of Public Works",
    "final_address": "3174 Toulouse St",
    "address_councildis": "A",
    "status": "Pending",
    "rowid": "1072016",
    "final_x": "3674701.03022",
    "final_y": "537833.490953",
    "longitude": "-90.08932261117174",
    "latitude": "29.973060337683478",
    "geocoded_column": {
      "latitude": "29.973060337683478",
      "longitude": "-90.08932261117174"
    }
  },
  {
    "service_request": "2024-1072015",
    "request_type": "Trash/Recycling",
    "request_reason": "Repair Trash Cart",
    "date_created": "2024-03-03T17:14:01.000",
    "date_modified": "2024-03-03T17:14:02.000",
    "request_status": "Pending",
    "responsible_agency": "Department of Sanitation",
    "final_address": "1001 Esplanade Ave",
    "address_councildis": "C",
    "status": "Assigned to Contractor",
    "contractor": "IV Waste",
    "rowid": "1072015",
    "final_x": "3683194.88892",
    "final_y": "535145.523846",
    "longitude": "-90.06259151938241",
    "latitude": "29.965413062256253",
    "geocoded_column": {
      "latitude": "29.965413062256253",
      "longitude": "-90.06259151938241"
    }
  },
  {
    "service_request": "2024-1072014",
    "request_type": "Roads/Drainage",
    "request_reason": "Pothole",
    "date_created": "2024-03-03T16:22:39.000",
    "date_modified": "2024-03-03T16:22:39.000",
    "request_status": "Pending",
    "responsible_agency": "Department of Public Works",
    "final_address": "900 City Park Ave",
    "address_councildis": "A",
    "status": "Pending",
    "rowid": "1072014",
    "final_x": "3671883.13575",
    "final_y": "541596.47182",
    "longitude": "-90.09809397847974",
    "latitude": "29.983491075181448",
    "geocoded_column": {
      "latitude": "29.983491075181448",
      "longitude": "-90.09809397847974"
    }
  },
  {
    "service_request": "2024-1072013",
    "request_type": "Roads/Drainage",
    "request_reason": "Pothole",
    "date_created": "2024-03-03T16:20:16.000",
    "date_modified": "2024-03-03T16:20:16.000",
    "request_status": "Pending",
    "responsible_agency": "Department of Public Works",
    "final_address": "3494 Esplanade Ave",
    "address_councildis": "A",
    "status": "Pending",
    "rowid": "1072013",
    "final_x": "3674769.03925",
    "final_y": "541478.8203",
    "longitude": "-90.08898280070932",
    "latitude": "29.983081714956555",
    "geocoded_column": {
      "latitude": "29.983081714956555",
      "longitude": "-90.08898280070932"
    }
  },
  {
    "service_request": "2024-1072012",
    "request_type": "Roads/Drainage",
    "request_reason": "Pothole",
    "date_created": "2024-03-03T16:11:41.000",
    "date_modified": "2024-03-03T16:11:41.000",
    "request_status": "Pending",
    "responsible_agency": "Department of Public Works",
    "final_address": "1301 Constantinople St",
    "address_councildis": "B",
    "status": "Pending",
    "rowid": "1072012",
    "final_x": "3672430.66305",
    "final_y": "520250.7726",
    "longitude": "-90.09709199725775",
    "latitude": "29.924781230435865",
    "geocoded_column": {
      "latitude": "29.924781230435865",
      "longitude": "-90.09709199725775"
    }
  },
  {
    "service_request": "2024-1072011",
    "request_type": "Trash/Recycling",
    "request_reason": "Order Trash Cart",
    "date_created": "2024-03-03T16:08:51.000",
    "date_modified": "2024-03-03T16:08:51.000",
    "request_status": "Pending",
    "responsible_agency": "Department of Sanitation",
    "final_address": "1030 St Peter St",
    "address_councildis": "C",
    "status": "Assigned to Contractor",
    "contractor": "Empire Services",
    "rowid": "1072011",
    "final_x": "3681438.71503",
    "final_y": "533223.222084",
    "longitude": "-90.06820445670436",
    "latitude": "29.960180825167388",
    "geocoded_column": {
      "latitude": "29.960180825167388",
      "longitude": "-90.06820445670436"
    }
  },
  {
    "service_request": "2024-1072010",
    "request_type": "Trash/Recycling",
    "request_reason": "Request a Large Item Pick Up",
    "date_created": "2024-03-03T15:59:46.000",
    "date_modified": "2024-03-03T15:59:47.000",
    "request_status": "Pending",
    "responsible_agency": "Department of Sanitation",
    "final_address": "4343 Vixen St",
    "address_councildis": "C",
    "status": "Assigned to Contractor",
    "contractor": "Richards Disposal",
    "rowid": "1072010",
    "final_x": "3699682.9354",
    "final_y": "520645.711545",
    "longitude": "-90.01105176306572",
    "latitude": "29.925030579793187",
    "geocoded_column": {
      "latitude": "29.925030579793187",
      "longitude": "-90.01105176306572"
    }
  },
  {
    "service_request": "2024-1072009",
    "request_type": "Roads/Drainage",
    "request_reason": "Pothole",
    "date_created": "2024-03-03T15:56:19.000",
    "date_modified": "2024-03-03T15:56:19.000",
    "request_status": "Pending",
    "responsible_agency": "Department of Public Works",
    "final_address": "4216 Chestnut St",
    "address_councildis": "B",
    "status": "Pending",
    "rowid": "1072009",
    "final_x": "3671574.31393",
    "final_y": "519539.203703",
    "longitude": "-90.09981939416457",
    "latitude": "29.922850019854593",
    "geocoded_column": {
      "latitude": "29.922850019854593",
      "longitude": "-90.09981939416457"
    }
  },
  {
    "service_request": "2024-1072008",
    "request_type": "Trash/Recycling",
    "request_reason": "Request a Large Item Pick Up",
    "date_created": "2024-03-03T15:51:21.000",
    "date_modified": "2024-03-03T15:51:21.000",
    "request_status": "Pending",
    "responsible_agency": "Department of Sanitation",
    "final_address": "1522 St Ann St",
    "address_councildis": "C",
    "status": "Assigned to Contractor",
    "contractor": "Richards Disposal",
    "rowid": "1072008",
    "final_x": "3680355.31906",
    "final_y": "534560.738245",
    "longitude": "-90.07157908192595",
    "latitude": "29.963891385492946",
    "geocoded_column": {
      "latitude": "29.963891385492946",
      "longitude": "-90.07157908192595"
    }
  },
  {
    "service_request": "2024-1072007",
    "request_type": "Property Maintenance",
    "request_reason": "Property Maintenance",
    "date_created": "2024-03-03T15:42:47.000",
    "date_modified": "2024-03-03T15:42:47.000",
    "request_status": "Pending",
    "responsible_agency": "Department of Code Enforcement",
    "final_address": "3800 S Inwood Ave",
    "address_councildis": "C",
    "status": "Pending",
    "rowid": "1072007",
    "final_x": "3705107.66455",
    "final_y": "514629.225011",
    "longitude": "-89.9941497541168",
    "latitude": "29.90831407318461",
    "geocoded_column": {
      "latitude": "29.90831407318461",
      "longitude": "-89.9941497541168"
    }
  },
  {
    "service_request": "2024-1072006",
    "request_type": "Trash/Recycling",
    "request_reason": "Request a Large Item Pick Up",
    "date_created": "2024-03-03T15:35:15.000",
    "date_modified": "2024-03-03T15:35:15.000",
    "request_status": "Pending",
    "responsible_agency": "Department of Sanitation",
    "final_address": "3741 Pittari Pl",
    "address_councildis": "C",
    "status": "Assigned to Contractor",
    "contractor": "Richards Disposal",
    "rowid": "1072006",
    "final_x": "3709472.36837",
    "final_y": "516937.252341",
    "longitude": "-89.98028821782607",
    "latitude": "29.91451935986773",
    "geocoded_column": {
      "latitude": "29.91451935986773",
      "longitude": "-89.98028821782607"
    }
  },
  {
    "service_request": "2024-1072005",
    "request_type": "Trash/Recycling",
    "request_reason": "Order Recycling Cart",
    "date_created": "2024-03-03T15:32:48.000",
    "date_modified": "2024-03-03T15:32:48.000",
    "request_status": "Pending",
    "responsible_agency": "Department of Sanitation",
    "final_address": "3612 Camp St",
    "address_councildis": "B",
    "status": "Pending",
    "rowid": "1072005",
    "final_x": "3673956.47982",
    "final_y": "519569.877816",
    "longitude": "-90.09229877137166",
    "latitude": "29.922863635195007",
    "geocoded_column": {
      "latitude": "29.922863635195007",
      "longitude": "-90.09229877137166"
    }
  },
  {
    "service_request": "2024-1072004",
    "request_type": "Trash/Recycling",
    "request_reason": "Order Recycling Cart",
    "date_created": "2024-03-03T15:31:40.000",
    "date_modified": "2024-03-03T15:31:40.000",
    "request_status": "Pending",
    "responsible_agency": "Department of Sanitation",
    "final_address": "1203 Fourth St",
    "address_councildis": "B",
    "status": "Pending",
    "rowid": "1072004",
    "final_x": "3677130.17538",
    "final_y": "521369.732793",
    "longitude": "-90.08221861902122",
    "latitude": "29.927717755062794",
    "geocoded_column": {
      "latitude": "29.927717755062794",
      "longitude": "-90.08221861902122"
    }
  },
  {
    "service_request": "2024-1072003",
    "request_type": "Trash/Recycling",
    "request_reason": "Replace Recycling Cart",
    "date_created": "2024-03-03T15:30:19.000",
    "date_modified": "2024-03-03T15:30:19.000",
    "request_status": "Pending",
    "responsible_agency": "Department of Sanitation",
    "final_address": "1205 Fourth St",
    "address_councildis": "B",
    "status": "Pending",
    "rowid": "1072003",
    "final_x": "3677122.65371",
    "final_y": "521383.520889",
    "longitude": "-90.08224188791448",
    "latitude": "29.9277558936649",
    "geocoded_column": {
      "latitude": "29.9277558936649",
      "longitude": "-90.08224188791448"
    }
  },
  {
    "service_request": "2024-1072002",
    "request_type": "Trash/Recycling",
    "request_reason": "Request a Large Item Pick Up",
    "date_created": "2024-03-03T15:27:43.000",
    "date_modified": "2024-03-03T15:27:43.000",
    "request_status": "Pending",
    "responsible_agency": "Department of Sanitation",
    "final_address": "2233 George Nick Connor Dr",
    "address_councildis": "D",
    "status": "Assigned to Contractor",
    "contractor": "IV Waste",
    "rowid": "1072002",
    "final_x": "3681314.2685",
    "final_y": "540340.552395",
    "longitude": "-90.06834931271982",
    "latitude": "29.97975480857669",
    "geocoded_column": {
      "latitude": "29.97975480857669",
      "longitude": "-90.06834931271982"
    }
  },
  {
    "service_request": "2024-1072001",
    "request_type": "Trash/Recycling",
    "request_reason": "Request a Large Item Pick Up",
    "date_created": "2024-03-03T15:16:54.000",
    "date_modified": "2024-03-03T15:16:54.000",
    "request_status": "Pending",
    "responsible_agency": "Department of Sanitation",
    "final_address": "7929 Freret St",
    "address_councildis": "A",
    "status": "Assigned to Contractor",
    "contractor": "Richards Disposal",
    "rowid": "1072001",
    "final_x": "3661926.85114",
    "final_y": "527522.518655",
    "longitude": "-90.13000815603785",
    "latitude": "29.9450836666227",
    "geocoded_column": {
      "latitude": "29.9450836666227",
      "longitude": "-90.13000815603785"
    }
  },
  {
    "service_request": "2024-1072000",
    "request_type": "Property Maintenance",
    "request_reason": "Property Maintenance",
    "date_created": "2024-03-03T15:16:23.000",
    "date_modified": "2024-03-03T15:16:23.000",
    "request_status": "Pending",
    "responsible_agency": "Department of Code Enforcement",
    "final_address": "3800 S Inwood Ave",
    "address_councildis": "C",
    "status": "Pending",
    "rowid": "1072000",
    "final_x": "3705107.66455",
    "final_y": "514629.225011",
    "longitude": "-89.9941497541168",
    "latitude": "29.90831407318461",
    "geocoded_column": {
      "latitude": "29.90831407318461",
      "longitude": "-89.9941497541168"
    }
  },
  {
    "service_request": "2024-1071999",
    "request_type": "Trash/Recycling",
    "request_reason": "Request a Large Item Pick Up",
    "date_created": "2024-03-03T15:14:09.000",
    "date_modified": "2024-03-03T15:14:10.000",
    "request_status": "Pending",
    "responsible_agency": "Department of Sanitation",
    "final_address": "140 Middle Park Pl, New Orleans, Louisiana, 70124",
    "address_councildis": "A",
    "status": "Assigned to Contractor",
    "contractor": "IV Waste",
    "rowid": "1071999",
    "final_x": "3670136.22778",
    "final_y": "544227.600078",
    "longitude": "-90.10352245247022",
    "latitude": "29.990777443259873",
    "geocoded_column": {
      "latitude": "29.990777443259873",
      "longitude": "-90.10352245247022"
    }
  },
  {
    "service_request": "2024-1071998",
    "request_type": "Abandoned Vehicles",
    "request_reason": "Abandoned/Junk Vehicles",
    "date_created": "2024-03-03T15:10:47.000",
    "date_modified": "2024-03-03T15:10:47.000",
    "request_status": "Pending",
    "responsible_agency": "Department of Public Works",
    "final_address": "1821 Paul Morphy St",
    "address_councildis": "D",
    "status": "Pending",
    "rowid": "1071998",
    "final_x": "3679766.33698",
    "final_y": "541735.953228",
    "longitude": "-90.0731898417797",
    "latitude": "29.98363857288748",
    "geocoded_column": {
      "latitude": "29.98363857288748",
      "longitude": "-90.0731898417797"
    }
  },
  {
    "service_request": "2024-1071997",
    "request_type": "Trash/Recycling",
    "request_reason": "Request a Large Item Pick Up",
    "date_created": "2024-03-03T15:10:40.000",
    "date_modified": "2024-03-03T15:10:41.000",
    "request_status": "Pending",
    "responsible_agency": "Department of Sanitation",
    "final_address": "2400 Filmore Ave",
    "address_councildis": "D",
    "status": "Assigned to Contractor",
    "contractor": "IV Waste",
    "rowid": "1071997",
    "final_x": "3685234.46364",
    "final_y": "552467.72591",
    "longitude": "-90.05554062793307",
    "latitude": "30.012980604678486",
    "geocoded_column": {
      "latitude": "30.012980604678486",
      "longitude": "-90.05554062793307"
    }
  },
  {
    "service_request": "2024-1071996",
    "request_type": "Roads/Drainage",
    "request_reason": "Catch Basin - Broken/Damage",
    "date_created": "2024-03-03T14:52:56.000",
    "date_modified": "2024-03-03T14:52:56.000",
    "request_status": "Pending",
    "responsible_agency": "Department of Public Works",
    "final_address": "1035 Calhoun St",
    "address_councildis": "A",
    "status": "Pending",
    "rowid": "1071996",
    "final_x": "3663904.95104",
    "final_y": "520557.308408",
    "longitude": "-90.1239947524101",
    "latitude": "29.925874279533662",
    "geocoded_column": {
      "latitude": "29.925874279533662",
      "longitude": "-90.1239947524101"
    }
  },
  {
    "service_request": "2024-1071995",
    "request_type": "Trash/Recycling",
    "request_reason": "Request a Large Item Pick Up",
    "date_created": "2024-03-03T14:30:03.000",
    "date_modified": "2024-03-03T14:30:03.000",
    "request_status": "Pending",
    "responsible_agency": "Department of Sanitation",
    "final_address": "14755 Emory Rd",
    "address_councildis": "E",
    "status": "Assigned to Contractor",
    "contractor": "Waste Pro",
    "rowid": "1071995",
    "final_x": "3720492.16338",
    "final_y": "573811.711274",
    "longitude": "-89.94332875082092",
    "latitude": "30.070539604792785",
    "geocoded_column": {
      "latitude": "30.070539604792785",
      "longitude": "-89.94332875082092"
    }
  },
  {
    "service_request": "2024-1071994",
    "request_type": "Abandoned Vehicles",
    "request_reason": "Abandoned/Junk Vehicles",
    "date_created": "2024-03-03T14:26:27.000",
    "date_modified": "2024-03-03T14:26:27.000",
    "request_status": "Pending",
    "responsible_agency": "Department of Public Works",
    "final_address": "1900 BLK Rapides Dr",
    "address_councildis": "D",
    "status": "Pending",
    "rowid": "1071994",
    "final_x": "3681760.82017",
    "final_y": "552881.397634",
    "longitude": "-90.06650100660868",
    "latitude": "30.014224105979977",
    "geocoded_column": {
      "latitude": "30.014224105979977",
      "longitude": "-90.06650100660868"
    }
  },
  {
    "service_request": "2024-1071993",
    "request_type": "Trash/Recycling",
    "request_reason": "Request a Large Item Pick Up",
    "date_created": "2024-03-03T14:17:12.000",
    "date_modified": "2024-03-03T14:17:13.000",
    "request_status": "Pending",
    "responsible_agency": "Department of Sanitation",
    "final_address": "837 Jourdan Ave",
    "address_councildis": "E",
    "status": "Assigned to Contractor",
    "contractor": "Waste Pro",
    "rowid": "1071993",
    "final_x": "3694845.23798",
    "final_y": "533671.800965",
    "longitude": "-90.02585353738505",
    "latitude": "29.961000438750563",
    "geocoded_column": {
      "latitude": "29.961000438750563",
      "longitude": "-90.02585353738505"
    }
  },
  {
    "service_request": "2024-1071992",
    "request_type": "Trash/Recycling",
    "request_reason": "Request a Large Item Pick Up",
    "date_created": "2024-03-03T14:14:16.000",
    "date_modified": "2024-03-03T14:14:17.000",
    "request_status": "Pending",
    "responsible_agency": "Department of Sanitation",
    "final_address": "832 Roosevelt Pl",
    "address_councildis": "A",
    "status": "Assigned to Contractor",
    "contractor": "Richards Disposal",
    "rowid": "1071992",
    "final_x": "3673602.96648",
    "final_y": "539888.123594",
    "longitude": "-90.09272026087697",
    "latitude": "29.978742611859023",
    "geocoded_column": {
      "latitude": "29.978742611859023",
      "longitude": "-90.09272026087697"
    }
  },
  {
    "service_request": "2024-1071990",
    "request_type": "Trash/Recycling",
    "request_reason": "Request a Large Item Pick Up",
    "date_created": "2024-03-03T13:59:51.000",
    "date_modified": "2024-03-03T13:59:52.000",
    "request_status": "Pending",
    "responsible_agency": "Department of Sanitation",
    "final_address": "14050 Linden St",
    "address_councildis": "E",
    "status": "Assigned to Contractor",
    "contractor": "Waste Pro",
    "rowid": "1071990",
    "final_x": "3718560.4309",
    "final_y": "572546.039273",
    "longitude": "-89.94948375214332",
    "latitude": "30.06712383048706",
    "geocoded_column": {
      "latitude": "30.06712383048706",
      "longitude": "-89.94948375214332"
    }
  },
  {
    "service_request": "2024-1071989",
    "request_type": "Roads/Drainage",
    "request_reason": "Pothole",
    "date_created": "2024-03-03T13:57:26.000",
    "date_modified": "2024-03-03T13:57:26.000",
    "request_status": "Pending",
    "responsible_agency": "Department of Public Works",
    "final_address": "2655 Clover St",
    "address_councildis": "D",
    "status": "Pending",
    "rowid": "1071989",
    "final_x": "3687572.58441",
    "final_y": "546762.308753",
    "longitude": "-90.04835559689974",
    "latitude": "29.99722088512379",
    "geocoded_column": {
      "latitude": "29.99722088512379",
      "longitude": "-90.04835559689974"
    }
  },
  {
    "service_request": "2024-1071988",
    "request_type": "Roads/Drainage",
    "request_reason": "Catch Basin - Clogged",
    "date_created": "2024-03-03T13:54:40.000",
    "date_modified": "2024-03-03T13:54:40.000",
    "request_status": "Pending",
    "responsible_agency": "Department of Public Works",
    "final_address": "2021 Chestnut St",
    "address_councildis": "B",
    "status": "Pending",
    "rowid": "1071988",
    "final_x": "3678874.11592",
    "final_y": "523055.073083",
    "longitude": "-90.07665506618164",
    "latitude": "29.93229941557592",
    "geocoded_column": {
      "latitude": "29.93229941557592",
      "longitude": "-90.07665506618164"
    }
  },
  {
    "service_request": "2024-1071987",
    "request_type": "Traffic Signals/Signs/Striping/Streetlights",
    "request_reason": "Street Light Outage/Malfunction",
    "date_created": "2024-03-03T13:51:38.000",
    "date_modified": "2024-03-03T13:51:39.000",
    "request_status": "Pending",
    "responsible_agency": "Department of Public Works",
    "final_address": "2021 Chestnut St",
    "address_councildis": "B",
    "status": "Assigned to Contractor",
    "contractor": "Legacy Professional Services",
    "rowid": "1071987",
    "final_x": "3678874.11592",
    "final_y": "523055.073083",
    "longitude": "-90.07665506618164",
    "latitude": "29.93229941557592",
    "geocoded_column": {
      "latitude": "29.93229941557592",
      "longitude": "-90.07665506618164"
    }
  },
  {
    "service_request": "2024-1071986",
    "request_type": "Trash/Recycling",
    "request_reason": "Request a Large Item Pick Up",
    "date_created": "2024-03-03T13:47:47.000",
    "date_modified": "2024-03-03T13:47:47.000",
    "request_status": "Pending",
    "responsible_agency": "Department of Sanitation",
    "final_address": "14755 Emory Rd",
    "address_councildis": "E",
    "status": "Assigned to Contractor",
    "contractor": "Waste Pro",
    "rowid": "1071986",
    "final_x": "3720492.16338",
    "final_y": "573811.711274",
    "longitude": "-89.94332875082092",
    "latitude": "30.070539604792785",
    "geocoded_column": {
      "latitude": "30.070539604792785",
      "longitude": "-89.94332875082092"
    }
  },
  {
    "service_request": "2024-1071985",
    "request_type": "Abandoned Vehicles",
    "request_reason": "Abandoned/Junk Vehicles",
    "date_created": "2024-03-03T13:47:23.000",
    "date_modified": "2024-03-03T13:47:23.000",
    "request_status": "Pending",
    "responsible_agency": "Department of Public Works",
    "final_address": "1013 N Dorgenois St",
    "address_councildis": "D",
    "status": "Pending",
    "rowid": "1071985",
    "final_x": "3677874.7179",
    "final_y": "537629.385352",
    "longitude": "-90.07930653480042",
    "latitude": "29.972403993547108",
    "geocoded_column": {
      "latitude": "29.972403993547108",
      "longitude": "-90.07930653480042"
    }
  },
  {
    "service_request": "2024-1071984",
    "request_type": "Trash/Recycling",
    "request_reason": "Request a Large Item Pick Up",
    "date_created": "2024-03-03T13:47:20.000",
    "date_modified": "2024-03-03T13:47:20.000",
    "request_status": "Pending",
    "responsible_agency": "Department of Sanitation",
    "final_address": "618 N Carrollton Ave",
    "address_councildis": "A",
    "status": "Assigned to Contractor",
    "contractor": "Richards Disposal",
    "rowid": "1071984",
    "final_x": "3672535.14657",
    "final_y": "539739.944906",
    "longitude": "-90.09609789734962",
    "latitude": "29.978366917595974",
    "geocoded_column": {
      "latitude": "29.978366917595974",
      "longitude": "-90.09609789734962"
    }
  },
  {
    "service_request": "2024-1071983",
    "request_type": "Trash/Recycling",
    "request_reason": "Request a Large Item Pick Up",
    "date_created": "2024-03-03T13:47:03.000",
    "date_modified": "2024-03-03T13:47:04.000",
    "request_status": "Pending",
    "responsible_agency": "Department of Sanitation",
    "final_address": "618 N Carrollton Ave",
    "address_councildis": "A",
    "status": "Assigned to Contractor",
    "contractor": "Richards Disposal",
    "rowid": "1071983",
    "final_x": "3672535.14657",
    "final_y": "539739.944906",
    "longitude": "-90.09609789734962",
    "latitude": "29.978366917595974",
    "geocoded_column": {
      "latitude": "29.978366917595974",
      "longitude": "-90.09609789734962"
    }
  },
  {
    "service_request": "2024-1071982",
    "request_type": "Trash/Recycling",
    "request_reason": "Order Trash Cart",
    "date_created": "2024-03-03T13:43:53.000",
    "date_modified": "2024-03-03T13:43:54.000",
    "request_status": "Pending",
    "responsible_agency": "Department of Sanitation",
    "final_address": "4651 St Roch Ave",
    "address_councildis": "D",
    "status": "Assigned to Contractor",
    "contractor": "IV Waste",
    "rowid": "1071982",
    "final_x": "3685464.43983",
    "final_y": "549984.31266",
    "longitude": "-90.05490157047741",
    "latitude": "30.006145069403953",
    "geocoded_column": {
      "latitude": "30.006145069403953",
      "longitude": "-90.05490157047741"
    }
  },
  {
    "service_request": "2024-1071981",
    "request_type": "Roads/Drainage",
    "request_reason": "Man hole cover issue",
    "date_created": "2024-03-03T13:38:34.000",
    "date_modified": "2024-03-03T13:38:34.000",
    "request_status": "Pending",
    "responsible_agency": "Department of Public Works",
    "final_address": "838 Webster St",
    "address_councildis": "A",
    "status": "Pending",
    "rowid": "1071981",
    "final_x": "3664191.09952",
    "final_y": "519726.760248",
    "longitude": "-90.12311915355086",
    "latitude": "29.923582225204846",
    "geocoded_column": {
      "latitude": "29.923582225204846",
      "longitude": "-90.12311915355086"
    }
  },
  {
    "service_request": "2024-1071979",
    "request_type": "Roads/Drainage",
    "request_reason": "Street Subsidence (Sinking)",
    "date_created": "2024-03-03T13:16:12.000",
    "date_modified": "2024-03-03T13:16:12.000",
    "request_status": "Pending",
    "responsible_agency": "Department of Public Works",
    "final_address": "1239 Eleonore St",
    "address_councildis": "A",
    "status": "Pending",
    "rowid": "1071979",
    "final_x": "3665602.50362",
    "final_y": "520568.733816",
    "longitude": "-90.11863567920368",
    "latitude": "29.925856322761145",
    "geocoded_column": {
      "latitude": "29.925856322761145",
      "longitude": "-90.11863567920368"
    }
  },
  {
    "service_request": "2024-1071978",
    "request_type": "Traffic Signals/Signs/Striping/Streetlights",
    "request_reason": "Street Light Knocked Down/Leaning",
    "date_created": "2024-03-03T13:02:43.000",
    "date_modified": "2024-03-03T13:02:43.000",
    "request_status": "Pending",
    "responsible_agency": "Department of Public Works",
    "final_address": "700 BLK Canal St",
    "address_councildis": "C",
    "status": "Pending",
    "contractor": "Legacy Professional Services",
    "rowid": "1071978",
    "final_x": "3681072.64504",
    "final_y": "530813.61631",
    "longitude": "-90.06944435685037",
    "latitude": "29.953566335261414",
    "geocoded_column": {
      "latitude": "29.953566335261414",
      "longitude": "-90.06944435685037"
    }
  },
  {
    "service_request": "2024-1071977",
    "request_type": "Trash/Recycling",
    "request_reason": "Replace Trash Cart",
    "date_created": "2024-03-03T13:00:59.000",
    "date_modified": "2024-03-03T13:01:00.000",
    "request_status": "Pending",
    "responsible_agency": "Department of Sanitation",
    "final_address": "2510 Bienville St",
    "address_councildis": "B",
    "status": "Assigned to Contractor",
    "contractor": "Richards Disposal",
    "rowid": "1071977",
    "final_x": "3676416.98325",
    "final_y": "535048.24903",
    "longitude": "-90.08399919934831",
    "latitude": "29.965350533072254",
    "geocoded_column": {
      "latitude": "29.965350533072254",
      "longitude": "-90.08399919934831"
    }
  },
  {
    "service_request": "2024-1071976",
    "request_type": "Abandoned Vehicles",
    "request_reason": "Abandoned/Junk Vehicles",
    "date_created": "2024-03-03T13:00:51.000",
    "date_modified": "2024-03-03T13:00:51.000",
    "request_status": "Pending",
    "responsible_agency": "Department of Public Works",
    "final_address": "5116 N Tonti St",
    "address_councildis": "E",
    "status": "Pending",
    "rowid": "1071976",
    "final_x": "3697639.85674",
    "final_y": "538614.113225",
    "longitude": "-90.01684939025206",
    "latitude": "29.974502051869727",
    "geocoded_column": {
      "latitude": "29.974502051869727",
      "longitude": "-90.01684939025206"
    }
  },
  {
    "service_request": "2024-1071975",
    "request_type": "Abandoned Vehicles",
    "request_reason": "Abandoned/Junk Vehicles",
    "date_created": "2024-03-03T12:57:56.000",
    "date_modified": "2024-03-03T12:57:56.000",
    "request_status": "Pending",
    "responsible_agency": "Department of Public Works",
    "final_address": "5116 N Tonti St",
    "address_councildis": "E",
    "status": "Pending",
    "rowid": "1071975",
    "final_x": "3697639.85674",
    "final_y": "538614.113225",
    "longitude": "-90.01684939025206",
    "latitude": "29.974502051869727",
    "geocoded_column": {
      "latitude": "29.974502051869727",
      "longitude": "-90.01684939025206"
    }
  },
  {
    "service_request": "2024-1071974",
    "request_type": "Roads/Drainage",
    "request_reason": "Street Flooding / Drainage",
    "date_created": "2024-03-03T12:33:03.000",
    "date_modified": "2024-03-03T12:33:03.000",
    "request_status": "Pending",
    "responsible_agency": "Department of Public Works",
    "final_address": "5034 Toulon St",
    "address_councildis": "E",
    "status": "Pending",
    "rowid": "1071974",
    "final_x": "3723597.52383",
    "final_y": "561502.657759",
    "longitude": "-89.9339871745391",
    "latitude": "30.036590906074665",
    "geocoded_column": {
      "latitude": "30.036590906074665",
      "longitude": "-89.9339871745391"
    }
  },
  {
    "service_request": "2024-1071973",
    "request_type": "Roads/Drainage",
    "request_reason": "Damaged Sidewalk",
    "date_created": "2024-03-03T12:28:28.000",
    "date_modified": "2024-03-03T12:28:28.000",
    "request_status": "Pending",
    "responsible_agency": "Department of Public Works",
    "final_address": "618 Delaronde St",
    "address_councildis": "C",
    "status": "Pending",
    "rowid": "1071973",
    "final_x": "3687385.82415",
    "final_y": "531234.505154",
    "longitude": "-90.0494951553158",
    "latitude": "29.954530649971137",
    "geocoded_column": {
      "latitude": "29.954530649971137",
      "longitude": "-90.0494951553158"
    }
  },
  {
    "service_request": "2024-1071972",
    "request_type": "Trash/Recycling",
    "request_reason": "Request a Large Item Pick Up",
    "date_created": "2024-03-03T12:13:40.000",
    "date_modified": "2024-03-03T12:13:41.000",
    "request_status": "Pending",
    "responsible_agency": "Department of Sanitation",
    "final_address": "825 Piety St",
    "address_councildis": "C",
    "status": "Assigned to Contractor",
    "contractor": "IV Waste",
    "rowid": "1071972",
    "final_x": "3689637.8031",
    "final_y": "534841.482374",
    "longitude": "-90.0422559779447",
    "latitude": "29.9643790126155",
    "geocoded_column": {
      "latitude": "29.9643790126155",
      "longitude": "-90.0422559779447"
    }
  },
  {
    "service_request": "2024-1071971",
    "request_type": "Trash/Recycling",
    "request_reason": "Replace Trash Cart",
    "date_created": "2024-03-03T12:11:49.000",
    "date_modified": "2024-03-03T12:11:50.000",
    "request_status": "Pending",
    "responsible_agency": "Department of Sanitation",
    "final_address": "394 Audubon St",
    "address_councildis": "A",
    "status": "Assigned to Contractor",
    "contractor": "Richards Disposal",
    "rowid": "1071971",
    "final_x": "3662049.67859",
    "final_y": "522867.624763",
    "longitude": "-90.12977472250857",
    "latitude": "29.93228063613458",
    "geocoded_column": {
      "latitude": "29.93228063613458",
      "longitude": "-90.12977472250857"
    }
  },
  {
    "service_request": "2024-1071970",
    "request_type": "Trash/Recycling",
    "request_reason": "Repair Recycling Cart",
    "date_created": "2024-03-03T11:38:35.000",
    "date_modified": "2024-03-03T11:38:35.000",
    "request_status": "Pending",
    "responsible_agency": "Department of Sanitation",
    "final_address": "2311 St Thomas St",
    "address_councildis": "B",
    "status": "Pending",
    "rowid": "1071970",
    "final_x": "3679543.95055",
    "final_y": "520347.783544",
    "longitude": "-90.07463434587667",
    "latitude": "29.924835038944256",
    "geocoded_column": {
      "latitude": "29.924835038944256",
      "longitude": "-90.07463434587667"
    }
  },
  {
    "service_request": "2024-1071969",
    "request_type": "Trash/Recycling",
    "request_reason": "Replace Trash Cart",
    "date_created": "2024-03-03T11:32:47.000",
    "date_modified": "2024-03-03T11:32:48.000",
    "request_status": "Pending",
    "responsible_agency": "Department of Sanitation",
    "final_address": "1119 France St",
    "address_councildis": "C",
    "status": "Assigned to Contractor",
    "contractor": "IV Waste",
    "rowid": "1071969",
    "final_x": "3692478.40854",
    "final_y": "535399.46951",
    "longitude": "-90.03326561451942",
    "latitude": "29.9658249680005",
    "geocoded_column": {
      "latitude": "29.9658249680005",
      "longitude": "-90.03326561451942"
    }
  },
  {
    "service_request": "2024-1071968",
    "request_type": "Trash/Recycling",
    "request_reason": "Request a Large Item Pick Up",
    "date_created": "2024-03-03T11:23:50.000",
    "date_modified": "2024-03-03T11:23:50.000",
    "request_status": "Pending",
    "responsible_agency": "Department of Sanitation",
    "final_address": "331 Virginia St",
    "address_councildis": "A",
    "status": "Assigned to Contractor",
    "contractor": "IV Waste",
    "rowid": "1071968",
    "final_x": "3668531.57582",
    "final_y": "541588.914444",
    "longitude": "-90.10868025639896",
    "latitude": "29.983569215642838",
    "geocoded_column": {
      "latitude": "29.983569215642838",
      "longitude": "-90.10868025639896"
    }
  },
  {
    "service_request": "2024-1071967",
    "request_type": "Trash/Recycling",
    "request_reason": "Replace Trash Cart",
    "date_created": "2024-03-03T11:21:07.000",
    "date_modified": "2024-03-03T11:21:07.000",
    "request_status": "Pending",
    "responsible_agency": "Department of Sanitation",
    "final_address": "1226 Baronne St",
    "address_councildis": "B",
    "status": "Assigned to Contractor",
    "contractor": "Richards Disposal",
    "rowid": "1071967",
    "final_x": "3678859.30773",
    "final_y": "526614.71347",
    "longitude": "-90.07657856219268",
    "latitude": "29.94208769847803",
    "geocoded_column": {
      "latitude": "29.94208769847803",
      "longitude": "-90.07657856219268"
    }
  },
  {
    "service_request": "2024-1071966",
    "request_type": "Roads/Drainage",
    "request_reason": "Road Shoulder Repair",
    "date_created": "2024-03-03T11:15:28.000",
    "date_modified": "2024-03-03T11:15:28.000",
    "request_status": "Pending",
    "responsible_agency": "Department of Public Works",
    "final_address": "3721 Delachaise St",
    "address_councildis": "B",
    "status": "Pending",
    "rowid": "1071966",
    "final_x": "3671191.43687",
    "final_y": "528507.949312",
    "longitude": "-90.1007234427196",
    "latitude": "29.94752250139052",
    "geocoded_column": {
      "latitude": "29.94752250139052",
      "longitude": "-90.1007234427196"
    }
  },
  {
    "service_request": "2024-1071965",
    "request_type": "Roads/Drainage",
    "request_reason": "Road Shoulder Repair",
    "date_created": "2024-03-03T11:14:48.000",
    "date_modified": "2024-03-03T11:14:48.000",
    "request_status": "Pending",
    "responsible_agency": "Department of Public Works",
    "final_address": "3721 Delachaise St",
    "address_councildis": "B",
    "status": "Pending",
    "rowid": "1071965",
    "final_x": "3671191.43687",
    "final_y": "528507.949312",
    "longitude": "-90.1007234427196",
    "latitude": "29.94752250139052",
    "geocoded_column": {
      "latitude": "29.94752250139052",
      "longitude": "-90.1007234427196"
    }
  },
  {
    "service_request": "2024-1071964",
    "request_type": "Roads/Drainage",
    "request_reason": "Road Shoulder Repair",
    "date_created": "2024-03-03T11:13:50.000",
    "date_modified": "2024-03-03T11:13:50.000",
    "request_status": "Pending",
    "responsible_agency": "Department of Public Works",
    "final_address": "3721 Delachaise St",
    "address_councildis": "B",
    "status": "Pending",
    "rowid": "1071964",
    "final_x": "3671191.43687",
    "final_y": "528507.949312",
    "longitude": "-90.1007234427196",
    "latitude": "29.94752250139052",
    "geocoded_column": {
      "latitude": "29.94752250139052",
      "longitude": "-90.1007234427196"
    }
  },
  {
    "service_request": "2024-1071963",
    "request_type": "Roads/Drainage",
    "request_reason": "Culvert Issue",
    "date_created": "2024-03-03T10:16:03.000",
    "date_modified": "2024-03-03T10:16:03.000",
    "request_status": "Pending",
    "responsible_agency": "Department of Public Works",
    "final_address": "601 N Solomon St",
    "address_councildis": "A",
    "status": "Pending",
    "rowid": "1071963",
    "final_x": "3671665.16615",
    "final_y": "540215.281099",
    "longitude": "-90.09882944364074",
    "latitude": "29.979699731232508",
    "geocoded_column": {
      "latitude": "29.979699731232508",
      "longitude": "-90.09882944364074"
    }
  },
  {
    "service_request": "2024-1071962",
    "request_type": "Traffic Signals/Signs/Striping/Streetlights",
    "request_reason": "Street Light Outage/Malfunction",
    "date_created": "2024-03-03T10:01:41.000",
    "date_modified": "2024-03-03T10:01:41.000",
    "request_status": "Pending",
    "responsible_agency": "Department of Public Works",
    "final_address": "1643 Bartholomew St",
    "address_councildis": "D",
    "status": "Assigned to Contractor",
    "contractor": "Legacy Professional Services",
    "rowid": "1071962",
    "final_x": "3692389.28189",
    "final_y": "537511.367176",
    "longitude": "-90.0334714147145",
    "latitude": "29.971634720325603",
    "geocoded_column": {
      "latitude": "29.971634720325603",
      "longitude": "-90.0334714147145"
    }
  },
  {
    "service_request": "2024-1071960",
    "request_type": "Abandoned Vehicles",
    "request_reason": "Vehicle Blocking Your Driveway",
    "date_created": "2024-03-03T09:22:12.000",
    "date_modified": "2024-03-03T09:22:12.000",
    "request_status": "Pending",
    "responsible_agency": "Department of Public Works",
    "final_address": "115 Decatur St",
    "address_councildis": "C",
    "status": "Pending",
    "rowid": "1071960",
    "final_x": "3681895.3037",
    "final_y": "530392.642114",
    "longitude": "-90.06686144137885",
    "latitude": "29.952383822291566",
    "geocoded_column": {
      "latitude": "29.952383822291566",
      "longitude": "-90.06686144137885"
    }
  },
  {
    "service_request": "2024-1071959",
    "request_type": "Trash/Recycling",
    "request_reason": "Replace Trash Cart",
    "date_created": "2024-03-03T09:00:05.000",
    "date_modified": "2024-03-03T09:00:05.000",
    "request_status": "Pending",
    "responsible_agency": "Department of Sanitation",
    "final_address": "4115 Pitt St",
    "address_councildis": "B",
    "status": "Assigned to Contractor",
    "contractor": "Richards Disposal",
    "rowid": "1071959",
    "final_x": "3671830.85159",
    "final_y": "520725.956217",
    "longitude": "-90.0989692484699",
    "latitude": "29.9261056137911",
    "geocoded_column": {
      "latitude": "29.9261056137911",
      "longitude": "-90.0989692484699"
    }
  },
  {
    "service_request": "2024-1071958",
    "request_type": "Trash/Recycling",
    "request_reason": "Replace Trash Cart",
    "date_created": "2024-03-03T08:46:28.000",
    "date_modified": "2024-03-03T08:46:29.000",
    "request_status": "Pending",
    "responsible_agency": "Department of Sanitation",
    "final_address": "93 Versailles Blvd",
    "address_councildis": "B",
    "status": "Assigned to Contractor",
    "contractor": "Richards Disposal",
    "rowid": "1071958",
    "final_x": "3668108.01537",
    "final_y": "530946.239234",
    "longitude": "-90.11037686422841",
    "latitude": "29.95431784696351",
    "geocoded_column": {
      "latitude": "29.95431784696351",
      "longitude": "-90.11037686422841"
    }
  },
  {
    "service_request": "2024-1071957",
    "request_type": "Trash/Recycling",
    "request_reason": "MIssed Recycling Pick-Up",
    "date_created": "2024-03-03T08:18:33.000",
    "date_modified": "2024-03-03T08:18:34.000",
    "request_status": "Pending",
    "responsible_agency": "Department of Sanitation",
    "final_address": "8614 Palm St",
    "address_councildis": "A",
    "status": "Assigned to Contractor",
    "contractor": "Richards Disposal",
    "rowid": "1071957",
    "final_x": "3666264.80833",
    "final_y": "535965.639495",
    "longitude": "-90.116028624094",
    "latitude": "29.968173511534115",
    "geocoded_column": {
      "latitude": "29.968173511534115",
      "longitude": "-90.116028624094"
    }
  },
  {
    "service_request": "2024-1071956",
    "request_type": "Property Maintenance",
    "request_reason": "Property Maintenance",
    "date_created": "2024-03-03T08:15:54.000",
    "date_modified": "2024-03-03T08:15:54.000",
    "request_status": "Pending",
    "responsible_agency": "Department of Code Enforcement",
    "final_address": "3662 Inwood Ave",
    "address_councildis": "C",
    "status": "Pending",
    "rowid": "1071956",
    "final_x": "3704225.01418",
    "final_y": "514965.544499",
    "longitude": "-89.99692312725517",
    "latitude": "29.90926717256037",
    "geocoded_column": {
      "latitude": "29.90926717256037",
      "longitude": "-89.99692312725517"
    }
  },
  {
    "service_request": "2024-1071955",
    "request_type": "Trash/Recycling",
    "request_reason": "Order Recycling Cart",
    "date_created": "2024-03-03T08:04:17.000",
    "date_modified": "2024-03-03T08:04:17.000",
    "request_status": "Pending",
    "responsible_agency": "Department of Sanitation",
    "final_address": "508 Florida Blvd",
    "address_councildis": "A",
    "status": "Pending",
    "rowid": "1071955",
    "final_x": "3667639.78017",
    "final_y": "545342.262352",
    "longitude": "-90.11137060155623",
    "latitude": "29.993915820676403",
    "geocoded_column": {
      "latitude": "29.993915820676403",
      "longitude": "-90.11137060155623"
    }
  },
  {
    "service_request": "2024-1071954",
    "request_type": "Property Maintenance",
    "request_reason": "Property Maintenance",
    "date_created": "2024-03-03T08:00:31.000",
    "date_modified": "2024-03-03T08:00:31.000",
    "request_status": "Pending",
    "responsible_agency": "Department of Code Enforcement",
    "final_address": "6001 Downman Rd Apt 13",
    "address_councildis": "D",
    "status": "Pending",
    "rowid": "1071954",
    "final_x": "3695889.83587",
    "final_y": "554971.664216",
    "longitude": "-90.02178502921718",
    "latitude": "30.01953446593157",
    "geocoded_column": {
      "latitude": "30.01953446593157",
      "longitude": "-90.02178502921718"
    }
  },
  {
    "service_request": "2024-1071953",
    "request_type": "Trash/Recycling",
    "request_reason": "Request a Large Item Pick Up",
    "date_created": "2024-03-03T07:49:46.000",
    "date_modified": "2024-03-03T07:49:47.000",
    "request_status": "Pending",
    "responsible_agency": "Department of Sanitation",
    "final_address": "2422 Palmer Ave, New Orleans, Louisiana, 70118",
    "address_councildis": "A",
    "status": "Assigned to Contractor",
    "contractor": "Richards Disposal",
    "rowid": "1071953",
    "final_x": "3666348.00039",
    "final_y": "525783.793149",
    "longitude": "-90.1161074787077",
    "latitude": "29.940174324602",
    "geocoded_column": {
      "latitude": "29.940174324602",
      "longitude": "-90.1161074787077"
    }
  },
  {
    "service_request": "2024-1071952",
    "request_type": "Trash/Recycling",
    "request_reason": "Replace Recycling Cart",
    "date_created": "2024-03-03T07:45:49.000",
    "date_modified": "2024-03-03T07:45:49.000",
    "request_status": "Pending",
    "responsible_agency": "Department of Sanitation",
    "final_address": "5025 Willow St",
    "address_councildis": "B",
    "status": "Pending",
    "rowid": "1071952",
    "final_x": "3668680.10772",
    "final_y": "525354.336189",
    "longitude": "-90.10875912108402",
    "latitude": "29.93892513016516",
    "geocoded_column": {
      "latitude": "29.93892513016516",
      "longitude": "-90.10875912108402"
    }
  },
  {
    "service_request": "2024-1071951",
    "request_type": "Traffic Signals/Signs/Striping/Streetlights",
    "request_reason": "Traffic Sign Missing/Damaged",
    "date_created": "2024-03-03T06:58:45.000",
    "date_modified": "2024-03-03T06:58:45.000",
    "request_status": "Pending",
    "responsible_agency": "Department of Public Works",
    "final_address": "3745 Willow St",
    "address_councildis": "B",
    "status": "Pending",
    "rowid": "1071951",
    "final_x": "3671618.09735",
    "final_y": "525597.027261",
    "longitude": "-90.09947527627057",
    "latitude": "29.939505788794758",
    "geocoded_column": {
      "latitude": "29.939505788794758",
      "longitude": "-90.09947527627057"
    }
  },
  {
    "service_request": "2024-1071950",
    "request_type": "Trash/Recycling",
    "request_reason": "Repair Recycling Cart",
    "date_created": "2024-03-03T06:55:50.000",
    "date_modified": "2024-03-03T06:55:50.000",
    "request_status": "Pending",
    "responsible_agency": "Department of Sanitation",
    "final_address": "5325 Burgundy St",
    "address_councildis": "E",
    "status": "Pending",
    "rowid": "1071950",
    "final_x": "3696810.88816",
    "final_y": "533274.210308",
    "longitude": "-90.0196608074561",
    "latitude": "29.959845385757728",
    "geocoded_column": {
      "latitude": "29.959845385757728",
      "longitude": "-90.0196608074561"
    }
  },
  {
    "service_request": "2024-1071949",
    "request_type": "Trash/Recycling",
    "request_reason": "Return Trash Cart",
    "date_created": "2024-03-03T06:17:13.000",
    "date_modified": "2024-03-03T06:17:14.000",
    "request_status": "Pending",
    "responsible_agency": "Department of Sanitation",
    "final_address": "4231 Camp St",
    "address_councildis": "B",
    "status": "Assigned to Contractor",
    "contractor": "Richards Disposal",
    "rowid": "1071949",
    "final_x": "3671508.04347",
    "final_y": "519241.556663",
    "longitude": "-90.1000386971181",
    "latitude": "29.92203354681542",
    "geocoded_column": {
      "latitude": "29.92203354681542",
      "longitude": "-90.1000386971181"
    }
  },
  {
    "service_request": "2024-1071947",
    "request_type": "Traffic Signals/Signs/Striping/Streetlights",
    "request_reason": "Street Light Outage/Malfunction",
    "date_created": "2024-03-03T01:09:41.000",
    "date_modified": "2024-03-03T01:09:41.000",
    "request_status": "Pending",
    "responsible_agency": "Department of Public Works",
    "final_address": "7700 Alabama St",
    "address_councildis": "D",
    "status": "Assigned to Contractor",
    "contractor": "Legacy Professional Services",
    "rowid": "1071947",
    "final_x": "3694767.87555",
    "final_y": "558742.218332",
    "longitude": "-90.02519402212589",
    "latitude": "30.029937324365008",
    "geocoded_column": {
      "latitude": "30.029937324365008",
      "longitude": "-90.02519402212589"
    }
  },
  {
    "service_request": "2024-1071946",
    "request_type": "Property Maintenance",
    "request_reason": "Property Maintenance",
    "date_created": "2024-03-03T01:06:38.000",
    "date_modified": "2024-03-03T01:06:38.000",
    "request_status": "Pending",
    "responsible_agency": "Department of Code Enforcement",
    "final_address": "4310 Elysian Fields Ave",
    "address_councildis": "D",
    "status": "Pending",
    "rowid": "1071946",
    "final_x": "3683919.40111",
    "final_y": "548550.775891",
    "longitude": "-90.05983305135202",
    "latitude": "30.00225066895723",
    "geocoded_column": {
      "latitude": "30.00225066895723",
      "longitude": "-90.05983305135202"
    }
  },
  {
    "service_request": "2024-1071944",
    "request_type": "Health Related Request",
    "request_reason": "Noise Ordinance Complaint",
    "date_created": "2024-03-03T00:26:05.000",
    "date_modified": "2024-03-03T00:26:05.000",
    "request_status": "Pending",
    "responsible_agency": "Health Department",
    "final_address": "New Orleans Pharmacy Museum",
    "status": "Pending",
    "rowid": "1071944",
    "longitude": "0.0",
    "latitude": "0.0",
    "geocoded_column": {
      "latitude": "0.0",
      "longitude": "0.0"
    }
  },
  {
    "service_request": "2024-1071943",
    "request_type": "Trash/Recycling",
    "request_reason": "Order Recycling Cart",
    "date_created": "2024-03-02T22:59:13.000",
    "date_modified": "2024-03-02T22:59:13.000",
    "request_status": "Pending",
    "responsible_agency": "Department of Sanitation",
    "final_address": "8903 Middleboro Rd",
    "address_councildis": "E",
    "status": "Pending",
    "rowid": "1071943",
    "final_x": "3706120.78135",
    "final_y": "560872.781406",
    "longitude": "-89.98924020084614",
    "latitude": "30.035434272453273",
    "geocoded_column": {
      "latitude": "30.035434272453273",
      "longitude": "-89.98924020084614"
    }
  },
  {
    "service_request": "2024-1071942",
    "request_type": "Trash/Recycling",
    "request_reason": "Order Recycling Cart",
    "date_created": "2024-03-02T22:57:14.000",
    "date_modified": "2024-03-02T22:57:14.000",
    "request_status": "Pending",
    "responsible_agency": "Department of Sanitation",
    "final_address": "8903 Middleboro Rd",
    "address_councildis": "E",
    "status": "Pending",
    "rowid": "1071942",
    "final_x": "3706120.78135",
    "final_y": "560872.781406",
    "longitude": "-89.98924020084614",
    "latitude": "30.035434272453273",
    "geocoded_column": {
      "latitude": "30.035434272453273",
      "longitude": "-89.98924020084614"
    }
  },
  {
    "service_request": "2024-1071941",
    "request_type": "Trash/Recycling",
    "request_reason": "Replace Trash Cart",
    "date_created": "2024-03-02T22:30:12.000",
    "date_modified": "2024-03-02T22:30:12.000",
    "request_status": "Pending",
    "responsible_agency": "Department of Sanitation",
    "final_address": "2408 Hyman Pl",
    "address_councildis": "C",
    "status": "Assigned to Contractor",
    "contractor": "Richards Disposal",
    "rowid": "1071941",
    "final_x": "3701135.68266",
    "final_y": "522303.285754",
    "longitude": "-90.00640534818567",
    "latitude": "29.929542159642157",
    "geocoded_column": {
      "latitude": "29.929542159642157",
      "longitude": "-90.00640534818567"
    }
  },
  {
    "service_request": "2024-1071940",
    "request_type": "Roads/Drainage",
    "request_reason": "Culvert Issue",
    "date_created": "2024-03-02T22:15:15.000",
    "date_modified": "2024-03-02T22:15:15.000",
    "request_status": "Pending",
    "responsible_agency": "Department of Public Works",
    "final_address": "4800 BLK Saint Claude Ave",
    "address_councildis": "E",
    "status": "Pending",
    "rowid": "1071940",
    "final_x": "3695199.28706",
    "final_y": "534452.9089",
    "longitude": "-90.02470735164279",
    "latitude": "29.963137096444182",
    "geocoded_column": {
      "latitude": "29.963137096444182",
      "longitude": "-90.02470735164279"
    }
  },
  {
    "service_request": "2024-1071939",
    "request_type": "Trash/Recycling",
    "request_reason": "Replace Trash Cart",
    "date_created": "2024-03-02T21:46:52.000",
    "date_modified": "2024-03-02T21:46:53.000",
    "request_status": "Pending",
    "responsible_agency": "Department of Sanitation",
    "final_address": "8837 Palm St",
    "address_councildis": "A",
    "status": "Assigned to Contractor",
    "contractor": "Richards Disposal",
    "rowid": "1071939",
    "final_x": "3665714.80807",
    "final_y": "536576.099399",
    "longitude": "-90.11774510238816",
    "latitude": "29.969868128857748",
    "geocoded_column": {
      "latitude": "29.969868128857748",
      "longitude": "-90.11774510238816"
    }
  },
  {
    "service_request": "2024-1071938",
    "request_type": "Roads/Drainage",
    "request_reason": "Pothole",
    "date_created": "2024-03-02T20:57:33.000",
    "date_modified": "2024-03-02T20:57:33.000",
    "request_status": "Pending",
    "responsible_agency": "Department of Public Works",
    "final_address": "7518 Plum St",
    "address_councildis": "A",
    "status": "Pending",
    "rowid": "1071938",
    "final_x": "3663745.60698",
    "final_y": "527183.541311",
    "longitude": "-90.12427704584896",
    "latitude": "29.944098943523088",
    "geocoded_column": {
      "latitude": "29.944098943523088",
      "longitude": "-90.12427704584896"
    }
  },
  {
    "service_request": "2024-1071937",
    "request_type": "Traffic Signals/Signs/Striping/Streetlights",
    "request_reason": "Striping/Road Surface Markings",
    "date_created": "2024-03-02T20:46:23.000",
    "date_modified": "2024-03-02T20:46:23.000",
    "request_status": "Pending",
    "responsible_agency": "Department of Public Works",
    "final_address": "108 N Derbigny St",
    "address_councildis": "B",
    "status": "Pending",
    "rowid": "1071937",
    "final_x": "3678383.9451",
    "final_y": "533134.192132",
    "longitude": "-90.07785385578508",
    "latitude": "29.96002840960084",
    "geocoded_column": {
      "latitude": "29.96002840960084",
      "longitude": "-90.07785385578508"
    }
  },
  {
    "service_request": "2024-1071936",
    "request_type": "Property Maintenance",
    "request_reason": "Property Maintenance",
    "date_created": "2024-03-02T20:41:15.000",
    "date_modified": "2024-03-02T20:41:15.000",
    "request_status": "Pending",
    "responsible_agency": "Department of Code Enforcement",
    "final_address": "1247 N Claiborne Ave",
    "address_councildis": "D",
    "status": "Pending",
    "rowid": "1071936",
    "final_x": "3681082.24424",
    "final_y": "536534.628231",
    "longitude": "-90.06921475428693",
    "latitude": "29.96929687586444",
    "geocoded_column": {
      "latitude": "29.96929687586444",
      "longitude": "-90.06921475428693"
    }
  },
  {
    "service_request": "2024-1071935",
    "request_type": "Trash/Recycling",
    "request_reason": "Order Recycling Cart",
    "date_created": "2024-03-02T20:37:42.000",
    "date_modified": "2024-03-02T20:37:42.000",
    "request_status": "Pending",
    "responsible_agency": "Department of Sanitation",
    "final_address": "1310 Marigny St",
    "address_councildis": "C",
    "status": "Pending",
    "rowid": "1071935",
    "final_x": "3685323.89551",
    "final_y": "537175.545992",
    "longitude": "-90.05579675245576",
    "latitude": "29.970929825030886",
    "geocoded_column": {
      "latitude": "29.970929825030886",
      "longitude": "-90.05579675245576"
    }
  },
  {
    "service_request": "2024-1071934",
    "request_type": "Trash/Recycling",
    "request_reason": "Replace Trash Cart",
    "date_created": "2024-03-02T20:36:24.000",
    "date_modified": "2024-03-02T20:36:25.000",
    "request_status": "Pending",
    "responsible_agency": "Department of Sanitation",
    "final_address": "1310 Marigny St",
    "address_councildis": "C",
    "status": "Assigned to Contractor",
    "contractor": "IV Waste",
    "rowid": "1071934",
    "final_x": "3685323.89551",
    "final_y": "537175.545992",
    "longitude": "-90.05579675245576",
    "latitude": "29.970929825030886",
    "geocoded_column": {
      "latitude": "29.970929825030886",
      "longitude": "-90.05579675245576"
    }
  },
  {
    "service_request": "2024-1071933",
    "request_type": "Health Related Request",
    "request_reason": "Noise Ordinance Complaint",
    "date_created": "2024-03-02T20:36:00.000",
    "date_modified": "2024-03-02T20:36:00.000",
    "request_status": "Pending",
    "responsible_agency": "Health Department",
    "final_address": "239 Decatur St",
    "address_councildis": "C",
    "status": "Pending",
    "rowid": "1071933",
    "final_x": "3682195.63317",
    "final_y": "530830.069826",
    "longitude": "-90.06589786183099",
    "latitude": "29.95357746948798",
    "geocoded_column": {
      "latitude": "29.95357746948798",
      "longitude": "-90.06589786183099"
    }
  },
  {
    "service_request": "2024-1071932",
    "request_type": "Trash/Recycling",
    "request_reason": "Replace Recycling Cart",
    "date_created": "2024-03-02T20:19:39.000",
    "date_modified": "2024-03-02T20:19:39.000",
    "request_status": "Pending",
    "responsible_agency": "Department of Sanitation",
    "final_address": "606 Webster St",
    "address_councildis": "A",
    "status": "Pending",
    "rowid": "1071932",
    "final_x": "3663878.60499",
    "final_y": "518880.054903",
    "longitude": "-90.12413379307146",
    "latitude": "29.921263121696917",
    "geocoded_column": {
      "latitude": "29.921263121696917",
      "longitude": "-90.12413379307146"
    }
  },
  {
    "service_request": "2024-1071931",
    "request_type": "Traffic Signals/Signs/Striping/Streetlights",
    "request_reason": "Street Light Outage/Malfunction",
    "date_created": "2024-03-02T20:08:45.000",
    "date_modified": "2024-03-02T20:08:46.000",
    "request_status": "Pending",
    "responsible_agency": "Department of Public Works",
    "final_address": "MARAIS ST & ST BERNARD AVE",
    "address_councildis": "C",
    "status": "Assigned to Contractor",
    "contractor": "Legacy Professional Services",
    "rowid": "1071931",
    "final_x": "3682894.3",
    "final_y": "536500.98",
    "longitude": "-90.06349332735539",
    "latitude": "29.969149261961793",
    "geocoded_column": {
      "latitude": "29.969149261961793",
      "longitude": "-90.06349332735539"
    }
  },
  {
    "service_request": "2024-1071930",
    "request_type": "Trash/Recycling",
    "request_reason": "Return Recycling Cart",
    "date_created": "2024-03-02T19:44:30.000",
    "date_modified": "2024-03-02T19:44:30.000",
    "request_status": "Pending",
    "responsible_agency": "Department of Sanitation",
    "final_address": "2108 Gallier St",
    "address_councildis": "D",
    "status": "Pending",
    "rowid": "1071930",
    "final_x": "3691366.95811",
    "final_y": "539500.754698",
    "longitude": "-90.03662895530539",
    "latitude": "29.97713667938535",
    "geocoded_column": {
      "latitude": "29.97713667938535",
      "longitude": "-90.03662895530539"
    }
  },
  {
    "service_request": "2024-1071929",
    "request_type": "Traffic Signals/Signs/Striping/Streetlights",
    "request_reason": "Street Light Outage/Malfunction",
    "date_created": "2024-03-02T19:43:15.000",
    "date_modified": "2024-03-02T19:43:16.000",
    "request_status": "Pending",
    "responsible_agency": "Department of Public Works",
    "final_address": "1116 Arabella St",
    "address_councildis": "A",
    "status": "Assigned to Contractor",
    "contractor": "Legacy Professional Services",
    "rowid": "1071929",
    "final_x": "3666026.53216",
    "final_y": "520069.610296",
    "longitude": "-90.11731386292246",
    "latitude": "29.924471523502447",
    "geocoded_column": {
      "latitude": "29.924471523502447",
      "longitude": "-90.11731386292246"
    }
  },
  {
    "service_request": "2024-1071928",
    "request_type": "Health Related Request",
    "request_reason": "Noise Ordinance Complaint",
    "date_created": "2024-03-02T19:42:58.000",
    "date_modified": "2024-03-02T19:42:58.000",
    "request_status": "Pending",
    "responsible_agency": "Health Department",
    "final_address": "515 Warrington Dr",
    "address_councildis": "D",
    "status": "Pending",
    "rowid": "1071928",
    "final_x": "3681276.7821",
    "final_y": "548663.409747",
    "longitude": "-90.0681774678627",
    "latitude": "30.00264086509633",
    "geocoded_column": {
      "latitude": "30.00264086509633",
      "longitude": "-90.0681774678627"
    }
  },
  {
    "service_request": "2024-1071927",
    "request_type": "Abandoned Vehicles",
    "request_reason": "Vehicle Blocking Your Driveway",
    "date_created": "2024-03-02T19:39:32.000",
    "date_modified": "2024-03-02T19:39:32.000",
    "request_status": "Pending",
    "responsible_agency": "Department of Public Works",
    "final_address": "2127 Josephine St, New Orleans, Louisiana, 70113",
    "address_councildis": "B",
    "status": "Pending",
    "rowid": "1071927",
    "final_x": "3676633.21077",
    "final_y": "525662.867261",
    "longitude": "-90.08363961156898",
    "latitude": "29.939537382596896",
    "geocoded_column": {
      "latitude": "29.939537382596896",
      "longitude": "-90.08363961156898"
    }
  },
  {
    "service_request": "2024-1071926",
    "request_type": "Trash/Recycling",
    "request_reason": "Dead Animal Pick Up",
    "date_created": "2024-03-02T19:07:40.000",
    "date_modified": "2024-03-02T19:07:41.000",
    "request_status": "Pending",
    "responsible_agency": "Department of Sanitation",
    "final_address": "11700 Hayne Blvd New Orleans, LA",
    "address_councildis": "E",
    "status": "Assigned to Contractor",
    "contractor": "Waste Pro",
    "rowid": "1071926",
    "final_x": "3711579.32632",
    "final_y": "568342.711845",
    "longitude": "-89.97170992369162",
    "latitude": "30.055796382072764",
    "geocoded_column": {
      "latitude": "30.055796382072764",
      "longitude": "-89.97170992369162"
    }
  },
  {
    "service_request": "2024-1071925",
    "request_type": "Mosquito, Termite & Rodent Control",
    "request_reason": "Rodent Complaint (Rats)",
    "date_created": "2024-03-02T17:40:21.000",
    "date_modified": "2024-03-02T17:40:21.000",
    "request_status": "Pending",
    "responsible_agency": "Mosquito, Termite & Rodent Control Board",
    "final_address": "430 Dauphine St",
    "address_councildis": "C",
    "status": "Pending",
    "rowid": "1071925",
    "final_x": "3681482.78082",
    "final_y": "532204.560835",
    "longitude": "-90.0681008252178",
    "latitude": "29.957378515539933",
    "geocoded_column": {
      "latitude": "29.957378515539933",
      "longitude": "-90.0681008252178"
    }
  },
  {
    "service_request": "2024-1071924",
    "request_type": "Trash/Recycling",
    "request_reason": "Repair Recycling Cart",
    "date_created": "2024-03-02T17:39:46.000",
    "date_modified": "2024-03-02T17:39:46.000",
    "request_status": "Pending",
    "responsible_agency": "Department of Sanitation",
    "final_address": "2117 Broadway St",
    "address_councildis": "A",
    "status": "Pending",
    "rowid": "1071924",
    "final_x": "3666052.55514",
    "final_y": "529214.847552",
    "longitude": "-90.11692525377937",
    "latitude": "29.949617244626136",
    "geocoded_column": {
      "latitude": "29.949617244626136",
      "longitude": "-90.11692525377937"
    }
  },
  {
    "service_request": "2024-1071923",
    "request_type": "Traffic Signals/Signs/Striping/Streetlights",
    "request_reason": "Street Light Knocked Down/Leaning",
    "date_created": "2024-03-02T16:58:28.000",
    "date_modified": "2024-03-02T16:58:29.000",
    "request_status": "Pending",
    "responsible_agency": "Department of Public Works",
    "final_address": "3365 Belfort St",
    "address_councildis": "A",
    "status": "Pending",
    "contractor": "Legacy Professional Services",
    "rowid": "1071923",
    "final_x": "3677023.03394",
    "final_y": "542610.182733",
    "longitude": "-90.08182449489911",
    "latitude": "29.986125071382386",
    "geocoded_column": {
      "latitude": "29.986125071382386",
      "longitude": "-90.08182449489911"
    }
  },
  {
    "service_request": "2024-1071922",
    "request_type": "Traffic Signals/Signs/Striping/Streetlights",
    "request_reason": "Crosswalks and Signage",
    "date_created": "2024-03-02T16:30:26.000",
    "date_modified": "2024-03-02T16:30:26.000",
    "request_status": "Pending",
    "responsible_agency": "Department of Public Works",
    "final_address": "2000 BLK S Carrollton Ave",
    "address_councildis": "A",
    "status": "Pending",
    "rowid": "1071922",
    "final_x": "3663995.82912",
    "final_y": "530558.437687",
    "longitude": "-90.12337450348026",
    "latitude": "29.95337155896983",
    "geocoded_column": {
      "latitude": "29.95337155896983",
      "longitude": "-90.12337450348026"
    }
  },
  {
    "service_request": "2024-1071921",
    "request_type": "Trash/Recycling",
    "request_reason": "Replace Trash Cart",
    "date_created": "2024-03-02T16:17:41.000",
    "date_modified": "2024-03-02T16:17:42.000",
    "request_status": "Pending",
    "responsible_agency": "Department of Sanitation",
    "final_address": "2516 OReilly St",
    "address_councildis": "D",
    "status": "Assigned to Contractor",
    "contractor": "IV Waste",
    "rowid": "1071921",
    "final_x": "3680304.31848",
    "final_y": "541014.773067",
    "longitude": "-90.07151569555552",
    "latitude": "29.981639299767174",
    "geocoded_column": {
      "latitude": "29.981639299767174",
      "longitude": "-90.07151569555552"
    }
  },
  {
    "service_request": "2024-1071920",
    "request_type": "Healthy Homes",
    "request_reason": "Healthy Homes",
    "date_created": "2024-03-02T15:40:32.000",
    "date_modified": "2024-03-02T15:40:32.000",
    "request_status": "Pending",
    "responsible_agency": "Department of Code Enforcement",
    "final_address": "2019 Dumaine St",
    "address_councildis": "D",
    "status": "Pending",
    "rowid": "1071920",
    "final_x": "3679248.85019",
    "final_y": "535969.814343",
    "longitude": "-90.07502434120687",
    "latitude": "29.96779931941338",
    "geocoded_column": {
      "latitude": "29.96779931941338",
      "longitude": "-90.07502434120687"
    }
  },
  {
    "service_request": "2024-1071919",
    "request_type": "Property Maintenance",
    "request_reason": "Property Maintenance",
    "date_created": "2024-03-02T15:24:34.000",
    "date_modified": "2024-03-02T15:24:34.000",
    "request_status": "Pending",
    "responsible_agency": "Department of Code Enforcement",
    "final_address": "2019 Dumaine St",
    "address_councildis": "D",
    "status": "Pending",
    "rowid": "1071919",
    "final_x": "3679248.85019",
    "final_y": "535969.814343",
    "longitude": "-90.07502434120687",
    "latitude": "29.96779931941338",
    "geocoded_column": {
      "latitude": "29.96779931941338",
      "longitude": "-90.07502434120687"
    }
  },
  {
    "service_request": "2024-1071918",
    "request_type": "Trash/Recycling",
    "request_reason": "Order Recycling Cart",
    "date_created": "2024-03-02T15:20:58.000",
    "date_modified": "2024-03-02T15:20:58.000",
    "request_status": "Pending",
    "responsible_agency": "Department of Sanitation",
    "final_address": "6219 Dauphine St",
    "address_councildis": "E",
    "status": "Pending",
    "rowid": "1071918",
    "final_x": "3699585.35645",
    "final_y": "532038.231683",
    "longitude": "-90.0109447520946",
    "latitude": "29.956359129998607",
    "geocoded_column": {
      "latitude": "29.956359129998607",
      "longitude": "-90.0109447520946"
    }
  },
  {
    "service_request": "2024-1071917",
    "request_type": "Health Related Request",
    "request_reason": "Noise Ordinance Complaint",
    "date_created": "2024-03-02T15:08:58.000",
    "date_modified": "2024-03-02T15:08:58.000",
    "request_status": "Pending",
    "responsible_agency": "Health Department",
    "final_address": "611 Royal St",
    "address_councildis": "C",
    "status": "Pending",
    "rowid": "1071917",
    "final_x": "3682366.29813",
    "final_y": "532255.827267",
    "longitude": "-90.06530915428897",
    "latitude": "29.957492626149314",
    "geocoded_column": {
      "latitude": "29.957492626149314",
      "longitude": "-90.06530915428897"
    }
  },
  {
    "service_request": "2024-1071915",
    "request_type": "Parks & Parkways",
    "request_reason": "Request Tree Service (Right of Way/Public Property)",
    "date_created": "2024-03-02T14:38:45.000",
    "date_modified": "2024-03-02T14:38:45.000",
    "request_status": "Pending",
    "responsible_agency": "Department of Parks & Parkway",
    "final_address": "2312 Burdette St",
    "address_councildis": "A",
    "status": "Pending",
    "rowid": "1071915",
    "final_x": "3665470.23725",
    "final_y": "530611.81485",
    "longitude": "-90.11871714702852",
    "latitude": "29.953475436539943",
    "geocoded_column": {
      "latitude": "29.953475436539943",
      "longitude": "-90.11871714702852"
    }
  },
  {
    "service_request": "2024-1071914",
    "request_type": "Roads/Drainage",
    "request_reason": "Catch Basin - Clogged",
    "date_created": "2024-03-02T14:32:03.000",
    "date_modified": "2024-03-02T14:32:03.000",
    "request_status": "Pending",
    "responsible_agency": "Department of Public Works",
    "final_address": "8018 Panola St",
    "address_councildis": "A",
    "status": "Pending",
    "rowid": "1071914",
    "final_x": "3664276.65453",
    "final_y": "530491.00845",
    "longitude": "-90.12249002281837",
    "latitude": "29.953177993579686",
    "geocoded_column": {
      "latitude": "29.953177993579686",
      "longitude": "-90.12249002281837"
    }
  },
  {
    "service_request": "2024-1071913",
    "request_type": "Abandoned Vehicles",
    "request_reason": "Abandoned/Junk Vehicles",
    "date_created": "2024-03-02T14:21:49.000",
    "date_modified": "2024-03-02T14:21:49.000",
    "request_status": "Pending",
    "responsible_agency": "Department of Public Works",
    "final_address": "1224 Constantinople St",
    "address_councildis": "B",
    "status": "Pending",
    "rowid": "1071913",
    "final_x": "3672326.33211",
    "final_y": "520156.27724",
    "longitude": "-90.09742455349182",
    "latitude": "29.924524493122814",
    "geocoded_column": {
      "latitude": "29.924524493122814",
      "longitude": "-90.09742455349182"
    }
  },
  {
    "service_request": "2024-1071912",
    "request_type": "Trash/Recycling",
    "request_reason": "Missed Trash Pick-Up",
    "date_created": "2024-03-02T14:14:14.000",
    "date_modified": "2024-03-02T14:14:14.000",
    "request_status": "Pending",
    "responsible_agency": "Department of Sanitation",
    "final_address": "8615 Stroelitz St",
    "address_councildis": "A",
    "status": "Assigned to Contractor",
    "contractor": "Richards Disposal",
    "rowid": "1071912",
    "final_x": "3666567.56404",
    "final_y": "536286.064903",
    "longitude": "-90.11506174668799",
    "latitude": "29.969045727621026",
    "geocoded_column": {
      "latitude": "29.969045727621026",
      "longitude": "-90.11506174668799"
    }
  },
  {
    "service_request": "2024-1071910",
    "request_type": "Trash/Recycling",
    "request_reason": "Order Trash Cart",
    "date_created": "2024-03-02T14:11:32.000",
    "date_modified": "2024-03-02T14:11:32.000",
    "request_status": "Pending",
    "responsible_agency": "Department of Sanitation",
    "final_address": "8615 Stroelitz St",
    "address_councildis": "A",
    "status": "Assigned to Contractor",
    "contractor": "Richards Disposal",
    "rowid": "1071910",
    "final_x": "3666567.56404",
    "final_y": "536286.064903",
    "longitude": "-90.11506174668799",
    "latitude": "29.969045727621026",
    "geocoded_column": {
      "latitude": "29.969045727621026",
      "longitude": "-90.11506174668799"
    }
  },
  {
    "service_request": "2024-1071909",
    "request_type": "Roads/Drainage",
    "request_reason": "Pothole",
    "date_created": "2024-03-02T14:10:24.000",
    "date_modified": "2024-03-02T14:10:24.000",
    "request_status": "Pending",
    "responsible_agency": "Department of Public Works",
    "final_address": "6216 Camp St",
    "address_councildis": "A",
    "status": "Pending",
    "rowid": "1071909",
    "final_x": "3663748.11187",
    "final_y": "519930.497272",
    "longitude": "-90.12451072353035",
    "latitude": "29.92415529590064",
    "geocoded_column": {
      "latitude": "29.92415529590064",
      "longitude": "-90.12451072353035"
    }
  },
  {
    "service_request": "2024-1071908",
    "request_type": "Trash/Recycling",
    "request_reason": "Replace Recycling Cart",
    "date_created": "2024-03-02T14:06:51.000",
    "date_modified": "2024-03-02T14:06:51.000",
    "request_status": "Pending",
    "responsible_agency": "Department of Sanitation",
    "final_address": "1133 Fourth St",
    "address_councildis": "B",
    "status": "Pending",
    "rowid": "1071908",
    "final_x": "3677192.55387",
    "final_y": "521269.726009",
    "longitude": "-90.08202515245979",
    "latitude": "29.927440895984773",
    "geocoded_column": {
      "latitude": "29.927440895984773",
      "longitude": "-90.08202515245979"
    }
  },
  {
    "service_request": "2024-1071907",
    "request_type": "Trash/Recycling",
    "request_reason": "Return Trash Cart",
    "date_created": "2024-03-02T14:06:50.000",
    "date_modified": "2024-03-02T14:06:51.000",
    "request_status": "Pending",
    "responsible_agency": "Department of Sanitation",
    "final_address": "8615 Stroelitz St",
    "address_councildis": "A",
    "status": "Assigned to Contractor",
    "contractor": "Richards Disposal",
    "rowid": "1071907",
    "final_x": "3666567.56404",
    "final_y": "536286.064903",
    "longitude": "-90.11506174668799",
    "latitude": "29.969045727621026",
    "geocoded_column": {
      "latitude": "29.969045727621026",
      "longitude": "-90.11506174668799"
    }
  },
  {
    "service_request": "2024-1071906",
    "request_type": "Roads/Drainage",
    "request_reason": "Pothole",
    "date_created": "2024-03-02T14:02:23.000",
    "date_modified": "2024-03-02T14:02:23.000",
    "request_status": "Pending",
    "responsible_agency": "Department of Public Works",
    "final_address": "1469 Calhoun St",
    "address_councildis": "A",
    "status": "Pending",
    "rowid": "1071906",
    "final_x": "3664517.47636",
    "final_y": "522124.241786",
    "longitude": "-90.1220088932127",
    "latitude": "29.930165062765358",
    "geocoded_column": {
      "latitude": "29.930165062765358",
      "longitude": "-90.1220088932127"
    }
  },
  {
    "service_request": "2024-1071905",
    "request_type": "Abandoned Vehicles",
    "request_reason": "Vehicle Blocking Your Driveway",
    "date_created": "2024-03-02T13:57:43.000",
    "date_modified": "2024-03-02T13:57:43.000",
    "request_status": "Pending",
    "responsible_agency": "Department of Public Works",
    "final_address": "4517 Jeanne Marie Pl",
    "address_councildis": "D",
    "status": "Pending",
    "rowid": "1071905",
    "final_x": "3678561.20885",
    "final_y": "549217.860371",
    "longitude": "-90.0767371159023",
    "latitude": "30.004247571179587",
    "geocoded_column": {
      "latitude": "30.004247571179587",
      "longitude": "-90.0767371159023"
    }
  },
  {
    "service_request": "2024-1071904",
    "request_type": "Trash/Recycling",
    "request_reason": "Illegal Dumping",
    "date_created": "2024-03-02T13:49:00.000",
    "date_modified": "2024-03-02T13:49:00.000",
    "request_status": "Pending",
    "responsible_agency": "Department of Sanitation",
    "final_address": "10301 N Interstate 10 Service Rd",
    "address_councildis": "E",
    "status": "Pending",
    "rowid": "1071904",
    "final_x": "3711275.36338",
    "final_y": "562409.159263",
    "longitude": "-89.97289335832765",
    "latitude": "30.039491437081555",
    "geocoded_column": {
      "latitude": "30.039491437081555",
      "longitude": "-89.97289335832765"
    }
  },
  {
    "service_request": "2024-1071903",
    "request_type": "Trash/Recycling",
    "request_reason": "Missed Trash Pick-Up",
    "date_created": "2024-03-02T13:46:11.000",
    "date_modified": "2024-03-02T13:46:12.000",
    "request_status": "Pending",
    "responsible_agency": "Department of Sanitation",
    "final_address": "2313 St Charles Ave Apt 1A",
    "address_councildis": "B",
    "status": "Assigned to Contractor",
    "contractor": "Richards Disposal",
    "rowid": "1071903",
    "final_x": "3676994.49154",
    "final_y": "523343.778043",
    "longitude": "-90.08257891919396",
    "latitude": "29.933149808909345",
    "geocoded_column": {
      "latitude": "29.933149808909345",
      "longitude": "-90.08257891919396"
    }
  },
  {
    "service_request": "2024-1071902",
    "request_type": "Abandoned Vehicles",
    "request_reason": "Abandoned/Junk Vehicles",
    "date_created": "2024-03-02T13:44:48.000",
    "date_modified": "2024-03-02T13:44:48.000",
    "request_status": "Pending",
    "responsible_agency": "Department of Public Works",
    "final_address": "10301 N Interstate 10 Service Rd",
    "address_councildis": "E",
    "status": "Pending",
    "rowid": "1071902",
    "final_x": "3711275.36338",
    "final_y": "562409.159263",
    "longitude": "-89.97289335832765",
    "latitude": "30.039491437081555",
    "geocoded_column": {
      "latitude": "30.039491437081555",
      "longitude": "-89.97289335832765"
    }
  },
  {
    "service_request": "2024-1071901",
    "request_type": "Trash/Recycling",
    "request_reason": "MIssed Recycling Pick-Up",
    "date_created": "2024-03-02T13:35:34.000",
    "date_modified": "2024-03-02T13:35:35.000",
    "request_status": "Pending",
    "responsible_agency": "Department of Sanitation",
    "final_address": "4822 Cleveland Ave",
    "address_councildis": "A",
    "status": "Assigned to Contractor",
    "contractor": "Richards Disposal",
    "rowid": "1071901",
    "final_x": "3668365.69857",
    "final_y": "539808.562826",
    "longitude": "-90.10926425820907",
    "latitude": "29.97867872482772",
    "geocoded_column": {
      "latitude": "29.97867872482772",
      "longitude": "-90.10926425820907"
    }
  },
  {
    "service_request": "2024-1071900",
    "request_type": "Trash/Recycling",
    "request_reason": "Missed Trash Pick-Up",
    "date_created": "2024-03-02T13:31:26.000",
    "date_modified": "2024-03-02T13:31:26.000",
    "request_status": "Pending",
    "responsible_agency": "Department of Sanitation",
    "final_address": "4822 Cleveland Ave",
    "address_councildis": "A",
    "status": "Assigned to Contractor",
    "contractor": "Richards Disposal",
    "rowid": "1071900",
    "final_x": "3668365.69857",
    "final_y": "539808.562826",
    "longitude": "-90.10926425820907",
    "latitude": "29.97867872482772",
    "geocoded_column": {
      "latitude": "29.97867872482772",
      "longitude": "-90.10926425820907"
    }
  },
  {
    "service_request": "2024-1071899",
    "request_type": "Trash/Recycling",
    "request_reason": "Missed Trash Pick-Up",
    "date_created": "2024-03-02T12:55:41.000",
    "date_modified": "2024-03-03T09:59:51.000",
    "case_close_date": "2024-03-02T18:00:00.000",
    "request_status": "Pending",
    "responsible_agency": "Department of Sanitation",
    "final_address": "1464 Granada Dr, New Orleans, Louisiana, 70122",
    "address_councildis": "D",
    "status": "Assigned to Contractor",
    "contractor": "IV Waste",
    "contractor_action": "Invalid",
    "rowid": "1071899",
    "final_x": "3678126.45582",
    "final_y": "550504.606868",
    "longitude": "-90.07806604803172",
    "latitude": "30.007798767522345",
    "geocoded_column": {
      "latitude": "30.007798767522345",
      "longitude": "-90.07806604803172"
    }
  },
  {
    "service_request": "2024-1071898",
    "request_type": "Trash/Recycling",
    "request_reason": "Request a Large Item Pick Up",
    "date_created": "2024-03-02T12:32:21.000",
    "date_modified": "2024-03-02T12:32:21.000",
    "request_status": "Pending",
    "responsible_agency": "Department of Sanitation",
    "final_address": "2223 Carondelet St",
    "address_councildis": "B",
    "status": "Assigned to Contractor",
    "contractor": "Richards Disposal",
    "rowid": "1071898",
    "final_x": "3677182.01749",
    "final_y": "523905.19814",
    "longitude": "-90.0819675560649",
    "latitude": "29.934687900559954",
    "geocoded_column": {
      "latitude": "29.934687900559954",
      "longitude": "-90.0819675560649"
    }
  },
  {
    "service_request": "2024-1071897",
    "request_type": "Abandoned Vehicles",
    "request_reason": "Abandoned/Junk Vehicles",
    "date_created": "2024-03-02T12:26:12.000",
    "date_modified": "2024-03-02T12:26:12.000",
    "request_status": "Pending",
    "responsible_agency": "Department of Public Works",
    "final_address": "3037 General Taylor St",
    "address_councildis": "B",
    "status": "Pending",
    "rowid": "1071897",
    "final_x": "3671427.88417",
    "final_y": "526297.972862",
    "longitude": "-90.10005198760516",
    "latitude": "29.94143879194582",
    "geocoded_column": {
      "latitude": "29.94143879194582",
      "longitude": "-90.10005198760516"
    }
  },
  {
    "service_request": "2024-1071896",
    "request_type": "Trash/Recycling",
    "request_reason": "Replace Trash Cart",
    "date_created": "2024-03-02T12:22:47.000",
    "date_modified": "2024-03-02T12:22:47.000",
    "request_status": "Pending",
    "responsible_agency": "Department of Sanitation",
    "final_address": "1133 Fourth St",
    "address_councildis": "B",
    "status": "Assigned to Contractor",
    "contractor": "Richards Disposal",
    "rowid": "1071896",
    "final_x": "3677192.55387",
    "final_y": "521269.726009",
    "longitude": "-90.08202515245979",
    "latitude": "29.927440895984773",
    "geocoded_column": {
      "latitude": "29.927440895984773",
      "longitude": "-90.08202515245979"
    }
  },
  {
    "service_request": "2024-1071895",
    "request_type": "Trash/Recycling",
    "request_reason": "Request a Large Item Pick Up",
    "date_created": "2024-03-02T12:19:08.000",
    "date_modified": "2024-03-02T12:19:08.000",
    "request_status": "Pending",
    "responsible_agency": "Department of Sanitation",
    "final_address": "3022 Grand Rte Saint John St, New Orleans, Louisiana, 70119",
    "status": "Assigned to Contractor",
    "rowid": "1071895",
    "longitude": "0.0",
    "latitude": "0.0",
    "geocoded_column": {
      "latitude": "0.0",
      "longitude": "0.0"
    }
  },
  {
    "service_request": "2024-1071894",
    "request_type": "Trash/Recycling",
    "request_reason": "Missed Trash Pick-Up",
    "date_created": "2024-03-02T12:12:06.000",
    "date_modified": "2024-03-02T12:12:07.000",
    "request_status": "Pending",
    "responsible_agency": "Department of Sanitation",
    "final_address": "1133 Fourth St",
    "address_councildis": "B",
    "status": "Assigned to Contractor",
    "contractor": "Richards Disposal",
    "rowid": "1071894",
    "final_x": "3677192.55387",
    "final_y": "521269.726009",
    "longitude": "-90.08202515245979",
    "latitude": "29.927440895984773",
    "geocoded_column": {
      "latitude": "29.927440895984773",
      "longitude": "-90.08202515245979"
    }
  },
  {
    "service_request": "2024-1071893",
    "request_type": "Roads/Drainage",
    "request_reason": "Pothole",
    "date_created": "2024-03-02T12:07:35.000",
    "date_modified": "2024-03-02T12:07:35.000",
    "request_status": "Pending",
    "responsible_agency": "Department of Public Works",
    "final_address": "5914 Hurst St",
    "address_councildis": "A",
    "status": "Pending",
    "rowid": "1071893",
    "final_x": "3665677.14951",
    "final_y": "521715.385146",
    "longitude": "-90.11836166316931",
    "latitude": "29.929007075862273",
    "geocoded_column": {
      "latitude": "29.929007075862273",
      "longitude": "-90.11836166316931"
    }
  },
  {
    "service_request": "2024-1071892",
    "request_type": "Trash/Recycling",
    "request_reason": "Missed Trash Pick-Up",
    "date_created": "2024-03-02T12:07:17.000",
    "date_modified": "2024-03-02T12:07:18.000",
    "request_status": "Pending",
    "responsible_agency": "Department of Sanitation",
    "final_address": "5512 Constance St",
    "address_councildis": "A",
    "status": "Assigned to Contractor",
    "contractor": "Richards Disposal",
    "rowid": "1071892",
    "final_x": "3666235.67949",
    "final_y": "518464.33343",
    "longitude": "-90.11670745721872",
    "latitude": "29.92005141188264",
    "geocoded_column": {
      "latitude": "29.92005141188264",
      "longitude": "-90.11670745721872"
    }
  },
  {
    "service_request": "2024-1071891",
    "request_type": "Trash/Recycling",
    "request_reason": "Request a Large Item Pick Up",
    "date_created": "2024-03-02T11:55:51.000",
    "date_modified": "2024-03-02T11:55:51.000",
    "request_status": "Pending",
    "responsible_agency": "Department of Sanitation",
    "final_address": "4411 Orleans Ave",
    "address_councildis": "A",
    "status": "Assigned to Contractor",
    "contractor": "Richards Disposal",
    "rowid": "1071891",
    "final_x": "3671406.74567",
    "final_y": "541214.632844",
    "longitude": "-90.09961165791523",
    "latitude": "29.982455260901798",
    "geocoded_column": {
      "latitude": "29.982455260901798",
      "longitude": "-90.09961165791523"
    }
  },