[
  {
    "service_request": "2024-1075412",
    "request_type": "Trash/Recycling",
    "request_reason": "Order Trash Cart",
    "date_created": "2024-03-13T23:11:39.000",
    "date_modified": "2024-03-13T23:11:40.000",
    "request_status": "Pending",
    "responsible_agency": "Department of Sanitation",
    "final_address": "1812 Dante St",
    "address_councildis": "A",
    "status": "Assigned to Contractor",
    "contractor": "Richards Disposal",
    "rowid": "1075412",
    "final_x": "3662901.83693",
    "final_y": "530546.15597",
    "longitude": "-90.12682928837347",
    "latitude": "29.953369507291114",
    "geocoded_column": {
      "latitude": "29.953369507291114",
      "longitude": "-90.12682928837347"
    }
  },
  {
    "service_request": "2024-1075411",
    "request_type": "Trash/Recycling",
    "request_reason": "Request a Large Item Pick Up",
    "date_created": "2024-03-13T23:00:56.000",
    "date_modified": "2024-03-13T23:00:56.000",
    "request_status": "Pending",
    "responsible_agency": "Department of Sanitation",
    "final_address": "3801 Mistletoe St",
    "address_councildis": "A",
    "status": "Assigned to Contractor",
    "contractor": "Richards Disposal",
    "rowid": "1075411",
    "final_x": "3665458.65978",
    "final_y": "537873.847561",
    "longitude": "-90.11851059474131",
    "latitude": "29.973443974601388",
    "geocoded_column": {
      "latitude": "29.973443974601388",
      "longitude": "-90.11851059474131"
    }
  },
  {
    "service_request": "2024-1075410",
    "request_type": "Property Maintenance",
    "request_reason": "Property Maintenance",
    "date_created": "2024-03-13T22:32:27.000",
    "date_modified": "2024-03-13T22:32:27.000",
    "request_status": "Pending",
    "responsible_agency": "Department of Code Enforcement",
    "final_address": "4209 Duplessis St",
    "address_councildis": "D",
    "status": "Pending",
    "rowid": "1075410",
    "final_x": "3678399.14651",
    "final_y": "547760.849234",
    "longitude": "-90.07729955689743",
    "latitude": "30.00024619414286",
    "geocoded_column": {
      "latitude": "30.00024619414286",
      "longitude": "-90.07729955689743"
    }
  },
  {
    "service_request": "2024-1075409",
    "request_type": "Roads/Drainage",
    "request_reason": "Catch Basin - Clogged",
    "date_created": "2024-03-13T22:32:12.000",
    "date_modified": "2024-03-13T22:32:12.000",
    "request_status": "Pending",
    "responsible_agency": "Department of Public Works",
    "final_address": "4845 Elysian Fields Ave",
    "address_councildis": "D",
    "status": "Pending",
    "rowid": "1075409",
    "final_x": "3684010.29455",
    "final_y": "550669.487188",
    "longitude": "-90.05947149770908",
    "latitude": "30.00807358160837",
    "geocoded_column": {
      "latitude": "30.00807358160837",
      "longitude": "-90.05947149770908"
    }
  },
  {
    "service_request": "2024-1075408",
    "request_type": "Traffic Signals/Signs/Striping/Streetlights",
    "request_reason": "Street Light Outage/Malfunction",
    "date_created": "2024-03-13T22:09:09.000",
    "date_modified": "2024-03-13T22:09:09.000",
    "request_status": "Pending",
    "responsible_agency": "Department of Public Works",
    "final_address": "232 Bermuda Street",
    "address_councildis": "C",
    "status": "Assigned to Contractor",
    "contractor": "Legacy Professional Services",
    "rowid": "1075408",
    "final_x": "3686307.09794",
    "final_y": "530940.665602",
    "longitude": "-90.05291171197241",
    "latitude": "29.953755881324764",
    "geocoded_column": {
      "latitude": "29.953755881324764",
      "longitude": "-90.05291171197241"
    }
  },
  {
    "service_request": "2024-1075407",
    "request_type": "Roads/Drainage",
    "request_reason": "Pothole",
    "date_created": "2024-03-13T22:06:48.000",
    "date_modified": "2024-03-13T22:06:48.000",
    "request_status": "Pending",
    "responsible_agency": "Department of Public Works",
    "final_address": "2530 Freret St",
    "address_councildis": "B",
    "status": "Pending",
    "rowid": "1075407",
    "final_x": "3674691.52622",
    "final_y": "525625.026557",
    "longitude": "-90.08977107680168",
    "latitude": "29.93949141914275",
    "geocoded_column": {
      "latitude": "29.93949141914275",
      "longitude": "-90.08977107680168"
    }
  },
  {
    "service_request": "2024-1075406",
    "request_type": "Property Maintenance",
    "request_reason": "Property Maintenance",
    "date_created": "2024-03-13T21:42:46.000",
    "date_modified": "2024-03-13T21:42:46.000",
    "request_status": "Pending",
    "responsible_agency": "Department of Code Enforcement",
    "final_address": "4000 St Claude Ave",
    "address_councildis": "C",
    "status": "Pending",
    "rowid": "1075406",
    "final_x": "3691865.73648",
    "final_y": "535248.04583",
    "longitude": "-90.03520582243148",
    "latitude": "29.965427705776385",
    "geocoded_column": {
      "latitude": "29.965427705776385",
      "longitude": "-90.03520582243148"
    }
  },
  {
    "service_request": "2024-1075405",
    "request_type": "Traffic Signals/Signs/Striping/Streetlights",
    "request_reason": "Street Light Outage/Malfunction",
    "date_created": "2024-03-13T21:40:34.000",
    "date_modified": "2024-03-13T21:40:34.000",
    "request_status": "Pending",
    "responsible_agency": "Department of Public Works",
    "final_address": "1742 Bartholomew St",
    "address_councildis": "D",
    "status": "Assigned to Contractor",
    "contractor": "Legacy Professional Services",
    "rowid": "1075405",
    "final_x": "3692409.04873",
    "final_y": "537906.025225",
    "longitude": "-90.03339484822973",
    "latitude": "29.972719273324078",
    "geocoded_column": {
      "latitude": "29.972719273324078",
      "longitude": "-90.03339484822973"
    }
  },
  {
    "service_request": "2024-1075404",
    "request_type": "Health Related Request",
    "request_reason": "Noise Ordinance Complaint",
    "date_created": "2024-03-13T20:54:55.000",
    "date_modified": "2024-03-13T20:54:55.000",
    "request_status": "Pending",
    "responsible_agency": "Health Department",
    "final_address": "609 Royal St",
    "address_councildis": "C",
    "status": "Pending",
    "rowid": "1075404",
    "final_x": "3682359.78773",
    "final_y": "532248.014723",
    "longitude": "-90.06532998517771",
    "latitude": "29.957471342415",
    "geocoded_column": {
      "latitude": "29.957471342415",
      "longitude": "-90.06532998517771"
    }
  },
  {
    "service_request": "2024-1075403",
    "request_type": "Traffic Signals/Signs/Striping/Streetlights",
    "request_reason": "Street Light Outage/Malfunction",
    "date_created": "2024-03-13T20:25:14.000",
    "date_modified": "2024-03-13T20:25:15.000",
    "request_status": "Pending",
    "responsible_agency": "Department of Public Works",
    "final_address": "9027 Nelson St",
    "address_councildis": "A",
    "status": "Assigned to Contractor",
    "contractor": "Legacy Professional Services",
    "rowid": "1075403",
    "final_x": "3662592.53063",
    "final_y": "534195.495365",
    "longitude": "-90.1276847049757",
    "latitude": "29.963412957042998",
    "geocoded_column": {
      "latitude": "29.963412957042998",
      "longitude": "-90.1276847049757"
    }
  },
  {
    "service_request": "2024-1075402",
    "request_type": "Traffic Signals/Signs/Striping/Streetlights",
    "request_reason": "Street Light Outage/Malfunction",
    "date_created": "2024-03-13T20:13:24.000",
    "date_modified": "2024-03-13T20:13:25.000",
    "request_status": "Pending",
    "responsible_agency": "Department of Public Works",
    "final_address": "9027 Nelson St",
    "address_councildis": "A",
    "status": "Assigned to Contractor",
    "contractor": "Legacy Professional Services",
    "rowid": "1075402",
    "final_x": "3662592.53063",
    "final_y": "534195.495365",
    "longitude": "-90.1276847049757",
    "latitude": "29.963412957042998",
    "geocoded_column": {
      "latitude": "29.963412957042998",
      "longitude": "-90.1276847049757"
    }
  },
  {
    "service_request": "2024-1075401",
    "request_type": "Traffic Signals/Signs/Striping/Streetlights",
    "request_reason": "Request for Traffic Calming due to Speeding",
    "date_created": "2024-03-13T19:56:39.000",
    "date_modified": "2024-03-13T19:56:39.000",
    "request_status": "Pending",
    "responsible_agency": "Department of Public Works",
    "final_address": "1500 Calhoun St",
    "address_councildis": "A",
    "status": "Pending",
    "rowid": "1075401",
    "final_x": "3664491.83815",
    "final_y": "522274.842682",
    "longitude": "-90.12208480363734",
    "latitude": "29.9305799129015",
    "geocoded_column": {
      "latitude": "29.9305799129015",
      "longitude": "-90.12208480363734"
    }
  },
  {
    "service_request": "2024-1075400",
    "request_type": "Trash/Recycling",
    "request_reason": "Replace Recycling Cart",
    "date_created": "2024-03-13T19:50:32.000",
    "date_modified": "2024-03-13T19:50:32.000",
    "request_status": "Pending",
    "responsible_agency": "Department of Sanitation",
    "final_address": "1311 Octavia St",
    "address_councildis": "A",
    "status": "Pending",
    "rowid": "1075400",
    "final_x": "3666900.47969",
    "final_y": "520739.738489",
    "longitude": "-90.11453259823752",
    "latitude": "29.92628863284565",
    "geocoded_column": {
      "latitude": "29.92628863284565",
      "longitude": "-90.11453259823752"
    }
  },
  {
    "service_request": "2024-1075399",
    "request_type": "Traffic Signals/Signs/Striping/Streetlights",
    "request_reason": "Street Light Outage/Malfunction",
    "date_created": "2024-03-13T19:38:28.000",
    "date_modified": "2024-03-13T19:38:28.000",
    "request_status": "Pending",
    "responsible_agency": "Department of Public Works",
    "final_address": "6623 Argonne Blvd",
    "address_councildis": "A",
    "status": "Assigned to Contractor",
    "contractor": "Legacy Professional Services",
    "rowid": "1075399",
    "final_x": "3670620.61083",
    "final_y": "551416.710549",
    "longitude": "-90.1017483205287",
    "latitude": "30.01053068953372",
    "geocoded_column": {
      "latitude": "30.01053068953372",
      "longitude": "-90.1017483205287"
    }
  },
  {
    "service_request": "2024-1075398",
    "request_type": "Trash/Recycling",
    "request_reason": "Replace Trash Cart",
    "date_created": "2024-03-13T19:36:24.000",
    "date_modified": "2024-03-13T19:36:24.000",
    "request_status": "Pending",
    "responsible_agency": "Department of Sanitation",
    "final_address": "2720 Milan St",
    "address_councildis": "B",
    "status": "Assigned to Contractor",
    "contractor": "Richards Disposal",
    "rowid": "1075398",
    "final_x": "3671156.70721",
    "final_y": "524968.163517",
    "longitude": "-90.10095330386913",
    "latitude": "29.937790270554874",
    "geocoded_column": {
      "latitude": "29.937790270554874",
      "longitude": "-90.10095330386913"
    }
  },
  {
    "service_request": "2024-1075397",
    "request_type": "Trash/Recycling",
    "request_reason": "Request a Large Item Pick Up",
    "date_created": "2024-03-13T19:29:36.000",
    "date_modified": "2024-03-13T19:29:37.000",
    "request_status": "Pending",
    "responsible_agency": "Department of Sanitation",
    "final_address": "917 N Rocheblave St",
    "address_councildis": "D",
    "status": "Assigned to Contractor",
    "contractor": "Richards Disposal",
    "rowid": "1075397",
    "final_x": "3678028.24162",
    "final_y": "537046.895944",
    "longitude": "-90.07884182024289",
    "latitude": "29.9707977263233",
    "geocoded_column": {
      "latitude": "29.9707977263233",
      "longitude": "-90.07884182024289"
    }
  },
  {
    "service_request": "2024-1075396",
    "request_type": "Property Maintenance",
    "request_reason": "Property Maintenance",
    "date_created": "2024-03-13T19:25:35.000",
    "date_modified": "2024-03-13T19:25:35.000",
    "request_status": "Pending",
    "responsible_agency": "Department of Code Enforcement",
    "final_address": "2321 Ursulines Ave",
    "address_councildis": "D",
    "status": "Pending",
    "rowid": "1075396",
    "final_x": "3678872.01288",
    "final_y": "537259.890632",
    "longitude": "-90.076169705425",
    "latitude": "29.971357960922006",
    "geocoded_column": {
      "latitude": "29.971357960922006",
      "longitude": "-90.076169705425"
    }
  },
  {
    "service_request": "2024-1075395",
    "request_type": "Property Maintenance",
    "request_reason": "Property Maintenance",
    "date_created": "2024-03-13T19:18:27.000",
    "date_modified": "2024-03-13T19:18:27.000",
    "request_status": "Pending",
    "responsible_agency": "Department of Code Enforcement",
    "final_address": "2321 Ursulines Ave",
    "address_councildis": "D",
    "status": "Pending",
    "rowid": "1075395",
    "final_x": "3678872.01288",
    "final_y": "537259.890632",
    "longitude": "-90.076169705425",
    "latitude": "29.971357960922006",
    "geocoded_column": {
      "latitude": "29.971357960922006",
      "longitude": "-90.076169705425"
    }
  },
  {
    "service_request": "2024-1075394",
    "request_type": "Property Maintenance",
    "request_reason": "Property Maintenance",
    "date_created": "2024-03-13T19:18:04.000",
    "date_modified": "2024-03-13T19:18:04.000",
    "request_status": "Pending",
    "responsible_agency": "Department of Code Enforcement",
    "final_address": "2321 Ursulines Ave",
    "address_councildis": "D",
    "status": "Pending",
    "rowid": "1075394",
    "final_x": "3678872.01288",
    "final_y": "537259.890632",
    "longitude": "-90.076169705425",
    "latitude": "29.971357960922006",
    "geocoded_column": {
      "latitude": "29.971357960922006",
      "longitude": "-90.076169705425"
    }
  },
  {
    "service_request": "2024-1075393",
    "request_type": "Trash/Recycling",
    "request_reason": "Order Recycling Cart",
    "date_created": "2024-03-13T19:13:43.000",
    "date_modified": "2024-03-13T19:13:43.000",
    "request_status": "Pending",
    "responsible_agency": "Department of Sanitation",
    "final_address": "1130 Josephine St",
    "address_councildis": "B",
    "status": "Pending",
    "rowid": "1075393",
    "final_x": "3678959.77582",
    "final_y": "522515.761018",
    "longitude": "-90.07640332210859",
    "latitude": "29.930813900827896",
    "geocoded_column": {
      "latitude": "29.930813900827896",
      "longitude": "-90.07640332210859"
    }
  },
  {
    "service_request": "2024-1075392",
    "request_type": "Abandoned Vehicles",
    "request_reason": "Abandoned/Junk Vehicles",
    "date_created": "2024-03-13T19:09:47.000",
    "date_modified": "2024-03-13T19:09:47.000",
    "request_status": "Pending",
    "responsible_agency": "Department of Public Works",
    "final_address": "510 Wallace Dr",
    "address_councildis": "D",
    "status": "Pending",
    "rowid": "1075392",
    "final_x": "3681413.48623",
    "final_y": "548664.513363",
    "longitude": "-90.06774556320632",
    "latitude": "30.0026397486523",
    "geocoded_column": {
      "latitude": "30.0026397486523",
      "longitude": "-90.06774556320632"
    }
  },
  {
    "service_request": "2024-1075391",
    "request_type": "Trash/Recycling",
    "request_reason": "Missed Trash Pick-Up",
    "date_created": "2024-03-13T18:56:43.000",
    "date_modified": "2024-03-13T18:56:43.000",
    "request_status": "Pending",
    "responsible_agency": "Department of Sanitation",
    "final_address": "5510 Chatham Dr",
    "address_councildis": "D",
    "status": "Assigned to Contractor",
    "contractor": "IV Waste",
    "rowid": "1075391",
    "final_x": "3679661.95963",
    "final_y": "552674.890006",
    "longitude": "-90.07313952972528",
    "latitude": "30.013719922561133",
    "geocoded_column": {
      "latitude": "30.013719922561133",
      "longitude": "-90.07313952972528"
    }
  },
  {
    "service_request": "2024-1075390",
    "request_type": "Trash/Recycling",
    "request_reason": "Replace Trash Cart",
    "date_created": "2024-03-13T18:56:35.000",
    "date_modified": "2024-03-13T18:56:36.000",
    "request_status": "Pending",
    "responsible_agency": "Department of Sanitation",
    "final_address": "2626 Palmyra St",
    "address_councildis": "B",
    "status": "Assigned to Contractor",
    "contractor": "Richards Disposal",
    "rowid": "1075390",
    "final_x": "3675107.49621",
    "final_y": "534248.424709",
    "longitude": "-90.08816194900767",
    "latitude": "29.963190479484176",
    "geocoded_column": {
      "latitude": "29.963190479484176",
      "longitude": "-90.08816194900767"
    }
  },
  {
    "service_request": "2024-1075389",
    "request_type": "Trash/Recycling",
    "request_reason": "Replace Recycling Cart",
    "date_created": "2024-03-13T18:43:25.000",
    "date_modified": "2024-03-13T18:43:25.000",
    "request_status": "Pending",
    "responsible_agency": "Department of Sanitation",
    "final_address": "2139 Mediamolle Dr",
    "address_councildis": "C",
    "status": "Pending",
    "rowid": "1075389",
    "final_x": "3699143.68618",
    "final_y": "523432.406651",
    "longitude": "-90.01265259839734",
    "latitude": "29.932710131741107",
    "geocoded_column": {
      "latitude": "29.932710131741107",
      "longitude": "-90.01265259839734"
    }
  },
  {
    "service_request": "2024-1075388",
    "request_type": "Trash/Recycling",
    "request_reason": "Order Recycling Cart",
    "date_created": "2024-03-13T18:26:45.000",
    "date_modified": "2024-03-13T18:26:45.000",
    "request_status": "Pending",
    "responsible_agency": "Department of Sanitation",
    "final_address": "1553 De Battista Pl",
    "address_councildis": "C",
    "status": "Pending",
    "rowid": "1075388",
    "final_x": "3699709.95844",
    "final_y": "525355.025853",
    "longitude": "-90.01079487893296",
    "latitude": "29.937978708588094",
    "geocoded_column": {
      "latitude": "29.937978708588094",
      "longitude": "-90.01079487893296"
    }
  },
  {
    "service_request": "2024-1075387",
    "request_type": "Safety & Permits",
    "request_reason": "Licenses & Permits",
    "date_created": "2024-03-13T18:24:44.000",
    "date_modified": "2024-03-13T18:24:44.000",
    "request_status": "Pending",
    "responsible_agency": "Safety and Permits",
    "final_address": "3721 Baudin St",
    "address_councildis": "B",
    "status": "Pending",
    "rowid": "1075387",
    "final_x": "3671252.91854",
    "final_y": "536245.771399",
    "longitude": "-90.10026640936302",
    "latitude": "29.968797127136117",
    "geocoded_column": {
      "latitude": "29.968797127136117",
      "longitude": "-90.10026640936302"
    }
  },
  {
    "service_request": "2024-1075386",
    "request_type": "Abandoned Vehicles",
    "request_reason": "Abandoned/Junk Vehicles",
    "date_created": "2024-03-13T18:01:32.000",
    "date_modified": "2024-03-13T18:01:32.000",
    "request_status": "Pending",
    "responsible_agency": "Department of Public Works",
    "final_address": "1401 Caton St",
    "address_councildis": "D",
    "status": "Pending",
    "rowid": "1075386",
    "final_x": "3678107.86914",
    "final_y": "546815.545617",
    "longitude": "-90.07825242855733",
    "latitude": "29.997655719650655",
    "geocoded_column": {
      "latitude": "29.997655719650655",
      "longitude": "-90.07825242855733"
    }
  },
  {
    "service_request": "2024-1075385",
    "request_type": "Trash/Recycling",
    "request_reason": "Request a Large Item Pick Up",
    "date_created": "2024-03-13T17:58:54.000",
    "date_modified": "2024-03-13T17:58:55.000",
    "request_status": "Pending",
    "responsible_agency": "Department of Sanitation",
    "final_address": "726 Louque Pl",
    "address_councildis": "A",
    "status": "Assigned to Contractor",
    "contractor": "IV Waste",
    "rowid": "1075385",
    "final_x": "3668444.11348",
    "final_y": "543495.275342",
    "longitude": "-90.10889216615112",
    "latitude": "29.98881362905192",
    "geocoded_column": {
      "latitude": "29.98881362905192",
      "longitude": "-90.10889216615112"
    }
  },
  {
    "service_request": "2024-1075384",
    "request_type": "Trash/Recycling",
    "request_reason": "MIssed Recycling Pick-Up",
    "date_created": "2024-03-13T17:53:40.000",
    "date_modified": "2024-03-13T17:53:41.000",
    "request_status": "Pending",
    "responsible_agency": "Department of Sanitation",
    "final_address": "7704 S Interstate 10 Service Rd",
    "address_councildis": "E",
    "status": "Assigned to Contractor",
    "contractor": "Waste Pro",
    "rowid": "1075384",
    "final_x": "3702383.36023",
    "final_y": "557854.588059",
    "longitude": "-90.00116189660335",
    "latitude": "30.02725542917181",
    "geocoded_column": {
      "latitude": "30.02725542917181",
      "longitude": "-90.00116189660335"
    }
  },
  {
    "service_request": "2024-1075383",
    "request_type": "Roads/Drainage",
    "request_reason": "Man hole cover issue",
    "date_created": "2024-03-13T17:52:24.000",
    "date_modified": "2024-03-13T17:52:24.000",
    "request_status": "Pending",
    "responsible_agency": "Department of Public Works",
    "final_address": "920 Fourth St",
    "address_councildis": "B",
    "status": "Pending",
    "rowid": "1075383",
    "final_x": "3677580.78517",
    "final_y": "520501.55948",
    "longitude": "-90.08082610822119",
    "latitude": "29.92531702431537",
    "geocoded_column": {
      "latitude": "29.92531702431537",
      "longitude": "-90.08082610822119"
    }
  },
  {
    "service_request": "2024-1075382",
    "request_type": "Roads/Drainage",
    "request_reason": "Accessibility Ramps, Curbs and Sidewalk Repair",
    "date_created": "2024-03-13T17:48:15.000",
    "date_modified": "2024-03-13T17:48:15.000",
    "request_status": "Pending",
    "responsible_agency": "Department of Public Works",
    "final_address": "2735 Robert St",
    "address_councildis": "B",
    "status": "Pending",
    "rowid": "1075382",
    "final_x": "3668951.32858",
    "final_y": "525549.749053",
    "longitude": "-90.10789624485433",
    "latitude": "29.93945447959154",
    "geocoded_column": {
      "latitude": "29.93945447959154",
      "longitude": "-90.10789624485433"
    }
  },
  {
    "service_request": "2024-1075380",
    "request_type": "Trash/Recycling",
    "request_reason": "Missed Trash Pick-Up",
    "date_created": "2024-03-13T17:28:52.000",
    "date_modified": "2024-03-13T17:28:53.000",
    "request_status": "Pending",
    "responsible_agency": "Department of Sanitation",
    "final_address": "811 Dauphine St",
    "address_councildis": "C",
    "status": "Assigned to Contractor",
    "contractor": "Empire Services",
    "rowid": "1075380",
    "final_x": "3682254.05807",
    "final_y": "533297.994244",
    "longitude": "-90.06562716623313",
    "latitude": "29.960361644757043",
    "geocoded_column": {
      "latitude": "29.960361644757043",
      "longitude": "-90.06562716623313"
    }
  },
  {
    "service_request": "2024-1075379",
    "request_type": "Trash/Recycling",
    "request_reason": "Repair Trash Cart",
    "date_created": "2024-03-13T17:25:32.000",
    "date_modified": "2024-03-13T17:25:32.000",
    "request_status": "Pending",
    "responsible_agency": "Department of Sanitation",
    "final_address": "2108 Conti St",
    "address_councildis": "B",
    "status": "Assigned to Contractor",
    "contractor": "Richards Disposal",
    "rowid": "1075379",
    "final_x": "3677863.32731",
    "final_y": "534605.236294",
    "longitude": "-90.07944702204728",
    "latitude": "29.964088957667727",
    "geocoded_column": {
      "latitude": "29.964088957667727",
      "longitude": "-90.07944702204728"
    }
  },
  {
    "service_request": "2024-1075378",
    "request_type": "Roads/Drainage",
    "request_reason": "Leaking Hydrant",
    "date_created": "2024-03-13T17:24:52.000",
    "date_modified": "2024-03-13T17:24:52.000",
    "request_status": "Pending",
    "responsible_agency": "Department of Public Works",
    "final_address": "the corner of Louisa and Marais",
    "status": "Pending",
    "rowid": "1075378",
    "longitude": "0.0",
    "latitude": "0.0",
    "geocoded_column": {
      "latitude": "0.0",
      "longitude": "0.0"
    }
  },
  {
    "service_request": "2024-1075377",
    "request_type": "Trash/Recycling",
    "request_reason": "Request a Large Item Pick Up",
    "date_created": "2024-03-13T17:21:10.000",
    "date_modified": "2024-03-13T17:21:10.000",
    "request_status": "Pending",
    "responsible_agency": "Department of Sanitation",
    "final_address": "2435 Alvar St",
    "address_councildis": "D",
    "status": "Assigned to Contractor",
    "contractor": "IV Waste",
    "rowid": "1075377",
    "final_x": "3692822.18755",
    "final_y": "540560.044683",
    "longitude": "-90.03199489142852",
    "latitude": "29.98000398560768",
    "geocoded_column": {
      "latitude": "29.98000398560768",
      "longitude": "-90.03199489142852"
    }
  },
  {
    "service_request": "2024-1075374",
    "request_type": "Trash/Recycling",
    "request_reason": "Replace Recycling Cart",
    "date_created": "2024-03-13T17:04:55.000",
    "date_modified": "2024-03-13T17:04:55.000",
    "request_status": "Pending",
    "responsible_agency": "Department of Sanitation",
    "final_address": "2523 Governor Nicholls St",
    "address_councildis": "D",
    "status": "Pending",
    "rowid": "1075374",
    "final_x": "3678519.39803",
    "final_y": "537952.406985",
    "longitude": "-90.07725933870195",
    "latitude": "29.97327277621095",
    "geocoded_column": {
      "latitude": "29.97327277621095",
      "longitude": "-90.07725933870195"
    }
  },
  {
    "service_request": "2024-1075373",
    "request_type": "Trash/Recycling",
    "request_reason": "MIssed Recycling Pick-Up",
    "date_created": "2024-03-13T17:03:39.000",
    "date_modified": "2024-03-13T17:03:39.000",
    "request_status": "Pending",
    "responsible_agency": "Department of Sanitation",
    "final_address": "6019 Charlotte Dr",
    "address_councildis": "D",
    "status": "Assigned to Contractor",
    "contractor": "IV Waste",
    "rowid": "1075373",
    "final_x": "3679970.27023",
    "final_y": "554642.173208",
    "longitude": "-90.07209701216085",
    "latitude": "30.01911991074156",
    "geocoded_column": {
      "latitude": "30.01911991074156",
      "longitude": "-90.07209701216085"
    }
  },
  {
    "service_request": "2024-1075372",
    "request_type": "Trash/Recycling",
    "request_reason": "Missed Trash Pick-Up",
    "date_created": "2024-03-13T17:01:19.000",
    "date_modified": "2024-03-13T17:01:19.000",
    "request_status": "Pending",
    "responsible_agency": "Department of Sanitation",
    "final_address": "7440 Weaver Ave",
    "address_councildis": "E",
    "status": "Assigned to Contractor",
    "contractor": "Waste Pro",
    "rowid": "1075372",
    "final_x": "3707618.22174",
    "final_y": "563911.963745",
    "longitude": "-89.98439500844526",
    "latitude": "30.043742434828403",
    "geocoded_column": {
      "latitude": "30.043742434828403",
      "longitude": "-89.98439500844526"
    }
  },
  {
    "service_request": "2024-1075370",
    "request_type": "Roads/Drainage",
    "request_reason": "Catch Basin - Clogged",
    "date_created": "2024-03-13T16:51:07.000",
    "date_modified": "2024-03-13T16:51:07.000",
    "request_status": "Pending",
    "responsible_agency": "Department of Public Works",
    "final_address": "1939 S Carrollton Ave",
    "address_councildis": "A",
    "status": "Pending",
    "rowid": "1075370",
    "final_x": "3663946.55635",
    "final_y": "530292.444609",
    "longitude": "-90.1235389542535",
    "latitude": "29.952641594683236",
    "geocoded_column": {
      "latitude": "29.952641594683236",
      "longitude": "-90.1235389542535"
    }
  },
  {
    "service_request": "2024-1075369",
    "request_type": "Roads/Drainage",
    "request_reason": "Catch Basin - Clogged",
    "date_created": "2024-03-13T16:49:13.000",
    "date_modified": "2024-03-13T16:49:13.000",
    "request_status": "Pending",
    "responsible_agency": "Department of Public Works",
    "final_address": "1939 S Carrollton Ave",
    "address_councildis": "A",
    "status": "Pending",
    "rowid": "1075369",
    "final_x": "3663946.55635",
    "final_y": "530292.444609",
    "longitude": "-90.1235389542535",
    "latitude": "29.952641594683236",
    "geocoded_column": {
      "latitude": "29.952641594683236",
      "longitude": "-90.1235389542535"
    }
  },
  {
    "service_request": "2024-1075368",
    "request_type": "Roads/Drainage",
    "request_reason": "Catch Basin - Clogged",
    "date_created": "2024-03-13T16:47:54.000",
    "date_modified": "2024-03-13T16:47:54.000",
    "request_status": "Pending",
    "responsible_agency": "Department of Public Works",
    "final_address": "2830 LaSalle St",
    "address_councildis": "B",
    "status": "Pending",
    "rowid": "1075368",
    "final_x": "3674162.4882",
    "final_y": "524733.278972",
    "longitude": "-90.09147183598613",
    "latitude": "29.937055181270694",
    "geocoded_column": {
      "latitude": "29.937055181270694",
      "longitude": "-90.09147183598613"
    }
  },
  {
    "service_request": "2024-1075367",
    "request_type": "Roads/Drainage",
    "request_reason": "Catch Basin - Broken/Damage",
    "date_created": "2024-03-13T16:45:33.000",
    "date_modified": "2024-03-13T16:45:33.000",
    "request_status": "Pending",
    "responsible_agency": "Department of Public Works",
    "final_address": "1615 St Philip St",
    "address_councildis": "D",
    "status": "Pending",
    "rowid": "1075367",
    "final_x": "3680661.42287",
    "final_y": "535369.927174",
    "longitude": "-90.07058427482755",
    "latitude": "29.96610710644681",
    "geocoded_column": {
      "latitude": "29.96610710644681",
      "longitude": "-90.07058427482755"
    }
  },
  {
    "service_request": "2024-1075366",
    "request_type": "Trash/Recycling",
    "request_reason": "Illegal Dumping",
    "date_created": "2024-03-13T16:44:03.000",
    "date_modified": "2024-03-13T16:44:04.000",
    "request_status": "Pending",
    "responsible_agency": "Department of Sanitation",
    "final_address": "2225 Dumaine St",
    "address_councildis": "D",
    "status": "Pending",
    "rowid": "1075366",
    "final_x": "3678662.26555",
    "final_y": "536420.434247",
    "longitude": "-90.07686118826538",
    "latitude": "29.969056069315762",
    "geocoded_column": {
      "latitude": "29.969056069315762",
      "longitude": "-90.07686118826538"
    }
  },
  {
    "service_request": "2024-1075365",
    "request_type": "Traffic Signals/Signs/Striping/Streetlights",
    "request_reason": "Street Light Outage/Malfunction",
    "date_created": "2024-03-13T16:35:43.000",
    "date_modified": "2024-03-13T16:35:43.000",
    "request_status": "Pending",
    "responsible_agency": "Department of Public Works",
    "final_address": "4373 Randolph Ave",
    "address_councildis": "D",
    "status": "Assigned to Contractor",
    "contractor": "Legacy Professional Services",
    "rowid": "1075365",
    "final_x": "3677774.35349",
    "final_y": "548807.566291",
    "longitude": "-90.0792371237864",
    "latitude": "30.003143111825352",
    "geocoded_column": {
      "latitude": "30.003143111825352",
      "longitude": "-90.0792371237864"
    }
  },
  {
    "service_request": "2024-1075364",
    "request_type": "Trash/Recycling",
    "request_reason": "Dead Animal Pick Up",
    "date_created": "2024-03-13T16:34:08.000",
    "date_modified": "2024-03-13T16:34:09.000",
    "request_status": "Pending",
    "responsible_agency": "Department of Sanitation",
    "final_address": "1537 Cambronne St",
    "address_councildis": "A",
    "status": "Assigned to Contractor",
    "contractor": "Richards Disposal",
    "rowid": "1075364",
    "final_x": "3662101.08845",
    "final_y": "530063.571201",
    "longitude": "-90.12937373355278",
    "latitude": "29.952065713974175",
    "geocoded_column": {
      "latitude": "29.952065713974175",
      "longitude": "-90.12937373355278"
    }
  },
  {
    "service_request": "2024-1075363",
    "request_type": "Trash/Recycling",
    "request_reason": "Illegal Dumping",
    "date_created": "2024-03-13T16:31:52.000",
    "date_modified": "2024-03-13T16:31:53.000",
    "request_status": "Pending",
    "responsible_agency": "Department of Sanitation",
    "final_address": "SHALIMAR DR & WARFIELD ST",
    "address_councildis": "D",
    "status": "Pending",
    "rowid": "1075363",
    "final_x": "3697327.0",
    "final_y": "552376.08",
    "longitude": "-90.01733828414037",
    "latitude": "30.01235227884063",
    "geocoded_column": {
      "latitude": "30.01235227884063",
      "longitude": "-90.01733828414037"
    }
  },
  {
    "service_request": "2024-1075362",
    "request_type": "Traffic Signals/Signs/Striping/Streetlights",
    "request_reason": "Additional signage",
    "date_created": "2024-03-13T16:29:21.000",
    "date_modified": "2024-03-13T16:29:22.000",
    "request_status": "Pending",
    "responsible_agency": "Department of Public Works",
    "final_address": "CHEF MENTEUR HWY & DOWNMAN RD & CHEF MENTEUR BRIDGE",
    "address_councildis": "D",
    "status": "Pending",
    "rowid": "1075362",
    "final_x": "3696211.9",
    "final_y": "551507.88",
    "longitude": "-90.02089277553281",
    "latitude": "30.010000220946775",
    "geocoded_column": {
      "latitude": "30.010000220946775",
      "longitude": "-90.02089277553281"
    }
  },
  {
    "service_request": "2024-1075361",
    "request_type": "Trash/Recycling",
    "request_reason": "Repair Trash Cart",
    "date_created": "2024-03-13T16:28:48.000",
    "date_modified": "2024-03-13T16:28:48.000",
    "request_status": "Pending",
    "responsible_agency": "Department of Sanitation",
    "final_address": "7620 Shaw Ave",
    "address_councildis": "E",
    "status": "Assigned to Contractor",
    "contractor": "Waste Pro",
    "rowid": "1075361",
    "final_x": "3707135.80926",
    "final_y": "564265.598497",
    "longitude": "-89.9859064855763",
    "latitude": "30.044730396222768",
    "geocoded_column": {
      "latitude": "30.044730396222768",
      "longitude": "-89.9859064855763"
    }
  },
  {
    "service_request": "2024-1075360",
    "request_type": "Trash/Recycling",
    "request_reason": "Missed Trash Pick-Up",
    "date_created": "2024-03-13T16:22:53.000",
    "date_modified": "2024-03-13T16:22:53.000",
    "request_status": "Pending",
    "responsible_agency": "Department of Sanitation",
    "final_address": "2017 Broadway St",
    "address_councildis": "A",
    "status": "Assigned to Contractor",
    "contractor": "Richards Disposal",
    "rowid": "1075360",
    "final_x": "3665875.79495",
    "final_y": "528939.295232",
    "longitude": "-90.11749260011227",
    "latitude": "29.948864723456214",
    "geocoded_column": {
      "latitude": "29.948864723456214",
      "longitude": "-90.11749260011227"
    }
  },
  {
    "service_request": "2024-1075359",
    "request_type": "Trash/Recycling",
    "request_reason": "Replace Trash Cart",
    "date_created": "2024-03-13T16:22:45.000",
    "date_modified": "2024-03-13T16:22:45.000",
    "request_status": "Pending",
    "responsible_agency": "Department of Sanitation",
    "final_address": "2621 Dante St",
    "address_councildis": "A",
    "status": "Assigned to Contractor",
    "contractor": "Richards Disposal",
    "rowid": "1075359",
    "final_x": "3664976.01626",
    "final_y": "532704.304964",
    "longitude": "-90.12020774205546",
    "latitude": "29.959243498309515",
    "geocoded_column": {
      "latitude": "29.959243498309515",
      "longitude": "-90.12020774205546"
    }
  },
  {
    "service_request": "2024-1075358",
    "request_type": "Roads/Drainage",
    "request_reason": "Street Subsidence (Sinking)",
    "date_created": "2024-03-13T16:20:15.000",
    "date_modified": "2024-03-13T16:20:15.000",
    "request_status": "Pending",
    "responsible_agency": "Department of Public Works",
    "final_address": "3333 Napoleon Ave",
    "address_councildis": "B",
    "status": "Pending",
    "rowid": "1075358",
    "final_x": "3670355.6827",
    "final_y": "527176.040063",
    "longitude": "-90.10340738920664",
    "latitude": "29.943884879612",
    "geocoded_column": {
      "latitude": "29.943884879612",
      "longitude": "-90.10340738920664"
    }
  },
  {
    "service_request": "2024-1075357",
    "request_type": "Trash/Recycling",
    "request_reason": "Start Trash Service",
    "date_created": "2024-03-13T16:19:17.000",
    "date_modified": "2024-03-13T16:19:18.000",
    "request_status": "Pending",
    "responsible_agency": "Department of Sanitation",
    "final_address": "25600 Chef Menteur Hwy",
    "address_councildis": "E",
    "status": "Assigned to Contractor",
    "contractor": "Waste Pro",
    "rowid": "1075357",
    "final_x": "3780955.54226",
    "final_y": "600242.755395",
    "longitude": "-89.75103959660584",
    "latitude": "30.141056356617135",
    "geocoded_column": {
      "latitude": "30.141056356617135",
      "longitude": "-89.75103959660584"
    }
  },
  {
    "service_request": "2024-1075356",
    "request_type": "Roads/Drainage",
    "request_reason": "Catch Basin - Clogged",
    "date_created": "2024-03-13T16:15:27.000",
    "date_modified": "2024-03-13T16:15:27.000",
    "request_status": "Pending",
    "responsible_agency": "Department of Public Works",
    "final_address": "5638 Albany Ct",
    "address_councildis": "C",
    "status": "Pending",
    "rowid": "1075356",
    "final_x": "3704586.89175",
    "final_y": "521563.977401",
    "longitude": "-89.99553784060319",
    "latitude": "29.927398974358052",
    "geocoded_column": {
      "latitude": "29.927398974358052",
      "longitude": "-89.99553784060319"
    }
  },
  {
    "service_request": "2024-1075355",
    "request_type": "Trash/Recycling",
    "request_reason": "Request a Large Item Pick Up",
    "date_created": "2024-03-13T16:15:13.000",
    "date_modified": "2024-03-13T16:15:13.000",
    "request_status": "Pending",
    "responsible_agency": "Department of Sanitation",
    "final_address": "14 Shepard Ct",
    "address_councildis": "C",
    "status": "Assigned to Contractor",
    "contractor": "Richards Disposal",
    "rowid": "1075355",
    "final_x": "3692390.16131",
    "final_y": "524637.311548",
    "longitude": "-90.03392970812735",
    "latitude": "29.936235517055543",
    "geocoded_column": {
      "latitude": "29.936235517055543",
      "longitude": "-90.03392970812735"
    }
  },
  {
    "service_request": "2024-1075354",
    "request_type": "Trash/Recycling",
    "request_reason": "Order Recycling Cart",
    "date_created": "2024-03-13T16:14:35.000",
    "date_modified": "2024-03-13T16:14:35.000",
    "request_status": "Pending",
    "responsible_agency": "Department of Sanitation",
    "final_address": "603 Washington Ave",
    "address_councildis": "B",
    "status": "Pending",
    "rowid": "1075354",
    "final_x": "3678078.81934",
    "final_y": "519358.178039",
    "longitude": "-90.07929347167631",
    "latitude": "29.922158117839224",
    "geocoded_column": {
      "latitude": "29.922158117839224",
      "longitude": "-90.07929347167631"
    }
  },
  {
    "service_request": "2024-1075353",
    "request_type": "Roads/Drainage",
    "request_reason": "Street Subsidence (Sinking)",
    "date_created": "2024-03-13T16:11:40.000",
    "date_modified": "2024-03-13T16:11:40.000",
    "request_status": "Pending",
    "responsible_agency": "Department of Public Works",
    "final_address": "5638 Albany Ct",
    "address_councildis": "C",
    "status": "Pending",
    "rowid": "1075353",
    "final_x": "3704586.89175",
    "final_y": "521563.977401",
    "longitude": "-89.99553784060319",
    "latitude": "29.927398974358052",
    "geocoded_column": {
      "latitude": "29.927398974358052",
      "longitude": "-89.99553784060319"
    }
  },
  {
    "service_request": "2024-1075352",
    "request_type": "Parks & Parkways",
    "request_reason": "Request Tree Service (Right of Way/Public Property)",
    "date_created": "2024-03-13T16:11:06.000",
    "date_modified": "2024-03-13T16:11:06.000",
    "request_status": "Pending",
    "responsible_agency": "Department of Parks & Parkway",
    "final_address": "7471 Seven Oaks Rd",
    "address_councildis": "E",
    "status": "Pending",
    "rowid": "1075352",
    "final_x": "3712412.43627",
    "final_y": "565678.165346",
    "longitude": "-89.96917691112493",
    "latitude": "30.048442716077446",
    "geocoded_column": {
      "latitude": "30.048442716077446",
      "longitude": "-89.96917691112493"
    }
  },
  {
    "service_request": "2024-1075351",
    "request_type": "Property Maintenance",
    "request_reason": "Property Maintenance",
    "date_created": "2024-03-13T16:10:56.000",
    "date_modified": "2024-03-13T16:10:57.000",
    "request_status": "Pending",
    "responsible_agency": "Department of Code Enforcement",
    "final_address": "9027 Olive St",
    "address_councildis": "A",
    "status": "Pending",
    "rowid": "1075351",
    "final_x": "3664753.73306",
    "final_y": "536491.682311",
    "longitude": "-90.12078310253189",
    "latitude": "29.969664009685985",
    "geocoded_column": {
      "latitude": "29.969664009685985",
      "longitude": "-90.12078310253189"
    }
  },
  {
    "service_request": "2024-1075350",
    "request_type": "Trash/Recycling",
    "request_reason": "MIssed Recycling Pick-Up",
    "date_created": "2024-03-13T16:09:33.000",
    "date_modified": "2024-03-13T16:09:34.000",
    "request_status": "Pending",
    "responsible_agency": "Department of Sanitation",
    "final_address": "20 Vivian Ct",
    "address_councildis": "C",
    "status": "Assigned to Contractor",
    "contractor": "Richards Disposal",
    "rowid": "1075350",
    "final_x": "3702292.38148",
    "final_y": "521334.541369",
    "longitude": "-90.00278939668657",
    "latitude": "29.926841565991",
    "geocoded_column": {
      "latitude": "29.926841565991",
      "longitude": "-90.00278939668657"
    }
  },
  {
    "service_request": "2024-1075349",
    "request_type": "Property Maintenance",
    "request_reason": "Property Maintenance",
    "date_created": "2024-03-13T16:09:33.000",
    "date_modified": "2024-03-13T16:09:33.000",
    "request_status": "Pending",
    "responsible_agency": "Department of Code Enforcement",
    "final_address": "9036 Edinburgh St",
    "address_councildis": "A",
    "status": "Pending",
    "rowid": "1075349",
    "final_x": "3664878.70669",
    "final_y": "536755.879048",
    "longitude": "-90.1203795908254",
    "latitude": "29.970386826228978",
    "geocoded_column": {
      "latitude": "29.970386826228978",
      "longitude": "-90.1203795908254"
    }
  },
  {
    "service_request": "2024-1075348",
    "request_type": "Parks & Parkways",
    "request_reason": "Request Grass Cutting Service (City Owned Property)",
    "date_created": "2024-03-13T16:06:32.000",
    "date_modified": "2024-03-13T16:06:32.000",
    "request_status": "Pending",
    "responsible_agency": "Department of Parks & Parkway",
    "final_address": "6600 BLK Parc Brittany Blvd",
    "address_councildis": "E",
    "status": "Pending",
    "rowid": "1075348",
    "final_x": "3702941.41298",
    "final_y": "557100.535193",
    "longitude": "-89.99942625014852",
    "latitude": "30.02516422400554",
    "geocoded_column": {
      "latitude": "30.02516422400554",
      "longitude": "-89.99942625014852"
    }
  },
  {
    "service_request": "2024-1075347",
    "request_type": "Property Maintenance",
    "request_reason": "Property Maintenance",
    "date_created": "2024-03-13T16:06:22.000",
    "date_modified": "2024-03-13T16:06:23.000",
    "request_status": "Pending",
    "responsible_agency": "Department of Code Enforcement",
    "final_address": "3420 General Ogden St",
    "address_councildis": "A",
    "status": "Pending",
    "rowid": "1075347",
    "final_x": "3665234.04724",
    "final_y": "536217.517639",
    "longitude": "-90.11927539550211",
    "latitude": "29.968896162960228",
    "geocoded_column": {
      "latitude": "29.968896162960228",
      "longitude": "-90.11927539550211"
    }
  },
  {
    "service_request": "2024-1075346",
    "request_type": "Property Maintenance",
    "request_reason": "Property Maintenance",
    "date_created": "2024-03-13T16:04:12.000",
    "date_modified": "2024-03-13T16:04:12.000",
    "request_status": "Pending",
    "responsible_agency": "Department of Code Enforcement",
    "final_address": "3100 Hamilton St",
    "address_councildis": "A",
    "status": "Pending",
    "rowid": "1075346",
    "final_x": "3663930.92397",
    "final_y": "535830.874823",
    "longitude": "-90.12340365420974",
    "latitude": "29.967870923055738",
    "geocoded_column": {
      "latitude": "29.967870923055738",
      "longitude": "-90.12340365420974"
    }
  },
  {
    "service_request": "2024-1075345",
    "request_type": "Trash/Recycling",
    "request_reason": "Missed Trash Pick-Up",
    "date_created": "2024-03-13T16:03:02.000",
    "date_modified": "2024-03-13T16:03:03.000",
    "request_status": "Pending",
    "responsible_agency": "Department of Sanitation",
    "final_address": "3933 Washington Ave",
    "address_councildis": "B",
    "status": "Assigned to Contractor",
    "contractor": "Richards Disposal",
    "rowid": "1075345",
    "final_x": "3671373.32583",
    "final_y": "529495.064321",
    "longitude": "-90.10011560367074",
    "latitude": "29.950231362371845",
    "geocoded_column": {
      "latitude": "29.950231362371845",
      "longitude": "-90.10011560367074"
    }
  },
  {
    "service_request": "2024-1075344",
    "request_type": "Property Maintenance",
    "request_reason": "Property Maintenance",
    "date_created": "2024-03-13T16:02:45.000",
    "date_modified": "2024-03-13T16:02:45.000",
    "request_status": "Pending",
    "responsible_agency": "Department of Code Enforcement",
    "final_address": "9123 Colapissa St",
    "address_councildis": "A",
    "status": "Pending",
    "rowid": "1075344",
    "final_x": "3663879.9296",
    "final_y": "535884.308423",
    "longitude": "-90.12356291516927",
    "latitude": "29.96801932835046",
    "geocoded_column": {
      "latitude": "29.96801932835046",
      "longitude": "-90.12356291516927"
    }
  },
  {
    "service_request": "2024-1075343",
    "request_type": "Trash/Recycling",
    "request_reason": "Replace Recycling Cart",
    "date_created": "2024-03-13T16:02:08.000",
    "date_modified": "2024-03-13T16:02:08.000",
    "request_status": "Pending",
    "responsible_agency": "Department of Sanitation",
    "final_address": "11131 Winchester Park Dr",
    "address_councildis": "E",
    "status": "Pending",
    "rowid": "1075343",
    "final_x": "3714990.43307",
    "final_y": "561371.901406",
    "longitude": "-89.96119201141566",
    "latitude": "30.036517590933506",
    "geocoded_column": {
      "latitude": "30.036517590933506",
      "longitude": "-89.96119201141566"
    }
  },
  {
    "service_request": "2024-1075342",
    "request_type": "Trash/Recycling",
    "request_reason": "Request a Large Item Pick Up",
    "date_created": "2024-03-13T16:00:42.000",
    "date_modified": "2024-03-13T16:00:42.000",
    "request_status": "Pending",
    "responsible_agency": "Department of Sanitation",
    "final_address": "2024 Franklin Ave",
    "address_councildis": "D",
    "status": "Assigned to Contractor",
    "contractor": "IV Waste",
    "rowid": "1075342",
    "final_x": "3687567.74556",
    "final_y": "540070.144075",
    "longitude": "-90.04860790895934",
    "latitude": "29.978819971387",
    "geocoded_column": {
      "latitude": "29.978819971387",
      "longitude": "-90.04860790895934"
    }
  },
  {
    "service_request": "2024-1075341",
    "request_type": "Trash/Recycling",
    "request_reason": "Repair Recycling Cart",
    "date_created": "2024-03-13T16:00:23.000",
    "date_modified": "2024-03-13T16:00:24.000",
    "request_status": "Pending",
    "responsible_agency": "Department of Sanitation",
    "final_address": "1123 Nashville Ave",
    "address_councildis": "A",
    "status": "Pending",
    "rowid": "1075341",
    "final_x": "3665849.82125",
    "final_y": "520149.92876",
    "longitude": "-90.11786899170706",
    "latitude": "29.92469752938855",
    "geocoded_column": {
      "latitude": "29.92469752938855",
      "longitude": "-90.11786899170706"
    }
  },
  {
    "service_request": "2024-1075339",
    "request_type": "Trash/Recycling",
    "request_reason": "Return Recycling Cart",
    "date_created": "2024-03-13T15:59:56.000",
    "date_modified": "2024-03-13T15:59:56.000",
    "request_status": "Pending",
    "responsible_agency": "Department of Sanitation",
    "final_address": "2160 Carnot St",
    "address_councildis": "D",
    "status": "Pending",
    "rowid": "1075339",
    "final_x": "3683687.49359",
    "final_y": "549870.752404",
    "longitude": "-90.06051935356228",
    "latitude": "30.005887213498333",
    "geocoded_column": {
      "latitude": "30.005887213498333",
      "longitude": "-90.06051935356228"
    }
  },
  {
    "service_request": "2024-1075338",
    "request_type": "Trash/Recycling",
    "request_reason": "Order Recycling Cart",
    "date_created": "2024-03-13T15:58:43.000",
    "date_modified": "2024-03-13T15:58:44.000",
    "request_status": "Pending",
    "responsible_agency": "Department of Sanitation",
    "final_address": "2160 Carnot St",
    "address_councildis": "D",
    "status": "Pending",
    "rowid": "1075338",
    "final_x": "3683687.49359",
    "final_y": "549870.752404",
    "longitude": "-90.06051935356228",
    "latitude": "30.005887213498333",
    "geocoded_column": {
      "latitude": "30.005887213498333",
      "longitude": "-90.06051935356228"
    }
  },
  {
    "service_request": "2024-1075337",
    "request_type": "Trash/Recycling",
    "request_reason": "Replace Trash Cart",
    "date_created": "2024-03-13T15:58:05.000",
    "date_modified": "2024-03-13T15:58:06.000",
    "request_status": "Pending",
    "responsible_agency": "Department of Sanitation",
    "final_address": "1123 Nashville Ave",
    "address_councildis": "A",
    "status": "Assigned to Contractor",
    "contractor": "Richards Disposal",
    "rowid": "1075337",
    "final_x": "3665849.82125",
    "final_y": "520149.92876",
    "longitude": "-90.11786899170706",
    "latitude": "29.92469752938855",
    "geocoded_column": {
      "latitude": "29.92469752938855",
      "longitude": "-90.11786899170706"
    }
  },
  {
    "service_request": "2024-1075335",
    "request_type": "Abandoned Vehicles",
    "request_reason": "Abandoned/Junk Vehicles",
    "date_created": "2024-03-13T15:58:00.000",
    "date_modified": "2024-03-13T15:58:00.000",
    "request_status": "Pending",
    "responsible_agency": "Department of Public Works",
    "final_address": "921 France St",
    "address_councildis": "C",
    "status": "Pending",
    "rowid": "1075335",
    "final_x": "3692256.16688",
    "final_y": "534518.277189",
    "longitude": "-90.0339989989348",
    "latitude": "29.963408930582027",
    "geocoded_column": {
      "latitude": "29.963408930582027",
      "longitude": "-90.0339989989348"
    }
  },
  {
    "service_request": "2024-1075334",
    "request_type": "Property Maintenance",
    "request_reason": "Property Maintenance",
    "date_created": "2024-03-13T15:56:39.000",
    "date_modified": "2024-03-13T15:56:39.000",
    "request_status": "Pending",
    "responsible_agency": "Department of Code Enforcement",
    "final_address": "9127 Colapissa St",
    "address_councildis": "A",
    "status": "Pending",
    "rowid": "1075334",
    "final_x": "3663828.55175",
    "final_y": "535919.721351",
    "longitude": "-90.12372398842662",
    "latitude": "29.96811819367093",
    "geocoded_column": {
      "latitude": "29.96811819367093",
      "longitude": "-90.12372398842662"
    }
  },
  {
    "service_request": "2024-1075333",
    "request_type": "Trash/Recycling",
    "request_reason": "Return Trash Cart",
    "date_created": "2024-03-13T15:55:45.000",
    "date_modified": "2024-03-13T15:55:45.000",
    "request_status": "Pending",
    "responsible_agency": "Department of Sanitation",
    "final_address": "2268 Allen Toussaint Blvd",
    "address_councildis": "D",
    "status": "Assigned to Contractor",
    "contractor": "IV Waste",
    "rowid": "1075333",
    "final_x": "3684142.33948",
    "final_y": "555708.110233",
    "longitude": "-90.05887727498666",
    "latitude": "30.021923915774792",
    "geocoded_column": {
      "latitude": "30.021923915774792",
      "longitude": "-90.05887727498666"
    }
  },
  {
    "service_request": "2024-1075332",
    "request_type": "Trash/Recycling",
    "request_reason": "Repair Trash Cart",
    "date_created": "2024-03-13T15:55:33.000",
    "date_modified": "2024-03-13T15:55:34.000",
    "request_status": "Pending",
    "responsible_agency": "Department of Sanitation",
    "final_address": "7619 Freret St",
    "address_councildis": "A",
    "status": "Assigned to Contractor",
    "contractor": "Richards Disposal",
    "rowid": "1075332",
    "final_x": "3662731.28071",
    "final_y": "526785.969918",
    "longitude": "-90.12749278260522",
    "latitude": "29.9430351394992",
    "geocoded_column": {
      "latitude": "29.9430351394992",
      "longitude": "-90.12749278260522"
    }
  },
  {
    "service_request": "2024-1075331",
    "request_type": "Property Maintenance",
    "request_reason": "Property Maintenance",
    "date_created": "2024-03-13T15:54:00.000",
    "date_modified": "2024-03-13T15:54:01.000",
    "request_status": "Pending",
    "responsible_agency": "Department of Code Enforcement",
    "final_address": "3100 Mistletoe St",
    "address_councildis": "A",
    "status": "Pending",
    "rowid": "1075331",
    "final_x": "3663668.38637",
    "final_y": "536058.591239",
    "longitude": "-90.12422517160752",
    "latitude": "29.968504688238212",
    "geocoded_column": {
      "latitude": "29.968504688238212",
      "longitude": "-90.12422517160752"
    }
  },
  {
    "service_request": "2024-1075330",
    "request_type": "Parks & Parkways",
    "request_reason": "Request Tree Service (Right of Way/Public Property)",
    "date_created": "2024-03-13T15:53:13.000",
    "date_modified": "2024-03-13T15:53:13.000",
    "request_status": "Pending",
    "responsible_agency": "Department of Parks & Parkway",
    "final_address": "2518 Willow St",
    "address_councildis": "B",
    "status": "Pending",
    "rowid": "1075330",
    "final_x": "3674063.3611",
    "final_y": "526739.28979",
    "longitude": "-90.09171616179373",
    "latitude": "29.942574008734486",
    "geocoded_column": {
      "latitude": "29.942574008734486",
      "longitude": "-90.09171616179373"
    }
  },
  {
    "service_request": "2024-1075329",
    "request_type": "Trash/Recycling",
    "request_reason": "Request a Large Item Pick Up",
    "date_created": "2024-03-13T15:46:48.000",
    "date_modified": "2024-03-13T15:46:48.000",
    "request_status": "Pending",
    "responsible_agency": "Department of Sanitation",
    "final_address": "4908 Francisco Verrett Dr",
    "address_councildis": "E",
    "status": "Assigned to Contractor",
    "contractor": "Waste Pro",
    "rowid": "1075329",
    "final_x": "3704088.3514",
    "final_y": "555987.811545",
    "longitude": "-89.99584317077064",
    "latitude": "30.02206790165496",
    "geocoded_column": {
      "latitude": "30.02206790165496",
      "longitude": "-89.99584317077064"
    }
  },
  {
    "service_request": "2024-1075328",
    "request_type": "Roads/Drainage",
    "request_reason": "Accessibility Ramps, Curbs and Sidewalk Repair",
    "date_created": "2024-03-13T15:44:14.000",
    "date_modified": "2024-03-13T15:44:14.000",
    "request_status": "Pending",
    "responsible_agency": "Department of Public Works",
    "final_address": "1812 Music St",
    "address_councildis": "D",
    "status": "Pending",
    "rowid": "1075328",
    "final_x": "3686604.69961",
    "final_y": "539156.910602",
    "longitude": "-90.05168182732221",
    "latitude": "29.976338555742636",
    "geocoded_column": {
      "latitude": "29.976338555742636",
      "longitude": "-90.05168182732221"
    }
  },
  {
    "service_request": "2024-1075327",
    "request_type": "Trash/Recycling",
    "request_reason": "Order Recycling Cart",
    "date_created": "2024-03-13T15:38:48.000",
    "date_modified": "2024-03-13T15:38:49.000",
    "request_status": "Pending",
    "responsible_agency": "Department of Sanitation",
    "final_address": "2621 St Philip St",
    "address_councildis": "D",
    "status": "Pending",
    "rowid": "1075327",
    "final_x": "3677699.46574",
    "final_y": "537664.029704",
    "longitude": "-90.07985881513483",
    "latitude": "29.9725045262947",
    "geocoded_column": {
      "latitude": "29.9725045262947",
      "longitude": "-90.07985881513483"
    }
  },
  {
    "service_request": "2024-1075326",
    "request_type": "Property Maintenance",
    "request_reason": "Property Maintenance",
    "date_created": "2024-03-13T15:37:53.000",
    "date_modified": "2024-03-13T15:37:54.000",
    "request_status": "Pending",
    "responsible_agency": "Department of Code Enforcement",
    "final_address": "9223 Colapissa St",
    "address_councildis": "A",
    "status": "Pending",
    "rowid": "1075326",
    "final_x": "3663550.5696",
    "final_y": "536173.313351",
    "longitude": "-90.1245934229032",
    "latitude": "29.96882355415343",
    "geocoded_column": {
      "latitude": "29.96882355415343",
      "longitude": "-90.1245934229032"
    }
  },
  {
    "service_request": "2024-1075325",
    "request_type": "Trash/Recycling",
    "request_reason": "MIssed Recycling Pick-Up",
    "date_created": "2024-03-13T15:34:51.000",
    "date_modified": "2024-03-13T15:34:52.000",
    "request_status": "Pending",
    "responsible_agency": "Department of Sanitation",
    "final_address": "1431 Constance St, New Orleans, Louisiana, 70130",
    "address_councildis": "B",
    "status": "Assigned to Contractor",
    "contractor": "Richards Disposal",
    "rowid": "1075325",
    "final_x": "3680635.16514",
    "final_y": "524194.270716",
    "longitude": "-90.07105598366722",
    "latitude": "29.935378608323525",
    "geocoded_column": {
      "latitude": "29.935378608323525",
      "longitude": "-90.07105598366722"
    }
  },
  {
    "service_request": "2024-1075324",
    "request_type": "Property Maintenance",
    "request_reason": "Property Maintenance",
    "date_created": "2024-03-13T15:34:34.000",
    "date_modified": "2024-03-13T15:34:34.000",
    "request_status": "Pending",
    "responsible_agency": "Department of Code Enforcement",
    "final_address": "9429 Colapissa St",
    "address_councildis": "A",
    "status": "Pending",
    "rowid": "1075324",
    "final_x": "3663014.36621",
    "final_y": "536655.805831",
    "longitude": "-90.12627074283269",
    "latitude": "29.970165791759875",
    "geocoded_column": {
      "latitude": "29.970165791759875",
      "longitude": "-90.12627074283269"
    }
  },
  {
    "service_request": "2024-1075323",
    "request_type": "Trash/Recycling",
    "request_reason": "Request a Large Item Pick Up",
    "date_created": "2024-03-13T15:33:01.000",
    "date_modified": "2024-03-13T15:33:02.000",
    "request_status": "Pending",
    "responsible_agency": "Department of Sanitation",
    "final_address": "2220 Coliseum St",
    "address_councildis": "B",
    "status": "Assigned to Contractor",
    "contractor": "Richards Disposal",
    "rowid": "1075323",
    "final_x": "3678040.66331",
    "final_y": "522719.375418",
    "longitude": "-90.07929779708978",
    "latitude": "29.931401464590355",
    "geocoded_column": {
      "latitude": "29.931401464590355",
      "longitude": "-90.07929779708978"
    }
  },
  {
    "service_request": "2024-1075322",
    "request_type": "Property Maintenance",
    "request_reason": "Property Maintenance",
    "date_created": "2024-03-13T15:32:27.000",
    "date_modified": "2024-03-13T15:32:28.000",
    "request_status": "Pending",
    "responsible_agency": "Department of Code Enforcement",
    "final_address": "9308 Colapissa St",
    "address_councildis": "A",
    "status": "Pending",
    "rowid": "1075322",
    "final_x": "3663291.15411",
    "final_y": "536308.527943",
    "longitude": "-90.12540817534872",
    "latitude": "29.969202871794206",
    "geocoded_column": {
      "latitude": "29.969202871794206",
      "longitude": "-90.12540817534872"
    }
  },
  {
    "service_request": "2024-1075321",
    "request_type": "Property Maintenance",
    "request_reason": "Property Maintenance",
    "date_created": "2024-03-13T15:31:14.000",
    "date_modified": "2024-03-13T15:31:15.000",
    "request_status": "Pending",
    "responsible_agency": "Department of Code Enforcement",
    "final_address": "3129 Cherry St",
    "address_councildis": "A",
    "status": "Pending",
    "rowid": "1075321",
    "final_x": "3663606.27655",
    "final_y": "536410.369991",
    "longitude": "-90.12440959754146",
    "latitude": "29.969473765790188",
    "geocoded_column": {
      "latitude": "29.969473765790188",
      "longitude": "-90.12440959754146"
    }
  },
  {
    "service_request": "2024-1075320",
    "request_type": "Roads/Drainage",
    "request_reason": "Pothole",
    "date_created": "2024-03-13T15:29:37.000",
    "date_modified": "2024-03-13T15:29:37.000",
    "request_status": "Pending",
    "responsible_agency": "Department of Public Works",
    "final_address": "1312 Milan St",
    "address_councildis": "B",
    "status": "Pending",
    "rowid": "1075320",
    "final_x": "3671625.82823",
    "final_y": "520286.919608",
    "longitude": "-90.09963137110304",
    "latitude": "29.92490447494246",
    "geocoded_column": {
      "latitude": "29.92490447494246",
      "longitude": "-90.09963137110304"
    }
  },
  {
    "service_request": "2024-1075319",
    "request_type": "Property Maintenance",
    "request_reason": "Property Maintenance",
    "date_created": "2024-03-13T15:29:01.000",
    "date_modified": "2024-03-13T15:29:01.000",
    "request_status": "Pending",
    "responsible_agency": "Department of Code Enforcement",
    "final_address": "3225 Cherry St",
    "address_councildis": "A",
    "status": "Pending",
    "rowid": "1075319",
    "final_x": "3663806.12845",
    "final_y": "536622.753479",
    "longitude": "-90.12377136566627",
    "latitude": "29.97005195096284",
    "geocoded_column": {
      "latitude": "29.97005195096284",
      "longitude": "-90.12377136566627"
    }
  },
  {
    "service_request": "2024-1075318",
    "request_type": "Trash/Recycling",
    "request_reason": "Order Recycling Cart",
    "date_created": "2024-03-13T15:22:24.000",
    "date_modified": "2024-03-13T15:22:24.000",
    "request_status": "Pending",
    "responsible_agency": "Department of Sanitation",
    "final_address": "722 Hagan St",
    "address_councildis": "A",
    "status": "Pending",
    "rowid": "1075318",
    "final_x": "3674801.66965",
    "final_y": "538596.927369",
    "longitude": "-90.0889785879602",
    "latitude": "29.975156522941344",
    "geocoded_column": {
      "latitude": "29.975156522941344",
      "longitude": "-90.0889785879602"
    }
  },
  {
    "service_request": "2024-1075317",
    "request_type": "Roads/Drainage",
    "request_reason": "Leaking Hydrant",
    "date_created": "2024-03-13T15:22:05.000",
    "date_modified": "2024-03-13T15:31:31.000",
    "case_close_date": "2024-03-13T10:31:31.000",
    "request_status": "Closed",
    "responsible_agency": "Department of Public Works",
    "final_address": "3001 Napoleon Ave",
    "address_councildis": "B",
    "status": "Referred to External Agency",
    "rowid": "1075317",
    "final_x": "3670439.57364",
    "final_y": "526011.782654",
    "longitude": "-90.10318198547056",
    "latitude": "29.940681073816275",
    "geocoded_column": {
      "latitude": "29.940681073816275",
      "longitude": "-90.10318198547056"
    }
  },
  {
    "service_request": "2024-1075316",
    "request_type": "Property Maintenance",
    "request_reason": "Property Maintenance",
    "date_created": "2024-03-13T15:21:26.000",
    "date_modified": "2024-03-13T15:21:26.000",
    "request_status": "Pending",
    "responsible_agency": "Department of Code Enforcement",
    "final_address": "9322 Olive St",
    "address_councildis": "A",
    "status": "Pending",
    "rowid": "1075316",
    "final_x": "3663936.59207",
    "final_y": "537145.80116",
    "longitude": "-90.12334190337506",
    "latitude": "29.971486371691125",
    "geocoded_column": {
      "latitude": "29.971486371691125",
      "longitude": "-90.12334190337506"
    }
  },
  {
    "service_request": "2024-1075315",
    "request_type": "Trash/Recycling",
    "request_reason": "Illegal Dumping",
    "date_created": "2024-03-13T15:20:10.000",
    "date_modified": "2024-03-13T15:20:11.000",
    "request_status": "Pending",
    "responsible_agency": "Department of Sanitation",
    "final_address": "2620 S Galvez St",
    "address_councildis": "B",
    "status": "Pending",
    "rowid": "1075315",
    "final_x": "3672626.32776",
    "final_y": "528323.044416",
    "longitude": "-90.09619923032835",
    "latitude": "29.94697155322076",
    "geocoded_column": {
      "latitude": "29.94697155322076",
      "longitude": "-90.09619923032835"
    }
  },
  {
    "service_request": "2024-1075314",
    "request_type": "Property Maintenance",
    "request_reason": "Property Maintenance",
    "date_created": "2024-03-13T15:18:10.000",
    "date_modified": "2024-03-13T15:18:10.000",
    "request_status": "Pending",
    "responsible_agency": "Department of Code Enforcement",
    "final_address": "3400 Cherry St",
    "address_councildis": "A",
    "status": "Pending",
    "rowid": "1075314",
    "final_x": "3664109.86068",
    "final_y": "537087.441736",
    "longitude": "-90.122796640506",
    "latitude": "29.971320870424215",
    "geocoded_column": {
      "latitude": "29.971320870424215",
      "longitude": "-90.122796640506"
    }
  },
  {
    "service_request": "2024-1075313",
    "request_type": "Trash/Recycling",
    "request_reason": "MIssed Recycling Pick-Up",
    "date_created": "2024-03-13T15:16:39.000",
    "date_modified": "2024-03-13T15:16:40.000",
    "request_status": "Pending",
    "responsible_agency": "Department of Sanitation",
    "final_address": "2012 St Louis St",
    "address_councildis": "B",
    "status": "Assigned to Contractor",
    "contractor": "Richards Disposal",
    "rowid": "1075313",
    "final_x": "3678299.56405",
    "final_y": "534686.638598",
    "longitude": "-90.07806660840698",
    "latitude": "29.964299653049537",
    "geocoded_column": {
      "latitude": "29.964299653049537",
      "longitude": "-90.07806660840698"
    }
  },
  {
    "service_request": "2024-1075312",
    "request_type": "Trash/Recycling",
    "request_reason": "Request a Large Item Pick Up",
    "date_created": "2024-03-13T15:14:17.000",
    "date_modified": "2024-03-13T15:14:18.000",
    "request_status": "Pending",
    "responsible_agency": "Department of Sanitation",
    "final_address": "6246 Erin Dr",
    "address_councildis": "E",
    "status": "Assigned to Contractor",
    "contractor": "Waste Pro",
    "rowid": "1075312",
    "final_x": "3696462.08515",
    "final_y": "558704.11926",
    "longitude": "-90.0198417333989",
    "latitude": "30.029779274912702",
    "geocoded_column": {
      "latitude": "30.029779274912702",
      "longitude": "-90.0198417333989"
    }
  },
  {
    "service_request": "2024-1075311",
    "request_type": "Property Maintenance",
    "request_reason": "Property Maintenance",
    "date_created": "2024-03-13T15:14:15.000",
    "date_modified": "2024-03-13T15:14:16.000",
    "request_status": "Pending",
    "responsible_agency": "Department of Code Enforcement",
    "final_address": "9206 Olive St",
    "address_councildis": "A",
    "status": "Pending",
    "rowid": "1075311",
    "final_x": "3664307.79866",
    "final_y": "536804.184392",
    "longitude": "-90.12218097732172",
    "latitude": "29.97053625508219",
    "geocoded_column": {
      "latitude": "29.97053625508219",
      "longitude": "-90.12218097732172"
    }
  },
  {
    "service_request": "2024-1075310",
    "request_type": "Roads/Drainage",
    "request_reason": "Alley Way",
    "date_created": "2024-03-13T15:13:22.000",
    "date_modified": "2024-03-13T15:13:22.000",
    "request_status": "Pending",
    "responsible_agency": "Department of Public Works",
    "final_address": "6958 Louisville St",
    "address_councildis": "A",
    "status": "Pending",
    "rowid": "1075310",
    "final_x": "3668285.78285",
    "final_y": "553869.644823",
    "longitude": "-90.1090421550052",
    "latitude": "30.017344192151377",
    "geocoded_column": {
      "latitude": "30.017344192151377",
      "longitude": "-90.1090421550052"
    }
  },
  {
    "service_request": "2024-1075309",
    "request_type": "Trash/Recycling",
    "request_reason": "Repair Recycling Cart",
    "date_created": "2024-03-13T15:12:36.000",
    "date_modified": "2024-03-13T15:12:36.000",
    "request_status": "Pending",
    "responsible_agency": "Department of Sanitation",
    "final_address": "2320 Lark St",
    "address_councildis": "D",
    "status": "Pending",
    "rowid": "1075309",
    "final_x": "3684246.80444",
    "final_y": "557752.016923",
    "longitude": "-90.05847533915886",
    "latitude": "30.027540707810367",
    "geocoded_column": {
      "latitude": "30.027540707810367",
      "longitude": "-90.05847533915886"
    }
  },
  {
    "service_request": "2024-1075308",
    "request_type": "Trash/Recycling",
    "request_reason": "Repair Recycling Cart",
    "date_created": "2024-03-13T15:07:43.000",
    "date_modified": "2024-03-13T15:07:44.000",
    "request_status": "Pending",
    "responsible_agency": "Department of Sanitation",
    "final_address": "2473 Cumberland Ct",
    "address_councildis": "C",
    "status": "Pending",
    "rowid": "1075308",
    "final_x": "3704816.12439",
    "final_y": "521987.37881",
    "longitude": "-89.99479860260959",
    "latitude": "29.928555819456015",
    "geocoded_column": {
      "latitude": "29.928555819456015",
      "longitude": "-89.99479860260959"
    }
  },
  {
    "service_request": "2024-1075306",
    "request_type": "Trash/Recycling",
    "request_reason": "Repair Trash Cart",
    "date_created": "2024-03-13T15:07:14.000",
    "date_modified": "2024-03-13T15:07:14.000",
    "request_status": "Pending",
    "responsible_agency": "Department of Sanitation",
    "final_address": "2473 Cumberland Ct",
    "address_councildis": "C",
    "status": "Assigned to Contractor",
    "contractor": "Richards Disposal",
    "rowid": "1075306",
    "final_x": "3704816.12439",
    "final_y": "521987.37881",
    "longitude": "-89.99479860260959",
    "latitude": "29.928555819456015",
    "geocoded_column": {
      "latitude": "29.928555819456015",
      "longitude": "-89.99479860260959"
    }
  },
  {
    "service_request": "2024-1075305",
    "request_type": "Trash/Recycling",
    "request_reason": "Replace Trash Cart",
    "date_created": "2024-03-13T15:06:56.000",
    "date_modified": "2024-03-13T15:06:57.000",
    "request_status": "Pending",
    "responsible_agency": "Department of Sanitation",
    "final_address": "91 Pinehurst Dr",
    "address_councildis": "C",
    "status": "Assigned to Contractor",
    "contractor": "Richards Disposal",
    "rowid": "1075305",
    "final_x": "3714440.50104",
    "final_y": "515696.94642",
    "longitude": "-89.96465401844887",
    "latitude": "29.91094671044229",
    "geocoded_column": {
      "latitude": "29.91094671044229",
      "longitude": "-89.96465401844887"
    }
  },
  {
    "service_request": "2024-1075304",
    "request_type": "Trash/Recycling",
    "request_reason": "Illegal Dumping",
    "date_created": "2024-03-13T15:06:07.000",
    "date_modified": "2024-03-13T15:06:07.000",
    "request_status": "Pending",
    "responsible_agency": "Department of Sanitation",
    "final_address": "422 S Olympia St",
    "address_councildis": "A",
    "status": "Pending",
    "rowid": "1075304",
    "final_x": "3668584.11802",
    "final_y": "538474.872073",
    "longitude": "-90.10861942829035",
    "latitude": "29.9750051068452",
    "geocoded_column": {
      "latitude": "29.9750051068452",
      "longitude": "-90.10861942829035"
    }
  },
  {
    "service_request": "2024-1075303",
    "request_type": "Healthy Homes",
    "request_reason": "Healthy Homes",
    "date_created": "2024-03-13T15:05:07.000",
    "date_modified": "2024-03-13T15:05:07.000",
    "request_status": "Pending",
    "responsible_agency": "Department of Code Enforcement",
    "final_address": "1009 Pine St",
    "address_councildis": "A",
    "status": "Pending",
    "rowid": "1075303",
    "final_x": "3663602.49395",
    "final_y": "526124.978238",
    "longitude": "-90.1247641472678",
    "latitude": "29.94119238484068",
    "geocoded_column": {
      "latitude": "29.94119238484068",
      "longitude": "-90.1247641472678"
    }
  },
  {
    "service_request": "2024-1075301",
    "request_type": "Roads/Drainage",
    "request_reason": "Pothole",
    "date_created": "2024-03-13T15:01:20.000",
    "date_modified": "2024-03-13T15:01:20.000",
    "request_status": "Pending",
    "responsible_agency": "Department of Public Works",
    "final_address": "1301 Constantinople St",
    "address_councildis": "B",
    "status": "Pending",
    "rowid": "1075301",
    "final_x": "3672430.66305",
    "final_y": "520250.7726",
    "longitude": "-90.09709199725775",
    "latitude": "29.924781230435865",
    "geocoded_column": {
      "latitude": "29.924781230435865",
      "longitude": "-90.09709199725775"
    }
  },
  {
    "service_request": "2024-1075300",
    "request_type": "Traffic Signals/Signs/Striping/Streetlights",
    "request_reason": "Street Name Sign Damaged or Missing",
    "date_created": "2024-03-13T14:59:52.000",
    "date_modified": "2024-03-13T14:59:53.000",
    "request_status": "Pending",
    "responsible_agency": "Department of Public Works",
    "final_address": "2641 Sage St",
    "address_councildis": "D",
    "status": "Pending",
    "rowid": "1075300",
    "final_x": "3687542.4605",
    "final_y": "545571.848592",
    "longitude": "-90.04849292497863",
    "latitude": "29.993948477353772",
    "geocoded_column": {
      "latitude": "29.993948477353772",
      "longitude": "-90.04849292497863"
    }
  },
  {
    "service_request": "2024-1075298",
    "request_type": "Trash/Recycling",
    "request_reason": "Order Trash Cart",
    "date_created": "2024-03-13T14:52:18.000",
    "date_modified": "2024-03-13T17:50:21.000",
    "case_close_date": "2024-03-13T12:50:21.000",
    "request_status": "Closed",
    "responsible_agency": "Department of Sanitation",
    "final_address": "4620 Alba Rd",
    "address_councildis": "E",
    "status": "Duplicate Request",
    "contractor": "Waste Pro",
    "contractor_action": "Duplicate",
    "rowid": "1075298",
    "final_x": "3761739.08048",
    "final_y": "573792.758954",
    "longitude": "-89.81293988980426",
    "latitude": "30.069047175693317",
    "geocoded_column": {
      "latitude": "30.069047175693317",
      "longitude": "-89.81293988980426"
    }
  },
  {
    "service_request": "2024-1075297",
    "request_type": "Abandoned Vehicles",
    "request_reason": "Abandoned/Junk Vehicles",
    "date_created": "2024-03-13T14:51:48.000",
    "date_modified": "2024-03-13T14:51:48.000",
    "request_status": "Closed",
    "responsible_agency": "Department of Public Works",
    "final_address": "2022 Annette St",
    "address_councildis": "D",
    "status": "Inspected",
    "rowid": "1075297",
    "final_x": "3682828.08444",
    "final_y": "539666.485962",
    "longitude": "-90.06359166193879",
    "latitude": "29.977855321747327",
    "geocoded_column": {
      "latitude": "29.977855321747327",
      "longitude": "-90.06359166193879"
    }
  },
  {
    "service_request": "2024-1075296",
    "request_type": "Trash/Recycling",
    "request_reason": "Request a Large Item Pick Up",
    "date_created": "2024-03-13T14:50:16.000",
    "date_modified": "2024-03-13T14:50:17.000",
    "request_status": "Pending",
    "responsible_agency": "Department of Sanitation",
    "final_address": "3221 St Peter St",
    "address_councildis": "A",
    "status": "Assigned to Contractor",
    "contractor": "Richards Disposal",
    "rowid": "1075296",
    "final_x": "3674774.04046",
    "final_y": "538324.779657",
    "longitude": "-90.08907518169035",
    "latitude": "29.974409034543545",
    "geocoded_column": {
      "latitude": "29.974409034543545",
      "longitude": "-90.08907518169035"
    }
  },
  {
    "service_request": "2024-1075295",
    "request_type": "Trash/Recycling",
    "request_reason": "Replace Recycling Cart",
    "date_created": "2024-03-13T14:49:44.000",
    "date_modified": "2024-03-13T14:49:44.000",
    "request_status": "Pending",
    "responsible_agency": "Department of Sanitation",
    "final_address": "1908 Short St",
    "address_councildis": "A",
    "status": "Pending",
    "rowid": "1075295",
    "final_x": "3664006.88391",
    "final_y": "529999.480961",
    "longitude": "-90.12335823438305",
    "latitude": "29.951834287900574",
    "geocoded_column": {
      "latitude": "29.951834287900574",
      "longitude": "-90.12335823438305"
    }
  },
  {
    "service_request": "2024-1075294",
    "request_type": "Trash/Recycling",
    "request_reason": "Repair Trash Cart",
    "date_created": "2024-03-13T14:46:59.000",
    "date_modified": "2024-03-13T14:47:00.000",
    "request_status": "Pending",
    "responsible_agency": "Department of Sanitation",
    "final_address": "419 S Murat St",
    "address_councildis": "A",
    "status": "Assigned to Contractor",
    "contractor": "Richards Disposal",
    "rowid": "1075294",
    "final_x": "3668826.03476",
    "final_y": "538297.115721",
    "longitude": "-90.10786139476592",
    "latitude": "29.97450922465419",
    "geocoded_column": {
      "latitude": "29.97450922465419",
      "longitude": "-90.10786139476592"
    }
  },
  {
    "service_request": "2024-1075293",
    "request_type": "Traffic Signals/Signs/Striping/Streetlights",
    "request_reason": "Street Light Knocked Down/Leaning",
    "date_created": "2024-03-13T14:46:20.000",
    "date_modified": "2024-03-13T14:46:20.000",
    "request_status": "Pending",
    "responsible_agency": "Department of Public Works",
    "final_address": "3600 BLK N Robertson St",
    "address_councildis": "D",
    "status": "Pending",
    "contractor": "Legacy Professional Services",
    "rowid": "1075293",
    "final_x": "3691206.50174",
    "final_y": "537033.381101",
    "longitude": "-90.0372238740095",
    "latitude": "29.970357268442115",
    "geocoded_column": {
      "latitude": "29.970357268442115",
      "longitude": "-90.0372238740095"
    }
  },
  {
    "service_request": "2024-1075292",
    "request_type": "Roads/Drainage",
    "request_reason": "Catch Basin - Clogged",
    "date_created": "2024-03-13T14:46:18.000",
    "date_modified": "2024-03-13T14:46:18.000",
    "request_status": "Pending",
    "responsible_agency": "Department of Public Works",
    "final_address": "7608 Willow St",
    "address_councildis": "A",
    "status": "Pending",
    "rowid": "1075292",
    "final_x": "3663649.92634",
    "final_y": "527726.555327",
    "longitude": "-90.12456105164493",
    "latitude": "29.945594833762172",
    "geocoded_column": {
      "latitude": "29.945594833762172",
      "longitude": "-90.12456105164493"
    }
  },
  {
    "service_request": "2024-1075291",
    "request_type": "Trash/Recycling",
    "request_reason": "Order Trash Cart",
    "date_created": "2024-03-13T14:46:00.000",
    "date_modified": "2024-03-13T14:46:00.000",
    "request_status": "Pending",
    "responsible_agency": "Department of Sanitation",
    "final_address": "4765 Baccich St",
    "address_councildis": "D",
    "status": "Assigned to Contractor",
    "contractor": "IV Waste",
    "rowid": "1075291",
    "final_x": "3687755.96246",
    "final_y": "550821.722453",
    "longitude": "-90.04763242690785",
    "latitude": "30.008377141676192",
    "geocoded_column": {
      "latitude": "30.008377141676192",
      "longitude": "-90.04763242690785"
    }
  },
  {
    "service_request": "2024-1075290",
    "request_type": "Trash/Recycling",
    "request_reason": "Repair Recycling Cart",
    "date_created": "2024-03-13T14:45:45.000",
    "date_modified": "2024-03-13T14:45:45.000",
    "request_status": "Pending",
    "responsible_agency": "Department of Sanitation",
    "final_address": "2840 Jefferson Ave",
    "address_councildis": "A",
    "status": "Pending",
    "rowid": "1075290",
    "final_x": "3668241.48788",
    "final_y": "525939.402109",
    "longitude": "-90.1101241807544",
    "latitude": "29.940546754948194",
    "geocoded_column": {
      "latitude": "29.940546754948194",
      "longitude": "-90.1101241807544"
    }
  },
  {
    "service_request": "2024-1075289",
    "request_type": "Abandoned Vehicles",
    "request_reason": "Vehicle Blocking Your Driveway",
    "date_created": "2024-03-13T14:45:04.000",
    "date_modified": "2024-03-13T14:45:04.000",
    "request_status": "Pending",
    "responsible_agency": "Department of Public Works",
    "final_address": "1335 Bodenger blvd",
    "status": "Pending",
    "rowid": "1075289",
    "longitude": "0.0",
    "latitude": "0.0",
    "geocoded_column": {
      "latitude": "0.0",
      "longitude": "0.0"
    }
  },
  {
    "service_request": "2024-1075288",
    "request_type": "Traffic Signals/Signs/Striping/Streetlights",
    "request_reason": "Street Light Knocked Down/Leaning",
    "date_created": "2024-03-13T14:44:43.000",
    "date_modified": "2024-03-13T14:44:43.000",
    "request_status": "Pending",
    "responsible_agency": "Department of Public Works",
    "final_address": "3600 BLK N Robertson St",
    "address_councildis": "D",
    "status": "Pending",
    "contractor": "Legacy Professional Services",
    "rowid": "1075288",
    "final_x": "3691206.50174",
    "final_y": "537033.381101",
    "longitude": "-90.0372238740095",
    "latitude": "29.970357268442115",
    "geocoded_column": {
      "latitude": "29.970357268442115",
      "longitude": "-90.0372238740095"
    }
  },
  {
    "service_request": "2024-1075287",
    "request_type": "Trash/Recycling",
    "request_reason": "Replace Trash Cart",
    "date_created": "2024-03-13T14:39:27.000",
    "date_modified": "2024-03-13T14:39:28.000",
    "request_status": "Pending",
    "responsible_agency": "Department of Sanitation",
    "final_address": "4765 Baccich St",
    "address_councildis": "D",
    "status": "Assigned to Contractor",
    "contractor": "IV Waste",
    "rowid": "1075287",
    "final_x": "3687755.96246",
    "final_y": "550821.722453",
    "longitude": "-90.04763242690785",
    "latitude": "30.008377141676192",
    "geocoded_column": {
      "latitude": "30.008377141676192",
      "longitude": "-90.04763242690785"
    }
  },
  {
    "service_request": "2024-1075286",
    "request_type": "Trash/Recycling",
    "request_reason": "Replace Trash Cart",
    "date_created": "2024-03-13T14:38:38.000",
    "date_modified": "2024-03-13T14:38:39.000",
    "request_status": "Pending",
    "responsible_agency": "Department of Sanitation",
    "final_address": "3112 Annunciation St",
    "address_councildis": "B",
    "status": "Assigned to Contractor",
    "contractor": "Richards Disposal",
    "rowid": "1075286",
    "final_x": "3676638.79003",
    "final_y": "519180.149175",
    "longitude": "-90.08384517867948",
    "latitude": "29.921711852483455",
    "geocoded_column": {
      "latitude": "29.921711852483455",
      "longitude": "-90.08384517867948"
    }
  },
  {
    "service_request": "2024-1075285",
    "request_type": "Trash/Recycling",
    "request_reason": "Request a Large Item Pick Up",
    "date_created": "2024-03-13T14:36:44.000",
    "date_modified": "2024-03-13T14:36:45.000",
    "request_status": "Pending",
    "responsible_agency": "Department of Sanitation",
    "final_address": "2718 Painters St",
    "address_councildis": "D",
    "status": "Assigned to Contractor",
    "contractor": "IV Waste",
    "rowid": "1075285",
    "final_x": "3687006.80098",
    "final_y": "542942.573133",
    "longitude": "-90.0502779936753",
    "latitude": "29.986735414636556",
    "geocoded_column": {
      "latitude": "29.986735414636556",
      "longitude": "-90.0502779936753"
    }
  },
  {
    "service_request": "2024-1075284",
    "request_type": "Trash/Recycling",
    "request_reason": "Return Trash Cart",
    "date_created": "2024-03-13T14:36:29.000",
    "date_modified": "2024-03-13T14:36:29.000",
    "request_status": "Pending",
    "responsible_agency": "Department of Sanitation",
    "final_address": "2718 Painters St",
    "address_councildis": "D",
    "status": "Assigned to Contractor",
    "contractor": "IV Waste",
    "rowid": "1075284",
    "final_x": "3687006.80098",
    "final_y": "542942.573133",
    "longitude": "-90.0502779936753",
    "latitude": "29.986735414636556",
    "geocoded_column": {
      "latitude": "29.986735414636556",
      "longitude": "-90.0502779936753"
    }
  },
  {
    "service_request": "2024-1075283",
    "request_type": "Abandoned Vehicles",
    "request_reason": "Abandoned/Junk Vehicles",
    "date_created": "2024-03-13T14:35:59.000",
    "date_modified": "2024-03-13T14:36:29.000",
    "request_status": "Pending",
    "responsible_agency": "Department of Public Works",
    "final_address": "UPPERLINE ST & S SARATOGA ST",
    "address_councildis": "B",
    "status": "Inspected",
    "rowid": "1075283",
    "final_x": "3669121.0",
    "final_y": "522491.68",
    "longitude": "-90.10746385864505",
    "latitude": "29.93104078167375",
    "geocoded_column": {
      "latitude": "29.93104078167375",
      "longitude": "-90.10746385864505"
    }
  },
  {
    "service_request": "2024-1075282",
    "request_type": "Trash/Recycling",
    "request_reason": "Request a Large Item Pick Up",
    "date_created": "2024-03-13T14:35:20.000",
    "date_modified": "2024-03-13T14:35:21.000",
    "request_status": "Pending",
    "responsible_agency": "Department of Sanitation",
    "final_address": "6516 Bellaire Dr",
    "address_councildis": "A",
    "status": "Assigned to Contractor",
    "contractor": "IV Waste",
    "rowid": "1075282",
    "final_x": "3664431.94816",
    "final_y": "551450.278165",
    "longitude": "-90.12129963561242",
    "latitude": "30.010804436871908",
    "geocoded_column": {
      "latitude": "30.010804436871908",
      "longitude": "-90.12129963561242"
    }
  },
  {
    "service_request": "2024-1075281",
    "request_type": "Abandoned Vehicles",
    "request_reason": "Abandoned/Junk Vehicles",
    "date_created": "2024-03-13T14:31:52.000",
    "date_modified": "2024-03-13T14:31:52.000",
    "request_status": "Closed",
    "responsible_agency": "Department of Public Works",
    "final_address": "ST BERNARD AVE & N ROCHEBLAVE ST",
    "address_councildis": "D",
    "status": "Inspected",
    "rowid": "1075281",
    "final_x": "3680694.3",
    "final_y": "540778.98",
    "longitude": "-90.0702921614172",
    "latitude": "29.980979136775385",
    "geocoded_column": {
      "latitude": "29.980979136775385",
      "longitude": "-90.0702921614172"
    }
  },
  {
    "service_request": "2024-1075279",
    "request_type": "Property Maintenance",
    "request_reason": "Property Maintenance",
    "date_created": "2024-03-13T14:26:56.000",
    "date_modified": "2024-03-13T14:26:56.000",
    "request_status": "Pending",
    "responsible_agency": "Department of Code Enforcement",
    "final_address": "4520 Marais St",
    "address_councildis": "D",
    "status": "Pending",
    "rowid": "1075279",
    "final_x": "3693558.64278",
    "final_y": "535150.179718",
    "longitude": "-90.0298632412413",
    "latitude": "29.965105764277393",
    "geocoded_column": {
      "latitude": "29.965105764277393",
      "longitude": "-90.0298632412413"
    }
  },
  {
    "service_request": "2024-1075278",
    "request_type": "Trash/Recycling",
    "request_reason": "Illegal Dumping",
    "date_created": "2024-03-13T14:26:35.000",
    "date_modified": "2024-03-13T14:26:35.000",
    "request_status": "Pending",
    "responsible_agency": "Department of Sanitation",
    "final_address": "HAMMOND ST & WERNER DR",
    "address_councildis": "E",
    "status": "Pending",
    "rowid": "1075278",
    "final_x": "3704733.3",
    "final_y": "555620.58",
    "longitude": "-89.99381887699023",
    "latitude": "30.02103744121229",
    "geocoded_column": {
      "latitude": "30.02103744121229",
      "longitude": "-89.99381887699023"
    }
  },
  {
    "service_request": "2024-1075277",
    "request_type": "Trash/Recycling",
    "request_reason": "Missed Trash Pick-Up",
    "date_created": "2024-03-13T14:25:19.000",
    "date_modified": "2024-03-13T14:25:19.000",
    "request_status": "Pending",
    "responsible_agency": "Department of Sanitation",
    "final_address": "1347 Magazine St",
    "address_councildis": "B",
    "status": "Assigned to Contractor",
    "contractor": "Richards Disposal",
    "rowid": "1075277",
    "final_x": "3680400.3444",
    "final_y": "524860.841724",
    "longitude": "-90.07177414442371",
    "latitude": "29.937218568812625",
    "geocoded_column": {
      "latitude": "29.937218568812625",
      "longitude": "-90.07177414442371"
    }
  },
  {
    "service_request": "2024-1075276",
    "request_type": "Mosquito, Termite & Rodent Control",
    "request_reason": "Rodent Complaint (Rats)",
    "date_created": "2024-03-13T14:24:18.000",
    "date_modified": "2024-03-13T14:24:18.000",
    "request_status": "Pending",
    "responsible_agency": "Mosquito, Termite & Rodent Control Board",
    "final_address": "3311 Sullen Pl",
    "address_councildis": "C",
    "status": "Pending",
    "rowid": "1075276",
    "final_x": "3707673.06993",
    "final_y": "518632.728375",
    "longitude": "-89.98590444201997",
    "latitude": "29.919239628520696",
    "geocoded_column": {
      "latitude": "29.919239628520696",
      "longitude": "-89.98590444201997"
    }
  },
  {
    "service_request": "2024-1075275",
    "request_type": "Trash/Recycling",
    "request_reason": "Order Recycling Cart",
    "date_created": "2024-03-13T14:23:48.000",
    "date_modified": "2024-03-13T14:23:49.000",
    "request_status": "Pending",
    "responsible_agency": "Department of Sanitation",
    "final_address": "6500 Colbert St",
    "address_councildis": "A",
    "status": "Pending",
    "rowid": "1075275",
    "final_x": "3667633.8521",
    "final_y": "550868.370901",
    "longitude": "-90.11120314323438",
    "latitude": "30.00911087985424",
    "geocoded_column": {
      "latitude": "30.00911087985424",
      "longitude": "-90.11120314323438"
    }
  },
  {
    "service_request": "2024-1075274",
    "request_type": "Property Maintenance",
    "request_reason": "Property Maintenance",
    "date_created": "2024-03-13T14:22:03.000",
    "date_modified": "2024-03-13T14:22:03.000",
    "request_status": "Pending",
    "responsible_agency": "Department of Code Enforcement",
    "final_address": "4520 Marais St",
    "address_councildis": "D",
    "status": "Pending",
    "rowid": "1075274",
    "final_x": "3693558.64278",
    "final_y": "535150.179718",
    "longitude": "-90.0298632412413",
    "latitude": "29.965105764277393",
    "geocoded_column": {
      "latitude": "29.965105764277393",
      "longitude": "-90.0298632412413"
    }
  },
  {
    "service_request": "2024-1075273",
    "request_type": "Trash/Recycling",
    "request_reason": "Illegal Dumping",
    "date_created": "2024-03-13T14:21:00.000",
    "date_modified": "2024-03-13T14:21:00.000",
    "request_status": "Pending",
    "responsible_agency": "Department of Sanitation",
    "final_address": "7900 BLK Leeds St",
    "address_councildis": "E",
    "status": "Pending",
    "rowid": "1075273",
    "final_x": "3704656.81047",
    "final_y": "554958.594267",
    "longitude": "-89.99408500757286",
    "latitude": "30.01921969413309",
    "geocoded_column": {
      "latitude": "30.01921969413309",
      "longitude": "-89.99408500757286"
    }
  },
  {
    "service_request": "2024-1075272",
    "request_type": "Trash/Recycling",
    "request_reason": "Request a Large Item Pick Up",
    "date_created": "2024-03-13T14:20:42.000",
    "date_modified": "2024-03-13T14:20:43.000",
    "request_status": "Pending",
    "responsible_agency": "Department of Sanitation",
    "final_address": "453 Hendee St",
    "address_councildis": "C",
    "status": "Assigned to Contractor",
    "contractor": "Richards Disposal",
    "rowid": "1075272",
    "final_x": "3690844.3704",
    "final_y": "529824.482561",
    "longitude": "-90.03862476362423",
    "latitude": "29.950546570999666",
    "geocoded_column": {
      "latitude": "29.950546570999666",
      "longitude": "-90.03862476362423"
    }
  },
  {
    "service_request": "2024-1075271",
    "request_type": "Trash/Recycling",
    "request_reason": "Replace Trash Cart",
    "date_created": "2024-03-13T14:19:55.000",
    "date_modified": "2024-03-13T14:20:15.000",
    "request_status": "Pending",
    "responsible_agency": "Department of Sanitation",
    "final_address": "2339 Humanity St",
    "address_councildis": "D",
    "status": "Assigned to Contractor",
    "contractor": "IV Waste",
    "rowid": "1075271",
    "final_x": "3685395.11855",
    "final_y": "544924.855055",
    "longitude": "-90.05529885391435",
    "latitude": "29.992235508435265",
    "geocoded_column": {
      "latitude": "29.992235508435265",
      "longitude": "-90.05529885391435"
    }
  },
  {
    "service_request": "2024-1075270",
    "request_type": "Trash/Recycling",
    "request_reason": "Return Trash Cart",
    "date_created": "2024-03-13T14:19:11.000",
    "date_modified": "2024-03-13T14:19:21.000",
    "request_status": "Pending",
    "responsible_agency": "Department of Sanitation",
    "final_address": "2339 Humanity St",
    "address_councildis": "D",
    "status": "Assigned to Contractor",
    "contractor": "IV Waste",
    "rowid": "1075270",
    "final_x": "3685395.11855",
    "final_y": "544924.855055",
    "longitude": "-90.05529885391435",
    "latitude": "29.992235508435265",
    "geocoded_column": {
      "latitude": "29.992235508435265",
      "longitude": "-90.05529885391435"
    }
  },
  {
    "service_request": "2024-1075269",
    "request_type": "Property Maintenance",
    "request_reason": "Property Maintenance",
    "date_created": "2024-03-13T14:18:04.000",
    "date_modified": "2024-03-13T14:18:04.000",
    "request_status": "Pending",
    "responsible_agency": "Department of Code Enforcement",
    "final_address": "1201 Kentucky St",
    "address_councildis": "D",
    "status": "Pending",
    "rowid": "1075269",
    "final_x": "3693451.99561",
    "final_y": "535301.960518",
    "longitude": "-90.03019457441668",
    "latitude": "29.965526443296298",
    "geocoded_column": {
      "latitude": "29.965526443296298",
      "longitude": "-90.03019457441668"
    }
  },
  {
    "service_request": "2024-1075268",
    "request_type": "Trash/Recycling",
    "request_reason": "Repair Trash Cart",
    "date_created": "2024-03-13T14:11:22.000",
    "date_modified": "2024-03-13T14:11:23.000",
    "request_status": "Pending",
    "responsible_agency": "Department of Sanitation",
    "final_address": "8026 Gus St",
    "address_councildis": "E",
    "status": "Assigned to Contractor",
    "contractor": "Waste Pro",
    "rowid": "1075268",
    "final_x": "3703295.80497",
    "final_y": "563168.013728",
    "longitude": "-89.99808301990942",
    "latitude": "30.04183607321788",
    "geocoded_column": {
      "latitude": "30.04183607321788",
      "longitude": "-89.99808301990942"
    }
  },
  {
    "service_request": "2024-1075267",
    "request_type": "Trash/Recycling",
    "request_reason": "Request a Large Item Pick Up",
    "date_created": "2024-03-13T14:10:07.000",
    "date_modified": "2024-03-13T14:10:07.000",
    "request_status": "Pending",
    "responsible_agency": "Department of Sanitation",
    "final_address": "1532 Flanders St",
    "address_councildis": "C",
    "status": "Assigned to Contractor",
    "contractor": "Richards Disposal",
    "rowid": "1075267",
    "final_x": "3696736.71594",
    "final_y": "525569.018621",
    "longitude": "-90.02017386712721",
    "latitude": "29.93866114121415",
    "geocoded_column": {
      "latitude": "29.93866114121415",
      "longitude": "-90.02017386712721"
    }
  },
  {
    "service_request": "2024-1075266",
    "request_type": "Trash/Recycling",
    "request_reason": "Replace Recycling Cart",
    "date_created": "2024-03-13T14:09:52.000",
    "date_modified": "2024-03-13T14:09:52.000",
    "request_status": "Pending",
    "responsible_agency": "Department of Sanitation",
    "final_address": "2217 General Pershing St, New Orleans, Louisiana, 70115",
    "address_councildis": "B",
    "status": "Pending",
    "rowid": "1075266",
    "final_x": "3671053.43886",
    "final_y": "523206.898811",
    "longitude": "-90.10133911647414",
    "latitude": "29.932950414947143",
    "geocoded_column": {
      "latitude": "29.932950414947143",
      "longitude": "-90.10133911647414"
    }
  },
  {
    "service_request": "2024-1075265",
    "request_type": "Roads/Drainage",
    "request_reason": "Pothole",
    "date_created": "2024-03-13T14:06:39.000",
    "date_modified": "2024-03-13T14:06:57.000",
    "case_close_date": "2024-03-13T09:06:57.000",
    "request_status": "Closed",
    "responsible_agency": "Department of Public Works",
    "final_address": "5034 Congress Dr",
    "address_councildis": "D",
    "status": "Resolved",
    "rowid": "1075265",
    "final_x": "3691868.3944",
    "final_y": "552938.326167",
    "longitude": "-90.03456421887182",
    "latitude": "30.014069497464398",
    "geocoded_column": {
      "latitude": "30.014069497464398",
      "longitude": "-90.03456421887182"
    }
  },
  {
    "service_request": "2024-1075264",
    "request_type": "Roads/Drainage",
    "request_reason": "Pothole",
    "date_created": "2024-03-13T14:05:24.000",
    "date_modified": "2024-03-13T14:05:46.000",
    "case_close_date": "2024-03-13T09:05:46.000",
    "request_status": "Closed",
    "responsible_agency": "Department of Public Works",
    "final_address": "5619 Congress Dr",
    "address_councildis": "D",
    "status": "Resolved",
    "rowid": "1075264",
    "final_x": "3691531.34902",
    "final_y": "554611.32316",
    "longitude": "-90.03556924130584",
    "latitude": "30.01868011612406",
    "geocoded_column": {
      "latitude": "30.01868011612406",
      "longitude": "-90.03556924130584"
    }
  },