[
  {
    "service_request": "2023-1026693",
    "request_type": "Traffic Signals/Signs/Striping/Streetlights",
    "request_reason": "Traffic Signal Malfunctioning/Damaged",
    "date_created": "2023-08-16T00:02:01.000",
    "date_modified": "2023-08-16T00:02:01.000",
    "request_status": "Pending",
    "responsible_agency": "Department of Public Works",
    "final_address": "ST CLAUDE AVE & FRANKLIN AVE",
    "address_councildis": "C",
    "status": "Pending",
    "rowid": "1026693",
    "final_x": "3687068.7",
    "final_y": "536547.68",
    "longitude": "-90.05030865196827",
    "latitude": "29.96914980739771",
    "geocoded_column": {
      "latitude": "29.96914980739771",
      "longitude": "-90.05030865196827"
    }
  },
  {
    "service_request": "2023-1026691",
    "request_type": "Trash/Recycling",
    "request_reason": "Illegal Dumping",
    "date_created": "2023-08-15T23:18:57.000",
    "date_modified": "2023-08-15T23:18:57.000",
    "request_status": "Pending",
    "responsible_agency": "Department of Sanitation",
    "final_address": "1648 St Andrew St",
    "address_councildis": "B",
    "status": "Pending",
    "rowid": "1026691",
    "final_x": "3677902.14722",
    "final_y": "524452.04422",
    "longitude": "-90.07967523055598",
    "latitude": "29.936169903189352",
    "geocoded_column": {
      "latitude": "29.936169903189352",
      "longitude": "-90.07967523055598"
    }
  },
  {
    "service_request": "2023-1026690",
    "request_type": "Roads/Drainage",
    "request_reason": "Road Shoulder Repair",
    "date_created": "2023-08-15T22:13:10.000",
    "date_modified": "2023-08-15T22:13:10.000",
    "request_status": "Pending",
    "responsible_agency": "Department of Public Works",
    "final_address": "4000 BLK Coliseum St",
    "address_councildis": "B",
    "status": "Pending",
    "rowid": "1026690",
    "final_x": "3672238.14072",
    "final_y": "519950.432656",
    "longitude": "-90.09770995128646",
    "latitude": "29.923961101655525",
    "geocoded_column": {
      "latitude": "29.923961101655525",
      "longitude": "-90.09770995128646"
    }
  },
  {
    "service_request": "2023-1026689",
    "request_type": "Property Maintenance",
    "request_reason": "Property Maintenance",
    "date_created": "2023-08-15T22:05:45.000",
    "date_modified": "2023-08-15T22:05:45.000",
    "request_status": "Pending",
    "responsible_agency": "Department of Code Enforcement",
    "status": "Pending",
    "rowid": "1026689",
    "longitude": "0.0",
    "latitude": "0.0",
    "geocoded_column": {
      "latitude": "0.0",
      "longitude": "0.0"
    }
  },
  {
    "service_request": "2023-1026687",
    "request_type": "Roads/Drainage",
    "request_reason": "Pothole",
    "date_created": "2023-08-15T21:44:21.000",
    "date_modified": "2023-08-15T21:44:21.000",
    "request_status": "Pending",
    "responsible_agency": "Department of Public Works",
    "final_address": "4330 Perrier St",
    "address_councildis": "B",
    "status": "Pending",
    "rowid": "1026687",
    "final_x": "3671071.08353",
    "final_y": "520050.265912",
    "longitude": "-90.10139055431104",
    "latitude": "29.924270164437946",
    "geocoded_column": {
      "latitude": "29.924270164437946",
      "longitude": "-90.10139055431104"
    }
  },
  {
    "service_request": "2023-1026686",
    "request_type": "Roads/Drainage",
    "request_reason": "Street Subsidence (Sinking)",
    "date_created": "2023-08-15T21:33:38.000",
    "date_modified": "2023-08-15T21:33:38.000",
    "request_status": "Pending",
    "responsible_agency": "Department of Public Works",
    "final_address": "2424 Royal St",
    "address_councildis": "C",
    "status": "Pending",
    "rowid": "1026686",
    "final_x": "3686109.60489",
    "final_y": "534922.923462",
    "longitude": "-90.05339485288546",
    "latitude": "29.964711785653222",
    "geocoded_column": {
      "latitude": "29.964711785653222",
      "longitude": "-90.05339485288546"
    }
  },
  {
    "service_request": "2023-1026685",
    "request_type": "Property Maintenance",
    "request_reason": "Property Maintenance",
    "date_created": "2023-08-15T21:21:33.000",
    "date_modified": "2023-08-15T21:21:33.000",
    "request_status": "Pending",
    "responsible_agency": "Department of Code Enforcement",
    "final_address": "5552 Read Blvd",
    "address_councildis": "E",
    "status": "Pending",
    "rowid": "1026685",
    "final_x": "3711612.33822",
    "final_y": "558560.875996",
    "longitude": "-89.97197291933162",
    "latitude": "30.028899184723294",
    "geocoded_column": {
      "latitude": "30.028899184723294",
      "longitude": "-89.97197291933162"
    }
  },
  {
    "service_request": "2023-1026684",
    "request_type": "Traffic Signals/Signs/Striping/Streetlights",
    "request_reason": "Traffic Signal Malfunctioning/Damaged",
    "date_created": "2023-08-15T21:18:24.000",
    "date_modified": "2023-08-15T21:18:24.000",
    "request_status": "Pending",
    "responsible_agency": "Department of Public Works",
    "status": "Pending",
    "rowid": "1026684",
    "longitude": "0.0",
    "latitude": "0.0",
    "geocoded_column": {
      "latitude": "0.0",
      "longitude": "0.0"
    }
  },
  {
    "service_request": "2023-1026683",
    "request_type": "Property Maintenance",
    "request_reason": "Property Maintenance",
    "date_created": "2023-08-15T21:14:28.000",
    "date_modified": "2023-08-15T21:14:28.000",
    "request_status": "Pending",
    "responsible_agency": "Department of Code Enforcement",
    "final_address": "4921 Crowder Blvd",
    "address_councildis": "E",
    "status": "Pending",
    "rowid": "1026683",
    "final_x": "3706446.13502",
    "final_y": "556580.12521",
    "longitude": "-89.98837126500057",
    "latitude": "30.02362064986956",
    "geocoded_column": {
      "latitude": "30.02362064986956",
      "longitude": "-89.98837126500057"
    }
  },
  {
    "service_request": "2023-1026682",
    "request_type": "Traffic Signals/Signs/Striping/Streetlights",
    "request_reason": "Street Name Sign Damaged or Missing",
    "date_created": "2023-08-15T21:11:44.000",
    "date_modified": "2023-08-15T21:11:44.000",
    "request_status": "Pending",
    "responsible_agency": "Department of Public Works",
    "final_address": "4801 Bundy Rd",
    "address_councildis": "E",
    "status": "Pending",
    "rowid": "1026682",
    "final_x": "3709428.26616",
    "final_y": "556141.210202",
    "longitude": "-89.97896481841791",
    "latitude": "30.02231722127076",
    "geocoded_column": {
      "latitude": "30.02231722127076",
      "longitude": "-89.97896481841791"
    }
  },
  {
    "service_request": "2023-1026681",
    "request_type": "Property Maintenance",
    "request_reason": "Property Maintenance",
    "date_created": "2023-08-15T21:10:14.000",
    "date_modified": "2023-08-15T21:10:14.000",
    "request_status": "Pending",
    "responsible_agency": "Department of Code Enforcement",
    "final_address": "4942 Bundy Rd",
    "address_councildis": "E",
    "status": "Pending",
    "rowid": "1026681",
    "final_x": "3709047.57796",
    "final_y": "556892.072794",
    "longitude": "-89.98013967008764",
    "latitude": "30.024394166843155",
    "geocoded_column": {
      "latitude": "30.024394166843155",
      "longitude": "-89.98013967008764"
    }
  },
  {
    "service_request": "2023-1026680",
    "request_type": "Traffic Signals/Signs/Striping/Streetlights",
    "request_reason": "Street Light Outage/Malfunction",
    "date_created": "2023-08-15T21:08:56.000",
    "date_modified": "2023-08-15T21:08:57.000",
    "request_status": "Pending",
    "responsible_agency": "Department of Public Works",
    "final_address": "4758 Bundy Rd",
    "address_councildis": "E",
    "status": "Assigned to Contractor",
    "contractor": "Legacy Professional Services",
    "rowid": "1026680",
    "final_x": "3709251.28817",
    "final_y": "555931.779801",
    "longitude": "-89.97953183882387",
    "latitude": "30.021747120089312",
    "geocoded_column": {
      "latitude": "30.021747120089312",
      "longitude": "-89.97953183882387"
    }
  },
  {
    "service_request": "2023-1026679",
    "request_type": "Trash/Recycling",
    "request_reason": "Order Recycling Cart",
    "date_created": "2023-08-15T20:58:39.000",
    "date_modified": "2023-08-15T20:58:39.000",
    "request_status": "Pending",
    "responsible_agency": "Department of Sanitation",
    "final_address": "1221 Poland Ave",
    "address_councildis": "D",
    "status": "Pending",
    "rowid": "1026679",
    "final_x": "3693236.99056",
    "final_y": "535527.621062",
    "longitude": "-90.03086544789662",
    "latitude": "29.96615365183758",
    "geocoded_column": {
      "latitude": "29.96615365183758",
      "longitude": "-90.03086544789662"
    }
  },
  {
    "service_request": "2023-1026678",
    "request_type": "Trash/Recycling",
    "request_reason": "Order Recycling Cart",
    "date_created": "2023-08-15T20:57:05.000",
    "date_modified": "2023-08-15T20:57:05.000",
    "request_status": "Pending",
    "responsible_agency": "Department of Sanitation",
    "final_address": "1221 Poland Ave",
    "address_councildis": "D",
    "status": "Pending",
    "rowid": "1026678",
    "final_x": "3693236.99056",
    "final_y": "535527.621062",
    "longitude": "-90.03086544789662",
    "latitude": "29.96615365183758",
    "geocoded_column": {
      "latitude": "29.96615365183758",
      "longitude": "-90.03086544789662"
    }
  },
  {
    "service_request": "2023-1026676",
    "request_type": "Trash/Recycling",
    "request_reason": "Order Trash Cart",
    "date_created": "2023-08-15T20:09:49.000",
    "date_modified": "2023-08-15T20:09:50.000",
    "request_status": "Pending",
    "responsible_agency": "Department of Sanitation",
    "final_address": "4122 Prytania St",
    "address_councildis": "B",
    "status": "Assigned to Contractor",
    "contractor": "Richards Disposal",
    "rowid": "1026676",
    "final_x": "3671811.99118",
    "final_y": "520358.745336",
    "longitude": "-90.09904127205557",
    "latitude": "29.92509646002648",
    "geocoded_column": {
      "latitude": "29.92509646002648",
      "longitude": "-90.09904127205557"
    }
  },
  {
    "service_request": "2023-1026675",
    "request_type": "Trash/Recycling",
    "request_reason": "Request a Large Item Pick Up",
    "date_created": "2023-08-15T19:56:11.000",
    "date_modified": "2023-08-15T19:56:11.000",
    "request_status": "Pending",
    "responsible_agency": "Department of Sanitation",
    "final_address": "2130 Cadiz street ",
    "address_councildis": "B",
    "status": "Assigned to Contractor",
    "contractor": "Richards Disposal",
    "rowid": "1026675",
    "final_x": "3669861.75393",
    "final_y": "522823.514683",
    "longitude": "-90.10511416227455",
    "latitude": "29.931931408997904",
    "geocoded_column": {
      "latitude": "29.931931408997904",
      "longitude": "-90.10511416227455"
    }
  },
  {
    "service_request": "2023-1026674",
    "request_type": "Trash/Recycling",
    "request_reason": "Replace Trash Cart",
    "date_created": "2023-08-15T19:29:05.000",
    "date_modified": "2023-08-15T19:29:06.000",
    "request_status": "Pending",
    "responsible_agency": "Department of Sanitation",
    "final_address": "1516 Robert St",
    "address_councildis": "B",
    "status": "Assigned to Contractor",
    "contractor": "Richards Disposal",
    "rowid": "1026674",
    "final_x": "3668617.50503",
    "final_y": "520561.9822",
    "longitude": "-90.10911841476718",
    "latitude": "29.925749528965472",
    "geocoded_column": {
      "latitude": "29.925749528965472",
      "longitude": "-90.10911841476718"
    }
  },
  {
    "service_request": "2023-1026673",
    "request_type": "Roads/Drainage",
    "request_reason": "Street Subsidence (Sinking)",
    "date_created": "2023-08-15T19:25:20.000",
    "date_modified": "2023-08-15T19:25:20.000",
    "request_status": "Pending",
    "responsible_agency": "Department of Public Works",
    "final_address": "0 BLK English Turn Pkwy",
    "address_councildis": "C",
    "status": "Pending",
    "rowid": "1026673",
    "final_x": "3714478.8315",
    "final_y": "516189.451005",
    "longitude": "-89.96451447055301",
    "latitude": "29.912299665809115",
    "geocoded_column": {
      "latitude": "29.912299665809115",
      "longitude": "-89.96451447055301"
    }
  },
  {
    "service_request": "2023-1026672",
    "request_type": "Trash/Recycling",
    "request_reason": "Replace Trash Cart",
    "date_created": "2023-08-15T19:24:20.000",
    "date_modified": "2023-08-15T19:24:20.000",
    "request_status": "Pending",
    "responsible_agency": "Department of Sanitation",
    "final_address": "4650 Alba Rd",
    "address_councildis": "E",
    "status": "Assigned to Contractor",
    "contractor": "Waste Pro",
    "rowid": "1026672",
    "final_x": "3761804.32643",
    "final_y": "573973.17585",
    "longitude": "-89.81272606886762",
    "latitude": "30.06954085818183",
    "geocoded_column": {
      "latitude": "30.06954085818183",
      "longitude": "-89.81272606886762"
    }
  },
  {
    "service_request": "2023-1026671",
    "request_type": "Roads/Drainage",
    "request_reason": "Street Subsidence (Sinking)",
    "date_created": "2023-08-15T19:21:34.000",
    "date_modified": "2023-08-15T19:21:34.000",
    "request_status": "Pending",
    "responsible_agency": "Department of Public Works",
    "final_address": "5600 BLK General De Gaulle Dr",
    "address_councildis": "C",
    "status": "Pending",
    "rowid": "1026671",
    "final_x": "3704604.4815",
    "final_y": "515136.086642",
    "longitude": "-89.99571918693239",
    "latitude": "29.90972393018887",
    "geocoded_column": {
      "latitude": "29.90972393018887",
      "longitude": "-89.99571918693239"
    }
  },
  {
    "service_request": "2023-1026670",
    "request_type": "Property Maintenance",
    "request_reason": "Property Maintenance",
    "date_created": "2023-08-15T19:19:47.000",
    "date_modified": "2023-08-15T19:19:47.000",
    "request_status": "Pending",
    "responsible_agency": "Department of Code Enforcement",
    "final_address": "9020 Edinburgh St A",
    "address_councildis": "A",
    "status": "Pending",
    "rowid": "1026670",
    "final_x": "3664973.62381",
    "final_y": "536669.244167",
    "longitude": "-90.12008272773389",
    "latitude": "29.970145845901804",
    "geocoded_column": {
      "latitude": "29.970145845901804",
      "longitude": "-90.12008272773389"
    }
  },
  {
    "service_request": "2023-1026669",
    "request_type": "Traffic Signals/Signs/Striping/Streetlights",
    "request_reason": "Street Light Knocked Down/Leaning",
    "date_created": "2023-08-15T18:55:52.000",
    "date_modified": "2023-08-15T18:55:53.000",
    "request_status": "Pending",
    "responsible_agency": "Department of Public Works",
    "final_address": "5661 Catina St",
    "address_councildis": "A",
    "status": "Pending",
    "contractor": "Legacy Professional Services",
    "rowid": "1026669",
    "final_x": "3666704.69473",
    "final_y": "545226.211919",
    "longitude": "-90.11432831278773",
    "latitude": "29.993624108255926",
    "geocoded_column": {
      "latitude": "29.993624108255926",
      "longitude": "-90.11432831278773"
    }
  },
  {
    "service_request": "2023-1026668",
    "request_type": "Roads/Drainage",
    "request_reason": "Pothole",
    "date_created": "2023-08-15T18:48:40.000",
    "date_modified": "2023-08-15T18:48:40.000",
    "request_status": "Pending",
    "responsible_agency": "Department of Public Works",
    "final_address": "1027 Austerlitz St",
    "address_councildis": "B",
    "status": "Pending",
    "rowid": "1026668",
    "final_x": "3672843.04724",
    "final_y": "519596.245624",
    "longitude": "-90.09581254903978",
    "latitude": "29.922969250568517",
    "geocoded_column": {
      "latitude": "29.922969250568517",
      "longitude": "-90.09581254903978"
    }
  },
  {
    "service_request": "2023-1026667",
    "request_type": "Trash/Recycling",
    "request_reason": "Order Trash Cart",
    "date_created": "2023-08-15T18:43:31.000",
    "date_modified": "2023-08-15T18:43:31.000",
    "request_status": "Pending",
    "responsible_agency": "Department of Sanitation",
    "final_address": "3441 Magnolia St",
    "address_councildis": "B",
    "status": "Assigned to Contractor",
    "contractor": "Richards Disposal",
    "rowid": "1026667",
    "final_x": "3672271.86017",
    "final_y": "525031.997117",
    "longitude": "-90.09743049600723",
    "latitude": "29.937932766245556",
    "geocoded_column": {
      "latitude": "29.937932766245556",
      "longitude": "-90.09743049600723"
    }
  },
  {
    "service_request": "2023-1026666",
    "request_type": "Trash/Recycling",
    "request_reason": "Repair Trash Cart",
    "date_created": "2023-08-15T18:42:17.000",
    "date_modified": "2023-08-15T18:42:18.000",
    "request_status": "Pending",
    "responsible_agency": "Department of Sanitation",
    "final_address": "4811 Cardenas Dr",
    "address_councildis": "E",
    "status": "Assigned to Contractor",
    "contractor": "Waste Pro",
    "rowid": "1026666",
    "final_x": "3713729.26475",
    "final_y": "556605.59529",
    "longitude": "-89.96535734418731",
    "latitude": "30.023453612167025",
    "geocoded_column": {
      "latitude": "30.023453612167025",
      "longitude": "-89.96535734418731"
    }
  },
  {
    "service_request": "2023-1026665",
    "request_type": "Abandoned Vehicles",
    "request_reason": "Abandoned/Junk Vehicles",
    "date_created": "2023-08-15T18:34:19.000",
    "date_modified": "2023-08-15T18:34:19.000",
    "request_status": "Pending",
    "responsible_agency": "Department of Public Works",
    "final_address": "5231 Magazine St",
    "address_councildis": "B",
    "status": "Pending",
    "rowid": "1026665",
    "final_x": "3667760.48781",
    "final_y": "518657.061751",
    "longitude": "-90.11188786975092",
    "latitude": "29.920536748596028",
    "geocoded_column": {
      "latitude": "29.920536748596028",
      "longitude": "-90.11188786975092"
    }
  },
  {
    "service_request": "2023-1026664",
    "request_type": "Abandoned Vehicles",
    "request_reason": "Abandoned/Junk Vehicles",
    "date_created": "2023-08-15T18:32:04.000",
    "date_modified": "2023-08-15T18:32:04.000",
    "request_status": "Pending",
    "responsible_agency": "Department of Public Works",
    "final_address": "5231 Magazine St",
    "address_councildis": "B",
    "status": "Pending",
    "rowid": "1026664",
    "final_x": "3667760.48781",
    "final_y": "518657.061751",
    "longitude": "-90.11188786975092",
    "latitude": "29.920536748596028",
    "geocoded_column": {
      "latitude": "29.920536748596028",
      "longitude": "-90.11188786975092"
    }
  },
  {
    "service_request": "2023-1026663",
    "request_type": "Roads/Drainage",
    "request_reason": "Catch Basin - Clogged",
    "date_created": "2023-08-15T18:14:57.000",
    "date_modified": "2023-08-15T18:14:57.000",
    "request_status": "Pending",
    "responsible_agency": "Department of Public Works",
    "final_address": "6539 General Haig St",
    "address_councildis": "A",
    "status": "Pending",
    "rowid": "1026663",
    "final_x": "3670974.24244",
    "final_y": "550838.426709",
    "longitude": "-90.10065071523697",
    "latitude": "30.00893015678581",
    "geocoded_column": {
      "latitude": "30.00893015678581",
      "longitude": "-90.10065071523697"
    }
  },
  {
    "service_request": "2023-1026662",
    "request_type": "Trash/Recycling",
    "request_reason": "Order Trash Cart",
    "date_created": "2023-08-15T18:08:47.000",
    "date_modified": "2023-08-15T18:09:38.000",
    "request_status": "Pending",
    "responsible_agency": "Department of Sanitation",
    "final_address": "1903 Rosary Dr",
    "address_councildis": "D",
    "status": "Assigned to Contractor",
    "contractor": "IV Waste",
    "rowid": "1026662",
    "final_x": "3681528.26338",
    "final_y": "555135.827033",
    "longitude": "-90.06715706000692",
    "latitude": "30.02043003291037",
    "geocoded_column": {
      "latitude": "30.02043003291037",
      "longitude": "-90.06715706000692"
    }
  },
  {
    "service_request": "2023-1026661",
    "request_type": "Roads/Drainage",
    "request_reason": "Man hole cover issue",
    "date_created": "2023-08-15T18:05:40.000",
    "date_modified": "2023-08-15T18:05:40.000",
    "request_status": "Pending",
    "responsible_agency": "Department of Public Works",
    "final_address": "CONTI ST & N BROAD ST",
    "address_councildis": "B",
    "status": "Pending",
    "rowid": "1026661",
    "final_x": "3676014.8",
    "final_y": "536067.78",
    "longitude": "-90.08523420625063",
    "latitude": "29.9681659491015",
    "geocoded_column": {
      "latitude": "29.9681659491015",
      "longitude": "-90.08523420625063"
    }
  },
  {
    "service_request": "2023-1026660",
    "request_type": "Trash/Recycling",
    "request_reason": "MIssed Recycling Pick-Up",
    "date_created": "2023-08-15T18:02:50.000",
    "date_modified": "2023-08-15T18:02:51.000",
    "request_status": "Pending",
    "responsible_agency": "Department of Sanitation",
    "final_address": "2748 Palmyra St",
    "address_councildis": "B",
    "status": "Assigned to Contractor",
    "contractor": "Richards Disposal",
    "rowid": "1026660",
    "final_x": "3674482.83656",
    "final_y": "534668.327814",
    "longitude": "-90.09012016725505",
    "latitude": "29.964363721937996",
    "geocoded_column": {
      "latitude": "29.964363721937996",
      "longitude": "-90.09012016725505"
    }
  },
  {
    "service_request": "2023-1026659",
    "request_type": "Trash/Recycling",
    "request_reason": "Return Trash Cart",
    "date_created": "2023-08-15T18:01:33.000",
    "date_modified": "2023-08-15T18:01:33.000",
    "request_status": "Pending",
    "responsible_agency": "Department of Sanitation",
    "final_address": "7610 Morel St",
    "address_councildis": "E",
    "status": "Assigned to Contractor",
    "contractor": "Waste Pro",
    "rowid": "1026659",
    "final_x": "3718786.9925",
    "final_y": "571794.24356",
    "longitude": "-89.94879627630178",
    "latitude": "30.065049182063387",
    "geocoded_column": {
      "latitude": "30.065049182063387",
      "longitude": "-89.94879627630178"
    }
  },
  {
    "service_request": "2023-1026658",
    "request_type": "Trash/Recycling",
    "request_reason": "Repair Trash Cart",
    "date_created": "2023-08-15T17:57:31.000",
    "date_modified": "2023-08-15T17:57:32.000",
    "request_status": "Pending",
    "responsible_agency": "Department of Sanitation",
    "final_address": "7441 Beau St",
    "address_councildis": "E",
    "status": "Assigned to Contractor",
    "contractor": "Waste Pro",
    "rowid": "1026658",
    "final_x": "3695521.38992",
    "final_y": "558129.218715",
    "longitude": "-90.0228350852409",
    "latitude": "30.028228134266154",
    "geocoded_column": {
      "latitude": "30.028228134266154",
      "longitude": "-90.0228350852409"
    }
  },
  {
    "service_request": "2023-1026657",
    "request_type": "Abandoned Vehicles",
    "request_reason": "Abandoned/Junk Vehicles",
    "date_created": "2023-08-15T17:53:17.000",
    "date_modified": "2023-08-15T17:53:17.000",
    "request_status": "Pending",
    "responsible_agency": "Department of Public Works",
    "final_address": "1322 Governor Nicholls St",
    "address_councildis": "C",
    "status": "Pending",
    "rowid": "1026657",
    "final_x": "3681765.2285",
    "final_y": "535389.890694",
    "longitude": "-90.06709778950092",
    "latitude": "29.966128505563173",
    "geocoded_column": {
      "latitude": "29.966128505563173",
      "longitude": "-90.06709778950092"
    }
  },
  {
    "service_request": "2023-1026656",
    "request_type": "Trash/Recycling",
    "request_reason": "Repair Trash Cart",
    "date_created": "2023-08-15T17:36:23.000",
    "date_modified": "2023-08-15T17:36:24.000",
    "request_status": "Pending",
    "responsible_agency": "Department of Sanitation",
    "final_address": "7 Navigation Ct",
    "address_councildis": "C",
    "status": "Assigned to Contractor",
    "contractor": "Richards Disposal",
    "rowid": "1026656",
    "final_x": "3703634.74385",
    "final_y": "522784.112378",
    "longitude": "-89.99849864225622",
    "latitude": "29.93078445304998",
    "geocoded_column": {
      "latitude": "29.93078445304998",
      "longitude": "-89.99849864225622"
    }
  },
  {
    "service_request": "2023-1026655",
    "request_type": "Trash/Recycling",
    "request_reason": "Request a Large Item Pick Up",
    "date_created": "2023-08-15T17:33:32.000",
    "date_modified": "2023-08-15T17:33:33.000",
    "request_status": "Pending",
    "responsible_agency": "Department of Sanitation",
    "final_address": "2115 Josephine St",
    "address_councildis": "B",
    "status": "Assigned to Contractor",
    "contractor": "Richards Disposal",
    "rowid": "1026655",
    "final_x": "3676699.76654",
    "final_y": "525575.693053",
    "longitude": "-90.08343248800833",
    "latitude": "29.939295686109034",
    "geocoded_column": {
      "latitude": "29.939295686109034",
      "longitude": "-90.08343248800833"
    }
  },
  {
    "service_request": "2023-1026654",
    "request_type": "Trash/Recycling",
    "request_reason": "Request a Large Item Pick Up",
    "date_created": "2023-08-15T17:31:05.000",
    "date_modified": "2023-08-15T17:31:06.000",
    "request_status": "Pending",
    "responsible_agency": "Department of Sanitation",
    "final_address": "5651 Pratt Dr",
    "address_councildis": "D",
    "status": "Assigned to Contractor",
    "contractor": "IV Waste",
    "rowid": "1026654",
    "final_x": "3680397.90101",
    "final_y": "553469.830615",
    "longitude": "-90.07078666196779",
    "latitude": "30.01588344541706",
    "geocoded_column": {
      "latitude": "30.01588344541706",
      "longitude": "-90.07078666196779"
    }
  },
  {
    "service_request": "2023-1026653",
    "request_type": "Parks & Parkways",
    "request_reason": "Request Tree Service (Right of Way/Public Property)",
    "date_created": "2023-08-15T17:27:46.000",
    "date_modified": "2023-08-15T17:27:47.000",
    "request_status": "Pending",
    "responsible_agency": "Department of Parks & Parkway",
    "final_address": "1226 Elysian Fields Ave",
    "address_councildis": "C",
    "status": "Pending",
    "rowid": "1026653",
    "final_x": "3684824.62197",
    "final_y": "536865.668424",
    "longitude": "-90.05738441721648",
    "latitude": "29.97009306617689",
    "geocoded_column": {
      "latitude": "29.97009306617689",
      "longitude": "-90.05738441721648"
    }
  },
  {
    "service_request": "2023-1026652",
    "request_type": "Traffic Signals/Signs/Striping/Streetlights",
    "request_reason": "Street Light Outage/Malfunction",
    "date_created": "2023-08-15T17:27:19.000",
    "date_modified": "2023-08-15T17:27:20.000",
    "request_status": "Pending",
    "responsible_agency": "Department of Public Works",
    "final_address": "3551 Rue Nichole",
    "address_councildis": "C",
    "status": "Assigned to Contractor",
    "contractor": "Legacy Professional Services",
    "rowid": "1026652",
    "final_x": "3703940.79722",
    "final_y": "517496.61599",
    "longitude": "-89.99772704473686",
    "latitude": "29.916235863341143",
    "geocoded_column": {
      "latitude": "29.916235863341143",
      "longitude": "-89.99772704473686"
    }
  },
  {
    "service_request": "2023-1026651",
    "request_type": "Abandoned Vehicles",
    "request_reason": "Abandoned/Junk Vehicles",
    "date_created": "2023-08-15T17:25:05.000",
    "date_modified": "2023-08-15T17:25:05.000",
    "request_status": "Pending",
    "responsible_agency": "Department of Public Works",
    "final_address": "2100 BLK N Prieur St",
    "address_councildis": "D",
    "status": "Pending",
    "rowid": "1026651",
    "final_x": "3684538.04559",
    "final_y": "539231.697571",
    "longitude": "-90.05820630063828",
    "latitude": "29.976607592998402",
    "geocoded_column": {
      "latitude": "29.976607592998402",
      "longitude": "-90.05820630063828"
    }
  },
  {
    "service_request": "2023-1026650",
    "request_type": "Abandoned Vehicles",
    "request_reason": "Abandoned/Junk Vehicles",
    "date_created": "2023-08-15T17:17:31.000",
    "date_modified": "2023-08-15T17:17:31.000",
    "request_status": "Pending",
    "responsible_agency": "Department of Public Works",
    "final_address": "2100 BLK S Prieur St",
    "address_councildis": "B",
    "status": "Pending",
    "rowid": "1026650",
    "final_x": "3674042.61644",
    "final_y": "528584.814337",
    "longitude": "-90.09171851982423",
    "latitude": "29.94764921219321",
    "geocoded_column": {
      "latitude": "29.94764921219321",
      "longitude": "-90.09171851982423"
    }
  },
  {
    "service_request": "2023-1026649",
    "request_type": "Traffic Signals/Signs/Striping/Streetlights",
    "request_reason": "Street Light Outage/Malfunction",
    "date_created": "2023-08-15T17:07:29.000",
    "date_modified": "2023-08-15T17:07:30.000",
    "request_status": "Pending",
    "responsible_agency": "Department of Public Works",
    "final_address": "5900 Pauline Dr",
    "address_councildis": "D",
    "status": "Assigned to Contractor",
    "contractor": "Legacy Professional Services",
    "rowid": "1026649",
    "final_x": "3691533.3192",
    "final_y": "555754.652569",
    "longitude": "-90.03552210001408",
    "latitude": "30.021823782837544",
    "geocoded_column": {
      "latitude": "30.021823782837544",
      "longitude": "-90.03552210001408"
    }
  },
  {
    "service_request": "2023-1026648",
    "request_type": "Trash/Recycling",
    "request_reason": "Missed Trash Pick-Up",
    "date_created": "2023-08-15T17:07:12.000",
    "date_modified": "2023-08-15T17:07:12.000",
    "request_status": "Pending",
    "responsible_agency": "Department of Sanitation",
    "final_address": "4216 Mccoy St",
    "address_councildis": "E",
    "status": "Assigned to Contractor",
    "contractor": "Waste Pro",
    "rowid": "1026648",
    "final_x": "3711967.34981",
    "final_y": "553752.011799",
    "longitude": "-89.97103177127718",
    "latitude": "30.015665096050245",
    "geocoded_column": {
      "latitude": "30.015665096050245",
      "longitude": "-89.97103177127718"
    }
  },
  {
    "service_request": "2023-1026647",
    "request_type": "Abandoned Vehicles",
    "request_reason": "Abandoned/Junk Vehicles",
    "date_created": "2023-08-15T17:06:27.000",
    "date_modified": "2023-08-15T17:06:27.000",
    "request_status": "Pending",
    "responsible_agency": "Department of Public Works",
    "final_address": "3200 BLK Jackson Ave",
    "address_councildis": "B",
    "status": "Pending",
    "rowid": "1026647",
    "final_x": "3673834.30518",
    "final_y": "528628.713528",
    "longitude": "-90.09237473998841",
    "latitude": "29.947776125474313",
    "geocoded_column": {
      "latitude": "29.947776125474313",
      "longitude": "-90.09237473998841"
    }
  },
  {
    "service_request": "2023-1026646",
    "request_type": "Property Maintenance",
    "request_reason": "Property Maintenance",
    "date_created": "2023-08-15T17:00:51.000",
    "date_modified": "2023-08-15T17:00:52.000",
    "request_status": "Pending",
    "responsible_agency": "Department of Code Enforcement",
    "final_address": "12800 Morrison Rd",
    "address_councildis": "E",
    "status": "Pending",
    "rowid": "1026646",
    "final_x": "3716450.61541",
    "final_y": "568694.088549",
    "longitude": "-89.95629950631535",
    "latitude": "30.056602458037684",
    "geocoded_column": {
      "latitude": "30.056602458037684",
      "longitude": "-89.95629950631535"
    }
  },
  {
    "service_request": "2023-1026645",
    "request_type": "Trash/Recycling",
    "request_reason": "Repair Trash Cart",
    "date_created": "2023-08-15T17:00:02.000",
    "date_modified": "2023-08-15T17:00:03.000",
    "request_status": "Pending",
    "responsible_agency": "Department of Sanitation",
    "final_address": "1218 Moss St",
    "address_councildis": "A",
    "status": "Assigned to Contractor",
    "contractor": "Richards Disposal",
    "rowid": "1026645",
    "final_x": "3675226.17979",
    "final_y": "539912.11553",
    "longitude": "-90.08759271354526",
    "latitude": "29.97876015725703",
    "geocoded_column": {
      "latitude": "29.97876015725703",
      "longitude": "-90.08759271354526"
    }
  },
  {
    "service_request": "2023-1026644",
    "request_type": "Parks & Parkways",
    "request_reason": "Request Tree Service (Right of Way/Public Property)",
    "date_created": "2023-08-15T16:59:34.000",
    "date_modified": "2023-08-15T16:59:35.000",
    "request_status": "Pending",
    "responsible_agency": "Department of Parks & Parkway",
    "final_address": "4424 Baronne St",
    "address_councildis": "B",
    "status": "Pending",
    "rowid": "1026644",
    "final_x": "3670505.99099",
    "final_y": "521528.466361",
    "longitude": "-90.10312426215349",
    "latitude": "29.92835143756209",
    "geocoded_column": {
      "latitude": "29.92835143756209",
      "longitude": "-90.10312426215349"
    }
  },
  {
    "service_request": "2023-1026643",
    "request_type": "Trash/Recycling",
    "request_reason": "Repair Trash Cart",
    "date_created": "2023-08-15T16:54:36.000",
    "date_modified": "2023-08-15T16:54:36.000",
    "request_status": "Pending",
    "responsible_agency": "Department of Sanitation",
    "final_address": "8001 Edward St",
    "address_councildis": "E",
    "status": "Assigned to Contractor",
    "contractor": "Waste Pro",
    "rowid": "1026643",
    "final_x": "3700650.54711",
    "final_y": "561975.584159",
    "longitude": "-90.0064866070251",
    "latitude": "30.03864185057383",
    "geocoded_column": {
      "latitude": "30.03864185057383",
      "longitude": "-90.0064866070251"
    }
  },
  {
    "service_request": "2023-1026642",
    "request_type": "Roads/Drainage",
    "request_reason": "Street Flooding / Drainage",
    "date_created": "2023-08-15T16:52:21.000",
    "date_modified": "2023-08-15T16:52:21.000",
    "request_status": "Pending",
    "responsible_agency": "Department of Public Works",
    "final_address": "2825 Banks St",
    "address_councildis": "B",
    "status": "Pending",
    "rowid": "1026642",
    "final_x": "3674015.10862",
    "final_y": "534682.640006",
    "longitude": "-90.09159672742649",
    "latitude": "29.96441702120774",
    "geocoded_column": {
      "latitude": "29.96441702120774",
      "longitude": "-90.09159672742649"
    }
  },
  {
    "service_request": "2023-1026641",
    "request_type": "Trash/Recycling",
    "request_reason": "Request a Large Item Pick Up",
    "date_created": "2023-08-15T16:51:28.000",
    "date_modified": "2023-08-15T16:51:29.000",
    "request_status": "Pending",
    "responsible_agency": "Department of Sanitation",
    "final_address": "4728 Venus St",
    "address_councildis": "D",
    "status": "Assigned to Contractor",
    "contractor": "IV Waste",
    "rowid": "1026641",
    "final_x": "3686417.68636",
    "final_y": "550513.061972",
    "longitude": "-90.05187135778102",
    "latitude": "30.00756965924532",
    "geocoded_column": {
      "latitude": "30.00756965924532",
      "longitude": "-90.05187135778102"
    }
  },
  {
    "service_request": "2023-1026640",
    "request_type": "Traffic Signals/Signs/Striping/Streetlights",
    "request_reason": "Street Light Outage/Malfunction",
    "date_created": "2023-08-15T16:50:36.000",
    "date_modified": "2023-08-15T16:50:37.000",
    "request_status": "Pending",
    "responsible_agency": "Department of Public Works",
    "final_address": "FRANKLIN AVE & LEON C SIMON DR",
    "address_councildis": "D",
    "status": "Assigned to Contractor",
    "contractor": "Legacy Professional Services",
    "rowid": "1026640",
    "final_x": "3686215.6",
    "final_y": "557350.08",
    "longitude": "-90.05226831351399",
    "latitude": "30.026375154078544",
    "geocoded_column": {
      "latitude": "30.026375154078544",
      "longitude": "-90.05226831351399"
    }
  },
  {
    "service_request": "2023-1026639",
    "request_type": "Roads/Drainage",
    "request_reason": "Pothole",
    "date_created": "2023-08-15T16:50:21.000",
    "date_modified": "2023-08-15T16:50:21.000",
    "request_status": "Pending",
    "responsible_agency": "Department of Public Works",
    "final_address": "1315 Peniston St",
    "address_councildis": "B",
    "status": "Pending",
    "rowid": "1026639",
    "final_x": "3673101.31451",
    "final_y": "520423.11276",
    "longitude": "-90.09496908964098",
    "latitude": "29.925235197927364",
    "geocoded_column": {
      "latitude": "29.925235197927364",
      "longitude": "-90.09496908964098"
    }
  },
  {
    "service_request": "2023-1026638",
    "request_type": "Roads/Drainage",
    "request_reason": "Street Subsidence (Sinking)",
    "date_created": "2023-08-15T16:50:03.000",
    "date_modified": "2023-08-15T16:50:03.000",
    "request_status": "Pending",
    "responsible_agency": "Department of Public Works",
    "final_address": "7320 Zimple St",
    "address_councildis": "A",
    "status": "Pending",
    "rowid": "1026638",
    "final_x": "3663511.40179",
    "final_y": "526461.41715",
    "longitude": "-90.12504054266441",
    "latitude": "29.942120126017578",
    "geocoded_column": {
      "latitude": "29.942120126017578",
      "longitude": "-90.12504054266441"
    }
  },
  {
    "service_request": "2023-1026637",
    "request_type": "Trash/Recycling",
    "request_reason": "Request a Large Item Pick Up",
    "date_created": "2023-08-15T16:49:12.000",
    "date_modified": "2023-08-15T16:49:12.000",
    "request_status": "Pending",
    "responsible_agency": "Department of Sanitation",
    "final_address": "7323 Freret St",
    "address_councildis": "A",
    "status": "Assigned to Contractor",
    "contractor": "Richards Disposal",
    "rowid": "1026637",
    "final_x": "3663407.35904",
    "final_y": "526285.910782",
    "longitude": "-90.12537487123426",
    "latitude": "29.941640555868076",
    "geocoded_column": {
      "latitude": "29.941640555868076",
      "longitude": "-90.12537487123426"
    }
  },
  {
    "service_request": "2023-1026636",
    "request_type": "Trash/Recycling",
    "request_reason": "Missed Trash Pick-Up",
    "date_created": "2023-08-15T16:43:09.000",
    "date_modified": "2023-08-15T16:43:10.000",
    "request_status": "Pending",
    "responsible_agency": "Department of Sanitation",
    "final_address": "7337 Cranbrook Dr",
    "address_councildis": "E",
    "status": "Assigned to Contractor",
    "contractor": "Waste Pro",
    "rowid": "1026636",
    "final_x": "3713799.55538",
    "final_y": "566053.846627",
    "longitude": "-89.96477867164083",
    "latitude": "30.049430206556327",
    "geocoded_column": {
      "latitude": "30.049430206556327",
      "longitude": "-89.96477867164083"
    }
  },
  {
    "service_request": "2023-1026635",
    "request_type": "Roads/Drainage",
    "request_reason": "Damaged Sidewalk",
    "date_created": "2023-08-15T16:36:34.000",
    "date_modified": "2023-08-15T16:36:34.000",
    "request_status": "Pending",
    "responsible_agency": "Department of Public Works",
    "final_address": "2821 Banks St",
    "address_councildis": "B",
    "status": "Pending",
    "rowid": "1026635",
    "final_x": "3674041.74241",
    "final_y": "534663.229766",
    "longitude": "-90.09151328416331",
    "latitude": "29.964362855920474",
    "geocoded_column": {
      "latitude": "29.964362855920474",
      "longitude": "-90.09151328416331"
    }
  },
  {
    "service_request": "2023-1026634",
    "request_type": "Roads/Drainage",
    "request_reason": "Pothole",
    "date_created": "2023-08-15T16:34:13.000",
    "date_modified": "2023-08-15T16:34:13.000",
    "request_status": "Pending",
    "responsible_agency": "Department of Public Works",
    "final_address": "1423 General Pershing St",
    "address_councildis": "B",
    "status": "Pending",
    "rowid": "1026634",
    "final_x": "3671330.69185",
    "final_y": "520571.244024",
    "longitude": "-90.1005533659415",
    "latitude": "29.925695010510914",
    "geocoded_column": {
      "latitude": "29.925695010510914",
      "longitude": "-90.1005533659415"
    }
  },
  {
    "service_request": "2023-1026633",
    "request_type": "Trash/Recycling",
    "request_reason": "Request a Large Item Pick Up",
    "date_created": "2023-08-15T16:32:53.000",
    "date_modified": "2023-08-15T16:32:54.000",
    "request_status": "Pending",
    "responsible_agency": "Department of Sanitation",
    "final_address": "4701 Citrus Dr",
    "address_councildis": "E",
    "status": "Assigned to Contractor",
    "contractor": "Waste Pro",
    "rowid": "1026633",
    "final_x": "3710885.21003",
    "final_y": "555492.231833",
    "longitude": "-89.9743855975947",
    "latitude": "30.020485353466555",
    "geocoded_column": {
      "latitude": "30.020485353466555",
      "longitude": "-89.9743855975947"
    }
  },
  {
    "service_request": "2023-1026631",
    "request_type": "Trash/Recycling",
    "request_reason": "Request a Large Item Pick Up",
    "date_created": "2023-08-15T16:29:32.000",
    "date_modified": "2023-08-15T16:29:32.000",
    "request_status": "Pending",
    "responsible_agency": "Department of Sanitation",
    "final_address": "30 Olympic Ct",
    "address_councildis": "C",
    "status": "Assigned to Contractor",
    "contractor": "Richards Disposal",
    "rowid": "1026631",
    "final_x": "3699740.51325",
    "final_y": "515920.450292",
    "longitude": "-90.01104214011063",
    "latitude": "29.912035895999495",
    "geocoded_column": {
      "latitude": "29.912035895999495",
      "longitude": "-90.01104214011063"
    }
  },
  {
    "service_request": "2023-1026630",
    "request_type": "Safety & Permits",
    "request_reason": "Licenses & Permits",
    "date_created": "2023-08-15T16:28:37.000",
    "date_modified": "2023-08-15T16:28:37.000",
    "request_status": "Pending",
    "responsible_agency": "Safety and Permits",
    "final_address": "817 Third St",
    "address_councildis": "B",
    "status": "Pending",
    "rowid": "1026630",
    "final_x": "3678116.77518",
    "final_y": "520402.812984",
    "longitude": "-90.07913756775947",
    "latitude": "29.925029382721384",
    "geocoded_column": {
      "latitude": "29.925029382721384",
      "longitude": "-90.07913756775947"
    }
  },
  {
    "service_request": "2023-1026629",
    "request_type": "Trash/Recycling",
    "request_reason": "Missed Trash Pick-Up",
    "date_created": "2023-08-15T16:25:49.000",
    "date_modified": "2023-08-15T16:25:49.000",
    "request_status": "Pending",
    "responsible_agency": "Department of Sanitation",
    "final_address": "5705 Chartres St",
    "address_councildis": "E",
    "status": "Assigned to Contractor",
    "contractor": "Waste Pro",
    "rowid": "1026629",
    "final_x": "3697933.28093",
    "final_y": "531856.188611",
    "longitude": "-90.01616803434379",
    "latitude": "29.95591089806434",
    "geocoded_column": {
      "latitude": "29.95591089806434",
      "longitude": "-90.01616803434379"
    }
  },
  {
    "service_request": "2023-1026628",
    "request_type": "Trash/Recycling",
    "request_reason": "Illegal Dumping",
    "date_created": "2023-08-15T16:24:28.000",
    "date_modified": "2023-08-15T16:24:28.000",
    "request_status": "Pending",
    "responsible_agency": "Department of Sanitation",
    "final_address": "5200 BLK Tullis Dr",
    "address_councildis": "C",
    "status": "Pending",
    "rowid": "1026628",
    "final_x": "3702941.35392",
    "final_y": "511881.187311",
    "longitude": "-90.00108774149821",
    "latitude": "29.900827340964252",
    "geocoded_column": {
      "latitude": "29.900827340964252",
      "longitude": "-90.00108774149821"
    }
  },
  {
    "service_request": "2023-1026627",
    "request_type": "Trash/Recycling",
    "request_reason": "Request a Large Item Pick Up",
    "date_created": "2023-08-15T16:23:22.000",
    "date_modified": "2023-08-15T16:23:23.000",
    "request_status": "Pending",
    "responsible_agency": "Department of Sanitation",
    "final_address": "4936 Chrysler St",
    "address_councildis": "E",
    "status": "Assigned to Contractor",
    "contractor": "Waste Pro",
    "rowid": "1026627",
    "final_x": "3715142.49112",
    "final_y": "557682.695387",
    "longitude": "-89.96085112839803",
    "latitude": "30.02636874241144",
    "geocoded_column": {
      "latitude": "30.02636874241144",
      "longitude": "-89.96085112839803"
    }
  },
  {
    "service_request": "2023-1026626",
    "request_type": "Trash/Recycling",
    "request_reason": "Repair Trash Cart",
    "date_created": "2023-08-15T16:21:45.000",
    "date_modified": "2023-08-15T16:21:46.000",
    "request_status": "Pending",
    "responsible_agency": "Department of Sanitation",
    "final_address": "616 General Taylor St",
    "address_councildis": "B",
    "status": "Assigned to Contractor",
    "contractor": "Richards Disposal",
    "rowid": "1026626",
    "final_x": "3673279.67464",
    "final_y": "518123.399798",
    "longitude": "-90.09448454951702",
    "latitude": "29.918906421506684",
    "geocoded_column": {
      "latitude": "29.918906421506684",
      "longitude": "-90.09448454951702"
    }
  },
  {
    "service_request": "2023-1026625",
    "request_type": "Traffic Signals/Signs/Striping/Streetlights",
    "request_reason": "Traffic Signal Malfunctioning/Damaged",
    "date_created": "2023-08-15T16:21:12.000",
    "date_modified": "2023-08-15T16:21:13.000",
    "request_status": "Pending",
    "responsible_agency": "Department of Public Works",
    "final_address": "MARTIN LUTHER KING JR BLVD & SIMON BOLIVAR AVE",
    "address_councildis": "B",
    "status": "Pending",
    "rowid": "1026625",
    "final_x": "3677326.3",
    "final_y": "526676.78",
    "longitude": "-90.08141646005119",
    "latitude": "29.94230450477742",
    "geocoded_column": {
      "latitude": "29.94230450477742",
      "longitude": "-90.08141646005119"
    }
  },
  {
    "service_request": "2023-1026624",
    "request_type": "Roads/Drainage",
    "request_reason": "Pothole",
    "date_created": "2023-08-15T16:20:47.000",
    "date_modified": "2023-08-15T16:20:47.000",
    "request_status": "Pending",
    "responsible_agency": "Department of Public Works",
    "final_address": "1421 Constantinople St",
    "address_councildis": "B",
    "status": "Pending",
    "rowid": "1026624",
    "final_x": "3672433.24257",
    "final_y": "520667.657465",
    "longitude": "-90.09706965638372",
    "latitude": "29.925927453713577",
    "geocoded_column": {
      "latitude": "29.925927453713577",
      "longitude": "-90.09706965638372"
    }
  },
  {
    "service_request": "2023-1026622",
    "request_type": "Traffic Signals/Signs/Striping/Streetlights",
    "request_reason": "Street Light Outage/Malfunction",
    "date_created": "2023-08-15T16:16:22.000",
    "date_modified": "2023-08-15T16:16:23.000",
    "request_status": "Pending",
    "responsible_agency": "Department of Public Works",
    "final_address": "HAYNE BLVD & PRESS DR",
    "address_councildis": "D",
    "status": "Assigned to Contractor",
    "contractor": "Legacy Professional Services",
    "rowid": "1026622",
    "final_x": "3688842.8",
    "final_y": "557721.28",
    "longitude": "-90.04395349141949",
    "latitude": "30.02731478987773",
    "geocoded_column": {
      "latitude": "30.02731478987773",
      "longitude": "-90.04395349141949"
    }
  },
  {
    "service_request": "2023-1026621",
    "request_type": "Roads/Drainage",
    "request_reason": "Pothole",
    "date_created": "2023-08-15T16:15:49.000",
    "date_modified": "2023-08-15T16:15:49.000",
    "request_status": "Pending",
    "responsible_agency": "Department of Public Works",
    "final_address": "1312 Milan St",
    "address_councildis": "B",
    "status": "Pending",
    "rowid": "1026621",
    "final_x": "3671625.82823",
    "final_y": "520286.919608",
    "longitude": "-90.09963137110304",
    "latitude": "29.92490447494246",
    "geocoded_column": {
      "latitude": "29.92490447494246",
      "longitude": "-90.09963137110304"
    }
  },
  {
    "service_request": "2023-1026620",
    "request_type": "Traffic Signals/Signs/Striping/Streetlights",
    "request_reason": "Street Name Sign Damaged or Missing",
    "date_created": "2023-08-15T16:10:14.000",
    "date_modified": "2023-08-15T16:10:14.000",
    "request_status": "Pending",
    "responsible_agency": "Department of Public Works",
    "final_address": "JOSEPHINE ST & CONSTANCE ST",
    "address_councildis": "B",
    "status": "Pending",
    "rowid": "1026620",
    "final_x": "3679392.8",
    "final_y": "522022.68",
    "longitude": "-90.07505341917097",
    "latitude": "29.929445021486075",
    "geocoded_column": {
      "latitude": "29.929445021486075",
      "longitude": "-90.07505341917097"
    }
  },
  {
    "service_request": "2023-1026619",
    "request_type": "Trash/Recycling",
    "request_reason": "Replace Trash Cart",
    "date_created": "2023-08-15T16:09:38.000",
    "date_modified": "2023-08-15T16:09:39.000",
    "request_status": "Pending",
    "responsible_agency": "Department of Sanitation",
    "final_address": "538 Governor Nicholls St",
    "address_councildis": "C",
    "status": "Assigned to Contractor",
    "contractor": "Empire Services",
    "rowid": "1026619",
    "final_x": "3683953.97961",
    "final_y": "533649.135109",
    "longitude": "-90.06024685251371",
    "latitude": "29.961275338836497",
    "geocoded_column": {
      "latitude": "29.961275338836497",
      "longitude": "-90.06024685251371"
    }
  },
  {
    "service_request": "2023-1026618",
    "request_type": "Trash/Recycling",
    "request_reason": "Replace Trash Cart",
    "date_created": "2023-08-15T16:08:51.000",
    "date_modified": "2023-08-15T16:10:12.000",
    "request_status": "Pending",
    "responsible_agency": "Department of Sanitation",
    "final_address": "600 Governor Nicholls St",
    "address_councildis": "C",
    "status": "Assigned to Contractor",
    "contractor": "Empire Services",
    "rowid": "1026618",
    "final_x": "3683881.7933",
    "final_y": "533707.822853",
    "longitude": "-90.0604727450705",
    "latitude": "29.9614389150841",
    "geocoded_column": {
      "latitude": "29.9614389150841",
      "longitude": "-90.0604727450705"
    }
  },
  {
    "service_request": "2023-1026616",
    "request_type": "Trash/Recycling",
    "request_reason": "Repair Recycling Cart",
    "date_created": "2023-08-15T16:05:52.000",
    "date_modified": "2023-08-15T16:05:52.000",
    "request_status": "Pending",
    "responsible_agency": "Department of Sanitation",
    "final_address": "3970 Annunciation St",
    "address_councildis": "B",
    "status": "Pending",
    "rowid": "1026616",
    "final_x": "3672764.64705",
    "final_y": "517880.360886",
    "longitude": "-90.0961185115302",
    "latitude": "29.91825344291077",
    "geocoded_column": {
      "latitude": "29.91825344291077",
      "longitude": "-90.0961185115302"
    }
  },
  {
    "service_request": "2023-1026615",
    "request_type": "Trash/Recycling",
    "request_reason": "Replace Recycling Cart",
    "date_created": "2023-08-15T16:03:28.000",
    "date_modified": "2023-08-15T16:03:28.000",
    "request_status": "Pending",
    "responsible_agency": "Department of Sanitation",
    "final_address": "3970 Annunciation St",
    "address_councildis": "B",
    "status": "Pending",
    "rowid": "1026615",
    "final_x": "3672764.64705",
    "final_y": "517880.360886",
    "longitude": "-90.0961185115302",
    "latitude": "29.91825344291077",
    "geocoded_column": {
      "latitude": "29.91825344291077",
      "longitude": "-90.0961185115302"
    }
  },
  {
    "service_request": "2023-1026614",
    "request_type": "Trash/Recycling",
    "request_reason": "Repair Trash Cart",
    "date_created": "2023-08-15T16:02:28.000",
    "date_modified": "2023-08-15T16:02:29.000",
    "request_status": "Pending",
    "responsible_agency": "Department of Sanitation",
    "final_address": "3970 Annunciation St",
    "address_councildis": "B",
    "status": "Assigned to Contractor",
    "contractor": "Richards Disposal",
    "rowid": "1026614",
    "final_x": "3672764.64705",
    "final_y": "517880.360886",
    "longitude": "-90.0961185115302",
    "latitude": "29.91825344291077",
    "geocoded_column": {
      "latitude": "29.91825344291077",
      "longitude": "-90.0961185115302"
    }
  },
  {
    "service_request": "2023-1026613",
    "request_type": "Traffic Signals/Signs/Striping/Streetlights",
    "request_reason": "Street Light Outage/Malfunction",
    "date_created": "2023-08-15T15:55:36.000",
    "date_modified": "2023-08-15T15:55:36.000",
    "request_status": "Pending",
    "responsible_agency": "Department of Public Works",
    "final_address": "2736 Ap Tureaud Ave",
    "address_councildis": "D",
    "status": "Assigned to Contractor",
    "contractor": "Legacy Professional Services",
    "rowid": "1026613",
    "final_x": "3681406.55842",
    "final_y": "542539.182733",
    "longitude": "-90.06798113922717",
    "latitude": "29.985797471148835",
    "geocoded_column": {
      "latitude": "29.985797471148835",
      "longitude": "-90.06798113922717"
    }
  },
  {
    "service_request": "2023-1026612",
    "request_type": "Roads/Drainage",
    "request_reason": "Ditch Issue",
    "date_created": "2023-08-15T15:53:56.000",
    "date_modified": "2023-08-15T15:53:57.000",
    "request_status": "Pending",
    "responsible_agency": "Department of Public Works",
    "final_address": "6501 Florida Ave",
    "address_councildis": "E",
    "status": "Pending",
    "rowid": "1026612",
    "final_x": "3703272.98903",
    "final_y": "538555.922121",
    "longitude": "-89.99906087212624",
    "latitude": "29.974162886657158",
    "geocoded_column": {
      "latitude": "29.974162886657158",
      "longitude": "-89.99906087212624"
    }
  },
  {
    "service_request": "2023-1026611",
    "request_type": "Trash/Recycling",
    "request_reason": "Order Recycling Cart",
    "date_created": "2023-08-15T15:50:28.000",
    "date_modified": "2023-08-15T15:50:28.000",
    "request_status": "Pending",
    "responsible_agency": "Department of Sanitation",
    "final_address": "2430 Clover St",
    "address_councildis": "D",
    "status": "Pending",
    "rowid": "1026611",
    "final_x": "3686374.15964",
    "final_y": "546531.522257",
    "longitude": "-90.05214951692447",
    "latitude": "29.99662320462448",
    "geocoded_column": {
      "latitude": "29.99662320462448",
      "longitude": "-90.05214951692447"
    }
  },
  {
    "service_request": "2023-1026610",
    "request_type": "Trash/Recycling",
    "request_reason": "Missed Trash Pick-Up",
    "date_created": "2023-08-15T15:45:52.000",
    "date_modified": "2023-08-15T15:45:53.000",
    "request_status": "Pending",
    "responsible_agency": "Department of Sanitation",
    "final_address": "315 N Bernadotte St",
    "address_councildis": "A",
    "status": "Assigned to Contractor",
    "contractor": "Richards Disposal",
    "rowid": "1026610",
    "final_x": "3669346.87566",
    "final_y": "540857.626891",
    "longitude": "-90.1061298391489",
    "latitude": "29.9815344382555",
    "geocoded_column": {
      "latitude": "29.9815344382555",
      "longitude": "-90.1061298391489"
    }
  },
  {
    "service_request": "2023-1026609",
    "request_type": "Traffic Signals/Signs/Striping/Streetlights",
    "request_reason": "Striping/Road Surface Markings",
    "date_created": "2023-08-15T15:45:37.000",
    "date_modified": "2023-08-15T15:45:37.000",
    "request_status": "Pending",
    "responsible_agency": "Department of Public Works",
    "final_address": "NAPOLEON AVE & TCHOUPITOULAS ST",
    "address_councildis": "B",
    "status": "Pending",
    "rowid": "1026609",
    "final_x": "3671152.2",
    "final_y": "517462.38",
    "longitude": "-90.10122233833027",
    "latitude": "29.91715190210986",
    "geocoded_column": {
      "latitude": "29.91715190210986",
      "longitude": "-90.10122233833027"
    }
  },
  {
    "service_request": "2023-1026608",
    "request_type": "Trash/Recycling",
    "request_reason": "Change Size of Trash Cart",
    "date_created": "2023-08-15T15:45:26.000",
    "date_modified": "2023-08-15T15:45:27.000",
    "request_status": "Pending",
    "responsible_agency": "Department of Sanitation",
    "final_address": "3537 Republic St",
    "address_councildis": "D",
    "status": "Assigned to Contractor",
    "contractor": "IV Waste",
    "rowid": "1026608",
    "final_x": "3680505.59976",
    "final_y": "545487.173648",
    "longitude": "-90.07072430093648",
    "latitude": "29.993930734999136",
    "geocoded_column": {
      "latitude": "29.993930734999136",
      "longitude": "-90.07072430093648"
    }
  },
  {
    "service_request": "2023-1026607",
    "request_type": "Traffic Signals/Signs/Striping/Streetlights",
    "request_reason": "Striping/Road Surface Markings",
    "date_created": "2023-08-15T15:43:51.000",
    "date_modified": "2023-08-15T15:43:51.000",
    "request_status": "Pending",
    "responsible_agency": "Department of Public Works",
    "final_address": "CONSTANTINOPLE ST & TCHOUPITOULAS ST",
    "address_councildis": "B",
    "status": "Pending",
    "rowid": "1026607",
    "final_x": "3672655.1",
    "final_y": "517613.28",
    "longitude": "-90.0964733932765",
    "latitude": "29.917522307334895",
    "geocoded_column": {
      "latitude": "29.917522307334895",
      "longitude": "-90.0964733932765"
    }
  },
  {
    "service_request": "2023-1026606",
    "request_type": "Trash/Recycling",
    "request_reason": "Order Trash Cart",
    "date_created": "2023-08-15T15:37:30.000",
    "date_modified": "2023-08-15T15:37:31.000",
    "request_status": "Pending",
    "responsible_agency": "Department of Sanitation",
    "final_address": "1479 Filmore Ave",
    "address_councildis": "D",
    "status": "Assigned to Contractor",
    "contractor": "IV Waste",
    "rowid": "1026606",
    "final_x": "3678299.4267",
    "final_y": "551938.668566",
    "longitude": "-90.07746992519061",
    "latitude": "30.011736711737704",
    "geocoded_column": {
      "latitude": "30.011736711737704",
      "longitude": "-90.07746992519061"
    }
  },
  {
    "service_request": "2023-1026605",
    "request_type": "Traffic Signals/Signs/Striping/Streetlights",
    "request_reason": "Street Light Outage/Malfunction",
    "date_created": "2023-08-15T15:37:21.000",
    "date_modified": "2023-08-15T15:37:22.000",
    "request_status": "Pending",
    "responsible_agency": "Department of Public Works",
    "final_address": "2683 Cupid St",
    "address_councildis": "C",
    "status": "Assigned to Contractor",
    "contractor": "Legacy Professional Services",
    "rowid": "1026605",
    "final_x": "3700276.29424",
    "final_y": "520961.531513",
    "longitude": "-90.00916721264609",
    "latitude": "29.92588013501409",
    "geocoded_column": {
      "latitude": "29.92588013501409",
      "longitude": "-90.00916721264609"
    }
  },
  {
    "service_request": "2023-1026604",
    "request_type": "Property Maintenance",
    "request_reason": "Property Maintenance",
    "date_created": "2023-08-15T15:33:46.000",
    "date_modified": "2023-08-15T15:33:46.000",
    "request_status": "Pending",
    "responsible_agency": "Department of Code Enforcement",
    "final_address": "1409 Annette St",
    "address_councildis": "C",
    "status": "Pending",
    "rowid": "1026604",
    "final_x": "3683137.20815",
    "final_y": "537373.901512",
    "longitude": "-90.06269563691095",
    "latitude": "29.97154208970927",
    "geocoded_column": {
      "latitude": "29.97154208970927",
      "longitude": "-90.06269563691095"
    }
  },
  {
    "service_request": "2023-1026603",
    "request_type": "Trash/Recycling",
    "request_reason": "Replace Trash Cart",
    "date_created": "2023-08-15T15:32:51.000",
    "date_modified": "2023-08-15T15:32:52.000",
    "request_status": "Pending",
    "responsible_agency": "Department of Sanitation",
    "final_address": "2502 Mexico St",
    "address_councildis": "D",
    "status": "Assigned to Contractor",
    "contractor": "IV Waste",
    "rowid": "1026603",
    "final_x": "3685664.11586",
    "final_y": "556258.65129",
    "longitude": "-90.05404944039427",
    "latitude": "30.023391072059095",
    "geocoded_column": {
      "latitude": "30.023391072059095",
      "longitude": "-90.05404944039427"
    }
  },
  {
    "service_request": "2023-1026602",
    "request_type": "Trash/Recycling",
    "request_reason": "Request a Large Item Pick Up",
    "date_created": "2023-08-15T15:27:07.000",
    "date_modified": "2023-08-15T15:27:08.000",
    "request_status": "Pending",
    "responsible_agency": "Department of Sanitation",
    "final_address": "515 S Gayoso St",
    "address_councildis": "B",
    "status": "Assigned to Contractor",
    "contractor": "Richards Disposal",
    "rowid": "1026602",
    "final_x": "3673236.74612",
    "final_y": "534486.447045",
    "longitude": "-90.09406144087302",
    "latitude": "29.963900726954748",
    "geocoded_column": {
      "latitude": "29.963900726954748",
      "longitude": "-90.09406144087302"
    }
  },
  {
    "service_request": "2023-1026601",
    "request_type": "Trash/Recycling",
    "request_reason": "Missed Trash Pick-Up",
    "date_created": "2023-08-15T15:22:59.000",
    "date_modified": "2023-08-15T15:23:00.000",
    "request_status": "Pending",
    "responsible_agency": "Department of Sanitation",
    "final_address": "13344 Chef Menteur Hwy",
    "address_councildis": "E",
    "status": "Assigned to Contractor",
    "contractor": "Waste Pro",
    "rowid": "1026601",
    "final_x": "3725904.23769",
    "final_y": "559417.614813",
    "longitude": "-89.92677847192505",
    "latitude": "30.030780234842865",
    "geocoded_column": {
      "latitude": "30.030780234842865",
      "longitude": "-89.92677847192505"
    }
  },
  {
    "service_request": "2023-1026600",
    "request_type": "Trash/Recycling",
    "request_reason": "Request a Large Item Pick Up",
    "date_created": "2023-08-15T15:21:38.000",
    "date_modified": "2023-08-15T15:21:39.000",
    "request_status": "Pending",
    "responsible_agency": "Department of Sanitation",
    "final_address": "3350 Jena St",
    "address_councildis": "B",
    "status": "Assigned to Contractor",
    "contractor": "Richards Disposal",
    "rowid": "1026600",
    "final_x": "3669782.02369",
    "final_y": "527100.760127",
    "longitude": "-90.10522113961287",
    "latitude": "29.94369480304219",
    "geocoded_column": {
      "latitude": "29.94369480304219",
      "longitude": "-90.10522113961287"
    }
  },
  {
    "service_request": "2023-1026599",
    "request_type": "Trash/Recycling",
    "request_reason": "Order Recycling Cart",
    "date_created": "2023-08-15T15:15:17.000",
    "date_modified": "2023-08-15T15:15:17.000",
    "request_status": "Pending",
    "responsible_agency": "Department of Sanitation",
    "final_address": "950 Amethyst St",
    "address_councildis": "D",
    "status": "Pending",
    "rowid": "1026599",
    "final_x": "3671094.85243",
    "final_y": "557217.329243",
    "longitude": "-90.10005275752408",
    "latitude": "30.026466299920568",
    "geocoded_column": {
      "latitude": "30.026466299920568",
      "longitude": "-90.10005275752408"
    }
  },
  {
    "service_request": "2023-1026598",
    "request_type": "Trash/Recycling",
    "request_reason": "Repair Recycling Cart",
    "date_created": "2023-08-15T15:12:35.000",
    "date_modified": "2023-08-15T15:12:35.000",
    "request_status": "Pending",
    "responsible_agency": "Department of Sanitation",
    "final_address": "5816 Laurel St",
    "address_councildis": "A",
    "status": "Pending",
    "rowid": "1026598",
    "final_x": "3665131.58112",
    "final_y": "518008.575478",
    "longitude": "-90.12020780993423",
    "latitude": "29.918830408361494",
    "geocoded_column": {
      "latitude": "29.918830408361494",
      "longitude": "-90.12020780993423"
    }
  },
  {
    "service_request": "2023-1026597",
    "request_type": "Abandoned Vehicles",
    "request_reason": "Abandoned/Junk Vehicles",
    "date_created": "2023-08-15T15:12:04.000",
    "date_modified": "2023-08-15T15:13:12.000",
    "request_status": "Pending",
    "responsible_agency": "Department of Public Works",
    "final_address": "2639 Memorial Park Dr",
    "address_councildis": "C",
    "status": "Pending",
    "rowid": "1026597",
    "final_x": "3693043.79965",
    "final_y": "520814.972601",
    "longitude": "-90.03200320800748",
    "latitude": "29.925704985768885",
    "geocoded_column": {
      "latitude": "29.925704985768885",
      "longitude": "-90.03200320800748"
    }
  },
  {
    "service_request": "2023-1026596",
    "request_type": "Abandoned Vehicles",
    "request_reason": "Abandoned/Junk Vehicles",
    "date_created": "2023-08-15T15:11:21.000",
    "date_modified": "2023-08-15T15:11:21.000",
    "request_status": "Pending",
    "responsible_agency": "Department of Public Works",
    "final_address": "14053 Quail Creek Ln",
    "address_councildis": "E",
    "status": "Pending",
    "rowid": "1026596",
    "final_x": "3718968.5637",
    "final_y": "572415.431209",
    "longitude": "-89.94819857986248",
    "latitude": "30.066751153809477",
    "geocoded_column": {
      "latitude": "30.066751153809477",
      "longitude": "-89.94819857986248"
    }
  },
  {
    "service_request": "2023-1026595",
    "request_type": "Abandoned Vehicles",
    "request_reason": "Abandoned/Junk Vehicles",
    "date_created": "2023-08-15T15:09:06.000",
    "date_modified": "2023-08-15T15:09:06.000",
    "request_status": "Pending",
    "responsible_agency": "Department of Public Works",
    "final_address": "14051 Quail Creek Ln",
    "address_councildis": "E",
    "status": "Pending",
    "rowid": "1026595",
    "final_x": "3718938.22297",
    "final_y": "572387.673321",
    "longitude": "-89.94829555131858",
    "latitude": "30.066675839706964",
    "geocoded_column": {
      "latitude": "30.066675839706964",
      "longitude": "-89.94829555131858"
    }
  },
  {
    "service_request": "2023-1026594",
    "request_type": "Trash/Recycling",
    "request_reason": "Request a Large Item Pick Up",
    "date_created": "2023-08-15T15:08:02.000",
    "date_modified": "2023-08-15T15:08:03.000",
    "request_status": "Pending",
    "responsible_agency": "Department of Sanitation",
    "final_address": "5294 Tullis Dr",
    "address_councildis": "C",
    "status": "Assigned to Contractor",
    "contractor": "Richards Disposal",
    "rowid": "1026594",
    "final_x": "3703355.15287",
    "final_y": "511984.4268",
    "longitude": "-89.99977804673003",
    "latitude": "29.90109797903933",
    "geocoded_column": {
      "latitude": "29.90109797903933",
      "longitude": "-89.99977804673003"
    }
  },
  {
    "service_request": "2023-1026593",
    "request_type": "Abandoned Vehicles",
    "request_reason": "Abandoned/Junk Vehicles",
    "date_created": "2023-08-15T15:06:29.000",
    "date_modified": "2023-08-15T15:06:29.000",
    "request_status": "Pending",
    "responsible_agency": "Department of Public Works",
    "final_address": "14049 Quail Creek Ln",
    "address_councildis": "E",
    "status": "Pending",
    "rowid": "1026593",
    "final_x": "3718908.32799",
    "final_y": "572359.995817",
    "longitude": "-89.9483911104879",
    "latitude": "30.066600731740476",
    "geocoded_column": {
      "latitude": "30.066600731740476",
      "longitude": "-89.9483911104879"
    }
  },
  {
    "service_request": "2023-1026592",
    "request_type": "Roads/Drainage",
    "request_reason": "Man hole cover issue",
    "date_created": "2023-08-15T15:04:41.000",
    "date_modified": "2023-08-15T15:04:41.000",
    "request_status": "Pending",
    "responsible_agency": "Department of Public Works",
    "final_address": "JEFFERSON AVE & CAMP ST",
    "address_councildis": "A",
    "status": "Pending",
    "rowid": "1026592",
    "final_x": "3666830.9",
    "final_y": "519162.38",
    "longitude": "-90.1148051938199",
    "latitude": "29.921953429402485",
    "geocoded_column": {
      "latitude": "29.921953429402485",
      "longitude": "-90.1148051938199"
    }
  },
  {
    "service_request": "2023-1026591",
    "request_type": "Trash/Recycling",
    "request_reason": "Request a Large Item Pick Up",
    "date_created": "2023-08-15T15:04:10.000",
    "date_modified": "2023-08-15T15:04:11.000",
    "request_status": "Pending",
    "responsible_agency": "Department of Sanitation",
    "status": "Assigned to Contractor",
    "rowid": "1026591",
    "longitude": "0.0",
    "latitude": "0.0",
    "geocoded_column": {
      "latitude": "0.0",
      "longitude": "0.0"
    }
  },
  {
    "service_request": "2023-1026590",
    "request_type": "Trash/Recycling",
    "request_reason": "Request a Large Item Pick Up",
    "date_created": "2023-08-15T15:02:40.000",
    "date_modified": "2023-08-15T15:04:04.000",
    "request_status": "Pending",
    "responsible_agency": "Department of Sanitation",
    "final_address": "1723 St Anthony St",
    "address_councildis": "D",
    "status": "Assigned to Contractor",
    "contractor": "IV Waste",
    "rowid": "1026590",
    "final_x": "3683351.10537",
    "final_y": "538584.617609",
    "longitude": "-90.06197769417791",
    "latitude": "29.974864614452734",
    "geocoded_column": {
      "latitude": "29.974864614452734",
      "longitude": "-90.06197769417791"
    }
  },
  {
    "service_request": "2023-1026589",
    "request_type": "Trash/Recycling",
    "request_reason": "Illegal Dumping",
    "date_created": "2023-08-15T15:02:22.000",
    "date_modified": "2023-08-15T15:02:22.000",
    "request_status": "Pending",
    "responsible_agency": "Department of Sanitation",
    "final_address": "5294 Tullis Dr",
    "address_councildis": "C",
    "status": "Pending",
    "rowid": "1026589",
    "final_x": "3703355.15287",
    "final_y": "511984.4268",
    "longitude": "-89.99977804673003",
    "latitude": "29.90109797903933",
    "geocoded_column": {
      "latitude": "29.90109797903933",
      "longitude": "-89.99977804673003"
    }
  },
  {
    "service_request": "2023-1026588",
    "request_type": "Abandoned Vehicles",
    "request_reason": "Abandoned/Junk Vehicles",
    "date_created": "2023-08-15T15:01:15.000",
    "date_modified": "2023-08-15T15:01:15.000",
    "request_status": "Pending",
    "responsible_agency": "Department of Public Works",
    "final_address": "14053 Quail Creek Ln",
    "address_councildis": "E",
    "status": "Pending",
    "rowid": "1026588",
    "final_x": "3718968.5637",
    "final_y": "572415.431209",
    "longitude": "-89.94819857986248",
    "latitude": "30.066751153809477",
    "geocoded_column": {
      "latitude": "30.066751153809477",
      "longitude": "-89.94819857986248"
    }
  },
  {
    "service_request": "2023-1026587",
    "request_type": "Traffic Signals/Signs/Striping/Streetlights",
    "request_reason": "Traffic Signal Malfunctioning/Damaged",
    "date_created": "2023-08-15T15:00:02.000",
    "date_modified": "2023-08-15T15:00:02.000",
    "request_status": "Pending",
    "responsible_agency": "Department of Public Works",
    "final_address": "JEFFERSON AVE & DRYADES ST",
    "address_councildis": "A",
    "status": "Pending",
    "rowid": "1026587",
    "final_x": "3667440.6",
    "final_y": "521917.38",
    "longitude": "-90.11278798731371",
    "latitude": "29.929510965097137",
    "geocoded_column": {
      "latitude": "29.929510965097137",
      "longitude": "-90.11278798731371"
    }
  },
  {
    "service_request": "2023-1026586",
    "request_type": "Abandoned Vehicles",
    "request_reason": "Abandoned/Junk Vehicles",
    "date_created": "2023-08-15T14:59:45.000",
    "date_modified": "2023-08-15T14:59:45.000",
    "request_status": "Pending",
    "responsible_agency": "Department of Public Works",
    "final_address": "14051 Quail Creek Ln",
    "address_councildis": "E",
    "status": "Pending",
    "rowid": "1026586",
    "final_x": "3718938.22297",
    "final_y": "572387.673321",
    "longitude": "-89.94829555131858",
    "latitude": "30.066675839706964",
    "geocoded_column": {
      "latitude": "30.066675839706964",
      "longitude": "-89.94829555131858"
    }
  },
  {
    "service_request": "2023-1026585",
    "request_type": "Traffic Signals/Signs/Striping/Streetlights",
    "request_reason": "Traffic Signal Malfunctioning/Damaged",
    "date_created": "2023-08-15T14:59:41.000",
    "date_modified": "2023-08-15T14:59:42.000",
    "request_status": "Pending",
    "responsible_agency": "Department of Public Works",
    "final_address": "FRERET ST & UPPERLINE ST",
    "address_councildis": "B",
    "status": "Pending",
    "rowid": "1026585",
    "final_x": "3669167.8",
    "final_y": "523908.18",
    "longitude": "-90.10726826899554",
    "latitude": "29.934934325859306",
    "geocoded_column": {
      "latitude": "29.934934325859306",
      "longitude": "-90.10726826899554"
    }
  },
  {
    "service_request": "2023-1026584",
    "request_type": "Trash/Recycling",
    "request_reason": "Replace Trash Cart",
    "date_created": "2023-08-15T14:58:58.000",
    "date_modified": "2023-08-15T14:58:59.000",
    "request_status": "Pending",
    "responsible_agency": "Department of Sanitation",
    "final_address": "924 Independence St",
    "address_councildis": "C",
    "status": "Assigned to Contractor",
    "contractor": "IV Waste",
    "rowid": "1026584",
    "final_x": "3690780.89904",
    "final_y": "534944.137286",
    "longitude": "-90.0386425212176",
    "latitude": "29.964625812982078",
    "geocoded_column": {
      "latitude": "29.964625812982078",
      "longitude": "-90.0386425212176"
    }
  },
  {
    "service_request": "2023-1026583",
    "request_type": "Abandoned Vehicles",
    "request_reason": "Abandoned/Junk Vehicles",
    "date_created": "2023-08-15T14:58:06.000",
    "date_modified": "2023-08-15T14:58:06.000",
    "request_status": "Pending",
    "responsible_agency": "Department of Public Works",
    "final_address": "14049 Quail Creek Ln",
    "address_councildis": "E",
    "status": "Pending",
    "rowid": "1026583",
    "final_x": "3718908.32799",
    "final_y": "572359.995817",
    "longitude": "-89.9483911104879",
    "latitude": "30.066600731740476",
    "geocoded_column": {
      "latitude": "30.066600731740476",
      "longitude": "-89.9483911104879"
    }
  },
  {
    "service_request": "2023-1026582",
    "request_type": "Trash/Recycling",
    "request_reason": "Request a Large Item Pick Up",
    "date_created": "2023-08-15T14:53:51.000",
    "date_modified": "2023-08-15T14:53:52.000",
    "request_status": "Pending",
    "responsible_agency": "Department of Sanitation",
    "final_address": "1520 Arts St",
    "address_councildis": "C",
    "status": "Assigned to Contractor",
    "contractor": "IV Waste",
    "rowid": "1026582",
    "final_x": "3687037.13244",
    "final_y": "538145.275465",
    "longitude": "-90.05035185264467",
    "latitude": "29.97354360776205",
    "geocoded_column": {
      "latitude": "29.97354360776205",
      "longitude": "-90.05035185264467"
    }
  },
  {
    "service_request": "2023-1026581",
    "request_type": "Trash/Recycling",
    "request_reason": "Request a Large Item Pick Up",
    "date_created": "2023-08-15T14:52:57.000",
    "date_modified": "2023-08-15T14:52:58.000",
    "request_status": "Pending",
    "responsible_agency": "Department of Sanitation",
    "final_address": "812 Dante St",
    "address_councildis": "A",
    "status": "Assigned to Contractor",
    "contractor": "Richards Disposal",
    "rowid": "1026581",
    "final_x": "3660515.44282",
    "final_y": "527931.146815",
    "longitude": "-90.13445093601588",
    "latitude": "29.94624794461888",
    "geocoded_column": {
      "latitude": "29.94624794461888",
      "longitude": "-90.13445093601588"
    }
  },
  {
    "service_request": "2023-1026580",
    "request_type": "Trash/Recycling",
    "request_reason": "Repair Trash Cart",
    "date_created": "2023-08-15T14:51:50.000",
    "date_modified": "2023-08-15T14:51:51.000",
    "request_status": "Pending",
    "responsible_agency": "Department of Sanitation",
    "final_address": "812 Dante St",
    "address_councildis": "A",
    "status": "Assigned to Contractor",
    "contractor": "Richards Disposal",
    "rowid": "1026580",
    "final_x": "3660515.44282",
    "final_y": "527931.146815",
    "longitude": "-90.13445093601588",
    "latitude": "29.94624794461888",
    "geocoded_column": {
      "latitude": "29.94624794461888",
      "longitude": "-90.13445093601588"
    }
  },
  {
    "service_request": "2023-1026579",
    "request_type": "Trash/Recycling",
    "request_reason": "Request a Large Item Pick Up",
    "date_created": "2023-08-15T14:50:09.000",
    "date_modified": "2023-08-15T14:50:10.000",
    "request_status": "Pending",
    "responsible_agency": "Department of Sanitation",
    "final_address": "1803 St Roch Ave",
    "address_councildis": "D",
    "status": "Assigned to Contractor",
    "contractor": "IV Waste",
    "rowid": "1026579",
    "final_x": "3686488.36527",
    "final_y": "539059.334858",
    "longitude": "-90.05205269119415",
    "latitude": "29.97607383414975",
    "geocoded_column": {
      "latitude": "29.97607383414975",
      "longitude": "-90.05205269119415"
    }
  },
  {
    "service_request": "2023-1026578",
    "request_type": "Trash/Recycling",
    "request_reason": "Request a Large Item Pick Up",
    "date_created": "2023-08-15T14:47:10.000",
    "date_modified": "2023-08-15T15:05:58.000",
    "case_close_date": "2023-08-15T10:05:58.000",
    "request_status": "Closed",
    "responsible_agency": "Department of Sanitation",
    "final_address": "1801 St Roch Ave",
    "address_councildis": "D",
    "status": "Invalid Request",
    "contractor": "IV Waste",
    "contractor_action": "Invalid Pick-Up",
    "rowid": "1026578",
    "final_x": "3686488.23644",
    "final_y": "539046.94401",
    "longitude": "-90.05205353567123",
    "latitude": "29.976039767632233",
    "geocoded_column": {
      "latitude": "29.976039767632233",
      "longitude": "-90.05205353567123"
    }
  },
  {
    "service_request": "2023-1026577",
    "request_type": "Trash/Recycling",
    "request_reason": "Replace Trash Cart",
    "date_created": "2023-08-15T14:47:02.000",
    "date_modified": "2023-08-15T14:47:03.000",
    "request_status": "Pending",
    "responsible_agency": "Department of Sanitation",
    "final_address": "1225 General Pershing St",
    "address_councildis": "B",
    "status": "Assigned to Contractor",
    "contractor": "Richards Disposal",
    "rowid": "1026577",
    "final_x": "3671389.60206",
    "final_y": "520068.43372",
    "longitude": "-90.10038448264618",
    "latitude": "29.924310699916493",
    "geocoded_column": {
      "latitude": "29.924310699916493",
      "longitude": "-90.10038448264618"
    }
  },
  {
    "service_request": "2023-1026576",
    "request_type": "Trash/Recycling",
    "request_reason": "MIssed Recycling Pick-Up",
    "date_created": "2023-08-15T14:45:39.000",
    "date_modified": "2023-08-15T14:45:41.000",
    "request_status": "Pending",
    "responsible_agency": "Department of Sanitation",
    "final_address": "8500 Dixon St",
    "address_councildis": "A",
    "status": "Assigned to Contractor",
    "contractor": "Richards Disposal",
    "rowid": "1026576",
    "final_x": "3667300.65479",
    "final_y": "536437.255559",
    "longitude": "-90.1127415013223",
    "latitude": "29.96943999954123",
    "geocoded_column": {
      "latitude": "29.96943999954123",
      "longitude": "-90.1127415013223"
    }
  },
  {
    "service_request": "2023-1026575",
    "request_type": "Trash/Recycling",
    "request_reason": "Missed Trash Pick-Up",
    "date_created": "2023-08-15T14:42:18.000",
    "date_modified": "2023-08-15T14:42:19.000",
    "request_status": "Pending",
    "responsible_agency": "Department of Sanitation",
    "final_address": "3112 Esplanade Ave",
    "address_councildis": "A",
    "status": "Assigned to Contractor",
    "contractor": "Richards Disposal",
    "rowid": "1026575",
    "final_x": "3676427.73217",
    "final_y": "540230.439819",
    "longitude": "-90.0837867921193",
    "latitude": "29.97959946577619",
    "geocoded_column": {
      "latitude": "29.97959946577619",
      "longitude": "-90.0837867921193"
    }
  },
  {
    "service_request": "2023-1026574",
    "request_type": "Roads/Drainage",
    "request_reason": "Pothole",
    "date_created": "2023-08-15T14:40:10.000",
    "date_modified": "2023-08-15T14:40:11.000",
    "request_status": "Pending",
    "responsible_agency": "Department of Public Works",
    "final_address": "1725 St Philip St",
    "address_councildis": "D",
    "status": "Pending",
    "rowid": "1026574",
    "final_x": "3680251.29141",
    "final_y": "535692.631303",
    "longitude": "-90.07186824033445",
    "latitude": "29.967006853769792",
    "geocoded_column": {
      "latitude": "29.967006853769792",
      "longitude": "-90.07186824033445"
    }
  },
  {
    "service_request": "2023-1026573",
    "request_type": "Property Maintenance",
    "request_reason": "Property Maintenance",
    "date_created": "2023-08-15T14:39:16.000",
    "date_modified": "2023-08-15T14:39:16.000",
    "request_status": "Pending",
    "responsible_agency": "Department of Code Enforcement",
    "final_address": "1917 Leonidas St",
    "address_councildis": "A",
    "status": "Pending",
    "rowid": "1026573",
    "final_x": "3662467.90407",
    "final_y": "531511.979139",
    "longitude": "-90.12816739411406",
    "latitude": "29.95603776509286",
    "geocoded_column": {
      "latitude": "29.95603776509286",
      "longitude": "-90.12816739411406"
    }
  },
  {
    "service_request": "2023-1026572",
    "request_type": "Trash/Recycling",
    "request_reason": "Illegal Dumping",
    "date_created": "2023-08-15T14:37:30.000",
    "date_modified": "2023-08-15T14:37:30.000",
    "request_status": "Pending",
    "responsible_agency": "Department of Sanitation",
    "final_address": "1721 St Philip St",
    "address_councildis": "D",
    "status": "Pending",
    "rowid": "1026572",
    "final_x": "3680274.15599",
    "final_y": "535674.193927",
    "longitude": "-90.07179667496236",
    "latitude": "29.966955465142547",
    "geocoded_column": {
      "latitude": "29.966955465142547",
      "longitude": "-90.07179667496236"
    }
  },
  {
    "service_request": "2023-1026571",
    "request_type": "Trash/Recycling",
    "request_reason": "Repair Trash Cart",
    "date_created": "2023-08-15T14:36:37.000",
    "date_modified": "2023-08-15T14:36:37.000",
    "request_status": "Pending",
    "responsible_agency": "Department of Sanitation",
    "final_address": "6839 General Haig St",
    "address_councildis": "A",
    "status": "Assigned to Contractor",
    "contractor": "IV Waste",
    "rowid": "1026571",
    "final_x": "3671144.38523",
    "final_y": "552785.000086",
    "longitude": "-90.10004698436487",
    "latitude": "30.01427751177544",
    "geocoded_column": {
      "latitude": "30.01427751177544",
      "longitude": "-90.10004698436487"
    }
  },
  {
    "service_request": "2023-1026570",
    "request_type": "Trash/Recycling",
    "request_reason": "Request a Large Item Pick Up",
    "date_created": "2023-08-15T14:35:19.000",
    "date_modified": "2023-08-15T14:35:20.000",
    "request_status": "Pending",
    "responsible_agency": "Department of Sanitation",
    "final_address": "6861 Tara Ln",
    "address_councildis": "E",
    "status": "Assigned to Contractor",
    "contractor": "Waste Pro",
    "rowid": "1026570",
    "final_x": "3707224.90852",
    "final_y": "559696.984733",
    "longitude": "-89.98579469822805",
    "latitude": "30.03216563646959",
    "geocoded_column": {
      "latitude": "30.03216563646959",
      "longitude": "-89.98579469822805"
    }
  },
  {
    "service_request": "2023-1026569",
    "request_type": "Abandoned Vehicles",
    "request_reason": "Abandoned/Junk Vehicles",
    "date_created": "2023-08-15T14:34:16.000",
    "date_modified": "2023-08-15T14:36:00.000",
    "request_status": "Pending",
    "responsible_agency": "Department of Public Works",
    "final_address": "1725 St Philip St",
    "address_councildis": "D",
    "status": "Pending",
    "rowid": "1026569",
    "final_x": "3680251.29141",
    "final_y": "535692.631303",
    "longitude": "-90.07186824033445",
    "latitude": "29.967006853769792",
    "geocoded_column": {
      "latitude": "29.967006853769792",
      "longitude": "-90.07186824033445"
    }
  },
  {
    "service_request": "2023-1026568",
    "request_type": "Trash/Recycling",
    "request_reason": "MIssed Recycling Pick-Up",
    "date_created": "2023-08-15T14:32:12.000",
    "date_modified": "2023-08-15T14:32:14.000",
    "request_status": "Pending",
    "responsible_agency": "Department of Sanitation",
    "final_address": "7555 Mercier St",
    "address_councildis": "E",
    "status": "Assigned to Contractor",
    "contractor": "Waste Pro",
    "rowid": "1026568",
    "final_x": "3711826.78008",
    "final_y": "565996.400291",
    "longitude": "-89.97101594916865",
    "latitude": "30.049336891735546",
    "geocoded_column": {
      "latitude": "30.049336891735546",
      "longitude": "-89.97101594916865"
    }
  },
  {
    "service_request": "2023-1026567",
    "request_type": "Traffic Signals/Signs/Striping/Streetlights",
    "request_reason": "Street Light Outage/Malfunction",
    "date_created": "2023-08-15T14:32:06.000",
    "date_modified": "2023-08-15T14:32:07.000",
    "request_status": "Pending",
    "responsible_agency": "Department of Public Works",
    "final_address": "6219 Dorothea St",
    "address_councildis": "D",
    "status": "Assigned to Contractor",
    "contractor": "Legacy Professional Services",
    "rowid": "1026567",
    "final_x": "3696438.21219",
    "final_y": "557601.961435",
    "longitude": "-90.01995709168325",
    "latitude": "30.02674951430102",
    "geocoded_column": {
      "latitude": "30.02674951430102",
      "longitude": "-90.01995709168325"
    }
  },
  {
    "service_request": "2023-1026566",
    "request_type": "Trash/Recycling",
    "request_reason": "Request a Large Item Pick Up",
    "date_created": "2023-08-15T14:18:59.000",
    "date_modified": "2023-08-15T14:18:59.000",
    "request_status": "Pending",
    "responsible_agency": "Department of Sanitation",
    "final_address": "4924 Marigny St",
    "address_councildis": "D",
    "status": "Assigned to Contractor",
    "contractor": "IV Waste",
    "rowid": "1026566",
    "final_x": "3684322.10095",
    "final_y": "550939.718101",
    "longitude": "-90.05847690922917",
    "latitude": "30.008807083408897",
    "geocoded_column": {
      "latitude": "30.008807083408897",
      "longitude": "-90.05847690922917"
    }
  },
  {
    "service_request": "2023-1026565",
    "request_type": "Trash/Recycling",
    "request_reason": "Missed Trash Pick-Up",
    "date_created": "2023-08-15T14:16:17.000",
    "date_modified": "2023-08-15T14:41:45.000",
    "case_close_date": "2023-08-15T09:41:45.000",
    "request_status": "Closed",
    "responsible_agency": "Department of Sanitation",
    "final_address": "7000 Ransom St",
    "address_councildis": "E",
    "status": "Assigned to Contractor",
    "contractor": "Waste Pro",
    "contractor_action": "Completed",
    "rowid": "1026565",
    "final_x": "3701404.10897",
    "final_y": "553273.950103",
    "longitude": "-90.00442409242686",
    "latitude": "30.014691697491852",
    "geocoded_column": {
      "latitude": "30.014691697491852",
      "longitude": "-90.00442409242686"
    }
  },
  {
    "service_request": "2023-1026564",
    "request_type": "Abandoned Vehicles",
    "request_reason": "Abandoned/Junk Vehicles",
    "date_created": "2023-08-15T14:15:20.000",
    "date_modified": "2023-08-15T14:15:20.000",
    "request_status": "Pending",
    "responsible_agency": "Department of Public Works",
    "final_address": "LA",
    "address_councildis": "A",
    "status": "Pending",
    "rowid": "1026564",
    "final_x": "3671421.65313",
    "final_y": "537615.406152",
    "longitude": "-90.09968696553598",
    "latitude": "29.972558167701763",
    "geocoded_column": {
      "latitude": "29.972558167701763",
      "longitude": "-90.09968696553598"
    }
  },
  {
    "service_request": "2023-1026563",
    "request_type": "Trash/Recycling",
    "request_reason": "Request a Large Item Pick Up",
    "date_created": "2023-08-15T14:09:35.000",
    "date_modified": "2023-08-15T14:09:36.000",
    "request_status": "Pending",
    "responsible_agency": "Department of Sanitation",
    "final_address": "5542 Chamberlain Dr",
    "address_councildis": "D",
    "status": "Assigned to Contractor",
    "contractor": "IV Waste",
    "rowid": "1026563",
    "final_x": "3679340.07093",
    "final_y": "552890.911127",
    "longitude": "-90.0741490313644",
    "latitude": "30.01432363277341",
    "geocoded_column": {
      "latitude": "30.01432363277341",
      "longitude": "-90.0741490313644"
    }
  },
  {
    "service_request": "2023-1026562",
    "request_type": "Trash/Recycling",
    "request_reason": "Replace Trash Cart",
    "date_created": "2023-08-15T14:09:05.000",
    "date_modified": "2023-08-15T14:09:05.000",
    "request_status": "Pending",
    "responsible_agency": "Department of Public Works",
    "final_address": "2131 Willow St",
    "address_councildis": "B",
    "status": "Assigned to Contractor",
    "contractor": "Richards Disposal",
    "rowid": "1026562",
    "final_x": "3674909.78491",
    "final_y": "527443.350463",
    "longitude": "-90.0890196635993",
    "latitude": "29.94448469751975",
    "geocoded_column": {
      "latitude": "29.94448469751975",
      "longitude": "-90.0890196635993"
    }
  },
  {
    "service_request": "2023-1026560",
    "request_type": "Abandoned Vehicles",
    "request_reason": "Abandoned/Junk Vehicles",
    "date_created": "2023-08-15T14:08:27.000",
    "date_modified": "2023-08-15T14:08:27.000",
    "request_status": "Pending",
    "responsible_agency": "Department of Public Works",
    "final_address": "2200 BLK Frenchmen St",
    "address_councildis": "D",
    "status": "Pending",
    "rowid": "1026560",
    "final_x": "3684249.05404",
    "final_y": "540506.549352",
    "longitude": "-90.05907424733773",
    "latitude": "29.980121828404233",
    "geocoded_column": {
      "latitude": "29.980121828404233",
      "longitude": "-90.05907424733773"
    }
  },
  {
    "service_request": "2023-1026559",
    "request_type": "Trash/Recycling",
    "request_reason": "Replace Trash Cart",
    "date_created": "2023-08-15T14:07:52.000",
    "date_modified": "2023-08-15T14:07:53.000",
    "request_status": "Pending",
    "responsible_agency": "Department of Sanitation",
    "final_address": "1450 Moss St",
    "address_councildis": "A",
    "status": "Assigned to Contractor",
    "contractor": "Richards Disposal",
    "rowid": "1026559",
    "final_x": "3674615.09921",
    "final_y": "541135.64142",
    "longitude": "-90.0894807895224",
    "latitude": "29.982142686936317",
    "geocoded_column": {
      "latitude": "29.982142686936317",
      "longitude": "-90.0894807895224"
    }
  },
  {
    "service_request": "2023-1026558",
    "request_type": "Property Maintenance",
    "request_reason": "Property Maintenance",
    "date_created": "2023-08-15T14:07:35.000",
    "date_modified": "2023-08-15T14:07:35.000",
    "request_status": "Pending",
    "responsible_agency": "Department of Code Enforcement",
    "final_address": "2440 St Roch Ave",
    "address_councildis": "D",
    "status": "Pending",
    "rowid": "1026558",
    "final_x": "3686004.32386",
    "final_y": "541541.460108",
    "longitude": "-90.05349387147895",
    "latitude": "29.982913677870307",
    "geocoded_column": {
      "latitude": "29.982913677870307",
      "longitude": "-90.05349387147895"
    }
  },
  {
    "service_request": "2023-1026557",
    "request_type": "Trash/Recycling",
    "request_reason": "Request a Large Item Pick Up",
    "date_created": "2023-08-15T14:05:12.000",
    "date_modified": "2023-08-15T14:05:13.000",
    "request_status": "Pending",
    "responsible_agency": "Department of Sanitation",
    "final_address": "3617 Eagle St",
    "address_councildis": "A",
    "status": "Assigned to Contractor",
    "contractor": "Richards Disposal",
    "rowid": "1026557",
    "final_x": "3666032.52",
    "final_y": "536445.025799",
    "longitude": "-90.11674612909431",
    "latitude": "29.969498448372278",
    "geocoded_column": {
      "latitude": "29.969498448372278",
      "longitude": "-90.11674612909431"
    }
  },
  {
    "service_request": "2023-1026556",
    "request_type": "Trash/Recycling",
    "request_reason": "Request a Large Item Pick Up",
    "date_created": "2023-08-15T14:00:20.000",
    "date_modified": "2023-08-15T14:00:21.000",
    "request_status": "Pending",
    "responsible_agency": "Department of Sanitation",
    "final_address": "7636 Jeannette St",
    "address_councildis": "A",
    "status": "Assigned to Contractor",
    "contractor": "Richards Disposal",
    "rowid": "1026556",
    "final_x": "3663777.2633",
    "final_y": "528029.400447",
    "longitude": "-90.12414891500917",
    "latitude": "29.946423866371518",
    "geocoded_column": {
      "latitude": "29.946423866371518",
      "longitude": "-90.12414891500917"
    }
  },
  {
    "service_request": "2023-1026555",
    "request_type": "Traffic Signals/Signs/Striping/Streetlights",
    "request_reason": "Street Light Outage/Malfunction",
    "date_created": "2023-08-15T13:58:08.000",
    "date_modified": "2023-08-15T13:58:09.000",
    "request_status": "Pending",
    "responsible_agency": "Department of Public Works",
    "final_address": "5076 Van Chu Dr",
    "address_councildis": "E",
    "status": "Assigned to Contractor",
    "contractor": "Legacy Professional Services",
    "rowid": "1026555",
    "final_x": "3727622.19014",
    "final_y": "563222.147488",
    "longitude": "-89.92120162262296",
    "latitude": "30.041183029488014",
    "geocoded_column": {
      "latitude": "30.041183029488014",
      "longitude": "-89.92120162262296"
    }
  },
  {
    "service_request": "2023-1026554",
    "request_type": "Traffic Signals/Signs/Striping/Streetlights",
    "request_reason": "Street Light Outage/Malfunction",
    "date_created": "2023-08-15T13:53:22.000",
    "date_modified": "2023-08-15T14:24:55.000",
    "case_close_date": "2023-08-15T09:24:55.000",
    "request_status": "Closed",
    "responsible_agency": "Department of Public Works",
    "final_address": "700 BLK General Taylor St",
    "address_councildis": "B",
    "status": "Duplicate Request",
    "contractor": "Legacy Professional Services",
    "rowid": "1026554",
    "final_x": "3673242.35722",
    "final_y": "518444.862176",
    "longitude": "-90.09459137192229",
    "latitude": "29.919791449863187",
    "geocoded_column": {
      "latitude": "29.919791449863187",
      "longitude": "-90.09459137192229"
    }
  },
  {
    "service_request": "2023-1026553",
    "request_type": "Abandoned Vehicles",
    "request_reason": "Abandoned/Junk Vehicles",
    "date_created": "2023-08-15T13:50:00.000",
    "date_modified": "2023-08-15T13:50:00.000",
    "request_status": "Pending",
    "responsible_agency": "Department of Public Works",
    "final_address": "917 Thalia St",
    "address_councildis": "B",
    "status": "Pending",
    "rowid": "1026553",
    "final_x": "3681183.92591",
    "final_y": "525116.528957",
    "longitude": "-90.06929142583014",
    "latitude": "29.937897878712683",
    "geocoded_column": {
      "latitude": "29.937897878712683",
      "longitude": "-90.06929142583014"
    }
  },
  {
    "service_request": "2023-1026552",
    "request_type": "Trash/Recycling",
    "request_reason": "Replace Trash Cart",
    "date_created": "2023-08-15T13:49:21.000",
    "date_modified": "2023-08-15T13:49:22.000",
    "request_status": "Pending",
    "responsible_agency": "Department of Sanitation",
    "final_address": "4315 State Street Dr",
    "address_councildis": "B",
    "status": "Assigned to Contractor",
    "contractor": "Richards Disposal",
    "rowid": "1026552",
    "final_x": "3668566.84167",
    "final_y": "531273.914114",
    "longitude": "-90.10891701229157",
    "latitude": "29.955205372109024",
    "geocoded_column": {
      "latitude": "29.955205372109024",
      "longitude": "-90.10891701229157"
    }
  },
  {
    "service_request": "2023-1026551",
    "request_type": "Trash/Recycling",
    "request_reason": "Repair Recycling Cart",
    "date_created": "2023-08-15T13:48:04.000",
    "date_modified": "2023-08-15T13:48:05.000",
    "request_status": "Pending",
    "responsible_agency": "Department of Sanitation",
    "final_address": "4515 Prytania St",
    "address_councildis": "B",
    "status": "Pending",
    "rowid": "1026551",
    "final_x": "3670378.68999",
    "final_y": "520371.684856",
    "longitude": "-90.10356531642955",
    "latitude": "29.925174415204975",
    "geocoded_column": {
      "latitude": "29.925174415204975",
      "longitude": "-90.10356531642955"
    }
  },
  {
    "service_request": "2023-1026550",
    "request_type": "Trash/Recycling",
    "request_reason": "Order Trash Cart",
    "date_created": "2023-08-15T13:47:24.000",
    "date_modified": "2023-08-15T13:47:24.000",
    "request_status": "Pending",
    "responsible_agency": "Department of Sanitation",
    "final_address": "6112 Baccich St",
    "address_councildis": "D",
    "status": "Assigned to Contractor",
    "contractor": "IV Waste",
    "rowid": "1026550",
    "final_x": "3687405.7462",
    "final_y": "555755.988633",
    "longitude": "-90.04856407748807",
    "latitude": "30.021955356111846",
    "geocoded_column": {
      "latitude": "30.021955356111846",
      "longitude": "-90.04856407748807"
    }
  },
  {
    "service_request": "2023-1026549",
    "request_type": "Trash/Recycling",
    "request_reason": "Order Trash Cart",
    "date_created": "2023-08-15T13:46:27.000",
    "date_modified": "2023-08-15T13:46:28.000",
    "request_status": "Pending",
    "responsible_agency": "Department of Sanitation",
    "final_address": "6110 Baccich St",
    "address_councildis": "D",
    "status": "Assigned to Contractor",
    "contractor": "IV Waste",
    "rowid": "1026549",
    "final_x": "3687409.48623",
    "final_y": "555740.498265",
    "longitude": "-90.04855280878479",
    "latitude": "30.02191264804656",
    "geocoded_column": {
      "latitude": "30.02191264804656",
      "longitude": "-90.04855280878479"
    }
  },