[
  {
    "service_request": "2026-1294387",
    "request_type": "Health Related Request",
    "request_reason": "Noise Ordinance Complaint",
    "date_created": "2026-06-25T23:54:57.000",
    "date_modified": "2026-06-25T23:54:58.000",
    "request_status": "Pending",
    "responsible_agency": "Health Department",
    "final_address": "801 Bourbon St, New Orleans, Louisiana, 70116",
    "address_councildis": "C",
    "status": "Pending",
    "rowid": "1294387",
    "final_x": "3682490.98735",
    "final_y": "533018.672772",
    "longitude": "-90.06488875731978",
    "latitude": "29.959586396383013",
    "geocoded_column": {
      "latitude": "29.959586396383013",
      "longitude": "-90.06488875731978"
    }
  },
  {
    "service_request": "2026-1294386",
    "request_type": "Health Related Request",
    "request_reason": "Noise Ordinance Complaint",
    "date_created": "2026-06-25T23:54:16.000",
    "date_modified": "2026-06-25T23:54:19.000",
    "request_status": "Pending",
    "responsible_agency": "Health Department",
    "final_address": "800 Bourbon St, New Orleans, Louisiana, 70116",
    "address_councildis": "C",
    "status": "Pending",
    "rowid": "1294386",
    "final_x": "3682553.51528",
    "final_y": "533013.631428",
    "longitude": "-90.06469148499534",
    "latitude": "29.95957063099051",
    "geocoded_column": {
      "latitude": "29.95957063099051",
      "longitude": "-90.06469148499534"
    }
  },
  {
    "service_request": "2026-1294385",
    "request_type": "Roads and Streets",
    "request_reason": "Pothole",
    "date_created": "2026-06-25T22:57:28.000",
    "date_modified": "2026-06-25T22:57:30.000",
    "request_status": "Pending",
    "responsible_agency": "Department of Public Works",
    "final_address": "513 Huntlee Dr",
    "address_councildis": "C",
    "status": "Pending",
    "rowid": "1294385",
    "final_x": "3701788.60951",
    "final_y": "521410.601337",
    "longitude": "-90.00437687467168",
    "latitude": "29.92706677991156",
    "geocoded_column": {
      "latitude": "29.92706677991156",
      "longitude": "-90.00437687467168"
    }
  },
  {
    "service_request": "2026-1294384",
    "request_type": "Roads and Streets",
    "request_reason": "Pothole",
    "date_created": "2026-06-25T22:56:09.000",
    "date_modified": "2026-06-25T22:56:11.000",
    "request_status": "Pending",
    "responsible_agency": "Department of Public Works",
    "final_address": "517 Huntlee Dr",
    "address_councildis": "C",
    "status": "Pending",
    "rowid": "1294384",
    "final_x": "3701786.64919",
    "final_y": "521358.755961",
    "longitude": "-90.00438496100584",
    "latitude": "29.926924285576884",
    "geocoded_column": {
      "latitude": "29.926924285576884",
      "longitude": "-90.00438496100584"
    }
  },
  {
    "service_request": "2026-1294383",
    "request_type": "Roads and Streets",
    "request_reason": "Pothole",
    "date_created": "2026-06-25T22:45:58.000",
    "date_modified": "2026-06-25T22:46:01.000",
    "request_status": "Pending",
    "responsible_agency": "Department of Public Works",
    "final_address": "2017 Calhoun St",
    "address_councildis": "A",
    "status": "Pending",
    "rowid": "1294383",
    "final_x": "3665619.37485",
    "final_y": "524559.69286",
    "longitude": "-90.11844884742223",
    "latitude": "29.936829702983207",
    "geocoded_column": {
      "latitude": "29.936829702983207",
      "longitude": "-90.11844884742223"
    }
  },
  {
    "service_request": "2026-1294382",
    "request_type": "Roads and Streets",
    "request_reason": "Pothole",
    "date_created": "2026-06-25T22:41:39.000",
    "date_modified": "2026-06-25T22:41:47.000",
    "request_status": "Pending",
    "responsible_agency": "Department of Public Works",
    "final_address": "2020 Calhoun St",
    "address_councildis": "A",
    "status": "Pending",
    "rowid": "1294382",
    "final_x": "3665531.88128",
    "final_y": "524629.439612",
    "longitude": "-90.11872273597085",
    "latitude": "29.93702403476182",
    "geocoded_column": {
      "latitude": "29.93702403476182",
      "longitude": "-90.11872273597085"
    }
  },
  {
    "service_request": "2026-1294381",
    "request_type": "Trash/Recycling",
    "request_reason": "Missed Trash Pick-Up",
    "date_created": "2026-06-25T22:19:32.000",
    "date_modified": "2026-06-25T22:19:34.000",
    "request_status": "Pending",
    "responsible_agency": "Department of Sanitation",
    "final_address": "6730 Dorian St",
    "address_councildis": "D",
    "status": "Assigned to Contractor",
    "contractor": "Waste Pro",
    "rowid": "1294381",
    "final_x": "3696346.76675",
    "final_y": "555980.118361",
    "longitude": "-90.02030477430384",
    "latitude": "30.022292944222396",
    "geocoded_column": {
      "latitude": "30.022292944222396",
      "longitude": "-90.02030477430384"
    }
  },
  {
    "service_request": "2026-1294380",
    "request_type": "Trash/Recycling",
    "request_reason": "Missed Trash Pick-Up",
    "date_created": "2026-06-25T22:14:43.000",
    "date_modified": "2026-06-25T22:14:44.000",
    "request_status": "Pending",
    "responsible_agency": "Department of Sanitation",
    "final_address": "5422 Urquhart St",
    "address_councildis": "E",
    "status": "Assigned to Contractor",
    "contractor": "Waste Pro",
    "rowid": "1294380",
    "final_x": "3697604.11901",
    "final_y": "534609.302022",
    "longitude": "-90.01710754700778",
    "latitude": "29.963491384087735",
    "geocoded_column": {
      "latitude": "29.963491384087735",
      "longitude": "-90.01710754700778"
    }
  },
  {
    "service_request": "2026-1294379",
    "request_type": "Trash/Recycling",
    "request_reason": "Replace Trash Cart",
    "date_created": "2026-06-25T22:02:51.000",
    "date_modified": "2026-06-25T22:02:53.000",
    "request_status": "Pending",
    "responsible_agency": "Department of Sanitation",
    "final_address": "5313 Timber Haven Ln",
    "address_councildis": "C",
    "status": "Assigned to Contractor",
    "contractor": "Richards Disposal",
    "rowid": "1294379",
    "final_x": "3703822.19633",
    "final_y": "511339.661808",
    "longitude": "-89.99832781387074",
    "latitude": "29.899310139188913",
    "geocoded_column": {
      "latitude": "29.899310139188913",
      "longitude": "-89.99832781387074"
    }
  },
  {
    "service_request": "2026-1294378",
    "request_type": "Trash/Recycling",
    "request_reason": "Order Trash Cart",
    "date_created": "2026-06-25T21:54:53.000",
    "date_modified": "2026-06-25T21:54:56.000",
    "request_status": "Pending",
    "responsible_agency": "Department of Sanitation",
    "final_address": "2111 S Carrollton Ave",
    "address_councildis": "A",
    "status": "Assigned to Contractor",
    "contractor": "IV Waste",
    "rowid": "1294378",
    "final_x": "3664316.53376",
    "final_y": "530719.53773",
    "longitude": "-90.12235647476469",
    "latitude": "29.953805216187188",
    "geocoded_column": {
      "latitude": "29.953805216187188",
      "longitude": "-90.12235647476469"
    }
  },
  {
    "service_request": "2026-1294377",
    "request_type": "Healthy Homes",
    "request_reason": "Healthy Homes",
    "date_created": "2026-06-25T21:39:06.000",
    "date_modified": "2026-06-25T21:39:09.000",
    "request_status": "Pending",
    "responsible_agency": "Department of Code Enforcement",
    "final_address": "3443 Esplanade Ave Apt 627",
    "address_councildis": "A",
    "status": "Pending",
    "rowid": "1294377",
    "final_x": "3675011.78043",
    "final_y": "542000.61358",
    "longitude": "-90.0881981894739",
    "latitude": "29.984509215927",
    "geocoded_column": {
      "latitude": "29.984509215927",
      "longitude": "-90.0881981894739"
    }
  },
  {
    "service_request": "2026-1294376",
    "request_type": "Parks & Grass Service",
    "request_reason": "Request Grass Cutting Service (City Owned Property)",
    "date_created": "2026-06-25T21:19:22.000",
    "date_modified": "2026-06-25T21:19:24.000",
    "request_status": "Pending",
    "responsible_agency": "Department of Parks & Parkways",
    "final_address": "4317 S Galvez St",
    "address_councildis": "B",
    "status": "Pending",
    "rowid": "1294376",
    "final_x": "3670391.49012",
    "final_y": "527616.074047",
    "longitude": "-90.10327942096858",
    "latitude": "29.9450937728407",
    "geocoded_column": {
      "latitude": "29.9450937728407",
      "longitude": "-90.10327942096858"
    }
  },
  {
    "service_request": "2026-1294375",
    "request_type": "Streetlights",
    "request_reason": "Streetlight Outage/Malfunction",
    "date_created": "2026-06-25T21:16:47.000",
    "date_modified": "2026-06-25T21:16:49.000",
    "request_status": "Pending",
    "responsible_agency": "Department of Public Works",
    "final_address": "5670 Rosemary Pl",
    "address_councildis": "A",
    "status": "Pending",
    "rowid": "1294375",
    "final_x": "3667117.12986",
    "final_y": "545258.179535",
    "longitude": "-90.11302441326724",
    "latitude": "29.993699937158567",
    "geocoded_column": {
      "latitude": "29.993699937158567",
      "longitude": "-90.11302441326724"
    }
  },
  {
    "service_request": "2026-1294374",
    "request_type": "Roads and Streets",
    "request_reason": "Sidewalk Damaged or Missing",
    "date_created": "2026-06-25T21:04:12.000",
    "date_modified": "2026-06-25T21:04:14.000",
    "request_status": "Pending",
    "responsible_agency": "Department of Public Works",
    "final_address": "1414 Lowerline St",
    "address_councildis": "A",
    "status": "Pending",
    "rowid": "1294374",
    "final_x": "3664113.63968",
    "final_y": "527559.834495",
    "longitude": "-90.12310251033101",
    "latitude": "29.945122945969256",
    "geocoded_column": {
      "latitude": "29.945122945969256",
      "longitude": "-90.12310251033101"
    }
  },
  {
    "service_request": "2026-1294373",
    "request_type": "Mosquito, Termite & Rodent Control",
    "request_reason": "Rodent Complaint (Mice & Rats)",
    "date_created": "2026-06-25T20:40:54.000",
    "date_modified": "2026-06-25T20:40:59.000",
    "request_status": "Pending",
    "responsible_agency": "Mosquito, Termite & Rodent Control Board",
    "final_address": "2415 St Thomas St",
    "address_councildis": "B",
    "status": "Pending",
    "rowid": "1294373",
    "final_x": "3678934.64194",
    "final_y": "519924.58476",
    "longitude": "-90.07657238446174",
    "latitude": "29.92368977010126",
    "geocoded_column": {
      "latitude": "29.92368977010126",
      "longitude": "-90.07657238446174"
    }
  },
  {
    "service_request": "2026-1294372",
    "request_type": "Trash/Recycling",
    "request_reason": "Request a Large Item Pick Up",
    "date_created": "2026-06-25T20:35:37.000",
    "date_modified": "2026-06-25T20:35:39.000",
    "request_status": "Pending",
    "responsible_agency": "Department of Sanitation",
    "final_address": "4635 Werner Dr",
    "address_councildis": "E",
    "status": "Assigned to Contractor",
    "contractor": "Waste Pro",
    "rowid": "1294372",
    "final_x": "3704884.17617",
    "final_y": "554620.760792",
    "longitude": "-89.99337909826853",
    "latitude": "30.018283473291124",
    "geocoded_column": {
      "latitude": "30.018283473291124",
      "longitude": "-89.99337909826853"
    }
  },
  {
    "service_request": "2026-1294371",
    "request_type": "Trash/Recycling",
    "request_reason": "Request a Large Item Pick Up",
    "date_created": "2026-06-25T20:34:06.000",
    "date_modified": "2026-06-25T20:34:08.000",
    "request_status": "Pending",
    "responsible_agency": "Department of Sanitation",
    "final_address": "1236 Congress St",
    "address_councildis": "C",
    "status": "Assigned to Contractor",
    "contractor": "IV Waste",
    "rowid": "1294371",
    "final_x": "3690840.50537",
    "final_y": "536212.549447",
    "longitude": "-90.03840902226749",
    "latitude": "29.968111648935917",
    "geocoded_column": {
      "latitude": "29.968111648935917",
      "longitude": "-90.03840902226749"
    }
  },
  {
    "service_request": "2026-1294370",
    "request_type": "Trash/Recycling",
    "request_reason": "Return Trash Cart",
    "date_created": "2026-06-25T20:22:26.000",
    "date_modified": "2026-06-25T20:22:29.000",
    "request_status": "Pending",
    "responsible_agency": "Department of Sanitation",
    "final_address": "3576 Mimosa Ct",
    "address_councildis": "C",
    "status": "Assigned to Contractor",
    "contractor": "Richards Disposal",
    "rowid": "1294370",
    "final_x": "3703211.93796",
    "final_y": "513091.594801",
    "longitude": "-90.00018936522312",
    "latitude": "29.904146898408932",
    "geocoded_column": {
      "latitude": "29.904146898408932",
      "longitude": "-90.00018936522312"
    }
  },
  {
    "service_request": "2026-1294369",
    "request_type": "Property Maintenance",
    "request_reason": "Property Maintenance",
    "date_created": "2026-06-25T20:16:23.000",
    "date_modified": "2026-06-25T20:16:24.000",
    "request_status": "Pending",
    "responsible_agency": "Department of Code Enforcement",
    "final_address": "508 St Philip St",
    "address_councildis": "C",
    "status": "Pending",
    "rowid": "1294369",
    "final_x": "3683725.23682",
    "final_y": "532914.223748",
    "longitude": "-90.06099494991967",
    "latitude": "29.95926157064587",
    "geocoded_column": {
      "latitude": "29.95926157064587",
      "longitude": "-90.06099494991967"
    }
  },
  {
    "service_request": "2026-1294368",
    "request_type": "Property Maintenance",
    "request_reason": "Property Maintenance",
    "date_created": "2026-06-25T20:16:12.000",
    "date_modified": "2026-06-25T20:16:14.000",
    "request_status": "Pending",
    "responsible_agency": "Department of Code Enforcement",
    "final_address": "4775 Citrus Dr",
    "address_councildis": "E",
    "status": "Pending",
    "rowid": "1294368",
    "final_x": "3710830.86795",
    "final_y": "556032.642905",
    "longitude": "-89.97453705165881",
    "latitude": "30.02197304429713",
    "geocoded_column": {
      "latitude": "30.02197304429713",
      "longitude": "-89.97453705165881"
    }
  },
  {
    "service_request": "2026-1294367",
    "request_type": "Graffiti Removal",
    "request_reason": "Graffiti Removal",
    "date_created": "2026-06-25T20:12:33.000",
    "date_modified": "2026-06-25T20:12:35.000",
    "request_status": "Pending",
    "responsible_agency": "Department of Code Enforcement",
    "final_address": "508 St Philip St",
    "address_councildis": "C",
    "status": "Pending",
    "rowid": "1294367",
    "final_x": "3683725.23682",
    "final_y": "532914.223748",
    "longitude": "-90.06099494991967",
    "latitude": "29.95926157064587",
    "geocoded_column": {
      "latitude": "29.95926157064587",
      "longitude": "-90.06099494991967"
    }
  },
  {
    "service_request": "2026-1294366",
    "request_type": "Graffiti Removal",
    "request_reason": "Graffiti Removal",
    "date_created": "2026-06-25T20:03:43.000",
    "date_modified": "2026-06-25T20:03:45.000",
    "request_status": "Pending",
    "responsible_agency": "Department of Code Enforcement",
    "final_address": "607 Barracks St",
    "address_councildis": "C",
    "status": "Pending",
    "rowid": "1294366",
    "final_x": "3684128.05628",
    "final_y": "534037.797061",
    "longitude": "-90.05968350783063",
    "latitude": "29.96233870640495",
    "geocoded_column": {
      "latitude": "29.96233870640495",
      "longitude": "-90.05968350783063"
    }
  },
  {
    "service_request": "2026-1294365",
    "request_type": "Trash/Recycling",
    "request_reason": "Illegal Dumping",
    "date_created": "2026-06-25T20:00:14.000",
    "date_modified": "2026-06-25T20:00:17.000",
    "request_status": "Pending",
    "responsible_agency": "Department of Sanitation",
    "final_address": "508 St Philip St",
    "address_councildis": "C",
    "status": "Pending",
    "rowid": "1294365",
    "final_x": "3683725.23682",
    "final_y": "532914.223748",
    "longitude": "-90.06099494991967",
    "latitude": "29.95926157064587",
    "geocoded_column": {
      "latitude": "29.95926157064587",
      "longitude": "-90.06099494991967"
    }
  },
  {
    "service_request": "2026-1294364",
    "request_type": "Streetlights",
    "request_reason": "New Streetlight Request",
    "date_created": "2026-06-25T19:46:43.000",
    "date_modified": "2026-06-25T19:46:45.000",
    "request_status": "Pending",
    "responsible_agency": "Department of Public Works",
    "final_address": "508 St Philip St",
    "address_councildis": "C",
    "status": "Pending",
    "rowid": "1294364",
    "final_x": "3683725.23682",
    "final_y": "532914.223748",
    "longitude": "-90.06099494991967",
    "latitude": "29.95926157064587",
    "geocoded_column": {
      "latitude": "29.95926157064587",
      "longitude": "-90.06099494991967"
    }
  },
  {
    "service_request": "2026-1294363",
    "request_type": "Abandoned Vehicles",
    "request_reason": "Abandoned/Junk Vehicles",
    "date_created": "2026-06-25T19:45:22.000",
    "date_modified": "2026-06-25T19:45:24.000",
    "request_status": "Pending",
    "responsible_agency": "Department of Public Works",
    "final_address": "7832 Woodbine Dr",
    "address_councildis": "E",
    "status": "Pending",
    "rowid": "1294363",
    "final_x": "3701651.32343",
    "final_y": "561987.556767",
    "longitude": "-90.00332346363476",
    "latitude": "30.03864286812245",
    "geocoded_column": {
      "latitude": "30.03864286812245",
      "longitude": "-90.00332346363476"
    }
  },
  {
    "service_request": "2026-1294362",
    "request_type": "Mosquito, Termite & Rodent Control",
    "request_reason": "Rodent Complaint (Mice & Rats)",
    "date_created": "2026-06-25T19:44:50.000",
    "date_modified": "2026-06-25T19:44:54.000",
    "request_status": "Pending",
    "responsible_agency": "Mosquito, Termite & Rodent Control Board",
    "final_address": "7701 St Charles Ave",
    "address_councildis": "A",
    "status": "Pending",
    "rowid": "1294362",
    "final_x": "3661672.22893",
    "final_y": "525920.313021",
    "longitude": "-90.13086516828545",
    "latitude": "29.94068546091477",
    "geocoded_column": {
      "latitude": "29.94068546091477",
      "longitude": "-90.13086516828545"
    }
  },
  {
    "service_request": "2026-1294361",
    "request_type": "Property Maintenance",
    "request_reason": "Property Maintenance",
    "date_created": "2026-06-25T19:41:10.000",
    "date_modified": "2026-06-25T19:41:12.000",
    "request_status": "Pending",
    "responsible_agency": "Department of Code Enforcement",
    "final_address": "516 St Philip St",
    "address_councildis": "C",
    "status": "Pending",
    "rowid": "1294361",
    "final_x": "3683687.27599",
    "final_y": "532946.623172",
    "longitude": "-90.06111368497471",
    "latitude": "29.959351816940277",
    "geocoded_column": {
      "latitude": "29.959351816940277",
      "longitude": "-90.06111368497471"
    }
  },
  {
    "service_request": "2026-1294360",
    "request_type": "Property Maintenance",
    "request_reason": "Property Maintenance",
    "date_created": "2026-06-25T19:22:51.000",
    "date_modified": "2026-06-25T19:22:54.000",
    "request_status": "Pending",
    "responsible_agency": "Department of Code Enforcement",
    "final_address": "205 N Tonti St",
    "address_councildis": "B",
    "status": "Pending",
    "rowid": "1294360",
    "final_x": "3676720.48296",
    "final_y": "534736.145158",
    "longitude": "-90.08305151564602",
    "latitude": "29.96448325070106",
    "geocoded_column": {
      "latitude": "29.96448325070106",
      "longitude": "-90.08305151564602"
    }
  },
  {
    "service_request": "2026-1294359",
    "request_type": "Trash/Recycling",
    "request_reason": "Order Recycling Cart",
    "date_created": "2026-06-25T19:18:37.000",
    "date_modified": "2026-06-25T19:18:39.000",
    "request_status": "Pending",
    "responsible_agency": "Department of Sanitation",
    "final_address": "1006 Race St",
    "address_councildis": "B",
    "status": "Pending",
    "rowid": "1294359",
    "final_x": "3680481.3453",
    "final_y": "523729.663675",
    "longitude": "-90.07155774497312",
    "latitude": "29.934105750928953",
    "geocoded_column": {
      "latitude": "29.934105750928953",
      "longitude": "-90.07155774497312"
    }
  },
  {
    "service_request": "2026-1294358",
    "request_type": "Trash/Recycling",
    "request_reason": "Replace Trash Cart",
    "date_created": "2026-06-25T19:17:33.000",
    "date_modified": "2026-06-25T19:17:35.000",
    "request_status": "Pending",
    "responsible_agency": "Department of Sanitation",
    "final_address": "1006 Race St",
    "address_councildis": "B",
    "status": "Assigned to Contractor",
    "contractor": "IV Waste",
    "rowid": "1294358",
    "final_x": "3680481.3453",
    "final_y": "523729.663675",
    "longitude": "-90.07155774497312",
    "latitude": "29.934105750928953",
    "geocoded_column": {
      "latitude": "29.934105750928953",
      "longitude": "-90.07155774497312"
    }
  },
  {
    "service_request": "2026-1294357",
    "request_type": "Property Maintenance",
    "request_reason": "Property Maintenance",
    "date_created": "2026-06-25T19:17:20.000",
    "date_modified": "2026-06-25T19:17:21.000",
    "request_status": "Pending",
    "responsible_agency": "Department of Code Enforcement",
    "final_address": "6238 Marshal Foch St",
    "address_councildis": "A",
    "status": "Pending",
    "rowid": "1294357",
    "final_x": "3669881.15322",
    "final_y": "548784.542611",
    "longitude": "-90.10417376358896",
    "latitude": "30.00331498301849",
    "geocoded_column": {
      "latitude": "30.00331498301849",
      "longitude": "-90.10417376358896"
    }
  },
  {
    "service_request": "2026-1294356",
    "request_type": "Roads and Streets",
    "request_reason": "Push-up/Pavement Expansion",
    "date_created": "2026-06-25T19:11:40.000",
    "date_modified": "2026-06-25T19:11:43.000",
    "request_status": "Pending",
    "responsible_agency": "Department of Public Works",
    "final_address": "2221 St Claude Ave",
    "address_councildis": "C",
    "status": "Pending",
    "rowid": "1294356",
    "final_x": "3685258.17301",
    "final_y": "536426.533703",
    "longitude": "-90.05603068082551",
    "latitude": "29.968872316460953",
    "geocoded_column": {
      "latitude": "29.968872316460953",
      "longitude": "-90.05603068082551"
    }
  },
  {
    "service_request": "2026-1294355",
    "request_type": "Trash/Recycling",
    "request_reason": "Replace Trash Cart",
    "date_created": "2026-06-25T19:02:22.000",
    "date_modified": "2026-06-25T19:02:23.000",
    "request_status": "Pending",
    "responsible_agency": "Department of Sanitation",
    "final_address": "6655 Elysian Fields Ave",
    "address_councildis": "D",
    "status": "Assigned to Contractor",
    "contractor": "IV Waste",
    "rowid": "1294355",
    "final_x": "3683379.91029",
    "final_y": "558233.259804",
    "longitude": "-90.06119776982555",
    "latitude": "30.028890439105627",
    "geocoded_column": {
      "latitude": "30.028890439105627",
      "longitude": "-90.06119776982555"
    }
  },
  {
    "service_request": "2026-1294354",
    "request_type": "Trash/Recycling",
    "request_reason": "Return Trash Cart",
    "date_created": "2026-06-25T19:01:54.000",
    "date_modified": "2026-06-25T19:01:58.000",
    "request_status": "Pending",
    "responsible_agency": "Department of Sanitation",
    "final_address": "1823 Dauphine St",
    "address_councildis": "C",
    "status": "Assigned to Contractor",
    "contractor": "IV Waste",
    "rowid": "1294354",
    "final_x": "3683892.31164",
    "final_y": "535163.937862",
    "longitude": "-90.06038844783464",
    "latitude": "29.965442408936852",
    "geocoded_column": {
      "latitude": "29.965442408936852",
      "longitude": "-90.06038844783464"
    }
  },
  {
    "service_request": "2026-1294353",
    "request_type": "Trash/Recycling",
    "request_reason": "Missed Trash Pick-Up",
    "date_created": "2026-06-25T18:41:06.000",
    "date_modified": "2026-06-25T18:41:08.000",
    "request_status": "Pending",
    "responsible_agency": "Department of Sanitation",
    "final_address": "3231 Behrman Hwy",
    "address_councildis": "C",
    "status": "Assigned to Contractor",
    "contractor": "Richards Disposal",
    "rowid": "1294353",
    "final_x": "3695169.84406",
    "final_y": "518460.967734",
    "longitude": "-90.02537678381624",
    "latitude": "29.919165705920566",
    "geocoded_column": {
      "latitude": "29.919165705920566",
      "longitude": "-90.02537678381624"
    }
  },
  {
    "service_request": "2026-1294352",
    "request_type": "Trash/Recycling",
    "request_reason": "Repair Recycling Cart",
    "date_created": "2026-06-25T18:34:57.000",
    "date_modified": "2026-06-25T18:35:00.000",
    "request_status": "Pending",
    "responsible_agency": "Department of Sanitation",
    "final_address": "2512 Valence St",
    "address_councildis": "B",
    "status": "Pending",
    "rowid": "1294352",
    "final_x": "3669359.06113",
    "final_y": "524049.259132",
    "longitude": "-90.10665968979548",
    "latitude": "29.93531661947488",
    "geocoded_column": {
      "latitude": "29.93531661947488",
      "longitude": "-90.10665968979548"
    }
  },
  {
    "service_request": "2026-1294351",
    "request_type": "Trash/Recycling",
    "request_reason": "Replace Trash Cart",
    "date_created": "2026-06-25T18:32:09.000",
    "date_modified": "2026-06-25T18:32:11.000",
    "request_status": "Pending",
    "responsible_agency": "Department of Sanitation",
    "final_address": "2437 Columbus St",
    "address_councildis": "D",
    "status": "Assigned to Contractor",
    "contractor": "IV Waste",
    "rowid": "1294351",
    "final_x": "3679270.75227",
    "final_y": "539150.70977",
    "longitude": "-90.07484484455881",
    "latitude": "29.976545027102826",
    "geocoded_column": {
      "latitude": "29.976545027102826",
      "longitude": "-90.07484484455881"
    }
  },
  {
    "service_request": "2026-1294350",
    "request_type": "Trash/Recycling",
    "request_reason": "Replace Trash Cart",
    "date_created": "2026-06-25T18:32:09.000",
    "date_modified": "2026-06-25T18:32:11.000",
    "request_status": "Pending",
    "responsible_agency": "Department of Sanitation",
    "final_address": "2437 Columbus St",
    "address_councildis": "D",
    "status": "Assigned to Contractor",
    "contractor": "IV Waste",
    "rowid": "1294350",
    "final_x": "3679270.75227",
    "final_y": "539150.70977",
    "longitude": "-90.07484484455881",
    "latitude": "29.976545027102826",
    "geocoded_column": {
      "latitude": "29.976545027102826",
      "longitude": "-90.07484484455881"
    }
  },
  {
    "service_request": "2026-1294349",
    "request_type": "Trash/Recycling",
    "request_reason": "Request a Large Item Pick Up",
    "date_created": "2026-06-25T18:30:29.000",
    "date_modified": "2026-06-25T18:30:41.000",
    "request_status": "Pending",
    "responsible_agency": "Department of Sanitation",
    "final_address": "316 Seguin St",
    "address_councildis": "C",
    "status": "Assigned to Contractor",
    "contractor": "Richards Disposal",
    "rowid": "1294349",
    "final_x": "3686092.20674",
    "final_y": "530443.091458",
    "longitude": "-90.05360779483988",
    "latitude": "29.952394323638774",
    "geocoded_column": {
      "latitude": "29.952394323638774",
      "longitude": "-90.05360779483988"
    }
  },
  {
    "service_request": "2026-1294348",
    "request_type": "Trash/Recycling",
    "request_reason": "Repair Trash Cart",
    "date_created": "2026-06-25T18:23:48.000",
    "date_modified": "2026-06-25T18:23:50.000",
    "request_status": "Pending",
    "responsible_agency": "Department of Sanitation",
    "final_address": "2435 Columbus St",
    "address_councildis": "D",
    "status": "Assigned to Contractor",
    "contractor": "IV Waste",
    "rowid": "1294348",
    "final_x": "3679282.55874",
    "final_y": "539140.987466",
    "longitude": "-90.07480789337107",
    "latitude": "29.97651793756803",
    "geocoded_column": {
      "latitude": "29.97651793756803",
      "longitude": "-90.07480789337107"
    }
  },
  {
    "service_request": "2026-1294347",
    "request_type": "Trash/Recycling",
    "request_reason": "Repair Trash Cart",
    "date_created": "2026-06-25T18:21:20.000",
    "date_modified": "2026-06-25T18:21:22.000",
    "request_status": "Pending",
    "responsible_agency": "Department of Sanitation",
    "final_address": "1731 Amelia St",
    "address_councildis": "B",
    "status": "Assigned to Contractor",
    "contractor": "IV Waste",
    "rowid": "1294347",
    "final_x": "3673021.86222",
    "final_y": "521798.229434",
    "longitude": "-90.09517299030824",
    "latitude": "29.92901868748349",
    "geocoded_column": {
      "latitude": "29.92901868748349",
      "longitude": "-90.09517299030824"
    }
  },
  {
    "service_request": "2026-1294346",
    "request_type": "Trash/Recycling",
    "request_reason": "Request a Large Item Pick Up",
    "date_created": "2026-06-25T18:19:32.000",
    "date_modified": "2026-06-25T18:19:33.000",
    "request_status": "Pending",
    "responsible_agency": "Department of Sanitation",
    "final_address": "1600 S Saratoga St",
    "address_councildis": "B",
    "status": "Assigned to Contractor",
    "contractor": "IV Waste",
    "rowid": "1294346",
    "final_x": "3677384.10862",
    "final_y": "526271.997822",
    "longitude": "-90.08124791012656",
    "latitude": "29.94118975073034",
    "geocoded_column": {
      "latitude": "29.94118975073034",
      "longitude": "-90.08124791012656"
    }
  },
  {
    "service_request": "2026-1294345",
    "request_type": "Trash/Recycling",
    "request_reason": "Request a Large Item Pick Up",
    "date_created": "2026-06-25T18:18:02.000",
    "date_modified": "2026-06-25T18:18:04.000",
    "request_status": "Pending",
    "responsible_agency": "Department of Sanitation",
    "final_address": "3011 Sullen Pl",
    "address_councildis": "C",
    "status": "Assigned to Contractor",
    "contractor": "Richards Disposal",
    "rowid": "1294345",
    "final_x": "3707785.08331",
    "final_y": "519617.937592",
    "longitude": "-89.98551429608008",
    "latitude": "29.921944987773887",
    "geocoded_column": {
      "latitude": "29.921944987773887",
      "longitude": "-89.98551429608008"
    }
  },
  {
    "service_request": "2026-1294344",
    "request_type": "General Services",
    "request_reason": "General Service Request",
    "date_created": "2026-06-25T18:15:47.000",
    "date_modified": "2026-06-25T18:15:50.000",
    "request_status": "Pending",
    "responsible_agency": "Orleans Parish Communication District",
    "final_address": "5433 Vermillion Blvd",
    "address_councildis": "D",
    "status": "Pending",
    "rowid": "1294344",
    "final_x": "3683332.9885",
    "final_y": "552814.518166",
    "longitude": "-90.06153609354493",
    "latitude": "30.013992324542834",
    "geocoded_column": {
      "latitude": "30.013992324542834",
      "longitude": "-90.06153609354493"
    }
  },
  {
    "service_request": "2026-1294343",
    "request_type": "Trash/Recycling",
    "request_reason": "Missed Trash Pick-Up",
    "date_created": "2026-06-25T18:13:23.000",
    "date_modified": "2026-06-25T18:13:26.000",
    "request_status": "Pending",
    "responsible_agency": "Department of Sanitation",
    "final_address": "2512 Valence St",
    "address_councildis": "B",
    "status": "Assigned to Contractor",
    "contractor": "IV Waste",
    "rowid": "1294343",
    "final_x": "3669359.06113",
    "final_y": "524049.259132",
    "longitude": "-90.10665968979548",
    "latitude": "29.93531661947488",
    "geocoded_column": {
      "latitude": "29.93531661947488",
      "longitude": "-90.10665968979548"
    }
  },
  {
    "service_request": "2026-1294342",
    "request_type": "Trash/Recycling",
    "request_reason": "Replace Trash Cart",
    "date_created": "2026-06-25T17:51:02.000",
    "date_modified": "2026-06-25T17:51:04.000",
    "request_status": "Pending",
    "responsible_agency": "Department of Sanitation",
    "final_address": "3140 Laurel St",
    "address_councildis": "B",
    "status": "Assigned to Contractor",
    "contractor": "IV Waste",
    "rowid": "1294342",
    "final_x": "3676219.84981",
    "final_y": "519362.989047",
    "longitude": "-90.0851613076406",
    "latitude": "29.922227158052625",
    "geocoded_column": {
      "latitude": "29.922227158052625",
      "longitude": "-90.0851613076406"
    }
  },
  {
    "service_request": "2026-1294341",
    "request_type": "Trash/Recycling",
    "request_reason": "Request a Large Item Pick Up",
    "date_created": "2026-06-25T17:47:05.000",
    "date_modified": "2026-06-25T17:47:07.000",
    "request_status": "Pending",
    "responsible_agency": "Department of Sanitation",
    "final_address": "4748 Chantilly Dr",
    "address_councildis": "E",
    "status": "Assigned to Contractor",
    "contractor": "Waste Pro",
    "rowid": "1294341",
    "final_x": "3700801.8177",
    "final_y": "554180.711704",
    "longitude": "-90.00629384768584",
    "latitude": "30.017204139938787",
    "geocoded_column": {
      "latitude": "30.017204139938787",
      "longitude": "-90.00629384768584"
    }
  },
  {
    "service_request": "2026-1294340",
    "request_type": "Trash/Recycling",
    "request_reason": "Start Trash Service",
    "date_created": "2026-06-25T17:44:07.000",
    "date_modified": "2026-06-25T17:44:09.000",
    "request_status": "Pending",
    "responsible_agency": "Department of Sanitation",
    "final_address": "6018 Law St",
    "address_councildis": "E",
    "status": "Assigned to Contractor",
    "contractor": "Waste Pro",
    "rowid": "1294340",
    "final_x": "3701435.88017",
    "final_y": "538639.745033",
    "longitude": "-90.00485977626478",
    "latitude": "29.97445206231596",
    "geocoded_column": {
      "latitude": "29.97445206231596",
      "longitude": "-90.00485977626478"
    }
  },
  {
    "service_request": "2026-1294339",
    "request_type": "Trash/Recycling",
    "request_reason": "Order Trash Cart",
    "date_created": "2026-06-25T17:43:09.000",
    "date_modified": "2026-06-25T17:43:11.000",
    "request_status": "Pending",
    "responsible_agency": "Department of Sanitation",
    "final_address": "4101 Prentiss Ave",
    "address_councildis": "D",
    "status": "Assigned to Contractor",
    "contractor": "IV Waste",
    "rowid": "1294339",
    "final_x": "3688915.97206",
    "final_y": "554437.288088",
    "longitude": "-90.04383905569175",
    "latitude": "30.018282773025614",
    "geocoded_column": {
      "latitude": "30.018282773025614",
      "longitude": "-90.04383905569175"
    }
  },
  {
    "service_request": "2026-1294338",
    "request_type": "Drainage",
    "request_reason": "Ditch and Culvert Maintenance",
    "date_created": "2026-06-25T17:41:20.000",
    "date_modified": "2026-06-25T17:41:22.000",
    "request_status": "Pending",
    "responsible_agency": "Department of Public Works",
    "final_address": "3701 Canal St",
    "address_councildis": "B",
    "status": "Pending",
    "rowid": "1294338",
    "final_x": "3672362.74459",
    "final_y": "537516.817352",
    "longitude": "-90.09671818360438",
    "latitude": "29.97225918853493",
    "geocoded_column": {
      "latitude": "29.97225918853493",
      "longitude": "-90.09671818360438"
    }
  },
  {
    "service_request": "2026-1294337",
    "request_type": "Mosquito, Termite & Rodent Control",
    "request_reason": "Rodent Complaint (Mice & Rats)",
    "date_created": "2026-06-25T17:41:11.000",
    "date_modified": "2026-06-25T17:41:13.000",
    "request_status": "Pending",
    "responsible_agency": "Mosquito, Termite & Rodent Control Board",
    "final_address": "6018 Law St",
    "address_councildis": "E",
    "status": "Pending",
    "rowid": "1294337",
    "final_x": "3701435.88017",
    "final_y": "538639.745033",
    "longitude": "-90.00485977626478",
    "latitude": "29.97445206231596",
    "geocoded_column": {
      "latitude": "29.97445206231596",
      "longitude": "-90.00485977626478"
    }
  },
  {
    "service_request": "2026-1294336",
    "request_type": "Streetlights",
    "request_reason": "Streetlight Outage/Malfunction",
    "date_created": "2026-06-25T17:40:35.000",
    "date_modified": "2026-06-25T17:40:37.000",
    "request_status": "Pending",
    "responsible_agency": "Department of Public Works",
    "final_address": "1400 BLK Lowerline St",
    "address_councildis": "A",
    "status": "Pending",
    "rowid": "1294336",
    "final_x": "3664169.25791",
    "final_y": "527552.758987",
    "longitude": "-90.1229271414414",
    "latitude": "29.945101875217965",
    "geocoded_column": {
      "latitude": "29.945101875217965",
      "longitude": "-90.1229271414414"
    }
  },
  {
    "service_request": "2026-1294335",
    "request_type": "Trash/Recycling",
    "request_reason": "Order Recycling Cart",
    "date_created": "2026-06-25T17:39:19.000",
    "date_modified": "2026-06-25T17:39:21.000",
    "request_status": "Pending",
    "responsible_agency": "Department of Sanitation",
    "final_address": "4101 Prentiss Ave",
    "address_councildis": "D",
    "status": "Pending",
    "rowid": "1294335",
    "final_x": "3688915.97206",
    "final_y": "554437.288088",
    "longitude": "-90.04383905569175",
    "latitude": "30.018282773025614",
    "geocoded_column": {
      "latitude": "30.018282773025614",
      "longitude": "-90.04383905569175"
    }
  },
  {
    "service_request": "2026-1294334",
    "request_type": "Trash/Recycling",
    "request_reason": "Replace Trash Cart",
    "date_created": "2026-06-25T17:38:29.000",
    "date_modified": "2026-06-25T17:38:32.000",
    "request_status": "Pending",
    "responsible_agency": "Department of Sanitation",
    "final_address": "1730 Allen St",
    "address_councildis": "C",
    "status": "Assigned to Contractor",
    "contractor": "IV Waste",
    "rowid": "1294334",
    "final_x": "3682548.38863",
    "final_y": "538579.196361",
    "longitude": "-90.06451306364718",
    "latitude": "29.974874173178637",
    "geocoded_column": {
      "latitude": "29.974874173178637",
      "longitude": "-90.06451306364718"
    }
  },
  {
    "service_request": "2026-1294333",
    "request_type": "Property Maintenance",
    "request_reason": "Property Maintenance",
    "date_created": "2026-06-25T17:31:20.000",
    "date_modified": "2026-06-25T17:31:23.000",
    "request_status": "Pending",
    "responsible_agency": "Department of Code Enforcement",
    "final_address": "5660 Norgate Dr",
    "address_councildis": "E",
    "status": "Pending",
    "rowid": "1294333",
    "final_x": "3707971.05124",
    "final_y": "558290.846236",
    "longitude": "-89.98348920390008",
    "latitude": "30.02827515959021",
    "geocoded_column": {
      "latitude": "30.02827515959021",
      "longitude": "-89.98348920390008"
    }
  },
  {
    "service_request": "2026-1294332",
    "request_type": "General Services",
    "request_reason": "General Service Request",
    "date_created": "2026-06-25T17:22:11.000",
    "date_modified": "2026-06-25T17:22:14.000",
    "request_status": "Pending",
    "responsible_agency": "Orleans Parish Communication District",
    "final_address": "920 St Louis St",
    "address_councildis": "C",
    "status": "Pending",
    "rowid": "1294332",
    "final_x": "3681373.24354",
    "final_y": "532377.667651",
    "longitude": "-90.06844067667576",
    "latitude": "29.9578578257421",
    "geocoded_column": {
      "latitude": "29.9578578257421",
      "longitude": "-90.06844067667576"
    }
  },
  {
    "service_request": "2026-1294331",
    "request_type": "Trash/Recycling",
    "request_reason": "Order Recycling Cart",
    "date_created": "2026-06-25T17:19:50.000",
    "date_modified": "2026-06-25T17:19:59.000",
    "request_status": "Pending",
    "responsible_agency": "Department of Sanitation",
    "final_address": "8515 Jeannette St B",
    "address_councildis": "A",
    "status": "Pending",
    "rowid": "1294331",
    "final_x": "3661547.61018",
    "final_y": "530234.320129",
    "longitude": "-90.13111571095685",
    "latitude": "29.952551197755472",
    "geocoded_column": {
      "latitude": "29.952551197755472",
      "longitude": "-90.13111571095685"
    }
  },
  {
    "service_request": "2026-1294330",
    "request_type": "Parks & Grass Service",
    "request_reason": "Park Maintenance/Clean Up",
    "date_created": "2026-06-25T17:17:03.000",
    "date_modified": "2026-06-25T17:17:06.000",
    "request_status": "Pending",
    "responsible_agency": "Department of Parks & Parkways",
    "final_address": "4500 BLK Charlene Dr",
    "address_councildis": "E",
    "status": "Pending",
    "rowid": "1294330",
    "final_x": "3708091.66219",
    "final_y": "554082.205928",
    "longitude": "-89.98326477718813",
    "latitude": "30.016699131379152",
    "geocoded_column": {
      "latitude": "30.016699131379152",
      "longitude": "-89.98326477718813"
    }
  },
  {
    "service_request": "2026-1294329",
    "request_type": "Parks & Grass Service",
    "request_reason": "Request Grass Cutting Service (City Owned Property)",
    "date_created": "2026-06-25T17:08:19.000",
    "date_modified": "2026-06-25T17:08:21.000",
    "request_status": "Pending",
    "responsible_agency": "Department of Parks & Parkways",
    "final_address": "4500 BLK Charlene Dr",
    "address_councildis": "E",
    "status": "Pending",
    "rowid": "1294329",
    "final_x": "3708091.66219",
    "final_y": "554082.205928",
    "longitude": "-89.98326477718813",
    "latitude": "30.016699131379152",
    "geocoded_column": {
      "latitude": "30.016699131379152",
      "longitude": "-89.98326477718813"
    }
  },
  {
    "service_request": "2026-1294328",
    "request_type": "Streetlights",
    "request_reason": "Streetlight Knocked Down/Leaning",
    "date_created": "2026-06-25T17:03:01.000",
    "date_modified": "2026-06-25T17:03:03.000",
    "request_status": "Pending",
    "responsible_agency": "Department of Public Works",
    "final_address": "5100 Canal Blvd",
    "address_councildis": "A",
    "status": "Pending",
    "rowid": "1294328",
    "final_x": "3667853.33082",
    "final_y": "542150.040269",
    "longitude": "-90.1108036102348",
    "latitude": "29.9851320359883",
    "geocoded_column": {
      "latitude": "29.9851320359883",
      "longitude": "-90.1108036102348"
    }
  },
  {
    "service_request": "2026-1294327",
    "request_type": "Trash/Recycling",
    "request_reason": "Request a Large Item Pick Up",
    "date_created": "2026-06-25T16:58:47.000",
    "date_modified": "2026-06-25T16:58:49.000",
    "request_status": "Pending",
    "responsible_agency": "Department of Sanitation",
    "final_address": "5761 Pembrook Dr",
    "address_councildis": "C",
    "status": "Assigned to Contractor",
    "contractor": "Richards Disposal",
    "rowid": "1294327",
    "final_x": "3705007.38628",
    "final_y": "520673.187257",
    "longitude": "-89.99424331717266",
    "latitude": "29.924936106017107",
    "geocoded_column": {
      "latitude": "29.924936106017107",
      "longitude": "-89.99424331717266"
    }
  },
  {
    "service_request": "2026-1294326",
    "request_type": "Abandoned Vehicles",
    "request_reason": "Abandoned/Junk Vehicles",
    "date_created": "2026-06-25T16:55:32.000",
    "date_modified": "2026-06-25T16:55:42.000",
    "request_status": "Pending",
    "responsible_agency": "Department of Public Works",
    "final_address": "1940 Treasure St",
    "address_councildis": "D",
    "status": "Pending",
    "rowid": "1294326",
    "final_x": "3682486.03228",
    "final_y": "543849.327438",
    "longitude": "-90.06452569442989",
    "latitude": "29.98936708535149",
    "geocoded_column": {
      "latitude": "29.98936708535149",
      "longitude": "-90.06452569442989"
    }
  },
  {
    "service_request": "2026-1294325",
    "request_type": "Trash/Recycling",
    "request_reason": "Request a Large Item Pick Up",
    "date_created": "2026-06-25T16:55:15.000",
    "date_modified": "2026-06-25T16:55:18.000",
    "request_status": "Pending",
    "responsible_agency": "Department of Sanitation",
    "final_address": "5852 Oxford Pl",
    "address_councildis": "C",
    "status": "Assigned to Contractor",
    "contractor": "Richards Disposal",
    "rowid": "1294325",
    "final_x": "3705244.73899",
    "final_y": "519824.396728",
    "longitude": "-89.99352540736913",
    "latitude": "29.922594598020726",
    "geocoded_column": {
      "latitude": "29.922594598020726",
      "longitude": "-89.99352540736913"
    }
  },
  {
    "service_request": "2026-1294324",
    "request_type": "Trash/Recycling",
    "request_reason": "Request a Large Item Pick Up",
    "date_created": "2026-06-25T16:54:18.000",
    "date_modified": "2026-06-25T16:54:19.000",
    "request_status": "Pending",
    "responsible_agency": "Department of Sanitation",
    "final_address": "7600 Woodbine Dr",
    "address_councildis": "E",
    "status": "Assigned to Contractor",
    "contractor": "Waste Pro",
    "rowid": "1294324",
    "final_x": "3701988.56951",
    "final_y": "561233.092382",
    "longitude": "-90.00228537847345",
    "latitude": "30.036557618314692",
    "geocoded_column": {
      "latitude": "30.036557618314692",
      "longitude": "-90.00228537847345"
    }
  },
  {
    "service_request": "2026-1294323",
    "request_type": "General Services",
    "request_reason": "General Service Request",
    "date_created": "2026-06-25T16:52:20.000",
    "date_modified": "2026-06-25T16:54:37.000",
    "case_close_date": "2026-06-25T11:54:36.000",
    "request_status": "Closed",
    "responsible_agency": "Orleans Parish Communication District",
    "final_address": "4560 Viola St",
    "address_councildis": "E",
    "status": "Additional information requested from citizen",
    "rowid": "1294323",
    "final_x": "3704041.26417",
    "final_y": "553987.669144",
    "longitude": "-89.99606571092195",
    "latitude": "30.016569790646187",
    "geocoded_column": {
      "latitude": "30.016569790646187",
      "longitude": "-89.99606571092195"
    }
  },
  {
    "service_request": "2026-1294322",
    "request_type": "Abandoned Vehicles",
    "request_reason": "Abandoned/Junk Vehicles",
    "date_created": "2026-06-25T16:50:47.000",
    "date_modified": "2026-06-25T16:50:48.000",
    "request_status": "Pending",
    "responsible_agency": "Department of Public Works",
    "final_address": "1940 Treasure St",
    "address_councildis": "D",
    "status": "Pending",
    "rowid": "1294322",
    "final_x": "3682486.03228",
    "final_y": "543849.327438",
    "longitude": "-90.06452569442989",
    "latitude": "29.98936708535149",
    "geocoded_column": {
      "latitude": "29.98936708535149",
      "longitude": "-90.06452569442989"
    }
  },
  {
    "service_request": "2026-1294321",
    "request_type": "Trash/Recycling",
    "request_reason": "Repair Trash Cart",
    "date_created": "2026-06-25T16:49:37.000",
    "date_modified": "2026-06-25T16:49:40.000",
    "request_status": "Pending",
    "responsible_agency": "Department of Sanitation",
    "final_address": "5502 Constance St",
    "address_councildis": "A",
    "status": "Assigned to Contractor",
    "contractor": "IV Waste",
    "rowid": "1294321",
    "final_x": "3666309.43834",
    "final_y": "518448.423862",
    "longitude": "-90.11647516844263",
    "latitude": "29.92000551193149",
    "geocoded_column": {
      "latitude": "29.92000551193149",
      "longitude": "-90.11647516844263"
    }
  },
  {
    "service_request": "2026-1294320",
    "request_type": "Roads and Streets",
    "request_reason": "Abandoned Service Cut",
    "date_created": "2026-06-25T16:46:44.000",
    "date_modified": "2026-06-25T16:46:45.000",
    "request_status": "Pending",
    "responsible_agency": "Department of Public Works",
    "final_address": "2525 N Rampart St",
    "address_councildis": "C",
    "status": "Pending",
    "rowid": "1294320",
    "final_x": "3686713.50946",
    "final_y": "536110.083911",
    "longitude": "-90.05144582709907",
    "latitude": "29.967957501696223",
    "geocoded_column": {
      "latitude": "29.967957501696223",
      "longitude": "-90.05144582709907"
    }
  },
  {
    "service_request": "2026-1294319",
    "request_type": "Trash/Recycling",
    "request_reason": "Request a Large Item Pick Up",
    "date_created": "2026-06-25T16:45:57.000",
    "date_modified": "2026-06-25T17:06:03.000",
    "request_status": "Pending",
    "responsible_agency": "Department of Sanitation",
    "final_address": "2425 Royal St",
    "address_councildis": "C",
    "status": "Assigned to Contractor",
    "contractor": "IV Waste",
    "rowid": "1294319",
    "final_x": "3686087.6934",
    "final_y": "534978.925062",
    "longitude": "-90.05346207237119",
    "latitude": "29.96486644362875",
    "geocoded_column": {
      "latitude": "29.96486644362875",
      "longitude": "-90.05346207237119"
    }
  },
  {
    "service_request": "2026-1294318",
    "request_type": "Abandoned Vehicles",
    "request_reason": "Abandoned/Junk Vehicles",
    "date_created": "2026-06-25T16:42:27.000",
    "date_modified": "2026-06-25T16:43:42.000",
    "request_status": "Pending",
    "responsible_agency": "Department of Public Works",
    "final_address": "1628 Louisa St",
    "address_councildis": "D",
    "status": "Pending",
    "rowid": "1294318",
    "final_x": "3690058.03312",
    "final_y": "537976.825801",
    "longitude": "-90.04081724343678",
    "latitude": "29.972987078959214",
    "geocoded_column": {
      "latitude": "29.972987078959214",
      "longitude": "-90.04081724343678"
    }
  },
  {
    "service_request": "2026-1294317",
    "request_type": "Trash/Recycling",
    "request_reason": "Request a Large Item Pick Up",
    "date_created": "2026-06-25T16:42:26.000",
    "date_modified": "2026-06-25T16:42:29.000",
    "request_status": "Pending",
    "responsible_agency": "Department of Sanitation",
    "final_address": "812 N Solomon St",
    "address_councildis": "A",
    "status": "Assigned to Contractor",
    "contractor": "IV Waste",
    "rowid": "1294317",
    "final_x": "3672294.82292",
    "final_y": "540871.411339",
    "longitude": "-90.09681836466495",
    "latitude": "29.98148519732726",
    "geocoded_column": {
      "latitude": "29.98148519732726",
      "longitude": "-90.09681836466495"
    }
  },
  {
    "service_request": "2026-1294316",
    "request_type": "Trash/Recycling",
    "request_reason": "Order Trash Cart",
    "date_created": "2026-06-25T16:38:38.000",
    "date_modified": "2026-06-25T16:38:39.000",
    "request_status": "Pending",
    "responsible_agency": "Department of Sanitation",
    "final_address": "2501 Annette St",
    "address_councildis": "D",
    "status": "Assigned to Contractor",
    "contractor": "IV Waste",
    "rowid": "1294316",
    "final_x": "3682767.54677",
    "final_y": "541341.2827",
    "longitude": "-90.06372425126963",
    "latitude": "29.98246227127369",
    "geocoded_column": {
      "latitude": "29.98246227127369",
      "longitude": "-90.06372425126963"
    }
  },
  {
    "service_request": "2026-1294315",
    "request_type": "Trash/Recycling",
    "request_reason": "Missed Trash Pick-Up",
    "date_created": "2026-06-25T16:38:29.000",
    "date_modified": "2026-06-25T16:38:30.000",
    "request_status": "Pending",
    "responsible_agency": "Department of Sanitation",
    "final_address": "6739 W Laverne St",
    "address_councildis": "D",
    "status": "Assigned to Contractor",
    "contractor": "Waste Pro",
    "rowid": "1294315",
    "final_x": "3696203.65616",
    "final_y": "555864.392345",
    "longitude": "-90.02076115504184",
    "latitude": "30.021979249931565",
    "geocoded_column": {
      "latitude": "30.021979249931565",
      "longitude": "-90.02076115504184"
    }
  },
  {
    "service_request": "2026-1294314",
    "request_type": "Trash/Recycling",
    "request_reason": "Request a Large Item Pick Up",
    "date_created": "2026-06-25T16:35:13.000",
    "date_modified": "2026-06-25T16:35:15.000",
    "request_status": "Pending",
    "responsible_agency": "Department of Sanitation",
    "final_address": "7519 Jonlee Dr",
    "address_councildis": "E",
    "status": "Assigned to Contractor",
    "contractor": "Waste Pro",
    "rowid": "1294314",
    "final_x": "3717511.02437",
    "final_y": "570094.616103",
    "longitude": "-89.95289442989109",
    "latitude": "30.06041824549227",
    "geocoded_column": {
      "latitude": "30.06041824549227",
      "longitude": "-89.95289442989109"
    }
  },
  {
    "service_request": "2026-1294313",
    "request_type": "Trash/Recycling",
    "request_reason": "Request a Large Item Pick Up",
    "date_created": "2026-06-25T16:34:14.000",
    "date_modified": "2026-06-25T16:34:17.000",
    "request_status": "Pending",
    "responsible_agency": "Department of Sanitation",
    "final_address": "12200 Morrison Rd",
    "address_councildis": "E",
    "status": "Assigned to Contractor",
    "contractor": "Waste Pro",
    "rowid": "1294313",
    "final_x": "3714477.00402",
    "final_y": "567226.721764",
    "longitude": "-89.96259319545614",
    "latitude": "30.05263286913218",
    "geocoded_column": {
      "latitude": "30.05263286913218",
      "longitude": "-89.96259319545614"
    }
  },
  {
    "service_request": "2026-1294312",
    "request_type": "Trash/Recycling",
    "request_reason": "Request a Large Item Pick Up",
    "date_created": "2026-06-25T16:32:18.000",
    "date_modified": "2026-06-25T16:32:21.000",
    "request_status": "Pending",
    "responsible_agency": "Department of Sanitation",
    "final_address": "1326 Lowerline St",
    "address_councildis": "A",
    "status": "Assigned to Contractor",
    "contractor": "IV Waste",
    "rowid": "1294312",
    "final_x": "3663974.06407",
    "final_y": "527325.267775",
    "longitude": "-90.12355101532853",
    "latitude": "29.944482015513074",
    "geocoded_column": {
      "latitude": "29.944482015513074",
      "longitude": "-90.12355101532853"
    }
  },
  {
    "service_request": "2026-1294311",
    "request_type": "Roads and Streets",
    "request_reason": "Sidewalk Damaged or Missing",
    "date_created": "2026-06-25T16:27:23.000",
    "date_modified": "2026-06-25T16:27:26.000",
    "request_status": "Pending",
    "responsible_agency": "Department of Public Works",
    "final_address": "939 S Telemachus St",
    "address_councildis": "B",
    "status": "Pending",
    "rowid": "1294311",
    "final_x": "3669944.44628",
    "final_y": "534279.301381",
    "longitude": "-90.10446525814477",
    "latitude": "29.96342864325713",
    "geocoded_column": {
      "latitude": "29.96342864325713",
      "longitude": "-90.10446525814477"
    }
  },
  {
    "service_request": "2026-1294310",
    "request_type": "Trash/Recycling",
    "request_reason": "Request a Large Item Pick Up",
    "date_created": "2026-06-25T16:21:19.000",
    "date_modified": "2026-06-25T17:05:42.000",
    "request_status": "Pending",
    "responsible_agency": "Department of Sanitation",
    "final_address": "4325 Stephen Girard Ave",
    "address_councildis": "D",
    "status": "Assigned to Contractor",
    "contractor": "IV Waste",
    "rowid": "1294310",
    "final_x": "3690374.61622",
    "final_y": "550149.576788",
    "longitude": "-90.03938328571083",
    "latitude": "30.006447936033528",
    "geocoded_column": {
      "latitude": "30.006447936033528",
      "longitude": "-90.03938328571083"
    }
  },
  {
    "service_request": "2026-1294309",
    "request_type": "Abandoned Vehicles",
    "request_reason": "Abandoned/Junk Vehicles",
    "date_created": "2026-06-25T16:19:59.000",
    "date_modified": "2026-06-25T16:20:01.000",
    "request_status": "Pending",
    "responsible_agency": "Department of Public Works",
    "final_address": "LOUISA DR & MIRABEAU AVE",
    "address_councildis": "D",
    "status": "Pending",
    "rowid": "1294309",
    "final_x": "3690799.3",
    "final_y": "551499.58",
    "longitude": "-90.03799339245658",
    "latitude": "30.010146754074434",
    "geocoded_column": {
      "latitude": "30.010146754074434",
      "longitude": "-90.03799339245658"
    }
  },
  {
    "service_request": "2026-1294308",
    "request_type": "Trash/Recycling",
    "request_reason": "Return Recycling Cart",
    "date_created": "2026-06-25T16:19:55.000",
    "date_modified": "2026-06-25T16:19:56.000",
    "request_status": "Pending",
    "responsible_agency": "Department of Sanitation",
    "final_address": "4325 Stephen Girard Ave",
    "address_councildis": "D",
    "status": "Pending",
    "rowid": "1294308",
    "final_x": "3690374.61622",
    "final_y": "550149.576788",
    "longitude": "-90.03938328571083",
    "latitude": "30.006447936033528",
    "geocoded_column": {
      "latitude": "30.006447936033528",
      "longitude": "-90.03938328571083"
    }
  },
  {
    "service_request": "2026-1294307",
    "request_type": "Abandoned Vehicles",
    "request_reason": "Abandoned/Junk Vehicles",
    "date_created": "2026-06-25T16:17:58.000",
    "date_modified": "2026-06-25T16:18:00.000",
    "request_status": "Pending",
    "responsible_agency": "Department of Public Works",
    "final_address": "3109 Allen St",
    "address_councildis": "D",
    "status": "Pending",
    "rowid": "1294307",
    "final_x": "3682247.55279",
    "final_y": "543966.333774",
    "longitude": "-90.06527489165462",
    "latitude": "29.989696070345712",
    "geocoded_column": {
      "latitude": "29.989696070345712",
      "longitude": "-90.06527489165462"
    }
  },
  {
    "service_request": "2026-1294306",
    "request_type": "Trash/Recycling",
    "request_reason": "Illegal Dumping",
    "date_created": "2026-06-25T16:15:15.000",
    "date_modified": "2026-06-25T16:15:18.000",
    "request_status": "Pending",
    "responsible_agency": "Department of Sanitation",
    "final_address": "6201 Morrison Rd",
    "address_councildis": "E",
    "status": "Pending",
    "rowid": "1294306",
    "final_x": "3695874.30947",
    "final_y": "558344.568988",
    "longitude": "-90.02171209588072",
    "latitude": "30.02880916218235",
    "geocoded_column": {
      "latitude": "30.02880916218235",
      "longitude": "-90.02171209588072"
    }
  },
  {
    "service_request": "2026-1294305",
    "request_type": "Trash/Recycling",
    "request_reason": "Repair Trash Cart",
    "date_created": "2026-06-25T16:10:38.000",
    "date_modified": "2026-06-25T16:10:41.000",
    "request_status": "Pending",
    "responsible_agency": "Department of Sanitation",
    "final_address": "101 Roselyn Park Pl",
    "address_councildis": "C",
    "status": "Assigned to Contractor",
    "contractor": "Richards Disposal",
    "rowid": "1294305",
    "final_x": "3702607.50673",
    "final_y": "524183.925436",
    "longitude": "-90.0016901049486",
    "latitude": "29.934666315267645",
    "geocoded_column": {
      "latitude": "29.934666315267645",
      "longitude": "-90.0016901049486"
    }
  },
  {
    "service_request": "2026-1294304",
    "request_type": "Property Maintenance",
    "request_reason": "Property Maintenance",
    "date_created": "2026-06-25T16:04:13.000",
    "date_modified": "2026-06-25T16:04:15.000",
    "request_status": "Pending",
    "responsible_agency": "Department of Code Enforcement",
    "final_address": "1715 Charbonnet St",
    "address_councildis": "E",
    "status": "Pending",
    "rowid": "1294304",
    "final_x": "3699310.32439",
    "final_y": "535991.019847",
    "longitude": "-90.01166923840032",
    "latitude": "29.967236612042743",
    "geocoded_column": {
      "latitude": "29.967236612042743",
      "longitude": "-90.01166923840032"
    }
  },
  {
    "service_request": "2026-1294303",
    "request_type": "Property Maintenance",
    "request_reason": "Property Maintenance",
    "date_created": "2026-06-25T16:04:02.000",
    "date_modified": "2026-06-25T16:04:03.000",
    "request_status": "Pending",
    "responsible_agency": "Department of Code Enforcement",
    "final_address": "1719 Charbonnet St",
    "address_councildis": "E",
    "status": "Pending",
    "rowid": "1294303",
    "final_x": "3699318.19165",
    "final_y": "536021.177671",
    "longitude": "-90.01164329511224",
    "latitude": "29.967319285716826",
    "geocoded_column": {
      "latitude": "29.967319285716826",
      "longitude": "-90.01164329511224"
    }
  },
  {
    "service_request": "2026-1294302",
    "request_type": "Trash/Recycling",
    "request_reason": "Missed Trash Pick-Up",
    "date_created": "2026-06-25T16:03:31.000",
    "date_modified": "2026-06-25T17:56:51.000",
    "case_close_date": "2026-06-25T12:56:49.000",
    "request_status": "Closed",
    "responsible_agency": "Department of Sanitation",
    "final_address": "9021 Dixon St",
    "address_councildis": "A",
    "status": "Invalid Request",
    "contractor": "IV Waste",
    "contractor_action": "Invalid Request",
    "rowid": "1294302",
    "final_x": "3665956.98042",
    "final_y": "537778.363912",
    "longitude": "-90.11693998960298",
    "latitude": "29.973166889958758",
    "geocoded_column": {
      "latitude": "29.973166889958758",
      "longitude": "-90.11693998960298"
    }
  },
  {
    "service_request": "2026-1294301",
    "request_type": "Property Maintenance",
    "request_reason": "Property Maintenance",
    "date_created": "2026-06-25T16:01:26.000",
    "date_modified": "2026-06-25T16:01:29.000",
    "request_status": "Pending",
    "responsible_agency": "Department of Code Enforcement",
    "final_address": "825 Hillary St",
    "address_councildis": "A",
    "status": "Pending",
    "rowid": "1294301",
    "final_x": "3662525.11642",
    "final_y": "526266.603326",
    "longitude": "-90.12816094392056",
    "latitude": "29.941613010917926",
    "geocoded_column": {
      "latitude": "29.941613010917926",
      "longitude": "-90.12816094392056"
    }
  },
  {
    "service_request": "2026-1294300",
    "request_type": "Trash/Recycling",
    "request_reason": "Request a Large Item Pick Up",
    "date_created": "2026-06-25T15:59:19.000",
    "date_modified": "2026-06-25T15:59:21.000",
    "request_status": "Pending",
    "responsible_agency": "Department of Sanitation",
    "final_address": "10923 Chaucer St",
    "address_councildis": "E",
    "status": "Assigned to Contractor",
    "contractor": "Waste Pro",
    "rowid": "1294300",
    "final_x": "3712713.05906",
    "final_y": "561901.340127",
    "longitude": "-89.96836897450633",
    "latitude": "30.03804812499919",
    "geocoded_column": {
      "latitude": "30.03804812499919",
      "longitude": "-89.96836897450633"
    }
  },
  {
    "service_request": "2026-1294299",
    "request_type": "Trash/Recycling",
    "request_reason": "Order Second Trash Cart",
    "date_created": "2026-06-25T15:58:06.000",
    "date_modified": "2026-06-25T15:58:08.000",
    "request_status": "Pending",
    "responsible_agency": "Department of Sanitation",
    "final_address": "3655 Somerset Dr",
    "address_councildis": "C",
    "status": "Assigned to Contractor",
    "contractor": "Richards Disposal",
    "rowid": "1294299",
    "final_x": "3702395.69572",
    "final_y": "517071.795637",
    "longitude": "-90.00261953753646",
    "latitude": "29.91511718371449",
    "geocoded_column": {
      "latitude": "29.91511718371449",
      "longitude": "-90.00261953753646"
    }
  },
  {
    "service_request": "2026-1294298",
    "request_type": "Property Maintenance",
    "request_reason": "Property Maintenance",
    "date_created": "2026-06-25T15:57:03.000",
    "date_modified": "2026-06-25T15:57:05.000",
    "request_status": "Pending",
    "responsible_agency": "Department of Code Enforcement",
    "final_address": "711 Congress St",
    "address_councildis": "C",
    "status": "Pending",
    "rowid": "1294298",
    "final_x": "3690406.65558",
    "final_y": "534176.332485",
    "longitude": "-90.03985172224485",
    "latitude": "29.962526240191387",
    "geocoded_column": {
      "latitude": "29.962526240191387",
      "longitude": "-90.03985172224485"
    }
  },
  {
    "service_request": "2026-1294297",
    "request_type": "Utility Poles",
    "request_reason": "Wires Sagging/Hanging Low",
    "date_created": "2026-06-25T15:56:56.000",
    "date_modified": "2026-06-25T15:58:00.000",
    "request_status": "Pending",
    "responsible_agency": "Utility Company Collective",
    "final_address": "1202 Broadway St",
    "address_councildis": "A",
    "status": "Pending",
    "rowid": "1294297",
    "final_x": "3664150.73108",
    "final_y": "526563.26707",
    "longitude": "-90.1230186359446",
    "latitude": "29.94238162763344",
    "geocoded_column": {
      "latitude": "29.94238162763344",
      "longitude": "-90.1230186359446"
    }
  },
  {
    "service_request": "2026-1294296",
    "request_type": "Trash/Recycling",
    "request_reason": "Replace Trash Cart",
    "date_created": "2026-06-25T15:55:31.000",
    "date_modified": "2026-06-25T15:55:34.000",
    "request_status": "Pending",
    "responsible_agency": "Department of Sanitation",
    "final_address": "1121 Flanders St",
    "address_councildis": "C",
    "status": "Assigned to Contractor",
    "contractor": "Richards Disposal",
    "rowid": "1294296",
    "final_x": "3696706.56138",
    "final_y": "527192.269567",
    "longitude": "-90.02021033840663",
    "latitude": "29.943125468987176",
    "geocoded_column": {
      "latitude": "29.943125468987176",
      "longitude": "-90.02021033840663"
    }
  },
  {
    "service_request": "2026-1294295",
    "request_type": "Traffic Signals",
    "request_reason": "Traffic Signal Malfunctioning or Damaged",
    "date_created": "2026-06-25T15:53:47.000",
    "date_modified": "2026-06-25T15:54:49.000",
    "request_status": "Pending",
    "responsible_agency": "Department of Public Works",
    "final_address": "S CARROLLTON AVE & TULANE AVE",
    "address_councildis": "A",
    "status": "Pending",
    "rowid": "1294295",
    "final_x": "3669337.8",
    "final_y": "536308.78",
    "longitude": "-90.10631235722039",
    "latitude": "29.96902690865695",
    "geocoded_column": {
      "latitude": "29.96902690865695",
      "longitude": "-90.10631235722039"
    }
  },
  {
    "service_request": "2026-1294294",
    "request_type": "Trash/Recycling",
    "request_reason": "Missed Trash Pick-Up",
    "date_created": "2026-06-25T15:48:40.000",
    "date_modified": "2026-06-25T16:58:30.000",
    "case_close_date": "2026-06-25T11:58:28.000",
    "request_status": "Closed",
    "responsible_agency": "Department of Sanitation",
    "final_address": "2017 N Villere St",
    "address_councildis": "C",
    "status": "Invalid Request",
    "contractor": "IV Waste",
    "contractor_action": "Invalid Request",
    "rowid": "1294294",
    "final_x": "3684282.77609",
    "final_y": "537388.997384",
    "longitude": "-90.05907723956028",
    "latitude": "29.971548618533532",
    "geocoded_column": {
      "latitude": "29.971548618533532",
      "longitude": "-90.05907723956028"
    }
  },
  {
    "service_request": "2026-1294293",
    "request_type": "Trash/Recycling",
    "request_reason": "Request a Large Item Pick Up",
    "date_created": "2026-06-25T15:47:25.000",
    "date_modified": "2026-06-25T17:05:19.000",
    "request_status": "Pending",
    "responsible_agency": "Department of Sanitation",
    "final_address": "1502 Clouet St",
    "address_councildis": "D",
    "status": "Assigned to Contractor",
    "contractor": "IV Waste",
    "rowid": "1294293",
    "final_x": "3689358.431",
    "final_y": "537541.678408",
    "longitude": "-90.04304219066367",
    "latitude": "29.97181225745095",
    "geocoded_column": {
      "latitude": "29.97181225745095",
      "longitude": "-90.04304219066367"
    }
  },
  {
    "service_request": "2026-1294292",
    "request_type": "Trash/Recycling",
    "request_reason": "Request a Large Item Pick Up",
    "date_created": "2026-06-25T15:45:59.000",
    "date_modified": "2026-06-25T15:46:00.000",
    "request_status": "Pending",
    "responsible_agency": "Department of Sanitation",
    "final_address": "2143 Easter Ln",
    "address_councildis": "C",
    "status": "Assigned to Contractor",
    "contractor": "Richards Disposal",
    "rowid": "1294292",
    "final_x": "3699366.11152",
    "final_y": "523366.051387",
    "longitude": "-90.01195283967385",
    "latitude": "29.932520626669902",
    "geocoded_column": {
      "latitude": "29.932520626669902",
      "longitude": "-90.01195283967385"
    }
  },
  {
    "service_request": "2026-1294291",
    "request_type": "Trash/Recycling",
    "request_reason": "Request a Large Item Pick Up",
    "date_created": "2026-06-25T15:45:45.000",
    "date_modified": "2026-06-25T15:45:47.000",
    "request_status": "Pending",
    "responsible_agency": "Department of Sanitation",
    "final_address": "4654 Laine Ave",
    "address_councildis": "E",
    "status": "Assigned to Contractor",
    "contractor": "Waste Pro",
    "rowid": "1294291",
    "final_x": "3705714.58014",
    "final_y": "554875.490648",
    "longitude": "-89.9907459220816",
    "latitude": "30.018957154849225",
    "geocoded_column": {
      "latitude": "30.018957154849225",
      "longitude": "-89.9907459220816"
    }
  },
  {
    "service_request": "2026-1294290",
    "request_type": "Safety & Permits",
    "request_reason": "Zoning Enforcement",
    "date_created": "2026-06-25T15:42:04.000",
    "date_modified": "2026-06-25T15:52:41.000",
    "request_status": "Pending",
    "responsible_agency": "Safety and Permits",
    "final_address": "6752 General Diaz St",
    "address_councildis": "A",
    "status": "Pending",
    "rowid": "1294290",
    "final_x": "3669884.57351",
    "final_y": "552388.978518",
    "longitude": "-90.10404079537115",
    "latitude": "30.013225816104487",
    "geocoded_column": {
      "latitude": "30.013225816104487",
      "longitude": "-90.10404079537115"
    }
  },
  {
    "service_request": "2026-1294289",
    "request_type": "Property Maintenance",
    "request_reason": "Property Maintenance",
    "date_created": "2026-06-25T15:41:29.000",
    "date_modified": "2026-06-25T15:41:31.000",
    "request_status": "Pending",
    "responsible_agency": "Department of Code Enforcement",
    "final_address": "1727 Charbonnet St",
    "address_councildis": "E",
    "status": "Pending",
    "rowid": "1294289",
    "final_x": "3699326.71453",
    "final_y": "536053.957831",
    "longitude": "-90.01161518581031",
    "latitude": "29.967409149073223",
    "geocoded_column": {
      "latitude": "29.967409149073223",
      "longitude": "-90.01161518581031"
    }
  },
  {
    "service_request": "2026-1294288",
    "request_type": "Roads and Streets",
    "request_reason": "Debris in Driving Lanes",
    "date_created": "2026-06-25T15:36:42.000",
    "date_modified": "2026-06-25T15:36:47.000",
    "request_status": "Pending",
    "responsible_agency": "Department of Public Works",
    "final_address": "4320 S Tonti St",
    "address_councildis": "B",
    "status": "Pending",
    "rowid": "1294288",
    "final_x": "3670351.10426",
    "final_y": "528129.490303",
    "longitude": "-90.10338953205068",
    "latitude": "29.94650669209447",
    "geocoded_column": {
      "latitude": "29.94650669209447",
      "longitude": "-90.10338953205068"
    }
  },
  {
    "service_request": "2026-1294287",
    "request_type": "Trash/Recycling",
    "request_reason": "Order Trash Cart",
    "date_created": "2026-06-25T15:34:17.000",
    "date_modified": "2026-06-25T15:34:19.000",
    "request_status": "Pending",
    "responsible_agency": "Department of Sanitation",
    "final_address": "4831 Babylon St",
    "address_councildis": "D",
    "status": "Assigned to Contractor",
    "contractor": "Waste Pro",
    "rowid": "1294287",
    "final_x": "3696651.78583",
    "final_y": "554647.278296",
    "longitude": "-90.01938928689397",
    "latitude": "30.018618524625126",
    "geocoded_column": {
      "latitude": "30.018618524625126",
      "longitude": "-90.01938928689397"
    }
  },
  {
    "service_request": "2026-1294286",
    "request_type": "Utility Poles",
    "request_reason": "Wires Sagging/Hanging Low",
    "date_created": "2026-06-25T15:32:31.000",
    "date_modified": "2026-06-25T15:32:33.000",
    "request_status": "Pending",
    "responsible_agency": "Utility Company Collective",
    "final_address": "5975 Canal Blvd",
    "address_councildis": "A",
    "status": "Pending",
    "rowid": "1294286",
    "final_x": "3668633.65863",
    "final_y": "547208.766161",
    "longitude": "-90.10816803073104",
    "latitude": "29.999018881294035",
    "geocoded_column": {
      "latitude": "29.999018881294035",
      "longitude": "-90.10816803073104"
    }
  },
  {
    "service_request": "2026-1294285",
    "request_type": "Trash/Recycling",
    "request_reason": "Order Recycling Cart",
    "date_created": "2026-06-25T15:32:22.000",
    "date_modified": "2026-06-25T15:32:24.000",
    "request_status": "Pending",
    "responsible_agency": "Department of Sanitation",
    "final_address": "4831 Babylon St",
    "address_councildis": "D",
    "status": "Pending",
    "rowid": "1294285",
    "final_x": "3696651.78583",
    "final_y": "554647.278296",
    "longitude": "-90.01938928689397",
    "latitude": "30.018618524625126",
    "geocoded_column": {
      "latitude": "30.018618524625126",
      "longitude": "-90.01938928689397"
    }
  },
  {
    "service_request": "2026-1294284",
    "request_type": "Trash/Recycling",
    "request_reason": "Request a Large Item Pick Up",
    "date_created": "2026-06-25T15:30:24.000",
    "date_modified": "2026-06-25T17:04:54.000",
    "request_status": "Pending",
    "responsible_agency": "Department of Sanitation",
    "final_address": "5100 St Ferdinand Dr",
    "address_councildis": "D",
    "status": "Assigned to Contractor",
    "contractor": "IV Waste",
    "rowid": "1294284",
    "final_x": "3689036.49263",
    "final_y": "552062.636054",
    "longitude": "-90.04354271270003",
    "latitude": "30.011749628090236",
    "geocoded_column": {
      "latitude": "30.011749628090236",
      "longitude": "-90.04354271270003"
    }
  },
  {
    "service_request": "2026-1294283",
    "request_type": "Trash/Recycling",
    "request_reason": "Request a Large Item Pick Up",
    "date_created": "2026-06-25T15:28:14.000",
    "date_modified": "2026-06-25T15:28:16.000",
    "request_status": "Pending",
    "responsible_agency": "Department of Sanitation",
    "final_address": "7810 Exeter St",
    "address_councildis": "E",
    "status": "Assigned to Contractor",
    "contractor": "Waste Pro",
    "rowid": "1294283",
    "final_x": "3697480.08099",
    "final_y": "559995.223965",
    "longitude": "-90.01657800852742",
    "latitude": "30.033297190830837",
    "geocoded_column": {
      "latitude": "30.033297190830837",
      "longitude": "-90.01657800852742"
    }
  },
  {
    "service_request": "2026-1294282",
    "request_type": "Trash/Recycling",
    "request_reason": "Return Trash Cart",
    "date_created": "2026-06-25T15:27:10.000",
    "date_modified": "2026-06-25T15:27:12.000",
    "request_status": "Pending",
    "responsible_agency": "Department of Sanitation",
    "final_address": "819 Dearmas St",
    "address_councildis": "C",
    "status": "Assigned to Contractor",
    "contractor": "Richards Disposal",
    "rowid": "1294282",
    "final_x": "3687903.68694",
    "final_y": "527134.104447",
    "longitude": "-90.04800518721296",
    "latitude": "29.94323998569256",
    "geocoded_column": {
      "latitude": "29.94323998569256",
      "longitude": "-90.04800518721296"
    }
  },
  {
    "service_request": "2026-1294281",
    "request_type": "Trash/Recycling",
    "request_reason": "Return Recycling Cart",
    "date_created": "2026-06-25T15:27:07.000",
    "date_modified": "2026-06-25T15:27:08.000",
    "request_status": "Pending",
    "responsible_agency": "Department of Sanitation",
    "final_address": "819 Dearmas St",
    "address_councildis": "C",
    "status": "Pending",
    "rowid": "1294281",
    "final_x": "3687903.68694",
    "final_y": "527134.104447",
    "longitude": "-90.04800518721296",
    "latitude": "29.94323998569256",
    "geocoded_column": {
      "latitude": "29.94323998569256",
      "longitude": "-90.04800518721296"
    }
  },
  {
    "service_request": "2026-1294280",
    "request_type": "Trash/Recycling",
    "request_reason": "Request a Large Item Pick Up",
    "date_created": "2026-06-25T15:26:05.000",
    "date_modified": "2026-06-25T15:26:07.000",
    "request_status": "Pending",
    "responsible_agency": "Department of Sanitation",
    "final_address": "4713 New Orleans St",
    "address_councildis": "D",
    "status": "Assigned to Contractor",
    "contractor": "IV Waste",
    "rowid": "1294280",
    "final_x": "3681365.19874",
    "final_y": "549897.338772",
    "longitude": "-90.06785509666504",
    "latitude": "30.006031042726118",
    "geocoded_column": {
      "latitude": "30.006031042726118",
      "longitude": "-90.06785509666504"
    }
  },
  {
    "service_request": "2026-1294279",
    "request_type": "Trash/Recycling",
    "request_reason": "Request a Large Item Pick Up",
    "date_created": "2026-06-25T15:22:32.000",
    "date_modified": "2026-06-25T15:23:23.000",
    "request_status": "Pending",
    "responsible_agency": "Department of Sanitation",
    "final_address": "11230 Ivy Ln",
    "address_councildis": "E",
    "status": "Assigned to Contractor",
    "contractor": "Waste Pro",
    "rowid": "1294279",
    "final_x": "3716378.65989",
    "final_y": "560006.462045",
    "longitude": "-89.95685681682988",
    "latitude": "30.032717399637274",
    "geocoded_column": {
      "latitude": "30.032717399637274",
      "longitude": "-89.95685681682988"
    }
  },
  {
    "service_request": "2026-1294278",
    "request_type": "Trash/Recycling",
    "request_reason": "Request a Large Item Pick Up",
    "date_created": "2026-06-25T15:20:23.000",
    "date_modified": "2026-06-25T15:20:25.000",
    "request_status": "Pending",
    "responsible_agency": "Department of Sanitation",
    "final_address": "8006 Mullet St",
    "address_councildis": "E",
    "status": "Assigned to Contractor",
    "contractor": "Waste Pro",
    "rowid": "1294278",
    "final_x": "3698656.93104",
    "final_y": "561170.798622",
    "longitude": "-90.01281625046893",
    "latitude": "30.0364923281965",
    "geocoded_column": {
      "latitude": "30.0364923281965",
      "longitude": "-90.01281625046893"
    }
  },
  {
    "service_request": "2026-1294277",
    "request_type": "Trash/Recycling",
    "request_reason": "Replace Trash Cart",
    "date_created": "2026-06-25T15:19:47.000",
    "date_modified": "2026-06-25T15:19:49.000",
    "request_status": "Pending",
    "responsible_agency": "Department of Sanitation",
    "final_address": "4713 New Orleans St",
    "address_councildis": "D",
    "status": "Assigned to Contractor",
    "contractor": "IV Waste",
    "rowid": "1294277",
    "final_x": "3681365.19874",
    "final_y": "549897.338772",
    "longitude": "-90.06785509666504",
    "latitude": "30.006031042726118",
    "geocoded_column": {
      "latitude": "30.006031042726118",
      "longitude": "-90.06785509666504"
    }
  },
  {
    "service_request": "2026-1294276",
    "request_type": "Trash/Recycling",
    "request_reason": "Request a Large Item Pick Up",
    "date_created": "2026-06-25T15:16:51.000",
    "date_modified": "2026-06-25T15:16:53.000",
    "request_status": "Pending",
    "responsible_agency": "Department of Sanitation",
    "final_address": "1235 N Tonti St",
    "address_councildis": "C",
    "status": "Assigned to Contractor",
    "contractor": "IV Waste",
    "rowid": "1294276",
    "final_x": "3679049.54255",
    "final_y": "537834.905929",
    "longitude": "-90.0755891082127",
    "latitude": "29.9729336985474",
    "geocoded_column": {
      "latitude": "29.9729336985474",
      "longitude": "-90.0755891082127"
    }
  },
  {
    "service_request": "2026-1294275",
    "request_type": "Roads and Streets",
    "request_reason": "Sidewalk Damaged or Missing",
    "date_created": "2026-06-25T15:15:28.000",
    "date_modified": "2026-06-25T15:15:31.000",
    "request_status": "Pending",
    "responsible_agency": "Department of Public Works",
    "final_address": "1357 Constance St",
    "address_councildis": "B",
    "status": "Pending",
    "rowid": "1294275",
    "final_x": "3680753.71023",
    "final_y": "524683.990844",
    "longitude": "-90.07066469977299",
    "latitude": "29.936721585136283",
    "geocoded_column": {
      "latitude": "29.936721585136283",
      "longitude": "-90.07066469977299"
    }
  },
  {
    "service_request": "2026-1294274",
    "request_type": "Trash/Recycling",
    "request_reason": "Order Trash Cart",
    "date_created": "2026-06-25T15:11:46.000",
    "date_modified": "2026-06-25T15:11:48.000",
    "request_status": "Pending",
    "responsible_agency": "Department of Sanitation",
    "final_address": "431 Henry Clay Ave",
    "address_councildis": "A",
    "status": "Assigned to Contractor",
    "contractor": "IV Waste",
    "rowid": "1294274",
    "final_x": "3663415.61927",
    "final_y": "518460.358006",
    "longitude": "-90.12560920426257",
    "latitude": "29.920122512398333",
    "geocoded_column": {
      "latitude": "29.920122512398333",
      "longitude": "-90.12560920426257"
    }
  },
  {
    "service_request": "2026-1294273",
    "request_type": "Trash/Recycling",
    "request_reason": "Request a Large Item Pick Up",
    "date_created": "2026-06-25T15:11:14.000",
    "date_modified": "2026-06-25T15:11:16.000",
    "request_status": "Pending",
    "responsible_agency": "Department of Sanitation",
    "final_address": "1812 Iberville St",
    "address_councildis": "B",
    "status": "Assigned to Contractor",
    "contractor": "IV Waste",
    "rowid": "1294273",
    "final_x": "3678223.46184",
    "final_y": "533407.319044",
    "longitude": "-90.07835118103",
    "latitude": "29.960784250226542",
    "geocoded_column": {
      "latitude": "29.960784250226542",
      "longitude": "-90.07835118103"
    }
  },
  {
    "service_request": "2026-1294272",
    "request_type": "Trash/Recycling",
    "request_reason": "Missed Trash Pick-Up",
    "date_created": "2026-06-25T15:10:50.000",
    "date_modified": "2026-06-25T15:10:52.000",
    "request_status": "Pending",
    "responsible_agency": "Department of Sanitation",
    "final_address": "5920 Alost St",
    "address_councildis": "D",
    "status": "Assigned to Contractor",
    "contractor": "Waste Pro",
    "rowid": "1294272",
    "final_x": "3696276.94487",
    "final_y": "552592.195798",
    "longitude": "-90.02064803046949",
    "latitude": "30.012979634653735",
    "geocoded_column": {
      "latitude": "30.012979634653735",
      "longitude": "-90.02064803046949"
    }
  },
  {
    "service_request": "2026-1294271",
    "request_type": "Trash/Recycling",
    "request_reason": "Missed Trash Pick-Up",
    "date_created": "2026-06-25T15:10:50.000",
    "date_modified": "2026-06-25T15:10:52.000",
    "request_status": "Pending",
    "responsible_agency": "Department of Sanitation",
    "final_address": "5920 Alost St",
    "address_councildis": "D",
    "status": "Assigned to Contractor",
    "contractor": "Waste Pro",
    "rowid": "1294271",
    "final_x": "3696276.94487",
    "final_y": "552592.195798",
    "longitude": "-90.02064803046949",
    "latitude": "30.012979634653735",
    "geocoded_column": {
      "latitude": "30.012979634653735",
      "longitude": "-90.02064803046949"
    }
  },
  {
    "service_request": "2026-1294270",
    "request_type": "Traffic Signals",
    "request_reason": "Traffic Signal Malfunctioning or Damaged",
    "date_created": "2026-06-25T15:10:48.000",
    "date_modified": "2026-06-25T15:10:49.000",
    "request_status": "Pending",
    "responsible_agency": "Department of Public Works",
    "final_address": "TCHOUPITOULAS ST & NASHVILLE AVE",
    "address_councildis": "A",
    "status": "Pending",
    "rowid": "1294270",
    "final_x": "3665146.3",
    "final_y": "517267.68",
    "longitude": "-90.12018610984786",
    "latitude": "29.916792748343077",
    "geocoded_column": {
      "latitude": "29.916792748343077",
      "longitude": "-90.12018610984786"
    }
  },
  {
    "service_request": "2026-1294269",
    "request_type": "Trash/Recycling",
    "request_reason": "Missed Trash Pick-Up",
    "date_created": "2026-06-25T15:08:44.000",
    "date_modified": "2026-06-25T15:08:46.000",
    "request_status": "Pending",
    "responsible_agency": "Department of Sanitation",
    "final_address": "4759 Galahad Dr",
    "address_councildis": "E",
    "status": "Assigned to Contractor",
    "contractor": "Waste Pro",
    "rowid": "1294269",
    "final_x": "3707271.35448",
    "final_y": "555595.552665",
    "longitude": "-89.98580034852779",
    "latitude": "30.020886798824687",
    "geocoded_column": {
      "latitude": "30.020886798824687",
      "longitude": "-89.98580034852779"
    }
  },
  {
    "service_request": "2026-1294268",
    "request_type": "Trash/Recycling",
    "request_reason": "Repair Trash Cart",
    "date_created": "2026-06-25T15:07:39.000",
    "date_modified": "2026-06-25T15:07:42.000",
    "request_status": "Pending",
    "responsible_agency": "Department of Sanitation",
    "final_address": "3305 Louisiana Avenue Prkwy",
    "address_councildis": "B",
    "status": "Assigned to Contractor",
    "contractor": "IV Waste",
    "rowid": "1294268",
    "final_x": "3671909.80775",
    "final_y": "527282.526079",
    "longitude": "-90.09849695891045",
    "latitude": "29.944131720649615",
    "geocoded_column": {
      "latitude": "29.944131720649615",
      "longitude": "-90.09849695891045"
    }
  },
  {
    "service_request": "2026-1294267",
    "request_type": "Trash/Recycling",
    "request_reason": "Change Size of Trash Cart",
    "date_created": "2026-06-25T15:05:50.000",
    "date_modified": "2026-06-25T15:05:52.000",
    "request_status": "Pending",
    "responsible_agency": "Department of Sanitation",
    "final_address": "14 Castle Pines Dr",
    "address_councildis": "C",
    "status": "Assigned to Contractor",
    "contractor": "Richards Disposal",
    "rowid": "1294267",
    "final_x": "3719680.04479",
    "final_y": "511508.910576",
    "longitude": "-89.948276799906",
    "latitude": "29.899257967580226",
    "geocoded_column": {
      "latitude": "29.899257967580226",
      "longitude": "-89.948276799906"
    }
  },
  {
    "service_request": "2026-1294266",
    "request_type": "Trash/Recycling",
    "request_reason": "Request a Large Item Pick Up",
    "date_created": "2026-06-25T15:04:45.000",
    "date_modified": "2026-06-25T15:04:47.000",
    "request_status": "Pending",
    "responsible_agency": "Department of Sanitation",
    "final_address": "3580 Plymouth Pl",
    "address_councildis": "C",
    "status": "Assigned to Contractor",
    "contractor": "Richards Disposal",
    "rowid": "1294266",
    "final_x": "3702825.47671",
    "final_y": "517630.956214",
    "longitude": "-90.00124248492416",
    "latitude": "29.916640952347716",
    "geocoded_column": {
      "latitude": "29.916640952347716",
      "longitude": "-90.00124248492416"
    }
  },
  {
    "service_request": "2026-1294265",
    "request_type": "Drainage",
    "request_reason": "Catch Basin Not Draining",
    "date_created": "2026-06-25T15:03:34.000",
    "date_modified": "2026-06-25T15:03:36.000",
    "request_status": "Pending",
    "responsible_agency": "Sewerage & Water Board",
    "final_address": "7551 E Oak Ridge Ct",
    "address_councildis": "E",
    "status": "Pending",
    "rowid": "1294265",
    "final_x": "3713797.24389",
    "final_y": "568177.767077",
    "longitude": "-89.96470579667323",
    "latitude": "30.05527019646772",
    "geocoded_column": {
      "latitude": "30.05527019646772",
      "longitude": "-89.96470579667323"
    }
  },
  {
    "service_request": "2026-1294264",
    "request_type": "Drainage",
    "request_reason": "Catch Basin Not Draining",
    "date_created": "2026-06-25T15:03:20.000",
    "date_modified": "2026-06-25T15:03:21.000",
    "request_status": "Pending",
    "responsible_agency": "Sewerage & Water Board",
    "final_address": "32 N Oak Ridge Ct",
    "address_councildis": "E",
    "status": "Pending",
    "rowid": "1294264",
    "final_x": "3713688.01394",
    "final_y": "568145.911589",
    "longitude": "-89.96505224929018",
    "latitude": "30.05518619382248",
    "geocoded_column": {
      "latitude": "30.05518619382248",
      "longitude": "-89.96505224929018"
    }
  },
  {
    "service_request": "2026-1294263",
    "request_type": "Trash/Recycling",
    "request_reason": "Request a Large Item Pick Up",
    "date_created": "2026-06-25T14:58:07.000",
    "date_modified": "2026-06-25T17:04:34.000",
    "request_status": "Pending",
    "responsible_agency": "Department of Sanitation",
    "final_address": "2033 Washington Ave",
    "address_councildis": "B",
    "status": "Pending",
    "contractor": "IV Waste",
    "rowid": "1294263",
    "final_x": "3675009.84251",
    "final_y": "523981.83142",
    "longitude": "-90.08882245366236",
    "latitude": "29.934963666623094",
    "geocoded_column": {
      "latitude": "29.934963666623094",
      "longitude": "-90.08882245366236"
    }
  },
  {
    "service_request": "2026-1294262",
    "request_type": "Parks & Grass Service",
    "request_reason": "Park Maintenance/Clean Up",
    "date_created": "2026-06-25T14:55:16.000",
    "date_modified": "2026-06-25T14:55:18.000",
    "request_status": "Pending",
    "responsible_agency": "Department of Parks & Parkways",
    "final_address": "1405 Arts St",
    "address_councildis": "C",
    "status": "Pending",
    "rowid": "1294262",
    "final_x": "3687146.95196",
    "final_y": "537643.741064",
    "longitude": "-90.05002276008075",
    "latitude": "29.97216118248314",
    "geocoded_column": {
      "latitude": "29.97216118248314",
      "longitude": "-90.05002276008075"
    }
  },
  {
    "service_request": "2026-1294261",
    "request_type": "Trash/Recycling",
    "request_reason": "Request a Large Item Pick Up",
    "date_created": "2026-06-25T14:54:38.000",
    "date_modified": "2026-06-25T14:54:40.000",
    "request_status": "Pending",
    "responsible_agency": "Department of Sanitation",
    "final_address": "5541 Bentley Dr",
    "address_councildis": "E",
    "status": "Assigned to Contractor",
    "contractor": "Waste Pro",
    "rowid": "1294261",
    "final_x": "3703999.2483",
    "final_y": "556597.480986",
    "longitude": "-89.99610223026448",
    "latitude": "30.023747116639893",
    "geocoded_column": {
      "latitude": "30.023747116639893",
      "longitude": "-89.99610223026448"
    }
  },
  {
    "service_request": "2026-1294260",
    "request_type": "Utility Poles",
    "request_reason": "Wires Sagging/Hanging Low",
    "date_created": "2026-06-25T14:54:35.000",
    "date_modified": "2026-06-25T14:56:11.000",
    "request_status": "Pending",
    "responsible_agency": "Utility Company Collective",
    "final_address": "229 S Solomon St",
    "address_councildis": "A",
    "status": "Pending",
    "rowid": "1294260",
    "final_x": "3670115.53146",
    "final_y": "538247.236361",
    "longitude": "-90.10379053191882",
    "latitude": "29.97433408936012",
    "geocoded_column": {
      "latitude": "29.97433408936012",
      "longitude": "-90.10379053191882"
    }
  },
  {
    "service_request": "2026-1294259",
    "request_type": "Tree Service",
    "request_reason": "Tree Trim",
    "date_created": "2026-06-25T14:51:09.000",
    "date_modified": "2026-06-25T14:51:11.000",
    "request_status": "Pending",
    "responsible_agency": "Department of Parks & Parkways",
    "final_address": "540 Bermuda St",
    "address_councildis": "C",
    "status": "Pending",
    "rowid": "1294259",
    "final_x": "3686842.60879",
    "final_y": "530162.042177",
    "longitude": "-90.0512483039657",
    "latitude": "29.95159846853759",
    "geocoded_column": {
      "latitude": "29.95159846853759",
      "longitude": "-90.0512483039657"
    }
  },
  {
    "service_request": "2026-1294258",
    "request_type": "Abandoned Vehicles",
    "request_reason": "Abandoned/Junk Vehicles",
    "date_created": "2026-06-25T14:51:00.000",
    "date_modified": "2026-06-25T14:51:02.000",
    "request_status": "Pending",
    "responsible_agency": "Department of Public Works",
    "final_address": "3701 St Claude Ave",
    "address_councildis": "C",
    "status": "Pending",
    "rowid": "1294258",
    "final_x": "3691017.50908",
    "final_y": "535607.225286",
    "longitude": "-90.0378716521711",
    "latitude": "29.96644171897841",
    "geocoded_column": {
      "latitude": "29.96644171897841",
      "longitude": "-90.0378716521711"
    }
  },
  {
    "service_request": "2026-1294257",
    "request_type": "Trash/Recycling",
    "request_reason": "Request a Large Item Pick Up",
    "date_created": "2026-06-25T14:50:48.000",
    "date_modified": "2026-06-25T14:50:50.000",
    "request_status": "Pending",
    "responsible_agency": "Department of Sanitation",
    "final_address": "6022 Craigie Rd",
    "address_councildis": "E",
    "status": "Assigned to Contractor",
    "contractor": "Waste Pro",
    "rowid": "1294257",
    "final_x": "3695444.30998",
    "final_y": "558584.433628",
    "longitude": "-90.02306220351166",
    "latitude": "30.029482225427717",
    "geocoded_column": {
      "latitude": "30.029482225427717",
      "longitude": "-90.02306220351166"
    }
  },
  {
    "service_request": "2026-1294256",
    "request_type": "Trash/Recycling",
    "request_reason": "Replace Trash Cart",
    "date_created": "2026-06-25T14:49:18.000",
    "date_modified": "2026-06-25T14:49:20.000",
    "request_status": "Pending",
    "responsible_agency": "Department of Sanitation",
    "final_address": "2335 Esplanade Ave Apt B",
    "address_councildis": "D",
    "status": "Assigned to Contractor",
    "contractor": "IV Waste",
    "rowid": "1294256",
    "final_x": "3679136.06831",
    "final_y": "538313.978057",
    "longitude": "-90.07529923181076",
    "latitude": "29.97424837021669",
    "geocoded_column": {
      "latitude": "29.97424837021669",
      "longitude": "-90.07529923181076"
    }
  },
  {
    "service_request": "2026-1294255",
    "request_type": "Trash/Recycling",
    "request_reason": "Illegal Dumping",
    "date_created": "2026-06-25T14:46:30.000",
    "date_modified": "2026-06-25T14:46:31.000",
    "request_status": "Pending",
    "responsible_agency": "Department of Sanitation",
    "final_address": "5900 BLK Lincoln Beach Blvd",
    "address_councildis": "D",
    "status": "Pending",
    "rowid": "1294255",
    "final_x": "3694551.44485",
    "final_y": "559890.619508",
    "longitude": "-90.02583653013114",
    "latitude": "30.033101781355494",
    "geocoded_column": {
      "latitude": "30.033101781355494",
      "longitude": "-90.02583653013114"
    }
  },
  {
    "service_request": "2026-1294254",
    "request_type": "Trash/Recycling",
    "request_reason": "Request a Large Item Pick Up",
    "date_created": "2026-06-25T14:45:54.000",
    "date_modified": "2026-06-25T14:45:56.000",
    "request_status": "Pending",
    "responsible_agency": "Department of Sanitation",
    "final_address": "7541 Crestmont Rd",
    "address_councildis": "E",
    "status": "Assigned to Contractor",
    "contractor": "Waste Pro",
    "rowid": "1294254",
    "final_x": "3699800.13828",
    "final_y": "560177.121117",
    "longitude": "-90.00923979182518",
    "latitude": "30.033723825183237",
    "geocoded_column": {
      "latitude": "30.033723825183237",
      "longitude": "-90.00923979182518"
    }
  },
  {
    "service_request": "2026-1294253",
    "request_type": "Trash/Recycling",
    "request_reason": "Return Trash Cart",
    "date_created": "2026-06-25T14:43:11.000",
    "date_modified": "2026-06-25T14:43:13.000",
    "request_status": "Pending",
    "responsible_agency": "Department of Sanitation",
    "final_address": "537 Bermuda St",
    "address_councildis": "C",
    "status": "Assigned to Contractor",
    "contractor": "Richards Disposal",
    "rowid": "1294253",
    "final_x": "3686871.47318",
    "final_y": "529921.575937",
    "longitude": "-90.05116566049773",
    "latitude": "29.950936380539915",
    "geocoded_column": {
      "latitude": "29.950936380539915",
      "longitude": "-90.05116566049773"
    }
  },
  {
    "service_request": "2026-1294252",
    "request_type": "Parks & Grass Service",
    "request_reason": "Request Grass Cutting Service (City Owned Property)",
    "date_created": "2026-06-25T14:42:12.000",
    "date_modified": "2026-06-25T14:43:19.000",
    "request_status": "Pending",
    "responsible_agency": "Department of Parks & Parkways",
    "final_address": "4010 Athis Ct",
    "address_councildis": "D",
    "status": "Pending",
    "rowid": "1294252",
    "final_x": "3688637.81398",
    "final_y": "554515.25052",
    "longitude": "-90.04471515889364",
    "latitude": "30.018505745065692",
    "geocoded_column": {
      "latitude": "30.018505745065692",
      "longitude": "-90.04471515889364"
    }
  },
  {
    "service_request": "2026-1294251",
    "request_type": "Drainage",
    "request_reason": "Catch Basin Not Draining",
    "date_created": "2026-06-25T14:38:07.000",
    "date_modified": "2026-06-25T15:04:39.000",
    "request_status": "Pending",
    "responsible_agency": "Sewerage & Water Board",
    "final_address": "26 N Oak Ridge Ct",
    "address_councildis": "E",
    "status": "Pending",
    "rowid": "1294251",
    "final_x": "3713559.30552",
    "final_y": "568057.648485",
    "longitude": "-89.96546239650077",
    "latitude": "30.05494773178899",
    "geocoded_column": {
      "latitude": "30.05494773178899",
      "longitude": "-89.96546239650077"
    }
  },
  {
    "service_request": "2026-1294250",
    "request_type": "Trash/Recycling",
    "request_reason": "Repair Trash Cart",
    "date_created": "2026-06-25T14:32:08.000",
    "date_modified": "2026-06-25T14:32:10.000",
    "request_status": "Pending",
    "responsible_agency": "Department of Sanitation",
    "final_address": "2912 St Andrew St",
    "address_councildis": "B",
    "status": "Assigned to Contractor",
    "contractor": "IV Waste",
    "rowid": "1294250",
    "final_x": "3675149.04949",
    "final_y": "527716.635071",
    "longitude": "-90.08825485896732",
    "latitude": "29.945228993521727",
    "geocoded_column": {
      "latitude": "29.945228993521727",
      "longitude": "-90.08825485896732"
    }
  },
  {
    "service_request": "2026-1294249",
    "request_type": "Trash/Recycling",
    "request_reason": "Replace Trash Cart",
    "date_created": "2026-06-25T14:31:59.000",
    "date_modified": "2026-06-25T14:32:02.000",
    "request_status": "Pending",
    "responsible_agency": "Department of Sanitation",
    "final_address": "2912 St Andrew St",
    "address_councildis": "B",
    "status": "Assigned to Contractor",
    "contractor": "IV Waste",
    "rowid": "1294249",
    "final_x": "3675149.04949",
    "final_y": "527716.635071",
    "longitude": "-90.08825485896732",
    "latitude": "29.945228993521727",
    "geocoded_column": {
      "latitude": "29.945228993521727",
      "longitude": "-90.08825485896732"
    }
  },