[
  {
    "service_request": "2025-1208039",
    "request_type": "Parks & Parkways",
    "request_reason": "Request Tree Service (Right of Way/Public Property)",
    "date_created": "2025-07-09T22:21:42.000",
    "date_modified": "2025-07-09T22:21:44.000",
    "request_status": "Pending",
    "responsible_agency": "Department of Parks & Parkway",
    "final_address": "5276 Bullard Ave",
    "address_councildis": "E",
    "status": "Pending",
    "rowid": "1208039",
    "final_x": "3718289.37631",
    "final_y": "560069.012829",
    "longitude": "-89.95081648026229",
    "latitude": "30.032826138404516",
    "geocoded_column": {
      "latitude": "30.032826138404516",
      "longitude": "-89.95081648026229"
    }
  },
  {
    "service_request": "2025-1208038",
    "request_type": "General Services",
    "request_reason": "General Service Request",
    "date_created": "2025-07-09T22:02:06.000",
    "date_modified": "2025-07-09T22:02:08.000",
    "request_status": "Pending",
    "responsible_agency": "Orleans Parish Communication District",
    "final_address": "3821 Cleveland Ave",
    "address_councildis": "A",
    "status": "Pending",
    "rowid": "1208038",
    "final_x": "3671672.4946",
    "final_y": "537420.227016",
    "longitude": "-90.09890140196076",
    "latitude": "29.97201406274497",
    "geocoded_column": {
      "latitude": "29.97201406274497",
      "longitude": "-90.09890140196076"
    }
  },
  {
    "service_request": "2025-1208037",
    "request_type": "Parks & Parkways",
    "request_reason": "Request Grass Cutting Service (City Owned Property)",
    "date_created": "2025-07-09T21:58:05.000",
    "date_modified": "2025-07-09T21:58:08.000",
    "request_status": "Pending",
    "responsible_agency": "Department of Parks & Parkway",
    "final_address": "MICHOUD BLVD & W CAVELIER DR",
    "address_councildis": "E",
    "status": "Pending",
    "rowid": "1208037",
    "final_x": "3724678.8",
    "final_y": "569370.08",
    "longitude": "-89.93026572775324",
    "latitude": "30.05818669137776",
    "geocoded_column": {
      "latitude": "30.05818669137776",
      "longitude": "-89.93026572775324"
    }
  },
  {
    "service_request": "2025-1208036",
    "request_type": "Streetlights",
    "request_reason": "Streetlight Outage/Malfunction",
    "date_created": "2025-07-09T21:49:52.000",
    "date_modified": "2025-07-09T21:49:54.000",
    "request_status": "Pending",
    "responsible_agency": "Department of Public Works",
    "final_address": "5535 West End Blvd",
    "address_councildis": "A",
    "status": "Pending",
    "contractor": "Legacy Professional Services",
    "rowid": "1208036",
    "final_x": "3666353.20602",
    "final_y": "544582.194959",
    "longitude": "-90.11546023844582",
    "latitude": "29.991863558691673",
    "geocoded_column": {
      "latitude": "29.991863558691673",
      "longitude": "-90.11546023844582"
    }
  },
  {
    "service_request": "2025-1208035",
    "request_type": "Drainage",
    "request_reason": "Catch Basin Clogged",
    "date_created": "2025-07-09T21:45:14.000",
    "date_modified": "2025-07-09T21:45:16.000",
    "request_status": "Pending",
    "responsible_agency": "Sewerage & Water Board",
    "final_address": "1817 Urquhart St",
    "address_councildis": "C",
    "status": "Pending",
    "rowid": "1208035",
    "final_x": "3683622.78133",
    "final_y": "536967.412872",
    "longitude": "-90.06117637984612",
    "latitude": "29.970409572268508",
    "geocoded_column": {
      "latitude": "29.970409572268508",
      "longitude": "-90.06117637984612"
    }
  },
  {
    "service_request": "2025-1208034",
    "request_type": "Roads and Streets",
    "request_reason": "Pothole",
    "date_created": "2025-07-09T21:39:58.000",
    "date_modified": "2025-07-09T21:40:01.000",
    "request_status": "Pending",
    "responsible_agency": "Department of Public Works",
    "final_address": "1134 Flanders St",
    "address_councildis": "C",
    "status": "Pending",
    "rowid": "1208034",
    "final_x": "3696801.50211",
    "final_y": "527088.365567",
    "longitude": "-90.01991434882889",
    "latitude": "29.9428367770748",
    "geocoded_column": {
      "latitude": "29.9428367770748",
      "longitude": "-90.01991434882889"
    }
  },
  {
    "service_request": "2025-1208033",
    "request_type": "Mosquito, Termite & Rodent Control",
    "request_reason": "Mosquito Complaint",
    "date_created": "2025-07-09T21:23:23.000",
    "date_modified": "2025-07-09T21:23:25.000",
    "request_status": "Pending",
    "responsible_agency": "Mosquito, Termite & Rodent Control Board",
    "final_address": "6119 Marigny St",
    "address_councildis": "D",
    "status": "Pending",
    "rowid": "1208033",
    "final_x": "3683976.6102",
    "final_y": "555526.977497",
    "longitude": "-90.05940729928459",
    "latitude": "30.021430934880307",
    "geocoded_column": {
      "latitude": "30.021430934880307",
      "longitude": "-90.05940729928459"
    }
  },
  {
    "service_request": "2025-1208032",
    "request_type": "Trash/Recycling",
    "request_reason": "Request a Large Item Pick Up",
    "date_created": "2025-07-09T21:18:42.000",
    "date_modified": "2025-07-09T21:18:44.000",
    "request_status": "Pending",
    "responsible_agency": "Department of Sanitation",
    "final_address": "4819 Gallier Dr",
    "address_councildis": "D",
    "status": "Assigned to Contractor",
    "contractor": "IV Waste",
    "rowid": "1208032",
    "final_x": "3692169.66262",
    "final_y": "551623.542869",
    "longitude": "-90.03365948484283",
    "latitude": "30.010444938697272",
    "geocoded_column": {
      "latitude": "30.010444938697272",
      "longitude": "-90.03365948484283"
    }
  },
  {
    "service_request": "2025-1208031",
    "request_type": "Streetlights",
    "request_reason": "Streetlight Outage/Malfunction",
    "date_created": "2025-07-09T21:16:42.000",
    "date_modified": "2025-07-09T21:16:43.000",
    "request_status": "Pending",
    "responsible_agency": "Department of Public Works",
    "final_address": "1311 Nashville Ave",
    "address_councildis": "A",
    "status": "Pending",
    "contractor": "Legacy Professional Services",
    "rowid": "1208031",
    "final_x": "3666005.57127",
    "final_y": "520793.580345",
    "longitude": "-90.11735577740939",
    "latitude": "29.92646282454903",
    "geocoded_column": {
      "latitude": "29.92646282454903",
      "longitude": "-90.11735577740939"
    }
  },
  {
    "service_request": "2025-1208030",
    "request_type": "Trash/Recycling",
    "request_reason": "Dead Animal Pick Up",
    "date_created": "2025-07-09T21:13:37.000",
    "date_modified": "2025-07-09T21:13:39.000",
    "request_status": "Pending",
    "responsible_agency": "Department of Sanitation",
    "final_address": "6871 General Haig St",
    "address_councildis": "A",
    "status": "Assigned to Contractor",
    "contractor": "IV Waste",
    "rowid": "1208030",
    "final_x": "3671169.90068",
    "final_y": "553032.998295",
    "longitude": "-90.09995793398701",
    "latitude": "30.01495866374323",
    "geocoded_column": {
      "latitude": "30.01495866374323",
      "longitude": "-90.09995793398701"
    }
  },
  {
    "service_request": "2025-1208029",
    "request_type": "Trash/Recycling",
    "request_reason": "Request a Large Item Pick Up",
    "date_created": "2025-07-09T21:12:57.000",
    "date_modified": "2025-07-09T21:12:59.000",
    "request_status": "Pending",
    "responsible_agency": "Department of Sanitation",
    "final_address": "4109 Mithra St",
    "address_councildis": "D",
    "status": "Assigned to Contractor",
    "contractor": "IV Waste",
    "rowid": "1208029",
    "final_x": "3689086.15747",
    "final_y": "553152.709783",
    "longitude": "-90.04334702853875",
    "latitude": "30.014745391316556",
    "geocoded_column": {
      "latitude": "30.014745391316556",
      "longitude": "-90.04334702853875"
    }
  },
  {
    "service_request": "2025-1208028",
    "request_type": "Trash/Recycling",
    "request_reason": "Order Recycling Cart",
    "date_created": "2025-07-09T20:37:04.000",
    "date_modified": "2025-07-09T20:37:07.000",
    "request_status": "Pending",
    "responsible_agency": "Department of Sanitation",
    "final_address": "5213 Prytania St",
    "address_councildis": "B",
    "status": "Pending",
    "rowid": "1208028",
    "final_x": "3667987.36788",
    "final_y": "520217.90604",
    "longitude": "-90.11111916013144",
    "latitude": "29.92482192535067",
    "geocoded_column": {
      "latitude": "29.92482192535067",
      "longitude": "-90.11111916013144"
    }
  },
  {
    "service_request": "2025-1208027",
    "request_type": "Trash/Recycling",
    "request_reason": "Order Recycling Cart",
    "date_created": "2025-07-09T20:03:20.000",
    "date_modified": "2025-07-09T20:03:21.000",
    "request_status": "Pending",
    "responsible_agency": "Department of Sanitation",
    "final_address": "3350 Jena St",
    "address_councildis": "B",
    "status": "Pending",
    "rowid": "1208027",
    "final_x": "3669782.02369",
    "final_y": "527100.760127",
    "longitude": "-90.10522113961287",
    "latitude": "29.94369480304219",
    "geocoded_column": {
      "latitude": "29.94369480304219",
      "longitude": "-90.10522113961287"
    }
  },
  {
    "service_request": "2025-1208026",
    "request_type": "General Services",
    "request_reason": "General Service Request",
    "date_created": "2025-07-09T20:00:27.000",
    "date_modified": "2025-07-09T20:00:29.000",
    "request_status": "Pending",
    "responsible_agency": "Orleans Parish Communication District",
    "final_address": "5647 Catina St",
    "address_councildis": "A",
    "status": "Pending",
    "rowid": "1208026",
    "final_x": "3666696.74465",
    "final_y": "545100.824207",
    "longitude": "-90.11435763958234",
    "latitude": "29.993279567493985",
    "geocoded_column": {
      "latitude": "29.993279567493985",
      "longitude": "-90.11435763958234"
    }
  },
  {
    "service_request": "2025-1208025",
    "request_type": "Parks & Parkways",
    "request_reason": "Request Tree Service (Right of Way/Public Property)",
    "date_created": "2025-07-09T19:58:41.000",
    "date_modified": "2025-07-09T19:58:42.000",
    "request_status": "Pending",
    "responsible_agency": "Department of Parks & Parkway",
    "final_address": "6777 Memphis St",
    "address_councildis": "A",
    "status": "Pending",
    "rowid": "1208025",
    "final_x": "3669730.65729",
    "final_y": "552543.11983",
    "longitude": "-90.1045218673692",
    "latitude": "30.01365418977857",
    "geocoded_column": {
      "latitude": "30.01365418977857",
      "longitude": "-90.1045218673692"
    }
  },
  {
    "service_request": "2025-1208024",
    "request_type": "Trash/Recycling",
    "request_reason": "Order Trash Cart",
    "date_created": "2025-07-09T19:57:48.000",
    "date_modified": "2025-07-09T19:57:49.000",
    "request_status": "Pending",
    "responsible_agency": "Department of Sanitation",
    "final_address": "4958 Corsica Pl",
    "address_councildis": "E",
    "status": "Assigned to Contractor",
    "contractor": "Waste Pro",
    "rowid": "1208024",
    "final_x": "3727349.53689",
    "final_y": "562262.952351",
    "longitude": "-89.92210062483494",
    "latitude": "30.038554877328018",
    "geocoded_column": {
      "latitude": "30.038554877328018",
      "longitude": "-89.92210062483494"
    }
  },
  {
    "service_request": "2025-1208023",
    "request_type": "Abandoned Vehicles",
    "request_reason": "Abandoned/Junk Vehicles",
    "date_created": "2025-07-09T19:56:42.000",
    "date_modified": "2025-07-09T19:56:43.000",
    "request_status": "Pending",
    "responsible_agency": "Department of Public Works",
    "final_address": "5665 Rosemary Pl",
    "address_councildis": "A",
    "status": "Pending",
    "rowid": "1208023",
    "final_x": "3667246.42836",
    "final_y": "545243.696271",
    "longitude": "-90.11261646474931",
    "latitude": "29.99365632619645",
    "geocoded_column": {
      "latitude": "29.99365632619645",
      "longitude": "-90.11261646474931"
    }
  },
  {
    "service_request": "2025-1208022",
    "request_type": "Drainage",
    "request_reason": "Catch Basin Clogged",
    "date_created": "2025-07-09T19:53:41.000",
    "date_modified": "2025-07-09T19:53:43.000",
    "request_status": "Pending",
    "responsible_agency": "Sewerage & Water Board",
    "final_address": "3300 Palmyra St",
    "address_councildis": "B",
    "status": "Pending",
    "rowid": "1208022",
    "final_x": "3673015.32756",
    "final_y": "535775.136263",
    "longitude": "-90.09471667048695",
    "latitude": "29.96745077213938",
    "geocoded_column": {
      "latitude": "29.96745077213938",
      "longitude": "-90.09471667048695"
    }
  },
  {
    "service_request": "2025-1208021",
    "request_type": "Drainage",
    "request_reason": "Catch Basin Clogged",
    "date_created": "2025-07-09T19:51:21.000",
    "date_modified": "2025-07-09T19:51:22.000",
    "request_status": "Pending",
    "responsible_agency": "Sewerage & Water Board",
    "final_address": "3300 Palmyra St",
    "address_councildis": "B",
    "status": "Pending",
    "rowid": "1208021",
    "final_x": "3673015.32756",
    "final_y": "535775.136263",
    "longitude": "-90.09471667048695",
    "latitude": "29.96745077213938",
    "geocoded_column": {
      "latitude": "29.96745077213938",
      "longitude": "-90.09471667048695"
    }
  },
  {
    "service_request": "2025-1208020",
    "request_type": "Abandoned Vehicles",
    "request_reason": "Abandoned/Junk Vehicles",
    "date_created": "2025-07-09T19:51:05.000",
    "date_modified": "2025-07-09T19:51:07.000",
    "request_status": "Pending",
    "responsible_agency": "Department of Public Works",
    "final_address": "5614 Catina St",
    "address_councildis": "A",
    "status": "Pending",
    "rowid": "1208020",
    "final_x": "3666574.11149",
    "final_y": "544879.296271",
    "longitude": "-90.11475246100952",
    "latitude": "29.992674028018822",
    "geocoded_column": {
      "latitude": "29.992674028018822",
      "longitude": "-90.11475246100952"
    }
  },
  {
    "service_request": "2025-1208019",
    "request_type": "Property Maintenance",
    "request_reason": "Property Maintenance",
    "date_created": "2025-07-09T19:33:32.000",
    "date_modified": "2025-07-09T19:33:34.000",
    "request_status": "Pending",
    "responsible_agency": "Department of Code Enforcement",
    "final_address": "7600 Gannon Rd",
    "address_councildis": "E",
    "status": "Pending",
    "rowid": "1208019",
    "final_x": "3716469.08671",
    "final_y": "569659.73431",
    "longitude": "-89.95620443875303",
    "latitude": "30.059256974348585",
    "geocoded_column": {
      "latitude": "30.059256974348585",
      "longitude": "-89.95620443875303"
    }
  },
  {
    "service_request": "2025-1208018",
    "request_type": "Abandoned Vehicles",
    "request_reason": "Abandoned/Junk Vehicles",
    "date_created": "2025-07-09T19:17:18.000",
    "date_modified": "2025-07-09T19:17:19.000",
    "request_status": "Pending",
    "responsible_agency": "Department of Public Works",
    "final_address": "212 N Tonti St",
    "address_councildis": "B",
    "status": "Pending",
    "rowid": "1208018",
    "final_x": "3676793.08046",
    "final_y": "534702.473094",
    "longitude": "-90.08282341854117",
    "latitude": "29.96438848559437",
    "geocoded_column": {
      "latitude": "29.96438848559437",
      "longitude": "-90.08282341854117"
    }
  },
  {
    "service_request": "2025-1208017",
    "request_type": "Abandoned Vehicles",
    "request_reason": "Abandoned/Junk Vehicles",
    "date_created": "2025-07-09T19:14:42.000",
    "date_modified": "2025-07-09T19:14:44.000",
    "request_status": "Pending",
    "responsible_agency": "Department of Public Works",
    "final_address": "212 N Tonti St",
    "address_councildis": "B",
    "status": "Pending",
    "rowid": "1208017",
    "final_x": "3676793.08046",
    "final_y": "534702.473094",
    "longitude": "-90.08282341854117",
    "latitude": "29.96438848559437",
    "geocoded_column": {
      "latitude": "29.96438848559437",
      "longitude": "-90.08282341854117"
    }
  },
  {
    "service_request": "2025-1208016",
    "request_type": "Property Maintenance",
    "request_reason": "Property Maintenance",
    "date_created": "2025-07-09T19:02:50.000",
    "date_modified": "2025-07-09T19:02:51.000",
    "request_status": "Pending",
    "responsible_agency": "Department of Code Enforcement",
    "final_address": "7500 Gannon Rd",
    "address_councildis": "E",
    "status": "Pending",
    "rowid": "1208016",
    "final_x": "3716321.17004",
    "final_y": "569444.80375",
    "longitude": "-89.95668014923969",
    "latitude": "30.058670891477654",
    "geocoded_column": {
      "latitude": "30.058670891477654",
      "longitude": "-89.95668014923969"
    }
  },
  {
    "service_request": "2025-1208015",
    "request_type": "Trash/Recycling",
    "request_reason": "Replace Trash Cart",
    "date_created": "2025-07-09T18:57:27.000",
    "date_modified": "2025-07-09T18:57:29.000",
    "request_status": "Pending",
    "responsible_agency": "Department of Sanitation",
    "final_address": "19 Pinewood Ct",
    "address_councildis": "C",
    "status": "Assigned to Contractor",
    "contractor": "Richards Disposal",
    "rowid": "1208015",
    "final_x": "3695892.38032",
    "final_y": "522824.946043",
    "longitude": "-90.02293858615577",
    "latitude": "29.931142464083035",
    "geocoded_column": {
      "latitude": "29.931142464083035",
      "longitude": "-90.02293858615577"
    }
  },
  {
    "service_request": "2025-1208014",
    "request_type": "Healthy Homes",
    "request_reason": "Healthy Homes",
    "date_created": "2025-07-09T18:47:52.000",
    "date_modified": "2025-07-09T18:47:54.000",
    "request_status": "Pending",
    "responsible_agency": "Department of Code Enforcement",
    "final_address": "1617 Foucher St Apt 6",
    "address_councildis": "B",
    "status": "Pending",
    "rowid": "1208014",
    "final_x": "3673470.79054",
    "final_y": "521447.709241",
    "longitude": "-90.09376778021216",
    "latitude": "29.92804152370522",
    "geocoded_column": {
      "latitude": "29.92804152370522",
      "longitude": "-90.09376778021216"
    }
  },
  {
    "service_request": "2025-1208013",
    "request_type": "Trash/Recycling",
    "request_reason": "Missed Trash Pick-Up",
    "date_created": "2025-07-09T18:31:06.000",
    "date_modified": "2025-07-09T18:31:08.000",
    "request_status": "Pending",
    "responsible_agency": "Department of Sanitation",
    "final_address": "8612 Bill St",
    "address_councildis": "E",
    "status": "Assigned to Contractor",
    "contractor": "Waste Pro",
    "rowid": "1208013",
    "final_x": "3703822.33015",
    "final_y": "563183.692448",
    "longitude": "-89.99641843798675",
    "latitude": "30.041862302407594",
    "geocoded_column": {
      "latitude": "30.041862302407594",
      "longitude": "-89.99641843798675"
    }
  },
  {
    "service_request": "2025-1208012",
    "request_type": "Property Maintenance",
    "request_reason": "Property Maintenance",
    "date_created": "2025-07-09T18:17:23.000",
    "date_modified": "2025-07-09T18:17:25.000",
    "request_status": "Pending",
    "responsible_agency": "Department of Code Enforcement",
    "final_address": "5700 E Louis Prima Dr",
    "address_councildis": "E",
    "status": "Pending",
    "rowid": "1208012",
    "final_x": "3716335.15768",
    "final_y": "561893.531743",
    "longitude": "-89.95692265359399",
    "latitude": "30.03790751799672",
    "geocoded_column": {
      "latitude": "30.03790751799672",
      "longitude": "-89.95692265359399"
    }
  },
  {
    "service_request": "2025-1208011",
    "request_type": "Trash/Recycling",
    "request_reason": "MIssed Recycling Pick-Up",
    "date_created": "2025-07-09T18:16:06.000",
    "date_modified": "2025-07-09T18:16:08.000",
    "request_status": "Pending",
    "responsible_agency": "Department of Sanitation",
    "final_address": "5710 Kensington Blvd",
    "address_councildis": "E",
    "status": "Assigned to Contractor",
    "contractor": "Waste Pro",
    "rowid": "1208011",
    "final_x": "3713525.51474",
    "final_y": "560370.220765",
    "longitude": "-89.965859182272",
    "latitude": "30.03381152350038",
    "geocoded_column": {
      "latitude": "30.03381152350038",
      "longitude": "-89.965859182272"
    }
  },
  {
    "service_request": "2025-1208010",
    "request_type": "Abandoned Vehicles",
    "request_reason": "Abandoned/Junk Vehicles",
    "date_created": "2025-07-09T18:13:12.000",
    "date_modified": "2025-07-09T18:13:13.000",
    "request_status": "Pending",
    "responsible_agency": "Department of Public Works",
    "final_address": "2916 College Ct",
    "address_councildis": "B",
    "status": "Pending",
    "rowid": "1208010",
    "final_x": "3668146.86253",
    "final_y": "531227.730114",
    "longitude": "-90.11024471233598",
    "latitude": "29.95509071450042",
    "geocoded_column": {
      "latitude": "29.95509071450042",
      "longitude": "-90.11024471233598"
    }
  },
  {
    "service_request": "2025-1208009",
    "request_type": "Abandoned Vehicles",
    "request_reason": "Abandoned/Junk Vehicles",
    "date_created": "2025-07-09T18:09:48.000",
    "date_modified": "2025-07-09T18:09:50.000",
    "request_status": "Pending",
    "responsible_agency": "Department of Public Works",
    "final_address": "2916 College Ct",
    "address_councildis": "B",
    "status": "Pending",
    "rowid": "1208009",
    "final_x": "3668146.86253",
    "final_y": "531227.730114",
    "longitude": "-90.11024471233598",
    "latitude": "29.95509071450042",
    "geocoded_column": {
      "latitude": "29.95509071450042",
      "longitude": "-90.11024471233598"
    }
  },
  {
    "service_request": "2025-1208008",
    "request_type": "Property Maintenance",
    "request_reason": "Property Maintenance",
    "date_created": "2025-07-09T17:56:39.000",
    "date_modified": "2025-07-09T17:56:41.000",
    "request_status": "Pending",
    "responsible_agency": "Department of Code Enforcement",
    "final_address": "1100 BLK N Rocheblave St",
    "address_councildis": "D",
    "status": "Pending",
    "rowid": "1208008",
    "final_x": "3678541.49754",
    "final_y": "537663.188569",
    "longitude": "-90.07719955727094",
    "latitude": "29.972476858747015",
    "geocoded_column": {
      "latitude": "29.972476858747015",
      "longitude": "-90.07719955727094"
    }
  },
  {
    "service_request": "2025-1208007",
    "request_type": "Trash/Recycling",
    "request_reason": "Order Second Trash Cart",
    "date_created": "2025-07-09T17:48:33.000",
    "date_modified": "2025-07-09T17:48:35.000",
    "request_status": "Pending",
    "responsible_agency": "Department of Sanitation",
    "final_address": "4663 Tulip St",
    "address_councildis": "E",
    "status": "Assigned to Contractor",
    "contractor": "Waste Pro",
    "rowid": "1208007",
    "final_x": "3702196.07549",
    "final_y": "553926.475415",
    "longitude": "-90.00189792511182",
    "latitude": "30.016460614140556",
    "geocoded_column": {
      "latitude": "30.016460614140556",
      "longitude": "-90.00189792511182"
    }
  },
  {
    "service_request": "2025-1208006",
    "request_type": "Property Maintenance",
    "request_reason": "Property Maintenance",
    "date_created": "2025-07-09T17:36:21.000",
    "date_modified": "2025-07-09T17:36:22.000",
    "request_status": "Pending",
    "responsible_agency": "Department of Code Enforcement",
    "final_address": "2400 BLK Saint Philip St",
    "address_councildis": "D",
    "status": "Pending",
    "rowid": "1208006",
    "final_x": "3678344.42083",
    "final_y": "537117.994777",
    "longitude": "-90.07784082652063",
    "latitude": "29.97098370176499",
    "geocoded_column": {
      "latitude": "29.97098370176499",
      "longitude": "-90.07784082652063"
    }
  },
  {
    "service_request": "2025-1208005",
    "request_type": "Trash/Recycling",
    "request_reason": "Request a Large Item Pick Up",
    "date_created": "2025-07-09T17:33:23.000",
    "date_modified": "2025-07-09T17:33:25.000",
    "request_status": "Pending",
    "responsible_agency": "Department of Sanitation",
    "final_address": "4663 Tulip St",
    "address_councildis": "E",
    "status": "Assigned to Contractor",
    "contractor": "Waste Pro",
    "rowid": "1208005",
    "final_x": "3702196.07549",
    "final_y": "553926.475415",
    "longitude": "-90.00189792511182",
    "latitude": "30.016460614140556",
    "geocoded_column": {
      "latitude": "30.016460614140556",
      "longitude": "-90.00189792511182"
    }
  },
  {
    "service_request": "2025-1208004",
    "request_type": "Property Maintenance",
    "request_reason": "Property Maintenance",
    "date_created": "2025-07-09T17:11:50.000",
    "date_modified": "2025-07-09T17:11:52.000",
    "request_status": "Pending",
    "responsible_agency": "Department of Code Enforcement",
    "final_address": "638 S Pierce St",
    "address_councildis": "B",
    "status": "Pending",
    "rowid": "1208004",
    "final_x": "3670153.64122",
    "final_y": "536167.536199",
    "longitude": "-90.10374065472077",
    "latitude": "29.968614488100677",
    "geocoded_column": {
      "latitude": "29.968614488100677",
      "longitude": "-90.10374065472077"
    }
  },
  {
    "service_request": "2025-1208003",
    "request_type": "Trash/Recycling",
    "request_reason": "Order Second Trash Cart",
    "date_created": "2025-07-09T17:03:30.000",
    "date_modified": "2025-07-09T17:03:32.000",
    "request_status": "Pending",
    "responsible_agency": "Department of Sanitation",
    "final_address": "7630 Eastmore Rd",
    "address_councildis": "E",
    "status": "Assigned to Contractor",
    "contractor": "Waste Pro",
    "rowid": "1208003",
    "final_x": "3700104.72509",
    "final_y": "560581.334174",
    "longitude": "-90.0082624965014",
    "latitude": "30.034825572951174",
    "geocoded_column": {
      "latitude": "30.034825572951174",
      "longitude": "-90.0082624965014"
    }
  },
  {
    "service_request": "2025-1208002",
    "request_type": "General Services",
    "request_reason": "General Service Request",
    "date_created": "2025-07-09T16:55:49.000",
    "date_modified": "2025-07-09T16:55:51.000",
    "request_status": "Pending",
    "responsible_agency": "Orleans Parish Communication District",
    "final_address": "1325 S Saratoga St",
    "address_councildis": "B",
    "status": "Pending",
    "rowid": "1208002",
    "final_x": "3677735.37147",
    "final_y": "526934.850878",
    "longitude": "-90.08011601838864",
    "latitude": "29.943001818503397",
    "geocoded_column": {
      "latitude": "29.943001818503397",
      "longitude": "-90.08011601838864"
    }
  },
  {
    "service_request": "2025-1208001",
    "request_type": "Drainage",
    "request_reason": "Street Flooding",
    "date_created": "2025-07-09T16:52:10.000",
    "date_modified": "2025-07-09T16:52:13.000",
    "request_status": "Pending",
    "responsible_agency": "Sewerage & Water Board",
    "final_address": "564 Amethyst St",
    "address_councildis": "D",
    "status": "Pending",
    "rowid": "1208001",
    "final_x": "3668815.55578",
    "final_y": "556720.271898",
    "longitude": "-90.10727190608742",
    "latitude": "30.025166827984332",
    "geocoded_column": {
      "latitude": "30.025166827984332",
      "longitude": "-90.10727190608742"
    }
  },
  {
    "service_request": "2025-1208000",
    "request_type": "Roads and Streets",
    "request_reason": "Push-up/Pavement Expansion",
    "date_created": "2025-07-09T16:46:03.000",
    "date_modified": "2025-07-09T16:46:05.000",
    "request_status": "Pending",
    "responsible_agency": "Department of Public Works",
    "final_address": "2637 Cupid St",
    "address_councildis": "C",
    "status": "Pending",
    "rowid": "1208000",
    "final_x": "3700288.29303",
    "final_y": "521309.993337",
    "longitude": "-90.0091166240126",
    "latitude": "29.926837903757814",
    "geocoded_column": {
      "latitude": "29.926837903757814",
      "longitude": "-90.0091166240126"
    }
  },
  {
    "service_request": "2025-1207999",
    "request_type": "Trash/Recycling",
    "request_reason": "Repair Recycling Cart",
    "date_created": "2025-07-09T16:44:44.000",
    "date_modified": "2025-07-09T16:44:46.000",
    "request_status": "Pending",
    "responsible_agency": "Department of Sanitation",
    "final_address": "1719 N Dorgenois St",
    "address_councildis": "D",
    "status": "Pending",
    "rowid": "1207999",
    "final_x": "3680073.60539",
    "final_y": "540554.070219",
    "longitude": "-90.07226040961984",
    "latitude": "29.980379511117544",
    "geocoded_column": {
      "latitude": "29.980379511117544",
      "longitude": "-90.07226040961984"
    }
  },
  {
    "service_request": "2025-1207998",
    "request_type": "Trash/Recycling",
    "request_reason": "Dead Animal Pick Up",
    "date_created": "2025-07-09T16:41:20.000",
    "date_modified": "2025-07-09T16:41:22.000",
    "request_status": "Pending",
    "responsible_agency": "Department of Sanitation",
    "final_address": "919 Louisiana Ave",
    "address_councildis": "B",
    "status": "Assigned to Contractor",
    "contractor": "IV Waste",
    "rowid": "1207998",
    "final_x": "3675372.30657",
    "final_y": "519158.016439",
    "longitude": "-90.08784368803583",
    "latitude": "29.921688908062553",
    "geocoded_column": {
      "latitude": "29.921688908062553",
      "longitude": "-90.08784368803583"
    }
  },
  {
    "service_request": "2025-1207997",
    "request_type": "Trash/Recycling",
    "request_reason": "Replace Trash Cart",
    "date_created": "2025-07-09T16:36:40.000",
    "date_modified": "2025-07-09T16:36:42.000",
    "request_status": "Pending",
    "responsible_agency": "Department of Sanitation",
    "final_address": "3141 Pittari Pl",
    "address_councildis": "C",
    "status": "Assigned to Contractor",
    "contractor": "Richards Disposal",
    "rowid": "1207997",
    "final_x": "3709677.03121",
    "final_y": "519086.865783",
    "longitude": "-89.9795620764654",
    "latitude": "29.920423398752593",
    "geocoded_column": {
      "latitude": "29.920423398752593",
      "longitude": "-89.9795620764654"
    }
  },
  {
    "service_request": "2025-1207996",
    "request_type": "Trash/Recycling",
    "request_reason": "Order Trash Cart",
    "date_created": "2025-07-09T16:34:24.000",
    "date_modified": "2025-07-09T16:34:26.000",
    "request_status": "Pending",
    "responsible_agency": "Department of Sanitation",
    "final_address": "7637 Alabama St",
    "address_councildis": "D",
    "status": "Assigned to Contractor",
    "contractor": "Waste Pro",
    "rowid": "1207996",
    "final_x": "3694947.28176",
    "final_y": "558638.599388",
    "longitude": "-90.02463084152672",
    "latitude": "30.0296467788402",
    "geocoded_column": {
      "latitude": "30.0296467788402",
      "longitude": "-90.02463084152672"
    }
  },
  {
    "service_request": "2025-1207995",
    "request_type": "Trash/Recycling",
    "request_reason": "Request a Large Item Pick Up",
    "date_created": "2025-07-09T16:33:27.000",
    "date_modified": "2025-07-09T16:33:28.000",
    "request_status": "Pending",
    "responsible_agency": "Department of Sanitation",
    "final_address": "1101 Allen Toussaint Blvd",
    "address_councildis": "D",
    "status": "Assigned to Contractor",
    "contractor": "IV Waste",
    "rowid": "1207995",
    "final_x": "3674407.58241",
    "final_y": "554638.361752",
    "longitude": "-90.08967333902207",
    "latitude": "30.019276615003367",
    "geocoded_column": {
      "latitude": "30.019276615003367",
      "longitude": "-90.08967333902207"
    }
  },
  {
    "service_request": "2025-1207994",
    "request_type": "Trash/Recycling",
    "request_reason": "Order Trash Cart",
    "date_created": "2025-07-09T16:33:15.000",
    "date_modified": "2025-07-09T16:33:18.000",
    "request_status": "Pending",
    "responsible_agency": "Department of Sanitation",
    "final_address": "7635 Alabama St",
    "address_councildis": "D",
    "status": "Assigned to Contractor",
    "contractor": "Waste Pro",
    "rowid": "1207994",
    "final_x": "3694952.60899",
    "final_y": "558626.611612",
    "longitude": "-90.02461444028522",
    "latitude": "30.029613649727143",
    "geocoded_column": {
      "latitude": "30.029613649727143",
      "longitude": "-90.02461444028522"
    }
  },
  {
    "service_request": "2025-1207993",
    "request_type": "Trash/Recycling",
    "request_reason": "Request a Large Item Pick Up",
    "date_created": "2025-07-09T16:30:21.000",
    "date_modified": "2025-07-09T16:30:23.000",
    "request_status": "Pending",
    "responsible_agency": "Department of Sanitation",
    "final_address": "11240 Ivy Ln",
    "address_councildis": "E",
    "status": "Assigned to Contractor",
    "contractor": "Waste Pro",
    "rowid": "1207993",
    "final_x": "3716423.18162",
    "final_y": "560037.973213",
    "longitude": "-89.95671492970126",
    "latitude": "30.032802572032136",
    "geocoded_column": {
      "latitude": "30.032802572032136",
      "longitude": "-89.95671492970126"
    }
  },
  {
    "service_request": "2025-1207992",
    "request_type": "Trash/Recycling",
    "request_reason": "Request a Large Item Pick Up",
    "date_created": "2025-07-09T16:24:50.000",
    "date_modified": "2025-07-09T16:24:52.000",
    "request_status": "Pending",
    "responsible_agency": "Department of Sanitation",
    "final_address": "4124 Annunciation St",
    "address_councildis": "B",
    "status": "Assigned to Contractor",
    "contractor": "IV Waste",
    "rowid": "1207992",
    "final_x": "3672047.86107",
    "final_y": "517792.23423",
    "longitude": "-90.0983840220711",
    "latitude": "29.91803238414802",
    "geocoded_column": {
      "latitude": "29.91803238414802",
      "longitude": "-90.0983840220711"
    }
  },
  {
    "service_request": "2025-1207991",
    "request_type": "Abandoned Vehicles",
    "request_reason": "Abandoned/Junk Vehicles",
    "date_created": "2025-07-09T16:24:28.000",
    "date_modified": "2025-07-09T16:25:22.000",
    "request_status": "Pending",
    "responsible_agency": "Department of Public Works",
    "final_address": "4300 BLK Dauphine St",
    "address_councildis": "C",
    "status": "Pending",
    "rowid": "1207991",
    "final_x": "3692572.27656",
    "final_y": "533898.425101",
    "longitude": "-90.03302297635292",
    "latitude": "29.961694694967736",
    "geocoded_column": {
      "latitude": "29.961694694967736",
      "longitude": "-90.03302297635292"
    }
  },
  {
    "service_request": "2025-1207990",
    "request_type": "Trash/Recycling",
    "request_reason": "Replace Trash Cart",
    "date_created": "2025-07-09T16:22:57.000",
    "date_modified": "2025-07-09T16:22:59.000",
    "request_status": "Pending",
    "responsible_agency": "Department of Sanitation",
    "final_address": "4917 S Miro St B",
    "address_councildis": "B",
    "status": "Assigned to Contractor",
    "contractor": "IV Waste",
    "rowid": "1207990",
    "final_x": "3669114.1554",
    "final_y": "527749.153855",
    "longitude": "-90.1073078800573",
    "latitude": "29.94549734105424",
    "geocoded_column": {
      "latitude": "29.94549734105424",
      "longitude": "-90.1073078800573"
    }
  },
  {
    "service_request": "2025-1207989",
    "request_type": "Roads and Streets",
    "request_reason": "Curb Damage",
    "date_created": "2025-07-09T16:21:18.000",
    "date_modified": "2025-07-09T16:21:19.000",
    "request_status": "Pending",
    "responsible_agency": "Department of Public Works",
    "final_address": "700 Tchoupitoulas St",
    "address_councildis": "B",
    "status": "Pending",
    "rowid": "1207989",
    "final_x": "3681790.4134",
    "final_y": "528093.443135",
    "longitude": "-90.06727285162965",
    "latitude": "29.946064987138072",
    "geocoded_column": {
      "latitude": "29.946064987138072",
      "longitude": "-90.06727285162965"
    }
  },
  {
    "service_request": "2025-1207988",
    "request_type": "Trash/Recycling",
    "request_reason": "Replace Trash Cart",
    "date_created": "2025-07-09T16:20:23.000",
    "date_modified": "2025-07-09T16:20:25.000",
    "request_status": "Pending",
    "responsible_agency": "Department of Sanitation",
    "final_address": "11118 Curran Rd",
    "address_councildis": "E",
    "status": "Assigned to Contractor",
    "contractor": "Waste Pro",
    "rowid": "1207988",
    "final_x": "3710782.84421",
    "final_y": "566219.140259",
    "longitude": "-89.97430704280806",
    "latitude": "30.04998342237986",
    "geocoded_column": {
      "latitude": "30.04998342237986",
      "longitude": "-89.97430704280806"
    }
  },
  {
    "service_request": "2025-1207987",
    "request_type": "Safety & Permits",
    "request_reason": "Zoning Enforcement",
    "date_created": "2025-07-09T16:19:19.000",
    "date_modified": "2025-07-09T16:19:20.000",
    "request_status": "Pending",
    "responsible_agency": "Safety and Permits",
    "final_address": "4138 Erato St Unit A",
    "address_councildis": "B",
    "status": "Pending",
    "rowid": "1207987",
    "final_x": "3671138.92987",
    "final_y": "531289.45677",
    "longitude": "-90.10079476004526",
    "latitude": "29.95517228493372",
    "geocoded_column": {
      "latitude": "29.95517228493372",
      "longitude": "-90.10079476004526"
    }
  },
  {
    "service_request": "2025-1207986",
    "request_type": "Roads and Streets",
    "request_reason": "Push-up/Pavement Expansion",
    "date_created": "2025-07-09T16:18:57.000",
    "date_modified": "2025-07-09T16:18:59.000",
    "request_status": "Pending",
    "responsible_agency": "Department of Public Works",
    "final_address": "700 Tchoupitoulas St",
    "address_councildis": "B",
    "status": "Pending",
    "rowid": "1207986",
    "final_x": "3681790.4134",
    "final_y": "528093.443135",
    "longitude": "-90.06727285162965",
    "latitude": "29.946064987138072",
    "geocoded_column": {
      "latitude": "29.946064987138072",
      "longitude": "-90.06727285162965"
    }
  },
  {
    "service_request": "2025-1207985",
    "request_type": "Trash/Recycling",
    "request_reason": "Illegal Dumping",
    "date_created": "2025-07-09T16:18:20.000",
    "date_modified": "2025-07-09T16:18:21.000",
    "request_status": "Pending",
    "responsible_agency": "Department of Sanitation",
    "final_address": "2514 Columbus St",
    "address_councildis": "D",
    "status": "Pending",
    "rowid": "1207985",
    "final_x": "3678990.9636",
    "final_y": "539255.703178",
    "longitude": "-90.07572486340479",
    "latitude": "29.97684216929969",
    "geocoded_column": {
      "latitude": "29.97684216929969",
      "longitude": "-90.07572486340479"
    }
  },
  {
    "service_request": "2025-1207984",
    "request_type": "General Services",
    "request_reason": "General Service Request",
    "date_created": "2025-07-09T16:17:54.000",
    "date_modified": "2025-07-09T16:17:56.000",
    "request_status": "Pending",
    "responsible_agency": "Orleans Parish Communication District",
    "final_address": "7000 E Renaissance Ct",
    "address_councildis": "E",
    "status": "Pending",
    "rowid": "1207984",
    "final_x": "3717307.4293",
    "final_y": "567149.68362",
    "longitude": "-89.95365006386275",
    "latitude": "30.05232764121527",
    "geocoded_column": {
      "latitude": "30.05232764121527",
      "longitude": "-89.95365006386275"
    }
  },
  {
    "service_request": "2025-1207983",
    "request_type": "Trash/Recycling",
    "request_reason": "Order Second Trash Cart",
    "date_created": "2025-07-09T16:17:37.000",
    "date_modified": "2025-07-09T16:17:38.000",
    "request_status": "Pending",
    "responsible_agency": "Department of Sanitation",
    "final_address": "5231 S Derbigny St",
    "address_councildis": "B",
    "status": "Assigned to Contractor",
    "contractor": "IV Waste",
    "rowid": "1207983",
    "final_x": "3668589.04366",
    "final_y": "526313.825022",
    "longitude": "-90.10901425484877",
    "latitude": "29.941566090522752",
    "geocoded_column": {
      "latitude": "29.941566090522752",
      "longitude": "-90.10901425484877"
    }
  },
  {
    "service_request": "2025-1207982",
    "request_type": "Drainage",
    "request_reason": "Catch Basin Clogged",
    "date_created": "2025-07-09T16:16:20.000",
    "date_modified": "2025-07-09T16:16:21.000",
    "request_status": "Pending",
    "responsible_agency": "Sewerage & Water Board",
    "final_address": "1456 Owens Blvd",
    "address_councildis": "D",
    "status": "Pending",
    "rowid": "1207982",
    "final_x": "3678027.95413",
    "final_y": "548902.735891",
    "longitude": "-90.07843266877457",
    "latitude": "30.003397160044177",
    "geocoded_column": {
      "latitude": "30.003397160044177",
      "longitude": "-90.07843266877457"
    }
  },
  {
    "service_request": "2025-1207981",
    "request_type": "Trash/Recycling",
    "request_reason": "Request a Large Item Pick Up",
    "date_created": "2025-07-09T16:13:50.000",
    "date_modified": "2025-07-09T16:13:57.000",
    "request_status": "Pending",
    "responsible_agency": "Department of Sanitation",
    "final_address": "4629 Ray Ave",
    "address_councildis": "E",
    "status": "Assigned to Contractor",
    "contractor": "Waste Pro",
    "rowid": "1207981",
    "final_x": "3698912.57194",
    "final_y": "553805.402455",
    "longitude": "-90.01227673159167",
    "latitude": "30.01623220851138",
    "geocoded_column": {
      "latitude": "30.01623220851138",
      "longitude": "-90.01227673159167"
    }
  },
  {
    "service_request": "2025-1207980",
    "request_type": "Property Maintenance",
    "request_reason": "Property Maintenance",
    "date_created": "2025-07-09T16:12:58.000",
    "date_modified": "2025-07-09T16:12:59.000",
    "request_status": "Pending",
    "responsible_agency": "Department of Code Enforcement",
    "final_address": "ALIX ST & ATLANTIC AVE",
    "address_councildis": "C",
    "status": "Pending",
    "rowid": "1207980",
    "final_x": "3688830.6",
    "final_y": "530300.58",
    "longitude": "-90.04496628877331",
    "latitude": "29.951918087521598",
    "geocoded_column": {
      "latitude": "29.951918087521598",
      "longitude": "-90.04496628877331"
    }
  },
  {
    "service_request": "2025-1207979",
    "request_type": "Drainage",
    "request_reason": "Catch Basin Clogged",
    "date_created": "2025-07-09T16:11:49.000",
    "date_modified": "2025-07-09T16:11:50.000",
    "request_status": "Pending",
    "responsible_agency": "Sewerage & Water Board",
    "final_address": "4629 Cartier Ave",
    "address_councildis": "D",
    "status": "Pending",
    "rowid": "1207979",
    "final_x": "3677965.72904",
    "final_y": "549676.304724",
    "longitude": "-90.07860248698805",
    "latitude": "30.005526072684795",
    "geocoded_column": {
      "latitude": "30.005526072684795",
      "longitude": "-90.07860248698805"
    }
  },
  {
    "service_request": "2025-1207978",
    "request_type": "Trash/Recycling",
    "request_reason": "Request a Large Item Pick Up",
    "date_created": "2025-07-09T16:11:39.000",
    "date_modified": "2025-07-09T16:11:41.000",
    "request_status": "Pending",
    "responsible_agency": "Department of Sanitation",
    "final_address": "825 N White St",
    "address_councildis": "A",
    "status": "Assigned to Contractor",
    "contractor": "IV Waste",
    "rowid": "1207978",
    "final_x": "3676583.25153",
    "final_y": "537766.755848",
    "longitude": "-90.08338048222218",
    "latitude": "29.972820515982402",
    "geocoded_column": {
      "latitude": "29.972820515982402",
      "longitude": "-90.08338048222218"
    }
  },
  {
    "service_request": "2025-1207977",
    "request_type": "Trash/Recycling",
    "request_reason": "Request a Large Item Pick Up",
    "date_created": "2025-07-09T16:11:37.000",
    "date_modified": "2025-07-09T16:11:39.000",
    "request_status": "Pending",
    "responsible_agency": "Department of Sanitation",
    "final_address": "7934 Brevard Ave",
    "address_councildis": "E",
    "status": "Assigned to Contractor",
    "contractor": "Waste Pro",
    "rowid": "1207977",
    "final_x": "3705832.47166",
    "final_y": "564326.790113",
    "longitude": "-89.99002333808023",
    "latitude": "30.04494072594366",
    "geocoded_column": {
      "latitude": "30.04494072594366",
      "longitude": "-89.99002333808023"
    }
  },
  {
    "service_request": "2025-1207976",
    "request_type": "Property Maintenance",
    "request_reason": "Property Maintenance",
    "date_created": "2025-07-09T16:09:53.000",
    "date_modified": "2025-07-09T16:09:55.000",
    "request_status": "Pending",
    "responsible_agency": "Department of Code Enforcement",
    "final_address": "303 Atlantic Ave",
    "address_councildis": "C",
    "status": "Pending",
    "rowid": "1207976",
    "final_x": "3688792.16367",
    "final_y": "530665.416322",
    "longitude": "-90.04507470055071",
    "latitude": "29.95292245015283",
    "geocoded_column": {
      "latitude": "29.95292245015283",
      "longitude": "-90.04507470055071"
    }
  },
  {
    "service_request": "2025-1207975",
    "request_type": "Drainage",
    "request_reason": "Catch Basin Clogged",
    "date_created": "2025-07-09T16:07:46.000",
    "date_modified": "2025-07-09T16:07:47.000",
    "request_status": "Pending",
    "responsible_agency": "Sewerage & Water Board",
    "final_address": "1200 BLK Mirabeau Ave",
    "address_councildis": "D",
    "status": "Pending",
    "rowid": "1207975",
    "final_x": "3677307.22704",
    "final_y": "550143.148517",
    "longitude": "-90.08066671966297",
    "latitude": "30.006829537567146",
    "geocoded_column": {
      "latitude": "30.006829537567146",
      "longitude": "-90.08066671966297"
    }
  },
  {
    "service_request": "2025-1207974",
    "request_type": "Abandoned Vehicles",
    "request_reason": "Abandoned/Junk Vehicles",
    "date_created": "2025-07-09T16:07:36.000",
    "date_modified": "2025-07-09T16:07:38.000",
    "request_status": "Pending",
    "responsible_agency": "Department of Public Works",
    "final_address": "2228 1st St, New Orleans, Louisiana, 70113",
    "status": "Pending",
    "rowid": "1207974",
    "longitude": "0.0",
    "latitude": "0.0",
    "geocoded_column": {
      "latitude": "0.0",
      "longitude": "0.0"
    }
  },
  {
    "service_request": "2025-1207973",
    "request_type": "Property Maintenance",
    "request_reason": "Property Maintenance",
    "date_created": "2025-07-09T16:04:09.000",
    "date_modified": "2025-07-09T16:04:11.000",
    "request_status": "Pending",
    "responsible_agency": "Department of Code Enforcement",
    "final_address": "805 Jackson Ave",
    "address_councildis": "B",
    "status": "Pending",
    "rowid": "1207973",
    "final_x": "3679524.59195",
    "final_y": "521283.733945",
    "longitude": "-90.07466300046353",
    "latitude": "29.927409181634637",
    "geocoded_column": {
      "latitude": "29.927409181634637",
      "longitude": "-90.07466300046353"
    }
  },
  {
    "service_request": "2025-1207971",
    "request_type": "Abandoned Vehicles",
    "request_reason": "Abandoned/Junk Vehicles",
    "date_created": "2025-07-09T16:03:27.000",
    "date_modified": "2025-07-09T16:05:22.000",
    "request_status": "Pending",
    "responsible_agency": "Department of Public Works",
    "final_address": "100 Camellia Trce",
    "address_councildis": "C",
    "status": "Pending",
    "rowid": "1207971",
    "final_x": "3697029.84483",
    "final_y": "523255.103483",
    "longitude": "-90.01933220652575",
    "latitude": "29.932289432197333",
    "geocoded_column": {
      "latitude": "29.932289432197333",
      "longitude": "-90.01933220652575"
    }
  },
  {
    "service_request": "2025-1207970",
    "request_type": "Streetlights",
    "request_reason": "Streetlight Knocked Down/Leaning",
    "date_created": "2025-07-09T16:01:32.000",
    "date_modified": "2025-07-09T16:01:34.000",
    "request_status": "Pending",
    "responsible_agency": "Department of Public Works",
    "final_address": "301 Loyola Ave",
    "address_councildis": "B",
    "status": "Pending",
    "contractor": "Legacy Professional Services",
    "rowid": "1207970",
    "final_x": "3678867.65794",
    "final_y": "530858.879362",
    "longitude": "-90.07640521043088",
    "latitude": "29.95375748524489",
    "geocoded_column": {
      "latitude": "29.95375748524489",
      "longitude": "-90.07640521043088"
    }
  },
  {
    "service_request": "2025-1207969",
    "request_type": "Abandoned Vehicles",
    "request_reason": "Abandoned/Junk Vehicles",
    "date_created": "2025-07-09T15:58:41.000",
    "date_modified": "2025-07-09T15:59:59.000",
    "request_status": "Pending",
    "responsible_agency": "Department of Public Works",
    "final_address": "2600 BLK Allen Toussaint Blvd",
    "address_councildis": "D",
    "status": "Pending",
    "rowid": "1207969",
    "final_x": "3686554.03663",
    "final_y": "555954.265832",
    "longitude": "-90.05124824580328",
    "latitude": "30.022526775728537",
    "geocoded_column": {
      "latitude": "30.022526775728537",
      "longitude": "-90.05124824580328"
    }
  },
  {
    "service_request": "2025-1207968",
    "request_type": "Trash/Recycling",
    "request_reason": "Repair Trash Cart",
    "date_created": "2025-07-09T15:58:10.000",
    "date_modified": "2025-07-09T15:58:12.000",
    "request_status": "Pending",
    "responsible_agency": "Department of Sanitation",
    "final_address": "8509 Palmetto St",
    "address_councildis": "A",
    "status": "Assigned to Contractor",
    "contractor": "IV Waste",
    "rowid": "1207968",
    "final_x": "3667110.23975",
    "final_y": "536328.669447",
    "longitude": "-90.11334650078913",
    "latitude": "29.969146999811603",
    "geocoded_column": {
      "latitude": "29.969146999811603",
      "longitude": "-90.11334650078913"
    }
  },
  {
    "service_request": "2025-1207967",
    "request_type": "Healthy Homes",
    "request_reason": "Healthy Homes",
    "date_created": "2025-07-09T15:57:17.000",
    "date_modified": "2025-07-09T15:57:19.000",
    "request_status": "Pending",
    "responsible_agency": "Department of Code Enforcement",
    "final_address": "1325 Annunciation St Apt 101",
    "address_councildis": "B",
    "status": "Pending",
    "rowid": "1207967",
    "final_x": "3681188.23548",
    "final_y": "524752.005308",
    "longitude": "-90.06929051565153",
    "latitude": "29.93689542898427",
    "geocoded_column": {
      "latitude": "29.93689542898427",
      "longitude": "-90.06929051565153"
    }
  },
  {
    "service_request": "2025-1207966",
    "request_type": "Trash/Recycling",
    "request_reason": "Request a Large Item Pick Up",
    "date_created": "2025-07-09T15:56:06.000",
    "date_modified": "2025-07-09T15:56:08.000",
    "request_status": "Pending",
    "responsible_agency": "Department of Sanitation",
    "final_address": "7609 Shorewood Blvd",
    "address_councildis": "E",
    "status": "Assigned to Contractor",
    "contractor": "Waste Pro",
    "rowid": "1207966",
    "final_x": "3719898.1525",
    "final_y": "572788.565737",
    "longitude": "-89.94524574618318",
    "latitude": "30.06774618604276",
    "geocoded_column": {
      "latitude": "30.06774618604276",
      "longitude": "-89.94524574618318"
    }
  },
  {
    "service_request": "2025-1207965",
    "request_type": "Roads and Streets",
    "request_reason": "Pothole",
    "date_created": "2025-07-09T15:56:04.000",
    "date_modified": "2025-07-09T15:56:06.000",
    "request_status": "Pending",
    "responsible_agency": "Department of Public Works",
    "final_address": "2561 Pressburg St",
    "address_councildis": "D",
    "status": "Pending",
    "rowid": "1207965",
    "final_x": "3686249.23286",
    "final_y": "554853.849624",
    "longitude": "-90.05225022563633",
    "latitude": "30.01951041230926",
    "geocoded_column": {
      "latitude": "30.01951041230926",
      "longitude": "-90.05225022563633"
    }
  },
  {
    "service_request": "2025-1207964",
    "request_type": "Trash/Recycling",
    "request_reason": "Order Trash Cart",
    "date_created": "2025-07-09T15:54:07.000",
    "date_modified": "2025-07-09T15:54:08.000",
    "request_status": "Pending",
    "responsible_agency": "Department of Sanitation",
    "final_address": "6710 Canal Blvd",
    "address_councildis": "A",
    "status": "Assigned to Contractor",
    "contractor": "IV Waste",
    "rowid": "1207964",
    "final_x": "3668758.39508",
    "final_y": "552141.010646",
    "longitude": "-90.10760731143765",
    "latitude": "30.012577164790596",
    "geocoded_column": {
      "latitude": "30.012577164790596",
      "longitude": "-90.10760731143765"
    }
  },
  {
    "service_request": "2025-1207963",
    "request_type": "Property Maintenance",
    "request_reason": "Property Maintenance",
    "date_created": "2025-07-09T15:53:47.000",
    "date_modified": "2025-07-09T15:53:50.000",
    "request_status": "Pending",
    "responsible_agency": "Department of Code Enforcement",
    "final_address": "514 Josephine St",
    "address_councildis": "B",
    "status": "Pending",
    "rowid": "1207963",
    "final_x": "3680423.20194",
    "final_y": "520618.730808",
    "longitude": "-90.07184942425235",
    "latitude": "29.92555346826006",
    "geocoded_column": {
      "latitude": "29.92555346826006",
      "longitude": "-90.07184942425235"
    }
  },
  {
    "service_request": "2025-1207962",
    "request_type": "Property Maintenance",
    "request_reason": "Property Maintenance",
    "date_created": "2025-07-09T15:51:48.000",
    "date_modified": "2025-07-09T15:51:50.000",
    "request_status": "Pending",
    "responsible_agency": "Department of Code Enforcement",
    "final_address": "HAYNE BLVD & GANNON RD",
    "address_councildis": "E",
    "status": "Pending",
    "rowid": "1207962",
    "final_x": "3715377.9",
    "final_y": "571240.58",
    "longitude": "-89.95959365245159",
    "latitude": "30.063639659870965",
    "geocoded_column": {
      "latitude": "30.063639659870965",
      "longitude": "-89.95959365245159"
    }
  },
  {
    "service_request": "2025-1207961",
    "request_type": "Property Maintenance",
    "request_reason": "Property Maintenance",
    "date_created": "2025-07-09T15:50:33.000",
    "date_modified": "2025-07-09T15:50:35.000",
    "request_status": "Pending",
    "responsible_agency": "Department of Code Enforcement",
    "final_address": "511 Jackson Ave",
    "address_councildis": "B",
    "status": "Pending",
    "rowid": "1207961",
    "final_x": "3680174.4381",
    "final_y": "520445.8862",
    "longitude": "-90.07264069810714",
    "latitude": "29.925085730265863",
    "geocoded_column": {
      "latitude": "29.925085730265863",
      "longitude": "-90.07264069810714"
    }
  },
  {
    "service_request": "2025-1207960",
    "request_type": "Trash/Recycling",
    "request_reason": "Request a Large Item Pick Up",
    "date_created": "2025-07-09T15:49:10.000",
    "date_modified": "2025-07-09T15:49:11.000",
    "request_status": "Pending",
    "responsible_agency": "Department of Sanitation",
    "final_address": "4832 Lynhuber Dr",
    "address_councildis": "D",
    "status": "Assigned to Contractor",
    "contractor": "Waste Pro",
    "rowid": "1207960",
    "final_x": "3697922.30915",
    "final_y": "554837.095512",
    "longitude": "-90.01536801740113",
    "latitude": "30.0191003289103",
    "geocoded_column": {
      "latitude": "30.0191003289103",
      "longitude": "-90.01536801740113"
    }
  },
  {
    "service_request": "2025-1207959",
    "request_type": "Property Maintenance",
    "request_reason": "Property Maintenance",
    "date_created": "2025-07-09T15:48:59.000",
    "date_modified": "2025-07-09T15:49:00.000",
    "request_status": "Pending",
    "responsible_agency": "Department of Code Enforcement",
    "final_address": "6327 Fairfax Pl",
    "address_councildis": "C",
    "status": "Pending",
    "rowid": "1207959",
    "final_x": "3707362.98897",
    "final_y": "517242.019189",
    "longitude": "-89.9869347827735",
    "latitude": "29.915425683957444",
    "geocoded_column": {
      "latitude": "29.915425683957444",
      "longitude": "-89.9869347827735"
    }
  },
  {
    "service_request": "2025-1207958",
    "request_type": "Trash/Recycling",
    "request_reason": "Request a Large Item Pick Up",
    "date_created": "2025-07-09T15:48:50.000",
    "date_modified": "2025-07-09T15:59:40.000",
    "request_status": "Pending",
    "responsible_agency": "Department of Sanitation",
    "final_address": "1728 N Dorgenois St",
    "address_councildis": "D",
    "status": "Assigned to Contractor",
    "contractor": "IV Waste",
    "rowid": "1207958",
    "final_x": "3680181.03176",
    "final_y": "540546.851979",
    "longitude": "-90.07192136230181",
    "latitude": "29.98035641212153",
    "geocoded_column": {
      "latitude": "29.98035641212153",
      "longitude": "-90.07192136230181"
    }
  },
  {
    "service_request": "2025-1207957",
    "request_type": "Property Maintenance",
    "request_reason": "Property Maintenance",
    "date_created": "2025-07-09T15:48:15.000",
    "date_modified": "2025-07-09T15:48:17.000",
    "request_status": "Pending",
    "responsible_agency": "Department of Code Enforcement",
    "final_address": "516 Josephine St",
    "address_councildis": "B",
    "status": "Pending",
    "rowid": "1207957",
    "final_x": "3680410.20655",
    "final_y": "520632.44876",
    "longitude": "-90.07188996996925",
    "latitude": "29.925591581529062",
    "geocoded_column": {
      "latitude": "29.925591581529062",
      "longitude": "-90.07188996996925"
    }
  },
  {
    "service_request": "2025-1207956",
    "request_type": "Street and Traffic Signs",
    "request_reason": "Street Name Sign Damaged or Missing",
    "date_created": "2025-07-09T15:48:14.000",
    "date_modified": "2025-07-09T15:48:16.000",
    "request_status": "Pending",
    "responsible_agency": "Department of Public Works",
    "final_address": "N VILLERE ST & TOURO ST",
    "address_councildis": "C",
    "status": "Pending",
    "rowid": "1207956",
    "final_x": "3684144.4",
    "final_y": "537344.38",
    "longitude": "-90.05951581752367",
    "latitude": "29.971430166789176",
    "geocoded_column": {
      "latitude": "29.971430166789176",
      "longitude": "-90.05951581752367"
    }
  },
  {
    "service_request": "2025-1207955",
    "request_type": "Trash/Recycling",
    "request_reason": "Request a Large Item Pick Up",
    "date_created": "2025-07-09T15:46:49.000",
    "date_modified": "2025-07-09T15:46:51.000",
    "request_status": "Pending",
    "responsible_agency": "Department of Sanitation",
    "final_address": "4831 Lynhuber Dr",
    "address_councildis": "D",
    "status": "Assigned to Contractor",
    "contractor": "Waste Pro",
    "rowid": "1207955",
    "final_x": "3698026.87747",
    "final_y": "554797.532504",
    "longitude": "-90.01503905783846",
    "latitude": "30.018988238074375",
    "geocoded_column": {
      "latitude": "30.018988238074375",
      "longitude": "-90.01503905783846"
    }
  },
  {
    "service_request": "2025-1207954",
    "request_type": "Abandoned Vehicles",
    "request_reason": "Abandoned/Junk Vehicles",
    "date_created": "2025-07-09T15:45:56.000",
    "date_modified": "2025-07-09T15:45:58.000",
    "request_status": "Pending",
    "responsible_agency": "Department of Public Works",
    "final_address": "5312 Wildair Dr",
    "address_councildis": "D",
    "status": "Pending",
    "rowid": "1207954",
    "final_x": "3681632.32732",
    "final_y": "552447.361174",
    "longitude": "-90.06692213573317",
    "latitude": "30.01303456875389",
    "geocoded_column": {
      "latitude": "30.01303456875389",
      "longitude": "-90.06692213573317"
    }
  },
  {
    "service_request": "2025-1207953",
    "request_type": "Drainage",
    "request_reason": "Street Flooding",
    "date_created": "2025-07-09T15:43:29.000",
    "date_modified": "2025-07-09T15:43:31.000",
    "request_status": "Pending",
    "responsible_agency": "Sewerage & Water Board",
    "final_address": "260 Oakmont Dr",
    "address_councildis": "E",
    "status": "Pending",
    "rowid": "1207953",
    "final_x": "3719996.33516",
    "final_y": "562616.353056",
    "longitude": "-89.94532489844032",
    "latitude": "30.039773548415305",
    "geocoded_column": {
      "latitude": "30.039773548415305",
      "longitude": "-89.94532489844032"
    }
  },
  {
    "service_request": "2025-1207952",
    "request_type": "Trash/Recycling",
    "request_reason": "Request a Large Item Pick Up",
    "date_created": "2025-07-09T15:41:04.000",
    "date_modified": "2025-07-09T17:15:20.000",
    "case_close_date": "2025-07-09T12:15:17.000",
    "request_status": "Closed",
    "responsible_agency": "Department of Sanitation",
    "final_address": "4998 N Rampart St",
    "address_councildis": "E",
    "status": "Assigned to Contractor",
    "contractor": "Waste Pro",
    "contractor_action": "Completed",
    "rowid": "1207952",
    "final_x": "3695790.77008",
    "final_y": "533793.208645",
    "longitude": "-90.02286335344824",
    "latitude": "29.961304566643534",
    "geocoded_column": {
      "latitude": "29.961304566643534",
      "longitude": "-90.02286335344824"
    }
  },
  {
    "service_request": "2025-1207951",
    "request_type": "Property Maintenance",
    "request_reason": "Property Maintenance",
    "date_created": "2025-07-09T15:38:49.000",
    "date_modified": "2025-07-09T15:42:47.000",
    "request_status": "Pending",
    "responsible_agency": "Department of Code Enforcement",
    "final_address": "10115 Boulevard Way",
    "address_councildis": "E",
    "status": "Pending",
    "rowid": "1207951",
    "final_x": "3708570.53515",
    "final_y": "564781.538978",
    "longitude": "-89.98135288555154",
    "latitude": "30.046102558140497",
    "geocoded_column": {
      "latitude": "30.046102558140497",
      "longitude": "-89.98135288555154"
    }
  },
  {
    "service_request": "2025-1207950",
    "request_type": "Drainage",
    "request_reason": "Ditch and Culvert Maintenance",
    "date_created": "2025-07-09T15:38:12.000",
    "date_modified": "2025-07-09T15:38:14.000",
    "request_status": "Pending",
    "responsible_agency": "Department of Public Works",
    "final_address": "5057 Dreux Ave",
    "address_councildis": "D",
    "status": "Pending",
    "rowid": "1207950",
    "final_x": "3692300.34806",
    "final_y": "553549.488407",
    "longitude": "-90.03317755911401",
    "latitude": "30.015736496567637",
    "geocoded_column": {
      "latitude": "30.015736496567637",
      "longitude": "-90.03317755911401"
    }
  },
  {
    "service_request": "2025-1207949",
    "request_type": "Drainage",
    "request_reason": "Street Flooding",
    "date_created": "2025-07-09T15:38:02.000",
    "date_modified": "2025-07-09T15:38:04.000",
    "request_status": "Pending",
    "responsible_agency": "Sewerage & Water Board",
    "final_address": "1900 Esplanade Ave",
    "address_councildis": "D",
    "status": "Pending",
    "rowid": "1207949",
    "final_x": "3680351.80571",
    "final_y": "537204.224584",
    "longitude": "-90.07149824731196",
    "latitude": "29.97116017312894",
    "geocoded_column": {
      "latitude": "29.97116017312894",
      "longitude": "-90.07149824731196"
    }
  },
  {
    "service_request": "2025-1207948",
    "request_type": "Trash/Recycling",
    "request_reason": "Request a Large Item Pick Up",
    "date_created": "2025-07-09T15:36:19.000",
    "date_modified": "2025-07-09T15:36:21.000",
    "request_status": "Pending",
    "responsible_agency": "Department of Sanitation",
    "final_address": "2331 Second St",
    "address_councildis": "B",
    "status": "Assigned to Contractor",
    "contractor": "IV Waste",
    "rowid": "1207948",
    "final_x": "3675214.26881",
    "final_y": "525348.159485",
    "longitude": "-90.08813020568456",
    "latitude": "29.93871451552911",
    "geocoded_column": {
      "latitude": "29.93871451552911",
      "longitude": "-90.08813020568456"
    }
  },
  {
    "service_request": "2025-1207947",
    "request_type": "Mosquito, Termite & Rodent Control",
    "request_reason": "Mosquito Complaint",
    "date_created": "2025-07-09T15:33:43.000",
    "date_modified": "2025-07-09T15:48:45.000",
    "case_close_date": "2025-07-09T10:48:44.000",
    "request_status": "Closed",
    "responsible_agency": "Mosquito, Termite & Rodent Control Board",
    "final_address": "104 Mary Jane Ln",
    "address_councildis": "D",
    "status": "Resolved",
    "rowid": "1207947",
    "final_x": "3682695.61992",
    "final_y": "551350.245461",
    "longitude": "-90.06360111799818",
    "latitude": "30.00998554266098",
    "geocoded_column": {
      "latitude": "30.00998554266098",
      "longitude": "-90.06360111799818"
    }
  },
  {
    "service_request": "2025-1207946",
    "request_type": "Mosquito, Termite & Rodent Control",
    "request_reason": "Rodent Complaint (Mice & Rats)",
    "date_created": "2025-07-09T15:33:01.000",
    "date_modified": "2025-07-09T15:33:05.000",
    "request_status": "Pending",
    "responsible_agency": "Mosquito, Termite & Rodent Control Board",
    "final_address": "5037 Pauger St",
    "address_councildis": "D",
    "status": "Pending",
    "rowid": "1207946",
    "final_x": "3682695.61992",
    "final_y": "551350.245461",
    "longitude": "-90.06360111799818",
    "latitude": "30.00998554266098",
    "geocoded_column": {
      "latitude": "30.00998554266098",
      "longitude": "-90.06360111799818"
    }
  },
  {
    "service_request": "2025-1207945",
    "request_type": "Trash/Recycling",
    "request_reason": "Repair Trash Cart",
    "date_created": "2025-07-09T15:32:55.000",
    "date_modified": "2025-07-09T15:32:58.000",
    "request_status": "Pending",
    "responsible_agency": "Department of Sanitation",
    "final_address": "2427 Calhoun St",
    "address_councildis": "A",
    "status": "Assigned to Contractor",
    "contractor": "IV Waste",
    "rowid": "1207945",
    "final_x": "3666172.55732",
    "final_y": "525881.119421",
    "longitude": "-90.11665811915512",
    "latitude": "29.940447064112508",
    "geocoded_column": {
      "latitude": "29.940447064112508",
      "longitude": "-90.11665811915512"
    }
  },
  {
    "service_request": "2025-1207944",
    "request_type": "Trash/Recycling",
    "request_reason": "Request a Large Item Pick Up",
    "date_created": "2025-07-09T15:32:13.000",
    "date_modified": "2025-07-09T15:32:15.000",
    "request_status": "Pending",
    "responsible_agency": "Department of Sanitation",
    "final_address": "6000 Burgundy St",
    "address_councildis": "E",
    "status": "Assigned to Contractor",
    "contractor": "Waste Pro",
    "rowid": "1207944",
    "final_x": "3698876.49264",
    "final_y": "532650.859332",
    "longitude": "-90.01316080658339",
    "latitude": "29.95806611425129",
    "geocoded_column": {
      "latitude": "29.95806611425129",
      "longitude": "-90.01316080658339"
    }
  },
  {
    "service_request": "2025-1207943",
    "request_type": "Trash/Recycling",
    "request_reason": "Request a Large Item Pick Up",
    "date_created": "2025-07-09T15:32:00.000",
    "date_modified": "2025-07-09T15:32:02.000",
    "request_status": "Pending",
    "responsible_agency": "Department of Sanitation",
    "final_address": "705 Huntlee Dr",
    "address_councildis": "C",
    "status": "Assigned to Contractor",
    "contractor": "Richards Disposal",
    "rowid": "1207943",
    "final_x": "3701730.87133",
    "final_y": "520044.404472",
    "longitude": "-90.0046091484297",
    "latitude": "29.923312051339344",
    "geocoded_column": {
      "latitude": "29.923312051339344",
      "longitude": "-90.0046091484297"
    }
  },
  {
    "service_request": "2025-1207942",
    "request_type": "Roads and Streets",
    "request_reason": "Sidewalk Damaged or Missing",
    "date_created": "2025-07-09T15:31:57.000",
    "date_modified": "2025-07-09T15:31:59.000",
    "request_status": "Pending",
    "responsible_agency": "Department of Public Works",
    "final_address": "1901 St Charles Ave",
    "address_councildis": "B",
    "status": "Pending",
    "rowid": "1207942",
    "final_x": "3678299.08904",
    "final_y": "524342.994812",
    "longitude": "-90.07842584397862",
    "latitude": "29.935858105639888",
    "geocoded_column": {
      "latitude": "29.935858105639888",
      "longitude": "-90.07842584397862"
    }
  },
  {
    "service_request": "2025-1207941",
    "request_type": "Trash/Recycling",
    "request_reason": "Illegal Dumping",
    "date_created": "2025-07-09T15:29:43.000",
    "date_modified": "2025-07-09T15:29:45.000",
    "request_status": "Pending",
    "responsible_agency": "Department of Sanitation",
    "final_address": "1908 First St",
    "address_councildis": "B",
    "status": "Pending",
    "rowid": "1207941",
    "final_x": "3676200.80385",
    "final_y": "524134.4647",
    "longitude": "-90.08505734737363",
    "latitude": "29.935347737023697",
    "geocoded_column": {
      "latitude": "29.935347737023697",
      "longitude": "-90.08505734737363"
    }
  },
  {
    "service_request": "2025-1207940",
    "request_type": "Trash/Recycling",
    "request_reason": "Repair Trash Cart",
    "date_created": "2025-07-09T15:27:18.000",
    "date_modified": "2025-07-09T15:27:20.000",
    "request_status": "Pending",
    "responsible_agency": "Department of Sanitation",
    "final_address": "6757 Louisville St",
    "address_councildis": "A",
    "status": "Assigned to Contractor",
    "contractor": "IV Waste",
    "rowid": "1207940",
    "final_x": "3668269.37159",
    "final_y": "552529.185558",
    "longitude": "-90.10913925748213",
    "latitude": "30.013658884078406",
    "geocoded_column": {
      "latitude": "30.013658884078406",
      "longitude": "-90.10913925748213"
    }
  },
  {
    "service_request": "2025-1207939",
    "request_type": "Trash/Recycling",
    "request_reason": "Request a Large Item Pick Up",
    "date_created": "2025-07-09T15:25:05.000",
    "date_modified": "2025-07-09T15:25:07.000",
    "request_status": "Pending",
    "responsible_agency": "Department of Sanitation",
    "final_address": "7615 Jeannette St",
    "address_councildis": "A",
    "status": "Assigned to Contractor",
    "contractor": "IV Waste",
    "rowid": "1207939",
    "final_x": "3663985.94643",
    "final_y": "528075.111039",
    "longitude": "-90.12348850188727",
    "latitude": "29.9465434988518",
    "geocoded_column": {
      "latitude": "29.9465434988518",
      "longitude": "-90.12348850188727"
    }
  },
  {
    "service_request": "2025-1207938",
    "request_type": "Trash/Recycling",
    "request_reason": "Order Trash Cart",
    "date_created": "2025-07-09T15:24:13.000",
    "date_modified": "2025-07-09T15:24:30.000",
    "request_status": "Pending",
    "responsible_agency": "Department of Sanitation",
    "final_address": "7101 Maple St",
    "address_councildis": "A",
    "status": "Assigned to Contractor",
    "contractor": "IV Waste",
    "rowid": "1207938",
    "final_x": "3663609.13453",
    "final_y": "525217.143869",
    "longitude": "-90.12477341255699",
    "latitude": "29.93869593696225",
    "geocoded_column": {
      "latitude": "29.93869593696225",
      "longitude": "-90.12477341255699"
    }
  },
  {
    "service_request": "2025-1207937",
    "request_type": "Trash/Recycling",
    "request_reason": "Request a Large Item Pick Up",
    "date_created": "2025-07-09T15:24:03.000",
    "date_modified": "2025-07-09T15:24:04.000",
    "request_status": "Pending",
    "responsible_agency": "Department of Sanitation",
    "final_address": "8034 Dorsett Dr",
    "address_councildis": "E",
    "status": "Assigned to Contractor",
    "contractor": "Waste Pro",
    "rowid": "1207937",
    "final_x": "3711975.9637",
    "final_y": "568530.917221",
    "longitude": "-89.9704491629665",
    "latitude": "30.056300904245056",
    "geocoded_column": {
      "latitude": "30.056300904245056",
      "longitude": "-89.9704491629665"
    }
  },
  {
    "service_request": "2025-1207936",
    "request_type": "Trash/Recycling",
    "request_reason": "Request a Large Item Pick Up",
    "date_created": "2025-07-09T15:22:46.000",
    "date_modified": "2025-07-09T15:22:48.000",
    "request_status": "Pending",
    "responsible_agency": "Department of Sanitation",
    "final_address": "1531 Conery St",
    "address_councildis": "B",
    "status": "Assigned to Contractor",
    "contractor": "IV Waste",
    "rowid": "1207936",
    "final_x": "3675875.76725",
    "final_y": "522195.880442",
    "longitude": "-90.08615010382938",
    "latitude": "29.930026994503365",
    "geocoded_column": {
      "latitude": "29.930026994503365",
      "longitude": "-90.08615010382938"
    }
  },
  {
    "service_request": "2025-1207935",
    "request_type": "Trash/Recycling",
    "request_reason": "Request a Large Item Pick Up",
    "date_created": "2025-07-09T15:22:23.000",
    "date_modified": "2025-07-09T15:22:39.000",
    "request_status": "Pending",
    "responsible_agency": "Department of Sanitation",
    "final_address": "8421 Edinburgh St",
    "address_councildis": "A",
    "status": "Assigned to Contractor",
    "contractor": "IV Waste",
    "rowid": "1207935",
    "final_x": "3666597.733",
    "final_y": "535297.870534",
    "longitude": "-90.11499965298962",
    "latitude": "29.966327638750986",
    "geocoded_column": {
      "latitude": "29.966327638750986",
      "longitude": "-90.11499965298962"
    }
  },
  {
    "service_request": "2025-1207934",
    "request_type": "Healthy Homes",
    "request_reason": "Healthy Homes",
    "date_created": "2025-07-09T15:21:29.000",
    "date_modified": "2025-07-09T15:21:32.000",
    "request_status": "Pending",
    "responsible_agency": "Department of Code Enforcement",
    "final_address": "1938 Jackson Ave",
    "address_councildis": "B",
    "status": "Pending",
    "rowid": "1207934",
    "final_x": "3676600.91176",
    "final_y": "524965.150461",
    "longitude": "-90.08376560592633",
    "latitude": "29.93761985926945",
    "geocoded_column": {
      "latitude": "29.93761985926945",
      "longitude": "-90.08376560592633"
    }
  },
  {
    "service_request": "2025-1207933",
    "request_type": "Property Maintenance",
    "request_reason": "Property Maintenance",
    "date_created": "2025-07-09T15:20:33.000",
    "date_modified": "2025-07-09T15:20:34.000",
    "request_status": "Pending",
    "responsible_agency": "Department of Code Enforcement",
    "final_address": "1503 Delery St",
    "address_councildis": "E",
    "status": "Pending",
    "rowid": "1207933",
    "final_x": "3701051.36298",
    "final_y": "534373.078085",
    "longitude": "-90.00623023335879",
    "latitude": "29.962732520694097",
    "geocoded_column": {
      "latitude": "29.962732520694097",
      "longitude": "-90.00623023335879"
    }
  },
  {
    "service_request": "2025-1207932",
    "request_type": "Trash/Recycling",
    "request_reason": "Repair Trash Cart",
    "date_created": "2025-07-09T15:18:16.000",
    "date_modified": "2025-07-09T15:18:17.000",
    "request_status": "Pending",
    "responsible_agency": "Department of Sanitation",
    "final_address": "3833 Peach Tree Ct",
    "address_councildis": "C",
    "status": "Assigned to Contractor",
    "contractor": "Richards Disposal",
    "rowid": "1207932",
    "final_x": "3704039.70532",
    "final_y": "512485.363697",
    "longitude": "-89.99759924185268",
    "latitude": "29.902453461304855",
    "geocoded_column": {
      "latitude": "29.902453461304855",
      "longitude": "-89.99759924185268"
    }
  },
  {
    "service_request": "2025-1207931",
    "request_type": "Trash/Recycling",
    "request_reason": "Illegal Dumping",
    "date_created": "2025-07-09T15:17:59.000",
    "date_modified": "2025-07-09T15:18:00.000",
    "request_status": "Pending",
    "responsible_agency": "Department of Sanitation",
    "final_address": "413 S White St",
    "address_councildis": "B",
    "status": "Pending",
    "rowid": "1207931",
    "final_x": "3673996.61294",
    "final_y": "534418.746245",
    "longitude": "-90.09166416595166",
    "latitude": "29.96369195319647",
    "geocoded_column": {
      "latitude": "29.96369195319647",
      "longitude": "-90.09166416595166"
    }
  },
  {
    "service_request": "2025-1207930",
    "request_type": "Trash/Recycling",
    "request_reason": "Replace Trash Cart",
    "date_created": "2025-07-09T15:17:33.000",
    "date_modified": "2025-07-09T15:17:35.000",
    "request_status": "Pending",
    "responsible_agency": "Department of Sanitation",
    "final_address": "7103 Maple St",
    "address_councildis": "A",
    "status": "Assigned to Contractor",
    "contractor": "IV Waste",
    "rowid": "1207930",
    "final_x": "3663600.01997",
    "final_y": "525223.393917",
    "longitude": "-90.12480198022749",
    "latitude": "29.938713386941533",
    "geocoded_column": {
      "latitude": "29.938713386941533",
      "longitude": "-90.12480198022749"
    }
  },
  {
    "service_request": "2025-1207929",
    "request_type": "Roads and Streets",
    "request_reason": "Push-up/Pavement Expansion",
    "date_created": "2025-07-09T15:16:53.000",
    "date_modified": "2025-07-09T15:16:55.000",
    "request_status": "Pending",
    "responsible_agency": "Department of Public Works",
    "final_address": "7600 BLK Read Blvd",
    "address_councildis": "E",
    "status": "Pending",
    "rowid": "1207929",
    "final_x": "3708386.86173",
    "final_y": "564678.45278",
    "longitude": "-89.98193722431273",
    "latitude": "30.045825069982655",
    "geocoded_column": {
      "latitude": "30.045825069982655",
      "longitude": "-89.98193722431273"
    }
  },
  {
    "service_request": "2025-1207928",
    "request_type": "Trash/Recycling",
    "request_reason": "Request a Large Item Pick Up",
    "date_created": "2025-07-09T15:10:24.000",
    "date_modified": "2025-07-09T15:10:26.000",
    "request_status": "Pending",
    "responsible_agency": "Department of Sanitation",
    "final_address": "6033 Kuebel Dr",
    "address_councildis": "E",
    "status": "Assigned to Contractor",
    "contractor": "Waste Pro",
    "rowid": "1207928",
    "final_x": "3695062.80688",
    "final_y": "559792.973213",
    "longitude": "-90.02422410963558",
    "latitude": "30.032817237292633",
    "geocoded_column": {
      "latitude": "30.032817237292633",
      "longitude": "-90.02422410963558"
    }
  },
  {
    "service_request": "2025-1207927",
    "request_type": "Roads and Streets",
    "request_reason": "Sidewalk Damaged or Missing",
    "date_created": "2025-07-09T15:08:05.000",
    "date_modified": "2025-07-09T15:08:07.000",
    "request_status": "Pending",
    "responsible_agency": "Department of Public Works",
    "final_address": "3806 Octavia St",
    "address_councildis": "A",
    "status": "Pending",
    "rowid": "1207927",
    "final_x": "3668722.07918",
    "final_y": "529438.450497",
    "longitude": "-90.10848878131675",
    "latitude": "29.95015388610929",
    "geocoded_column": {
      "latitude": "29.95015388610929",
      "longitude": "-90.10848878131675"
    }
  },
  {
    "service_request": "2025-1207926",
    "request_type": "Property Maintenance",
    "request_reason": "Property Maintenance",
    "date_created": "2025-07-09T15:07:09.000",
    "date_modified": "2025-07-09T15:07:11.000",
    "request_status": "Pending",
    "responsible_agency": "Department of Code Enforcement",
    "final_address": "5655 Woodlawn Pl",
    "address_councildis": "A",
    "status": "Pending",
    "rowid": "1207926",
    "final_x": "3667605.97575",
    "final_y": "545117.768463",
    "longitude": "-90.11148494707139",
    "latitude": "29.993299530663293",
    "geocoded_column": {
      "latitude": "29.993299530663293",
      "longitude": "-90.11148494707139"
    }
  },
  {
    "service_request": "2025-1207925",
    "request_type": "Trash/Recycling",
    "request_reason": "Request a Large Item Pick Up",
    "date_created": "2025-07-09T15:06:13.000",
    "date_modified": "2025-07-09T15:06:15.000",
    "request_status": "Pending",
    "responsible_agency": "Department of Sanitation",
    "final_address": "4719 Virgilian St",
    "address_councildis": "D",
    "status": "Assigned to Contractor",
    "contractor": "Waste Pro",
    "rowid": "1207925",
    "final_x": "3697573.29437",
    "final_y": "553614.334103",
    "longitude": "-90.0165151768813",
    "latitude": "30.01574923102479",
    "geocoded_column": {
      "latitude": "30.01574923102479",
      "longitude": "-90.0165151768813"
    }
  },
  {
    "service_request": "2025-1207924",
    "request_type": "Trash/Recycling",
    "request_reason": "Request a Large Item Pick Up",
    "date_created": "2025-07-09T15:05:32.000",
    "date_modified": "2025-07-09T15:05:34.000",
    "request_status": "Pending",
    "responsible_agency": "Department of Sanitation",
    "final_address": "7176 W Tamaron Blvd",
    "address_councildis": "E",
    "status": "Assigned to Contractor",
    "contractor": "Waste Pro",
    "rowid": "1207924",
    "final_x": "3718000.63205",
    "final_y": "569145.682662",
    "longitude": "-89.95138299317398",
    "latitude": "30.057792844989322",
    "geocoded_column": {
      "latitude": "30.057792844989322",
      "longitude": "-89.95138299317398"
    }
  },
  {
    "service_request": "2025-1207923",
    "request_type": "Trash/Recycling",
    "request_reason": "Replace Trash Cart",
    "date_created": "2025-07-09T15:04:12.000",
    "date_modified": "2025-07-09T15:04:17.000",
    "request_status": "Pending",
    "responsible_agency": "Department of Sanitation",
    "final_address": "7105 Maple St",
    "address_councildis": "A",
    "status": "Assigned to Contractor",
    "contractor": "IV Waste",
    "rowid": "1207923",
    "final_x": "3663589.08243",
    "final_y": "525228.081405",
    "longitude": "-90.12483635531153",
    "latitude": "29.938726593238798",
    "geocoded_column": {
      "latitude": "29.938726593238798",
      "longitude": "-90.12483635531153"
    }
  },
  {
    "service_request": "2025-1207922",
    "request_type": "Street and Traffic Signs",
    "request_reason": "Additional Signage Request",
    "date_created": "2025-07-09T15:00:24.000",
    "date_modified": "2025-07-09T15:00:26.000",
    "request_status": "Pending",
    "responsible_agency": "Department of Public Works",
    "final_address": "2511 Banks St",
    "address_councildis": "B",
    "status": "Pending",
    "rowid": "1207922",
    "final_x": "3675362.61691",
    "final_y": "533668.913093",
    "longitude": "-90.08737620593153",
    "latitude": "29.961589392095338",
    "geocoded_column": {
      "latitude": "29.961589392095338",
      "longitude": "-90.08737620593153"
    }
  },
  {
    "service_request": "2025-1207921",
    "request_type": "Trash/Recycling",
    "request_reason": "Repair Trash Cart",
    "date_created": "2025-07-09T14:59:51.000",
    "date_modified": "2025-07-09T14:59:53.000",
    "request_status": "Pending",
    "responsible_agency": "Department of Sanitation",
    "final_address": "3111 Sullen Pl",
    "address_councildis": "C",
    "status": "Assigned to Contractor",
    "contractor": "Richards Disposal",
    "rowid": "1207921",
    "final_x": "3707735.68836",
    "final_y": "519289.151735",
    "longitude": "-89.98568241996712",
    "latitude": "29.92104253899222",
    "geocoded_column": {
      "latitude": "29.92104253899222",
      "longitude": "-89.98568241996712"
    }
  },
  {
    "service_request": "2025-1207920",
    "request_type": "Streetlights",
    "request_reason": "Streetlight Outage/Malfunction",
    "date_created": "2025-07-09T14:59:11.000",
    "date_modified": "2025-07-09T14:59:12.000",
    "request_status": "Pending",
    "responsible_agency": "Department of Public Works",
    "final_address": "FRANKFORT ST & FRANKLIN AVE",
    "address_councildis": "D",
    "status": "Pending",
    "contractor": "Legacy Professional Services",
    "rowid": "1207920",
    "final_x": "3686293.7",
    "final_y": "557115.48",
    "longitude": "-90.05202981656129",
    "latitude": "30.025727690286928",
    "geocoded_column": {
      "latitude": "30.025727690286928",
      "longitude": "-90.05202981656129"
    }
  },
  {
    "service_request": "2025-1207919",
    "request_type": "Trash/Recycling",
    "request_reason": "Request a Large Item Pick Up",
    "date_created": "2025-07-09T14:57:45.000",
    "date_modified": "2025-07-09T14:57:47.000",
    "request_status": "Pending",
    "responsible_agency": "Department of Sanitation",
    "final_address": "3111 Sullen Pl",
    "address_councildis": "C",
    "status": "Assigned to Contractor",
    "contractor": "Richards Disposal",
    "rowid": "1207919",
    "final_x": "3707735.68836",
    "final_y": "519289.151735",
    "longitude": "-89.98568241996712",
    "latitude": "29.92104253899222",
    "geocoded_column": {
      "latitude": "29.92104253899222",
      "longitude": "-89.98568241996712"
    }
  },
  {
    "service_request": "2025-1207918",
    "request_type": "Trash/Recycling",
    "request_reason": "Return Recycling Cart",
    "date_created": "2025-07-09T14:52:55.000",
    "date_modified": "2025-07-09T14:52:56.000",
    "request_status": "Pending",
    "responsible_agency": "Department of Sanitation",
    "final_address": "441 Audubon St",
    "address_councildis": "A",
    "status": "Pending",
    "rowid": "1207918",
    "final_x": "3662365.72871",
    "final_y": "523172.159099",
    "longitude": "-90.1287668705638",
    "latitude": "29.93310887776141",
    "geocoded_column": {
      "latitude": "29.93310887776141",
      "longitude": "-90.1287668705638"
    }
  },
  {
    "service_request": "2025-1207917",
    "request_type": "Trash/Recycling",
    "request_reason": "Request a Large Item Pick Up",
    "date_created": "2025-07-09T14:52:34.000",
    "date_modified": "2025-07-09T14:52:36.000",
    "request_status": "Pending",
    "responsible_agency": "Department of Sanitation",
    "final_address": "4930 S Johnson St",
    "address_councildis": "B",
    "status": "Assigned to Contractor",
    "contractor": "IV Waste",
    "rowid": "1207917",
    "final_x": "3668951.87111",
    "final_y": "526957.405374",
    "longitude": "-90.10784700131288",
    "latitude": "29.943325063246196",
    "geocoded_column": {
      "latitude": "29.943325063246196",
      "longitude": "-90.10784700131288"
    }
  },
  {
    "service_request": "2025-1207916",
    "request_type": "Trash/Recycling",
    "request_reason": "Replace Recycling Cart",
    "date_created": "2025-07-09T14:47:34.000",
    "date_modified": "2025-07-09T14:47:37.000",
    "request_status": "Pending",
    "responsible_agency": "Department of Sanitation",
    "final_address": "441 Audubon St, New Orleans, Louisiana, 70118",
    "address_councildis": "A",
    "status": "Pending",
    "rowid": "1207916",
    "final_x": "3662365.72871",
    "final_y": "523172.159099",
    "longitude": "-90.1287668705638",
    "latitude": "29.93310887776141",
    "geocoded_column": {
      "latitude": "29.93310887776141",
      "longitude": "-90.1287668705638"
    }
  },
  {
    "service_request": "2025-1207915",
    "request_type": "Trash/Recycling",
    "request_reason": "Request a Large Item Pick Up",
    "date_created": "2025-07-09T14:45:08.000",
    "date_modified": "2025-07-09T14:45:09.000",
    "request_status": "Pending",
    "responsible_agency": "Department of Sanitation",
    "final_address": "6662 Canal Blvd",
    "address_councildis": "A",
    "status": "Assigned to Contractor",
    "contractor": "IV Waste",
    "rowid": "1207915",
    "final_x": "3668731.91751",
    "final_y": "551882.607318",
    "longitude": "-90.1076996988328",
    "latitude": "30.011867425275394",
    "geocoded_column": {
      "latitude": "30.011867425275394",
      "longitude": "-90.1076996988328"
    }
  },
  {
    "service_request": "2025-1207914",
    "request_type": "Drainage",
    "request_reason": "Catch Basin Clogged",
    "date_created": "2025-07-09T14:43:42.000",
    "date_modified": "2025-07-09T14:43:44.000",
    "request_status": "Pending",
    "responsible_agency": "Sewerage & Water Board",
    "final_address": "8632 Lincoln Beach Blvd",
    "address_councildis": "E",
    "status": "Pending",
    "rowid": "1207914",
    "final_x": "3703687.38404",
    "final_y": "563681.823457",
    "longitude": "-89.99682655269486",
    "latitude": "30.043236294605325",
    "geocoded_column": {
      "latitude": "30.043236294605325",
      "longitude": "-89.99682655269486"
    }
  },
  {
    "service_request": "2025-1207913",
    "request_type": "Roads and Streets",
    "request_reason": "Sidewalk Damaged or Missing",
    "date_created": "2025-07-09T14:43:34.000",
    "date_modified": "2025-07-09T14:43:35.000",
    "request_status": "Pending",
    "responsible_agency": "Department of Public Works",
    "final_address": "2723 Milan St",
    "address_councildis": "B",
    "status": "Pending",
    "rowid": "1207913",
    "final_x": "3671241.87815",
    "final_y": "525017.211517",
    "longitude": "-90.10068274597461",
    "latitude": "29.937922617594776",
    "geocoded_column": {
      "latitude": "29.937922617594776",
      "longitude": "-90.10068274597461"
    }
  },
  {
    "service_request": "2025-1207912",
    "request_type": "Trash/Recycling",
    "request_reason": "Request a Large Item Pick Up",
    "date_created": "2025-07-09T14:43:18.000",
    "date_modified": "2025-07-09T14:43:20.000",
    "request_status": "Pending",
    "responsible_agency": "Department of Sanitation",
    "final_address": "805 Leontine St",
    "address_councildis": "B",
    "status": "Assigned to Contractor",
    "contractor": "IV Waste",
    "rowid": "1207912",
    "final_x": "3667163.11015",
    "final_y": "518371.890998",
    "longitude": "-90.11378310007358",
    "latitude": "29.919770114923736",
    "geocoded_column": {
      "latitude": "29.919770114923736",
      "longitude": "-90.11378310007358"
    }
  },
  {
    "service_request": "2025-1207911",
    "request_type": "Abandoned Vehicles",
    "request_reason": "Abandoned/Junk Vehicles",
    "date_created": "2025-07-09T14:40:39.000",
    "date_modified": "2025-07-09T14:40:40.000",
    "request_status": "Pending",
    "responsible_agency": "Department of Public Works",
    "final_address": "430 Eighth St",
    "address_councildis": "B",
    "status": "Pending",
    "rowid": "1207911",
    "final_x": "3677141.02005",
    "final_y": "518581.408439",
    "longitude": "-90.0822804878905",
    "latitude": "29.920050440252993",
    "geocoded_column": {
      "latitude": "29.920050440252993",
      "longitude": "-90.0822804878905"
    }
  },
  {
    "service_request": "2025-1207910",
    "request_type": "Trash/Recycling",
    "request_reason": "Repair Trash Cart",
    "date_created": "2025-07-09T14:38:44.000",
    "date_modified": "2025-07-09T14:38:49.000",
    "request_status": "Pending",
    "responsible_agency": "Department of Sanitation",
    "final_address": "4917 S Miro St A",
    "address_councildis": "B",
    "status": "Assigned to Contractor",
    "contractor": "IV Waste",
    "rowid": "1207910",
    "final_x": "3669128.85428",
    "final_y": "527748.599167",
    "longitude": "-90.10726148953688",
    "latitude": "29.945495383380262",
    "geocoded_column": {
      "latitude": "29.945495383380262",
      "longitude": "-90.10726148953688"
    }
  },
  {
    "service_request": "2025-1207909",
    "request_type": "Trash/Recycling",
    "request_reason": "Repair Trash Cart",
    "date_created": "2025-07-09T14:35:00.000",
    "date_modified": "2025-07-09T14:35:01.000",
    "request_status": "Pending",
    "responsible_agency": "Department of Sanitation",
    "final_address": "4917 S Miro St",
    "address_councildis": "B",
    "status": "Assigned to Contractor",
    "contractor": "IV Waste",
    "rowid": "1207909",
    "final_x": "3669119.55284",
    "final_y": "527730.772543",
    "longitude": "-90.1072914595208",
    "latitude": "29.94544663962311",
    "geocoded_column": {
      "latitude": "29.94544663962311",
      "longitude": "-90.1072914595208"
    }
  },
  {
    "service_request": "2025-1207908",
    "request_type": "Street and Traffic Signs",
    "request_reason": "Street Name Sign Damaged or Missing",
    "date_created": "2025-07-09T14:34:41.000",
    "date_modified": "2025-07-09T14:34:44.000",
    "request_status": "Pending",
    "responsible_agency": "Department of Public Works",
    "final_address": "6000 BLK Paris Ave",
    "address_councildis": "D",
    "status": "Pending",
    "rowid": "1207908",
    "final_x": "3678982.72894",
    "final_y": "554654.940018",
    "longitude": "-90.0752168585773",
    "latitude": "30.01918486627831",
    "geocoded_column": {
      "latitude": "30.01918486627831",
      "longitude": "-90.0752168585773"
    }
  },
  {
    "service_request": "2025-1207907",
    "request_type": "Trash/Recycling",
    "request_reason": "Request a Large Item Pick Up",
    "date_created": "2025-07-09T14:30:47.000",
    "date_modified": "2025-07-09T14:30:48.000",
    "request_status": "Pending",
    "responsible_agency": "Department of Sanitation",
    "final_address": "4525 Laine Ave",
    "address_councildis": "E",
    "status": "Assigned to Contractor",
    "contractor": "Waste Pro",
    "rowid": "1207907",
    "final_x": "3705897.65726",
    "final_y": "553981.203032",
    "longitude": "-89.99020058891756",
    "latitude": "30.016492309194355",
    "geocoded_column": {
      "latitude": "30.016492309194355",
      "longitude": "-89.99020058891756"
    }
  },
  {
    "service_request": "2025-1207906",
    "request_type": "Abandoned Vehicles",
    "request_reason": "Abandoned/Junk Vehicles",
    "date_created": "2025-07-09T14:28:32.000",
    "date_modified": "2025-07-09T14:32:09.000",
    "request_status": "Pending",
    "responsible_agency": "Department of Public Works",
    "final_address": "CONSTANCE ST & HENRY CLAY AVE",
    "address_councildis": "A",
    "status": "Pending",
    "rowid": "1207906",
    "final_x": "3663665.3",
    "final_y": "519266.98",
    "longitude": "-90.12479422372154",
    "latitude": "29.922333232764196",
    "geocoded_column": {
      "latitude": "29.922333232764196",
      "longitude": "-90.12479422372154"
    }
  },
  {
    "service_request": "2025-1207905",
    "request_type": "Roads and Streets",
    "request_reason": "Pothole",
    "date_created": "2025-07-09T14:25:04.000",
    "date_modified": "2025-07-09T14:25:06.000",
    "request_status": "Pending",
    "responsible_agency": "Department of Public Works",
    "final_address": "2700 BLK France Rd",
    "address_councildis": "D",
    "status": "Pending",
    "rowid": "1207905",
    "final_x": "3694297.01983",
    "final_y": "542373.542009",
    "longitude": "-90.02727149315687",
    "latitude": "29.984944310892757",
    "geocoded_column": {
      "latitude": "29.984944310892757",
      "longitude": "-90.02727149315687"
    }
  },
  {
    "service_request": "2025-1207904",
    "request_type": "Trash/Recycling",
    "request_reason": "Request a Large Item Pick Up",
    "date_created": "2025-07-09T14:23:20.000",
    "date_modified": "2025-07-09T14:23:22.000",
    "request_status": "Pending",
    "responsible_agency": "Department of Sanitation",
    "final_address": "3225 Jena St",
    "address_councildis": "B",
    "status": "Assigned to Contractor",
    "contractor": "IV Waste",
    "rowid": "1207904",
    "final_x": "3669908.77479",
    "final_y": "526744.486014",
    "longitude": "-90.10483301148392",
    "latitude": "29.942711428890053",
    "geocoded_column": {
      "latitude": "29.942711428890053",
      "longitude": "-90.10483301148392"
    }
  },
  {
    "service_request": "2025-1207903",
    "request_type": "Roads and Streets",
    "request_reason": "Pothole",
    "date_created": "2025-07-09T14:20:43.000",
    "date_modified": "2025-07-09T14:20:50.000",
    "request_status": "Pending",
    "responsible_agency": "Department of Public Works",
    "final_address": "311 Alix St",
    "address_councildis": "C",
    "status": "Pending",
    "rowid": "1207903",
    "final_x": "3686524.75145",
    "final_y": "529991.770625",
    "longitude": "-90.05225795242718",
    "latitude": "29.95114005535147",
    "geocoded_column": {
      "latitude": "29.95114005535147",
      "longitude": "-90.05225795242718"
    }
  },
  {
    "service_request": "2025-1207902",
    "request_type": "Trash/Recycling",
    "request_reason": "Replace Recycling Cart",
    "date_created": "2025-07-09T14:20:40.000",
    "date_modified": "2025-07-09T14:20:41.000",
    "request_status": "Pending",
    "responsible_agency": "Department of Sanitation",
    "final_address": "4519 Baudin St",
    "address_councildis": "A",
    "status": "Pending",
    "rowid": "1207902",
    "final_x": "3668619.98158",
    "final_y": "538254.206985",
    "longitude": "-90.10851361112395",
    "latitude": "29.97439729794052",
    "geocoded_column": {
      "latitude": "29.97439729794052",
      "longitude": "-90.10851361112395"
    }
  },
  {
    "service_request": "2025-1207901",
    "request_type": "Trash/Recycling",
    "request_reason": "Request a Large Item Pick Up",
    "date_created": "2025-07-09T14:14:57.000",
    "date_modified": "2025-07-09T14:15:02.000",
    "request_status": "Pending",
    "responsible_agency": "Department of Sanitation",
    "final_address": "4769 Sherwood Dr",
    "address_councildis": "E",
    "status": "Assigned to Contractor",
    "contractor": "Waste Pro",
    "rowid": "1207901",
    "final_x": "3718060.67468",
    "final_y": "557055.41481",
    "longitude": "-89.9516540215596",
    "latitude": "30.02454753891973",
    "geocoded_column": {
      "latitude": "30.02454753891973",
      "longitude": "-89.9516540215596"
    }
  },
  {
    "service_request": "2025-1207900",
    "request_type": "Property Maintenance",
    "request_reason": "Property Maintenance",
    "date_created": "2025-07-09T14:14:13.000",
    "date_modified": "2025-07-09T14:39:46.000",
    "case_close_date": "2025-07-09T09:39:44.000",
    "request_status": "Closed",
    "responsible_agency": "Department of Code Enforcement",
    "final_address": "622 N Pierce St",
    "address_councildis": "A",
    "status": "Referred to Code Enforcement",
    "rowid": "1207900",
    "final_x": "3672751.76577",
    "final_y": "539585.811786",
    "longitude": "-90.09541899305934",
    "latitude": "29.97793667088689",
    "geocoded_column": {
      "latitude": "29.97793667088689",
      "longitude": "-90.09541899305934"
    }
  },
  {
    "service_request": "2025-1207899",
    "request_type": "Trash/Recycling",
    "request_reason": "Replace Trash Cart",
    "date_created": "2025-07-09T14:13:48.000",
    "date_modified": "2025-07-09T14:13:50.000",
    "request_status": "Pending",
    "responsible_agency": "Department of Sanitation",
    "final_address": "2560 N Galvez St",
    "address_councildis": "D",
    "status": "Assigned to Contractor",
    "contractor": "IV Waste",
    "rowid": "1207899",
    "final_x": "3687422.8726",
    "final_y": "540176.453323",
    "longitude": "-90.04906170810196",
    "latitude": "29.979116749797377",
    "geocoded_column": {
      "latitude": "29.979116749797377",
      "longitude": "-90.04906170810196"
    }
  },