[
  {
    "service_request": "2023-1021045",
    "request_type": "Trash/Recycling",
    "request_reason": "Replace Trash Cart",
    "date_created": "2023-07-27T00:18:40.000",
    "date_modified": "2023-07-27T00:18:41.000",
    "request_status": "Pending",
    "responsible_agency": "Department of Sanitation",
    "final_address": "200 N Norman C Francis Prkwy",
    "address_councildis": "B",
    "status": "Assigned to Contractor",
    "contractor": "Richards Disposal",
    "rowid": "1021045",
    "final_x": "3673629.28756",
    "final_y": "537008.522888",
    "longitude": "-90.09273559869602",
    "latitude": "29.970823905666588",
    "geocoded_column": {
      "latitude": "29.970823905666588",
      "longitude": "-90.09273559869602"
    }
  },
  {
    "service_request": "2023-1021044",
    "request_type": "Roads/Drainage",
    "request_reason": "Pothole",
    "date_created": "2023-07-27T00:00:44.000",
    "date_modified": "2023-07-27T00:00:44.000",
    "request_status": "Pending",
    "responsible_agency": "Department of Public Works",
    "final_address": "1422 General Pershing St",
    "address_councildis": "B",
    "status": "Pending",
    "rowid": "1021044",
    "final_x": "3671239.44116",
    "final_y": "520532.324984",
    "longitude": "-90.10084273889387",
    "latitude": "29.925590694745555",
    "geocoded_column": {
      "latitude": "29.925590694745555",
      "longitude": "-90.10084273889387"
    }
  },
  {
    "service_request": "2023-1021042",
    "request_type": "Roads/Drainage",
    "request_reason": "Pothole",
    "date_created": "2023-07-26T23:38:06.000",
    "date_modified": "2023-07-26T23:38:06.000",
    "request_status": "Pending",
    "responsible_agency": "Department of Public Works",
    "final_address": "1308 Milan St",
    "address_councildis": "B",
    "status": "Pending",
    "rowid": "1021042",
    "final_x": "3671615.34395",
    "final_y": "520232.557432",
    "longitude": "-90.09966631418217",
    "latitude": "29.92475530671526",
    "geocoded_column": {
      "latitude": "29.92475530671526",
      "longitude": "-90.09966631418217"
    }
  },
  {
    "service_request": "2023-1021041",
    "request_type": "Roads/Drainage",
    "request_reason": "Pothole",
    "date_created": "2023-07-26T23:32:02.000",
    "date_modified": "2023-07-26T23:32:02.000",
    "request_status": "Pending",
    "responsible_agency": "Department of Public Works",
    "final_address": "901 General Pershing St",
    "address_councildis": "B",
    "status": "Pending",
    "rowid": "1021041",
    "final_x": "3671478.03118",
    "final_y": "518891.384311",
    "longitude": "-90.1001453296682",
    "latitude": "29.92107157249303",
    "geocoded_column": {
      "latitude": "29.92107157249303",
      "longitude": "-90.1001453296682"
    }
  },
  {
    "service_request": "2023-1021040",
    "request_type": "Roads/Drainage",
    "request_reason": "Pothole",
    "date_created": "2023-07-26T23:31:36.000",
    "date_modified": "2023-07-26T23:31:36.000",
    "request_status": "Pending",
    "responsible_agency": "Department of Public Works",
    "final_address": "1401 Foucher St",
    "address_councildis": "B",
    "status": "Pending",
    "rowid": "1021040",
    "final_x": "3673950.68904",
    "final_y": "520582.149496",
    "longitude": "-90.09228244207547",
    "latitude": "29.925647229561278",
    "geocoded_column": {
      "latitude": "29.925647229561278",
      "longitude": "-90.09228244207547"
    }
  },
  {
    "service_request": "2023-1021039",
    "request_type": "Roads/Drainage",
    "request_reason": "Pothole",
    "date_created": "2023-07-26T23:22:41.000",
    "date_modified": "2023-07-26T23:22:41.000",
    "request_status": "Pending",
    "responsible_agency": "Department of Public Works",
    "final_address": "1502 General Pershing St",
    "address_councildis": "B",
    "status": "Pending",
    "rowid": "1021039",
    "final_x": "3671219.93703",
    "final_y": "520650.519609",
    "longitude": "-90.10090029460524",
    "latitude": "29.925916269034804",
    "geocoded_column": {
      "latitude": "29.925916269034804",
      "longitude": "-90.10090029460524"
    }
  },
  {
    "service_request": "2023-1021038",
    "request_type": "Trash/Recycling",
    "request_reason": "Order Recycling Cart",
    "date_created": "2023-07-26T22:40:08.000",
    "date_modified": "2023-07-26T22:40:08.000",
    "request_status": "Pending",
    "responsible_agency": "Department of Sanitation",
    "final_address": "1818 Alvar St",
    "address_councildis": "D",
    "status": "Pending",
    "rowid": "1021038",
    "final_x": "3692136.67357",
    "final_y": "538173.399177",
    "longitude": "-90.0342454824501",
    "latitude": "29.973462950544892",
    "geocoded_column": {
      "latitude": "29.973462950544892",
      "longitude": "-90.0342454824501"
    }
  },
  {
    "service_request": "2023-1021037",
    "request_type": "Trash/Recycling",
    "request_reason": "Order Trash Cart",
    "date_created": "2023-07-26T22:37:37.000",
    "date_modified": "2023-07-26T22:37:37.000",
    "request_status": "Pending",
    "responsible_agency": "Department of Sanitation",
    "final_address": "1702 Spain St",
    "address_councildis": "D",
    "status": "Assigned to Contractor",
    "contractor": "IV Waste",
    "rowid": "1021037",
    "final_x": "3685920.53327",
    "final_y": "538673.719561",
    "longitude": "-90.0538596655007",
    "latitude": "29.97503097402366",
    "geocoded_column": {
      "latitude": "29.97503097402366",
      "longitude": "-90.0538596655007"
    }
  },
  {
    "service_request": "2023-1021036",
    "request_type": "Traffic Signals/Signs/Striping/Streetlights",
    "request_reason": "Traffic Sign Missing/Damaged",
    "date_created": "2023-07-26T22:30:36.000",
    "date_modified": "2023-07-26T22:30:36.000",
    "request_status": "Pending",
    "responsible_agency": "Department of Public Works",
    "final_address": "1222 General Pershing St",
    "address_councildis": "B",
    "status": "Pending",
    "rowid": "1021036",
    "final_x": "3671295.11342",
    "final_y": "520065.399416",
    "longitude": "-90.10068285428629",
    "latitude": "29.924305151856114",
    "geocoded_column": {
      "latitude": "29.924305151856114",
      "longitude": "-90.10068285428629"
    }
  },
  {
    "service_request": "2023-1021035",
    "request_type": "Trash/Recycling",
    "request_reason": "Request a Large Item Pick Up",
    "date_created": "2023-07-26T22:29:51.000",
    "date_modified": "2023-07-26T22:29:51.000",
    "request_status": "Pending",
    "responsible_agency": "Department of Sanitation",
    "final_address": "5330 Bancroft Dr",
    "address_councildis": "D",
    "status": "Assigned to Contractor",
    "contractor": "IV Waste",
    "rowid": "1021035",
    "final_x": "3676284.15432",
    "final_y": "551742.379029",
    "longitude": "-90.08384378615408",
    "latitude": "30.011257565182518",
    "geocoded_column": {
      "latitude": "30.011257565182518",
      "longitude": "-90.08384378615408"
    }
  },
  {
    "service_request": "2023-1021034",
    "request_type": "Trash/Recycling",
    "request_reason": "Order Trash Cart",
    "date_created": "2023-07-26T22:25:49.000",
    "date_modified": "2023-07-26T22:25:50.000",
    "request_status": "Pending",
    "responsible_agency": "Department of Sanitation",
    "final_address": "1121 Patterson St",
    "address_councildis": "C",
    "status": "Assigned to Contractor",
    "contractor": "Richards Disposal",
    "rowid": "1021034",
    "final_x": "3689198.57046",
    "final_y": "531258.924674",
    "longitude": "-90.04377036032216",
    "latitude": "29.954541823415163",
    "geocoded_column": {
      "latitude": "29.954541823415163",
      "longitude": "-90.04377036032216"
    }
  },
  {
    "service_request": "2023-1021033",
    "request_type": "Trash/Recycling",
    "request_reason": "Order Recycling Cart",
    "date_created": "2023-07-26T22:24:17.000",
    "date_modified": "2023-07-26T22:24:17.000",
    "request_status": "Pending",
    "responsible_agency": "Department of Sanitation",
    "final_address": "1121 Patterson St",
    "address_councildis": "C",
    "status": "Pending",
    "rowid": "1021033",
    "final_x": "3689198.57046",
    "final_y": "531258.924674",
    "longitude": "-90.04377036032216",
    "latitude": "29.954541823415163",
    "geocoded_column": {
      "latitude": "29.954541823415163",
      "longitude": "-90.04377036032216"
    }
  },
  {
    "service_request": "2023-1021031",
    "request_type": "Trash/Recycling",
    "request_reason": "Request a Large Item Pick Up",
    "date_created": "2023-07-26T21:58:48.000",
    "date_modified": "2023-07-26T21:58:49.000",
    "request_status": "Pending",
    "responsible_agency": "Department of Sanitation",
    "final_address": "245 Belleville St",
    "address_councildis": "C",
    "status": "Assigned to Contractor",
    "contractor": "Richards Disposal",
    "rowid": "1021031",
    "final_x": "3687865.86998",
    "final_y": "531091.340674",
    "longitude": "-90.04798443308074",
    "latitude": "29.954122198857434",
    "geocoded_column": {
      "latitude": "29.954122198857434",
      "longitude": "-90.04798443308074"
    }
  },
  {
    "service_request": "2023-1021030",
    "request_type": "Traffic Signals/Signs/Striping/Streetlights",
    "request_reason": "Street Light Outage/Malfunction",
    "date_created": "2023-07-26T21:04:47.000",
    "date_modified": "2023-07-26T21:04:47.000",
    "request_status": "Pending",
    "responsible_agency": "Department of Public Works",
    "final_address": "302 Audubon Blvd",
    "address_councildis": "A",
    "status": "Assigned to Contractor",
    "contractor": "Legacy Professional Services",
    "rowid": "1021030",
    "final_x": "3666961.39367",
    "final_y": "529750.902913",
    "longitude": "-90.11403761678373",
    "latitude": "29.951064662186845",
    "geocoded_column": {
      "latitude": "29.951064662186845",
      "longitude": "-90.11403761678373"
    }
  },
  {
    "service_request": "2023-1021029",
    "request_type": "Traffic Signals/Signs/Striping/Streetlights",
    "request_reason": "Street Light Outage/Malfunction",
    "date_created": "2023-07-26T21:01:26.000",
    "date_modified": "2023-07-26T21:01:27.000",
    "request_status": "Pending",
    "responsible_agency": "Department of Public Works",
    "final_address": "302 Audubon Blvd",
    "address_councildis": "A",
    "status": "Assigned to Contractor",
    "contractor": "Legacy Professional Services",
    "rowid": "1021029",
    "final_x": "3666961.39367",
    "final_y": "529750.902913",
    "longitude": "-90.11403761678373",
    "latitude": "29.951064662186845",
    "geocoded_column": {
      "latitude": "29.951064662186845",
      "longitude": "-90.11403761678373"
    }
  },
  {
    "service_request": "2023-1021027",
    "request_type": "Abandoned Vehicles",
    "request_reason": "Abandoned/Junk Vehicles",
    "date_created": "2023-07-26T20:06:47.000",
    "date_modified": "2023-07-26T20:06:47.000",
    "request_status": "Pending",
    "responsible_agency": "Department of Public Works",
    "final_address": "5118 Metropolitan Dr",
    "address_councildis": "D",
    "status": "Pending",
    "rowid": "1021027",
    "final_x": "3690372.52956",
    "final_y": "552119.168086",
    "longitude": "-90.0393196071975",
    "latitude": "30.01186365134969",
    "geocoded_column": {
      "latitude": "30.01186365134969",
      "longitude": "-90.0393196071975"
    }
  },
  {
    "service_request": "2023-1021026",
    "request_type": "Trash/Recycling",
    "request_reason": "Request a Large Item Pick Up",
    "date_created": "2023-07-26T20:05:40.000",
    "date_modified": "2023-07-26T20:05:41.000",
    "request_status": "Pending",
    "responsible_agency": "Department of Sanitation",
    "final_address": "1019 Congress St",
    "address_councildis": "C",
    "status": "Assigned to Contractor",
    "contractor": "IV Waste",
    "rowid": "1021026",
    "final_x": "3690701.50896",
    "final_y": "535306.039366",
    "longitude": "-90.0388803176976",
    "latitude": "29.965623383110906",
    "geocoded_column": {
      "latitude": "29.965623383110906",
      "longitude": "-90.0388803176976"
    }
  },
  {
    "service_request": "2023-1021025",
    "request_type": "Trash/Recycling",
    "request_reason": "Replace Trash Cart",
    "date_created": "2023-07-26T20:03:31.000",
    "date_modified": "2023-07-26T20:03:32.000",
    "request_status": "Pending",
    "responsible_agency": "Department of Sanitation",
    "final_address": "5 Everett Pl",
    "address_councildis": "A",
    "status": "Assigned to Contractor",
    "contractor": "Richards Disposal",
    "rowid": "1021025",
    "final_x": "3666416.53953",
    "final_y": "523179.569659",
    "longitude": "-90.1159784401598",
    "latitude": "29.93301154014974",
    "geocoded_column": {
      "latitude": "29.93301154014974",
      "longitude": "-90.1159784401598"
    }
  },
  {
    "service_request": "2023-1021024",
    "request_type": "Trash/Recycling",
    "request_reason": "Order Recycling Cart",
    "date_created": "2023-07-26T19:54:54.000",
    "date_modified": "2023-07-26T19:54:54.000",
    "request_status": "Pending",
    "responsible_agency": "Department of Sanitation",
    "final_address": "1212 Sere St",
    "address_councildis": "D",
    "status": "Pending",
    "rowid": "1021024",
    "final_x": "3676822.98715",
    "final_y": "545252.345679",
    "longitude": "-90.0823652525646",
    "latitude": "29.993396104185212",
    "geocoded_column": {
      "latitude": "29.993396104185212",
      "longitude": "-90.0823652525646"
    }
  },
  {
    "service_request": "2023-1021023",
    "request_type": "Trash/Recycling",
    "request_reason": "Order Trash Cart",
    "date_created": "2023-07-26T19:53:35.000",
    "date_modified": "2023-07-26T19:53:35.000",
    "request_status": "Pending",
    "responsible_agency": "Department of Sanitation",
    "final_address": "1212 Sere St",
    "address_councildis": "D",
    "status": "Assigned to Contractor",
    "contractor": "IV Waste",
    "rowid": "1021023",
    "final_x": "3676822.98715",
    "final_y": "545252.345679",
    "longitude": "-90.0823652525646",
    "latitude": "29.993396104185212",
    "geocoded_column": {
      "latitude": "29.993396104185212",
      "longitude": "-90.0823652525646"
    }
  },
  {
    "service_request": "2023-1021021",
    "request_type": "Abandoned Vehicles",
    "request_reason": "Vehicle Blocking Your Driveway",
    "date_created": "2023-07-26T19:48:23.000",
    "date_modified": "2023-07-26T19:48:23.000",
    "request_status": "Pending",
    "responsible_agency": "Department of Public Works",
    "final_address": "4122 Camp St",
    "address_councildis": "B",
    "status": "Pending",
    "rowid": "1021021",
    "final_x": "3671930.20551",
    "final_y": "519189.678583",
    "longitude": "-90.09870786979839",
    "latitude": "29.921878397824152",
    "geocoded_column": {
      "latitude": "29.921878397824152",
      "longitude": "-90.09870786979839"
    }
  },
  {
    "service_request": "2023-1021020",
    "request_type": "Trash/Recycling",
    "request_reason": "Return Trash Cart",
    "date_created": "2023-07-26T19:47:09.000",
    "date_modified": "2023-07-26T19:47:09.000",
    "request_status": "Pending",
    "responsible_agency": "Department of Sanitation",
    "final_address": "4432 Frenchmen St",
    "address_councildis": "D",
    "status": "Assigned to Contractor",
    "contractor": "IV Waste",
    "rowid": "1021020",
    "final_x": "3683515.02089",
    "final_y": "549052.927635",
    "longitude": "-90.06109292179407",
    "latitude": "30.003643757123722",
    "geocoded_column": {
      "latitude": "30.003643757123722",
      "longitude": "-90.06109292179407"
    }
  },
  {
    "service_request": "2023-1021018",
    "request_type": "Property Maintenance",
    "request_reason": "Property Maintenance",
    "date_created": "2023-07-26T19:25:07.000",
    "date_modified": "2023-07-26T19:25:07.000",
    "request_status": "Pending",
    "responsible_agency": "Department of Code Enforcement",
    "final_address": "3503 S Miro St",
    "address_councildis": "B",
    "status": "Pending",
    "rowid": "1021018",
    "final_x": "3671249.69422",
    "final_y": "528026.407039",
    "longitude": "-90.10055585898027",
    "latitude": "29.94619669445038",
    "geocoded_column": {
      "latitude": "29.94619669445038",
      "longitude": "-90.10055585898027"
    }
  },
  {
    "service_request": "2023-1021017",
    "request_type": "Property Maintenance",
    "request_reason": "Property Maintenance",
    "date_created": "2023-07-26T19:22:43.000",
    "date_modified": "2023-07-26T19:22:43.000",
    "request_status": "Pending",
    "responsible_agency": "Department of Code Enforcement",
    "final_address": "4100 S Tonti St",
    "address_councildis": "B",
    "status": "Pending",
    "rowid": "1021017",
    "final_x": "3670908.46254",
    "final_y": "528189.918464",
    "longitude": "-90.10162769853903",
    "latitude": "29.946656387632267",
    "geocoded_column": {
      "latitude": "29.946656387632267",
      "longitude": "-90.10162769853903"
    }
  },
  {
    "service_request": "2023-1021016",
    "request_type": "Property Maintenance",
    "request_reason": "Property Maintenance",
    "date_created": "2023-07-26T19:21:17.000",
    "date_modified": "2023-07-26T19:21:17.000",
    "request_status": "Pending",
    "responsible_agency": "Department of Code Enforcement",
    "final_address": "3700 Milan St",
    "address_councildis": "B",
    "status": "Pending",
    "rowid": "1021016",
    "final_x": "3670828.21819",
    "final_y": "528251.0704",
    "longitude": "-90.10187898444312",
    "latitude": "29.946826907015993",
    "geocoded_column": {
      "latitude": "29.946826907015993",
      "longitude": "-90.10187898444312"
    }
  },
  {
    "service_request": "2023-1021015",
    "request_type": "Parks & Parkways",
    "request_reason": "Request Tree Service (Right of Way/Public Property)",
    "date_created": "2023-07-26T19:19:53.000",
    "date_modified": "2023-07-26T19:19:53.000",
    "request_status": "Pending",
    "responsible_agency": "Department of Parks & Parkway",
    "final_address": "6232 Carlisle Ct",
    "address_councildis": "C",
    "status": "Pending",
    "rowid": "1021015",
    "final_x": "3707194.20728",
    "final_y": "516543.932469",
    "longitude": "-89.987493396082",
    "latitude": "29.91351163935187",
    "geocoded_column": {
      "latitude": "29.91351163935187",
      "longitude": "-89.987493396082"
    }
  },
  {
    "service_request": "2023-1021014",
    "request_type": "Trash/Recycling",
    "request_reason": "Missed Trash Pick-Up",
    "date_created": "2023-07-26T18:47:00.000",
    "date_modified": "2023-07-26T18:47:00.000",
    "request_status": "Pending",
    "responsible_agency": "Department of Sanitation",
    "final_address": "4760 Major Dr",
    "address_councildis": "E",
    "status": "Assigned to Contractor",
    "contractor": "Waste Pro",
    "rowid": "1021014",
    "final_x": "3718146.94828",
    "final_y": "557034.244826",
    "longitude": "-89.95138222211426",
    "latitude": "30.024486469193167",
    "geocoded_column": {
      "latitude": "30.024486469193167",
      "longitude": "-89.95138222211426"
    }
  },
  {
    "service_request": "2023-1021013",
    "request_type": "Parks & Parkways",
    "request_reason": "Request Tree Service (Right of Way/Public Property)",
    "date_created": "2023-07-26T18:43:08.000",
    "date_modified": "2023-07-26T18:43:08.000",
    "request_status": "Pending",
    "responsible_agency": "Department of Parks & Parkway",
    "final_address": "4557 Reynes St",
    "address_councildis": "E",
    "status": "Pending",
    "rowid": "1021013",
    "final_x": "3699299.49584",
    "final_y": "554030.848984",
    "longitude": "-90.01104600885044",
    "latitude": "30.01683982943754",
    "geocoded_column": {
      "latitude": "30.01683982943754",
      "longitude": "-90.01104600885044"
    }
  },
  {
    "service_request": "2023-1021012",
    "request_type": "Trash/Recycling",
    "request_reason": "Replace Trash Cart",
    "date_created": "2023-07-26T18:27:14.000",
    "date_modified": "2023-07-26T18:27:14.000",
    "request_status": "Pending",
    "responsible_agency": "Department of Sanitation",
    "final_address": "5286 Tullis Dr",
    "address_councildis": "C",
    "status": "Assigned to Contractor",
    "contractor": "Richards Disposal",
    "rowid": "1021012",
    "final_x": "3703317.54225",
    "final_y": "511985.530352",
    "longitude": "-89.99989670140417",
    "latitude": "29.901102216971132",
    "geocoded_column": {
      "latitude": "29.901102216971132",
      "longitude": "-89.99989670140417"
    }
  },
  {
    "service_request": "2023-1021011",
    "request_type": "Trash/Recycling",
    "request_reason": "MIssed Recycling Pick-Up",
    "date_created": "2023-07-26T18:24:55.000",
    "date_modified": "2023-07-26T18:24:56.000",
    "request_status": "Pending",
    "responsible_agency": "Department of Sanitation",
    "status": "Assigned to Contractor",
    "rowid": "1021011",
    "longitude": "0.0",
    "latitude": "0.0",
    "geocoded_column": {
      "latitude": "0.0",
      "longitude": "0.0"
    }
  },
  {
    "service_request": "2023-1021010",
    "request_type": "Mosquito, Termite & Rodent Control",
    "request_reason": "Non-Rodent Complaint (Mice, Possums, Snakes)",
    "date_created": "2023-07-26T18:22:48.000",
    "date_modified": "2023-07-26T18:22:48.000",
    "request_status": "Pending",
    "responsible_agency": "Mosquito, Termite & Rodent Control Board",
    "final_address": "1225 Flood St",
    "address_councildis": "E",
    "status": "Pending",
    "rowid": "1021010",
    "final_x": "3697895.38128",
    "final_y": "534400.274629",
    "longitude": "-90.01619536491556",
    "latitude": "29.96290743037617",
    "geocoded_column": {
      "latitude": "29.96290743037617",
      "longitude": "-90.01619536491556"
    }
  },
  {
    "service_request": "2023-1021009",
    "request_type": "Trash/Recycling",
    "request_reason": "Request a Large Item Pick Up",
    "date_created": "2023-07-26T18:21:11.000",
    "date_modified": "2023-07-26T18:21:11.000",
    "request_status": "Pending",
    "responsible_agency": "Department of Sanitation",
    "final_address": "729 First St",
    "address_councildis": "B",
    "status": "Assigned to Contractor",
    "contractor": "Richards Disposal",
    "rowid": "1021009",
    "final_x": "3678782.40469",
    "final_y": "520496.447992",
    "longitude": "-90.07703314996219",
    "latitude": "29.925266798312425",
    "geocoded_column": {
      "latitude": "29.925266798312425",
      "longitude": "-90.07703314996219"
    }
  },
  {
    "service_request": "2023-1021008",
    "request_type": "Trash/Recycling",
    "request_reason": "Request a Large Item Pick Up",
    "date_created": "2023-07-26T18:20:25.000",
    "date_modified": "2023-07-26T18:20:25.000",
    "request_status": "Pending",
    "responsible_agency": "Department of Sanitation",
    "final_address": "4861 Cardenas Dr",
    "address_councildis": "E",
    "status": "Assigned to Contractor",
    "contractor": "Waste Pro",
    "rowid": "1021008",
    "final_x": "3713691.10456",
    "final_y": "556980.613466",
    "longitude": "-89.96546377524972",
    "latitude": "30.02448601650552",
    "geocoded_column": {
      "latitude": "30.02448601650552",
      "longitude": "-89.96546377524972"
    }
  },
  {
    "service_request": "2023-1021007",
    "request_type": "Trash/Recycling",
    "request_reason": "Request a Large Item Pick Up",
    "date_created": "2023-07-26T18:18:30.000",
    "date_modified": "2023-07-26T18:18:30.000",
    "request_status": "Pending",
    "responsible_agency": "Department of Sanitation",
    "final_address": "5329 Timber Haven Ln",
    "address_councildis": "C",
    "status": "Assigned to Contractor",
    "contractor": "Richards Disposal",
    "rowid": "1021007",
    "final_x": "3703900.15671",
    "final_y": "511310.194224",
    "longitude": "-89.99808286715245",
    "latitude": "29.899226615515094",
    "geocoded_column": {
      "latitude": "29.899226615515094",
      "longitude": "-89.99808286715245"
    }
  },
  {
    "service_request": "2023-1021006",
    "request_type": "Property Maintenance",
    "request_reason": "Property Maintenance",
    "date_created": "2023-07-26T18:14:43.000",
    "date_modified": "2023-07-26T18:14:43.000",
    "request_status": "Pending",
    "responsible_agency": "Department of Code Enforcement",
    "final_address": "2408 St Anthony St",
    "address_councildis": "D",
    "status": "Pending",
    "rowid": "1021006",
    "final_x": "3683089.06076",
    "final_y": "541059.13038",
    "longitude": "-90.06271863484635",
    "latitude": "29.981676652055278",
    "geocoded_column": {
      "latitude": "29.981676652055278",
      "longitude": "-90.06271863484635"
    }
  },
  {
    "service_request": "2023-1021005",
    "request_type": "Roads/Drainage",
    "request_reason": "Street Subsidence (Sinking)",
    "date_created": "2023-07-26T18:12:25.000",
    "date_modified": "2023-07-26T18:12:25.000",
    "request_status": "Pending",
    "responsible_agency": "Department of Public Works",
    "final_address": "1436 Toledano St",
    "address_councildis": "B",
    "status": "Pending",
    "rowid": "1021005",
    "final_x": "3674808.71105",
    "final_y": "521014.225401",
    "longitude": "-90.08955911900198",
    "latitude": "29.926809717799667",
    "geocoded_column": {
      "latitude": "29.926809717799667",
      "longitude": "-90.08955911900198"
    }
  },
  {
    "service_request": "2023-1021004",
    "request_type": "Property Maintenance",
    "request_reason": "Property Maintenance",
    "date_created": "2023-07-26T18:11:50.000",
    "date_modified": "2023-07-26T18:11:51.000",
    "request_status": "Pending",
    "responsible_agency": "Department of Code Enforcement",
    "final_address": "2404 St Anthony St",
    "address_councildis": "D",
    "status": "Pending",
    "rowid": "1021004",
    "final_x": "3683056.19784",
    "final_y": "541030.208139",
    "longitude": "-90.06282344411277",
    "latitude": "29.98159812800781",
    "geocoded_column": {
      "latitude": "29.98159812800781",
      "longitude": "-90.06282344411277"
    }
  },
  {
    "service_request": "2023-1021003",
    "request_type": "Trash/Recycling",
    "request_reason": "Order Recycling Cart",
    "date_created": "2023-07-26T18:04:21.000",
    "date_modified": "2023-07-26T18:04:22.000",
    "request_status": "Pending",
    "responsible_agency": "Department of Sanitation",
    "final_address": "5944 Colbert St",
    "address_councildis": "A",
    "status": "Pending",
    "rowid": "1021003",
    "final_x": "3667332.71188",
    "final_y": "547085.357137",
    "longitude": "-90.11228191341654",
    "latitude": "29.99871773275374",
    "geocoded_column": {
      "latitude": "29.99871773275374",
      "longitude": "-90.11228191341654"
    }
  },
  {
    "service_request": "2023-1021002",
    "request_type": "Trash/Recycling",
    "request_reason": "Missed Trash Pick-Up",
    "date_created": "2023-07-26T18:03:30.000",
    "date_modified": "2023-07-26T18:03:31.000",
    "request_status": "Pending",
    "responsible_agency": "Department of Sanitation",
    "final_address": "5944 Colbert St",
    "address_councildis": "A",
    "status": "Assigned to Contractor",
    "contractor": "IV Waste",
    "rowid": "1021002",
    "final_x": "3667332.71188",
    "final_y": "547085.357137",
    "longitude": "-90.11228191341654",
    "latitude": "29.99871773275374",
    "geocoded_column": {
      "latitude": "29.99871773275374",
      "longitude": "-90.11228191341654"
    }
  },
  {
    "service_request": "2023-1021001",
    "request_type": "Trash/Recycling",
    "request_reason": "Request a Large Item Pick Up",
    "date_created": "2023-07-26T17:57:09.000",
    "date_modified": "2023-07-26T17:57:09.000",
    "request_status": "Pending",
    "responsible_agency": "Department of Sanitation",
    "final_address": "4500 Hickerson Dr",
    "address_councildis": "E",
    "status": "Assigned to Contractor",
    "contractor": "Waste Pro",
    "rowid": "1021001",
    "final_x": "3710435.15224",
    "final_y": "554235.398296",
    "longitude": "-89.97585467700627",
    "latitude": "30.017044220335006",
    "geocoded_column": {
      "latitude": "30.017044220335006",
      "longitude": "-89.97585467700627"
    }
  },
  {
    "service_request": "2023-1021000",
    "request_type": "Trash/Recycling",
    "request_reason": "Order Recycling Cart",
    "date_created": "2023-07-26T17:55:39.000",
    "date_modified": "2023-07-26T17:55:40.000",
    "request_status": "Pending",
    "responsible_agency": "Department of Sanitation",
    "final_address": "2053 Chippewa St",
    "address_councildis": "B",
    "status": "Pending",
    "rowid": "1021000",
    "final_x": "3680131.4141",
    "final_y": "521261.502649",
    "longitude": "-90.07274818635328",
    "latitude": "29.927329710260626",
    "geocoded_column": {
      "latitude": "29.927329710260626",
      "longitude": "-90.07274818635328"
    }
  },
  {
    "service_request": "2023-1020999",
    "request_type": "Trash/Recycling",
    "request_reason": "Missed Trash Pick-Up",
    "date_created": "2023-07-26T17:52:29.000",
    "date_modified": "2023-07-26T17:52:30.000",
    "request_status": "Pending",
    "responsible_agency": "Department of Sanitation",
    "final_address": "625 Lowerline St",
    "address_councildis": "A",
    "status": "Assigned to Contractor",
    "contractor": "Richards Disposal",
    "rowid": "1020999",
    "final_x": "3662696.29882",
    "final_y": "525189.753853",
    "longitude": "-90.12765625785514",
    "latitude": "29.938647065437827",
    "geocoded_column": {
      "latitude": "29.938647065437827",
      "longitude": "-90.12765625785514"
    }
  },
  {
    "service_request": "2023-1020998",
    "request_type": "Trash/Recycling",
    "request_reason": "Repair Recycling Cart",
    "date_created": "2023-07-26T17:43:18.000",
    "date_modified": "2023-07-26T17:43:18.000",
    "request_status": "Pending",
    "responsible_agency": "Department of Sanitation",
    "final_address": "7431 Fieldston Rd",
    "address_councildis": "E",
    "status": "Pending",
    "rowid": "1020998",
    "final_x": "3700746.96177",
    "final_y": "560141.722205",
    "longitude": "-90.00624903438703",
    "latitude": "30.033596373831262",
    "geocoded_column": {
      "latitude": "30.033596373831262",
      "longitude": "-90.00624903438703"
    }
  },
  {
    "service_request": "2023-1020997",
    "request_type": "Trash/Recycling",
    "request_reason": "Missed Trash Pick-Up",
    "date_created": "2023-07-26T17:38:03.000",
    "date_modified": "2023-07-26T17:38:04.000",
    "request_status": "Pending",
    "responsible_agency": "Department of Sanitation",
    "final_address": "4034 Baudin St",
    "address_councildis": "A",
    "status": "Assigned to Contractor",
    "contractor": "Richards Disposal",
    "rowid": "1020997",
    "final_x": "3670267.73454",
    "final_y": "536906.386888",
    "longitude": "-90.10335529410388",
    "latitude": "29.970642712774605",
    "geocoded_column": {
      "latitude": "29.970642712774605",
      "longitude": "-90.10335529410388"
    }
  },
  {
    "service_request": "2023-1020996",
    "request_type": "Parks & Parkways",
    "request_reason": "Request Tree Service (Right of Way/Public Property)",
    "date_created": "2023-07-26T17:35:20.000",
    "date_modified": "2023-07-26T17:35:20.000",
    "request_status": "Pending",
    "responsible_agency": "Department of Parks & Parkway",
    "final_address": "4637 Palmyra St",
    "address_councildis": "A",
    "status": "Pending",
    "rowid": "1020996",
    "final_x": "3668700.38791",
    "final_y": "539224.987018",
    "longitude": "-90.10822688747504",
    "latitude": "29.977064252863165",
    "geocoded_column": {
      "latitude": "29.977064252863165",
      "longitude": "-90.10822688747504"
    }
  },
  {
    "service_request": "2023-1020995",
    "request_type": "Trash/Recycling",
    "request_reason": "Replace Trash Cart",
    "date_created": "2023-07-26T17:33:38.000",
    "date_modified": "2023-07-26T17:33:38.000",
    "request_status": "Pending",
    "responsible_agency": "Department of Sanitation",
    "final_address": "200 Cypress Grove Ct",
    "address_councildis": "C",
    "status": "Assigned to Contractor",
    "contractor": "Richards Disposal",
    "rowid": "1020995",
    "final_x": "3704810.49201",
    "final_y": "511960.429936",
    "longitude": "-89.99518603446042",
    "latitude": "29.90098534279596",
    "geocoded_column": {
      "latitude": "29.90098534279596",
      "longitude": "-89.99518603446042"
    }
  },
  {
    "service_request": "2023-1020994",
    "request_type": "Trash/Recycling",
    "request_reason": "Illegal Dumping",
    "date_created": "2023-07-26T17:30:10.000",
    "date_modified": "2023-07-26T17:30:10.000",
    "request_status": "Pending",
    "responsible_agency": "Department of Sanitation",
    "final_address": "4337 St Bernard Ave",
    "address_councildis": "D",
    "status": "Pending",
    "rowid": "1020994",
    "final_x": "3676923.74453",
    "final_y": "548592.974355",
    "longitude": "-90.08193172926634",
    "latitude": "30.002578631041153",
    "geocoded_column": {
      "latitude": "30.002578631041153",
      "longitude": "-90.08193172926634"
    }
  },
  {
    "service_request": "2023-1020993",
    "request_type": "Abandoned Vehicles",
    "request_reason": "Abandoned/Junk Vehicles",
    "date_created": "2023-07-26T17:28:01.000",
    "date_modified": "2023-07-26T17:28:02.000",
    "request_status": "Pending",
    "responsible_agency": "Department of Public Works",
    "final_address": "2836 Paris Ave",
    "address_councildis": "D",
    "status": "Pending",
    "rowid": "1020993",
    "final_x": "3679799.86863",
    "final_y": "542884.751693",
    "longitude": "-90.0730440216723",
    "latitude": "29.986796353228836",
    "geocoded_column": {
      "latitude": "29.986796353228836",
      "longitude": "-90.0730440216723"
    }
  },
  {
    "service_request": "2023-1020992",
    "request_type": "Trash/Recycling",
    "request_reason": "Request a Large Item Pick Up",
    "date_created": "2023-07-26T17:23:49.000",
    "date_modified": "2023-07-26T17:23:49.000",
    "request_status": "Pending",
    "responsible_agency": "Department of Sanitation",
    "final_address": "7156 Parkside Ct",
    "address_councildis": "E",
    "status": "Assigned to Contractor",
    "contractor": "Waste Pro",
    "rowid": "1020992",
    "final_x": "3704333.36042",
    "final_y": "560306.564381",
    "longitude": "-89.9949096135449",
    "latitude": "30.033934927084665",
    "geocoded_column": {
      "latitude": "30.033934927084665",
      "longitude": "-89.9949096135449"
    }
  },
  {
    "service_request": "2023-1020991",
    "request_type": "Trash/Recycling",
    "request_reason": "MIssed Recycling Pick-Up",
    "date_created": "2023-07-26T17:16:22.000",
    "date_modified": "2023-07-26T17:16:22.000",
    "request_status": "Pending",
    "responsible_agency": "Department of Sanitation",
    "final_address": "7501 Anne Marie Ct",
    "address_councildis": "E",
    "status": "Assigned to Contractor",
    "contractor": "Waste Pro",
    "rowid": "1020991",
    "final_x": "3718466.75692",
    "final_y": "570726.404071",
    "longitude": "-89.94984931981011",
    "latitude": "30.062123705258955",
    "geocoded_column": {
      "latitude": "30.062123705258955",
      "longitude": "-89.94984931981011"
    }
  },
  {
    "service_request": "2023-1020990",
    "request_type": "Property Maintenance",
    "request_reason": "Property Maintenance",
    "date_created": "2023-07-26T17:16:09.000",
    "date_modified": "2023-07-26T17:16:09.000",
    "request_status": "Pending",
    "responsible_agency": "Department of Code Enforcement",
    "final_address": "3133 Pittari Pl",
    "address_councildis": "C",
    "status": "Pending",
    "rowid": "1020990",
    "final_x": "3709682.40645",
    "final_y": "519147.166711",
    "longitude": "-89.97954286067146",
    "latitude": "29.920589030541056",
    "geocoded_column": {
      "latitude": "29.920589030541056",
      "longitude": "-89.97954286067146"
    }
  },
  {
    "service_request": "2023-1020989",
    "request_type": "Trash/Recycling",
    "request_reason": "Replace Trash Cart",
    "date_created": "2023-07-26T17:12:16.000",
    "date_modified": "2023-07-26T17:12:17.000",
    "request_status": "Pending",
    "responsible_agency": "Department of Sanitation",
    "final_address": "5050 W St Andrews Cir",
    "address_councildis": "E",
    "status": "Assigned to Contractor",
    "contractor": "Waste Pro",
    "rowid": "1020989",
    "final_x": "3719160.72453",
    "final_y": "559705.241757",
    "longitude": "-89.94807687500277",
    "latitude": "30.031796978644277",
    "geocoded_column": {
      "latitude": "30.031796978644277",
      "longitude": "-89.94807687500277"
    }
  },
  {
    "service_request": "2023-1020988",
    "request_type": "Trash/Recycling",
    "request_reason": "Request a Large Item Pick Up",
    "date_created": "2023-07-26T17:09:08.000",
    "date_modified": "2023-07-26T17:09:09.000",
    "request_status": "Pending",
    "responsible_agency": "Department of Sanitation",
    "final_address": "110 Oakmont Dr",
    "address_councildis": "E",
    "status": "Assigned to Contractor",
    "contractor": "Waste Pro",
    "rowid": "1020988",
    "final_x": "3719673.50239",
    "final_y": "563546.98032",
    "longitude": "-89.94630953545321",
    "latitude": "30.042343142000167",
    "geocoded_column": {
      "latitude": "30.042343142000167",
      "longitude": "-89.94630953545321"
    }
  },
  {
    "service_request": "2023-1020987",
    "request_type": "Property Maintenance",
    "request_reason": "Property Maintenance",
    "date_created": "2023-07-26T17:08:40.000",
    "date_modified": "2023-07-26T17:08:40.000",
    "request_status": "Pending",
    "responsible_agency": "Department of Code Enforcement",
    "final_address": "3133 Pittari Pl",
    "address_councildis": "C",
    "status": "Pending",
    "rowid": "1020987",
    "final_x": "3709682.40645",
    "final_y": "519147.166711",
    "longitude": "-89.97954286067146",
    "latitude": "29.920589030541056",
    "geocoded_column": {
      "latitude": "29.920589030541056",
      "longitude": "-89.97954286067146"
    }
  },
  {
    "service_request": "2023-1020986",
    "request_type": "Roads/Drainage",
    "request_reason": "Pothole",
    "date_created": "2023-07-26T17:06:58.000",
    "date_modified": "2023-07-26T17:06:58.000",
    "request_status": "Pending",
    "responsible_agency": "Department of Public Works",
    "final_address": "6000 BLK Chamberlain Dr",
    "address_councildis": "D",
    "status": "Pending",
    "rowid": "1020986",
    "final_x": "3679292.17255",
    "final_y": "554583.318114",
    "longitude": "-90.07424160979636",
    "latitude": "30.018978586138207",
    "geocoded_column": {
      "latitude": "30.018978586138207",
      "longitude": "-90.07424160979636"
    }
  },
  {
    "service_request": "2023-1020985",
    "request_type": "Trash/Recycling",
    "request_reason": "MIssed Recycling Pick-Up",
    "date_created": "2023-07-26T17:02:16.000",
    "date_modified": "2023-07-26T17:02:17.000",
    "request_status": "Pending",
    "responsible_agency": "Department of Sanitation",
    "final_address": "3947 Magazine St",
    "address_councildis": "B",
    "status": "Assigned to Contractor",
    "contractor": "Richards Disposal",
    "rowid": "1020985",
    "final_x": "3672682.66126",
    "final_y": "518993.355959",
    "longitude": "-90.0963393710231",
    "latitude": "29.921316258577896",
    "geocoded_column": {
      "latitude": "29.921316258577896",
      "longitude": "-90.0963393710231"
    }
  },
  {
    "service_request": "2023-1020984",
    "request_type": "Trash/Recycling",
    "request_reason": "Request a Large Item Pick Up",
    "date_created": "2023-07-26T17:01:21.000",
    "date_modified": "2023-07-26T17:01:21.000",
    "request_status": "Pending",
    "responsible_agency": "Department of Sanitation",
    "final_address": "4935 Bundy Rd",
    "address_councildis": "E",
    "status": "Assigned to Contractor",
    "contractor": "Waste Pro",
    "rowid": "1020984",
    "final_x": "3709334.1948",
    "final_y": "556857.90697",
    "longitude": "-89.97923529642041",
    "latitude": "30.024290914061666",
    "geocoded_column": {
      "latitude": "30.024290914061666",
      "longitude": "-89.97923529642041"
    }
  },
  {
    "service_request": "2023-1020983",
    "request_type": "Trash/Recycling",
    "request_reason": "Request a Large Item Pick Up",
    "date_created": "2023-07-26T16:58:48.000",
    "date_modified": "2023-07-26T16:58:48.000",
    "request_status": "Pending",
    "responsible_agency": "Department of Sanitation",
    "final_address": "737 Henry Clay Ave",
    "address_councildis": "A",
    "status": "Assigned to Contractor",
    "contractor": "Richards Disposal",
    "rowid": "1020983",
    "final_x": "3663819.66938",
    "final_y": "519511.581751",
    "longitude": "-90.12429879359725",
    "latitude": "29.923001333316105",
    "geocoded_column": {
      "latitude": "29.923001333316105",
      "longitude": "-90.12429879359725"
    }
  },
  {
    "service_request": "2023-1020982",
    "request_type": "Trash/Recycling",
    "request_reason": "Order Recycling Cart",
    "date_created": "2023-07-26T16:57:04.000",
    "date_modified": "2023-07-26T16:57:04.000",
    "request_status": "Pending",
    "responsible_agency": "Department of Sanitation",
    "final_address": "3226 Conti St",
    "address_councildis": "B",
    "status": "Pending",
    "rowid": "1020982",
    "final_x": "3674375.2523",
    "final_y": "537265.129544",
    "longitude": "-90.09037095453812",
    "latitude": "29.971507258110368",
    "geocoded_column": {
      "latitude": "29.971507258110368",
      "longitude": "-90.09037095453812"
    }
  },
  {
    "service_request": "2023-1020981",
    "request_type": "Roads/Drainage",
    "request_reason": "Pothole",
    "date_created": "2023-07-26T16:56:39.000",
    "date_modified": "2023-07-26T16:56:40.000",
    "request_status": "Pending",
    "responsible_agency": "Department of Public Works",
    "final_address": "S WHITE ST & CANAL ST",
    "address_councildis": "B",
    "status": "Pending",
    "rowid": "1020981",
    "final_x": "3674863.8",
    "final_y": "535437.58",
    "longitude": "-90.08889073062383",
    "latitude": "29.966467535016733",
    "geocoded_column": {
      "latitude": "29.966467535016733",
      "longitude": "-90.08889073062383"
    }
  },
  {
    "service_request": "2023-1020980",
    "request_type": "Trash/Recycling",
    "request_reason": "Order Trash Cart",
    "date_created": "2023-07-26T16:51:44.000",
    "date_modified": "2023-07-26T16:51:44.000",
    "request_status": "Pending",
    "responsible_agency": "Department of Sanitation",
    "final_address": "524 Tupelo St",
    "address_councildis": "E",
    "status": "Assigned to Contractor",
    "contractor": "Waste Pro",
    "rowid": "1020980",
    "final_x": "3698703.15722",
    "final_y": "531454.189763",
    "longitude": "-90.01375166524693",
    "latitude": "29.954781186853918",
    "geocoded_column": {
      "latitude": "29.954781186853918",
      "longitude": "-90.01375166524693"
    }
  },
  {
    "service_request": "2023-1020979",
    "request_type": "Abandoned Vehicles",
    "request_reason": "Vehicle Blocking Your Driveway",
    "date_created": "2023-07-26T16:50:30.000",
    "date_modified": "2023-07-26T16:50:30.000",
    "request_status": "Pending",
    "responsible_agency": "Department of Public Works",
    "final_address": "353 Baronne St, New Orleans, Louisiana, 70112",
    "address_councildis": "B",
    "status": "Pending",
    "rowid": "1020979",
    "final_x": "3679983.68386",
    "final_y": "529953.708801",
    "longitude": "-90.07291270423562",
    "latitude": "29.951234861737106",
    "geocoded_column": {
      "latitude": "29.951234861737106",
      "longitude": "-90.07291270423562"
    }
  },
  {
    "service_request": "2023-1020978",
    "request_type": "Trash/Recycling",
    "request_reason": "Order Recycling Cart",
    "date_created": "2023-07-26T16:46:01.000",
    "date_modified": "2023-07-26T16:46:02.000",
    "request_status": "Pending",
    "responsible_agency": "Department of Sanitation",
    "final_address": "4953 Pauline Dr",
    "address_councildis": "D",
    "status": "Pending",
    "rowid": "1020978",
    "final_x": "3692661.43043",
    "final_y": "552701.29007",
    "longitude": "-90.03206714139218",
    "latitude": "30.013392996740297",
    "geocoded_column": {
      "latitude": "30.013392996740297",
      "longitude": "-90.03206714139218"
    }
  },
  {
    "service_request": "2023-1020977",
    "request_type": "Trash/Recycling",
    "request_reason": "Request a Large Item Pick Up",
    "date_created": "2023-07-26T16:42:02.000",
    "date_modified": "2023-07-26T16:42:03.000",
    "request_status": "Pending",
    "responsible_agency": "Department of Sanitation",
    "final_address": "13442 Lourdes St",
    "address_councildis": "E",
    "status": "Assigned to Contractor",
    "contractor": "Waste Pro",
    "rowid": "1020977",
    "final_x": "3726109.73171",
    "final_y": "560913.22083",
    "longitude": "-89.92607107184814",
    "latitude": "30.034885599617613",
    "geocoded_column": {
      "latitude": "30.034885599617613",
      "longitude": "-89.92607107184814"
    }
  },
  {
    "service_request": "2023-1020976",
    "request_type": "Trash/Recycling",
    "request_reason": "Repair Trash Cart",
    "date_created": "2023-07-26T16:41:00.000",
    "date_modified": "2023-07-26T16:41:00.000",
    "request_status": "Pending",
    "responsible_agency": "Department of Sanitation",
    "final_address": "5050 W St Andrews Cir",
    "address_councildis": "E",
    "status": "Assigned to Contractor",
    "contractor": "Waste Pro",
    "rowid": "1020976",
    "final_x": "3719160.72453",
    "final_y": "559705.241757",
    "longitude": "-89.94807687500277",
    "latitude": "30.031796978644277",
    "geocoded_column": {
      "latitude": "30.031796978644277",
      "longitude": "-89.94807687500277"
    }
  },
  {
    "service_request": "2023-1020975",
    "request_type": "Trash/Recycling",
    "request_reason": "Repair Trash Cart",
    "date_created": "2023-07-26T16:40:02.000",
    "date_modified": "2023-07-26T16:40:02.000",
    "request_status": "Pending",
    "responsible_agency": "Department of Sanitation",
    "final_address": "5050 W St Andrews Cir",
    "address_councildis": "E",
    "status": "Assigned to Contractor",
    "contractor": "Waste Pro",
    "rowid": "1020975",
    "final_x": "3719160.72453",
    "final_y": "559705.241757",
    "longitude": "-89.94807687500277",
    "latitude": "30.031796978644277",
    "geocoded_column": {
      "latitude": "30.031796978644277",
      "longitude": "-89.94807687500277"
    }
  },
  {
    "service_request": "2023-1020974",
    "request_type": "Trash/Recycling",
    "request_reason": "Order Recycling Cart",
    "date_created": "2023-07-26T16:39:09.000",
    "date_modified": "2023-07-26T16:39:09.000",
    "request_status": "Pending",
    "responsible_agency": "Department of Sanitation",
    "final_address": "7535 Lehigh St",
    "address_councildis": "E",
    "status": "Pending",
    "rowid": "1020974",
    "final_x": "3710866.24293",
    "final_y": "565251.147234",
    "longitude": "-89.97407974559238",
    "latitude": "30.047319112536815",
    "geocoded_column": {
      "latitude": "30.047319112536815",
      "longitude": "-89.97407974559238"
    }
  },
  {
    "service_request": "2023-1020973",
    "request_type": "Trash/Recycling",
    "request_reason": "Replace Trash Cart",
    "date_created": "2023-07-26T16:37:58.000",
    "date_modified": "2023-07-26T16:37:59.000",
    "request_status": "Pending",
    "responsible_agency": "Department of Sanitation",
    "final_address": "5050 W St Andrews Cir",
    "address_councildis": "E",
    "status": "Assigned to Contractor",
    "contractor": "Waste Pro",
    "rowid": "1020973",
    "final_x": "3719160.72453",
    "final_y": "559705.241757",
    "longitude": "-89.94807687500277",
    "latitude": "30.031796978644277",
    "geocoded_column": {
      "latitude": "30.031796978644277",
      "longitude": "-89.94807687500277"
    }
  },
  {
    "service_request": "2023-1020972",
    "request_type": "Trash/Recycling",
    "request_reason": "Order Recycling Cart",
    "date_created": "2023-07-26T16:36:35.000",
    "date_modified": "2023-07-26T16:36:35.000",
    "request_status": "Pending",
    "responsible_agency": "Department of Sanitation",
    "final_address": "4518 Pauger St",
    "address_councildis": "D",
    "status": "Pending",
    "rowid": "1020972",
    "final_x": "3682770.25416",
    "final_y": "549324.937811",
    "longitude": "-90.06343623594772",
    "latitude": "30.004414403666345",
    "geocoded_column": {
      "latitude": "30.004414403666345",
      "longitude": "-90.06343623594772"
    }
  },
  {
    "service_request": "2023-1020971",
    "request_type": "Trash/Recycling",
    "request_reason": "Order Trash Cart",
    "date_created": "2023-07-26T16:36:21.000",
    "date_modified": "2023-07-26T16:36:22.000",
    "request_status": "Pending",
    "responsible_agency": "Department of Sanitation",
    "final_address": "4518 Pauger St",
    "address_councildis": "D",
    "status": "Assigned to Contractor",
    "contractor": "IV Waste",
    "rowid": "1020971",
    "final_x": "3682770.25416",
    "final_y": "549324.937811",
    "longitude": "-90.06343623594772",
    "latitude": "30.004414403666345",
    "geocoded_column": {
      "latitude": "30.004414403666345",
      "longitude": "-90.06343623594772"
    }
  },
  {
    "service_request": "2023-1020970",
    "request_type": "Abandoned Vehicles",
    "request_reason": "Abandoned/Junk Vehicles",
    "date_created": "2023-07-26T16:33:13.000",
    "date_modified": "2023-07-26T16:33:13.000",
    "request_status": "Pending",
    "responsible_agency": "Department of Public Works",
    "final_address": "10122 Seawood St",
    "address_councildis": "E",
    "status": "Inspected",
    "rowid": "1020970",
    "final_x": "3712890.82974",
    "final_y": "557338.186523",
    "longitude": "-89.96797901303802",
    "latitude": "30.025495445227595",
    "geocoded_column": {
      "latitude": "30.025495445227595",
      "longitude": "-89.96797901303802"
    }
  },
  {
    "service_request": "2023-1020969",
    "request_type": "Trash/Recycling",
    "request_reason": "Request a Large Item Pick Up",
    "date_created": "2023-07-26T16:31:35.000",
    "date_modified": "2023-07-26T16:31:36.000",
    "request_status": "Pending",
    "responsible_agency": "Department of Sanitation",
    "final_address": "2550 Chelsea Dr",
    "address_councildis": "C",
    "status": "Assigned to Contractor",
    "contractor": "Richards Disposal",
    "rowid": "1020969",
    "final_x": "3704322.88388",
    "final_y": "521641.192633",
    "longitude": "-89.99636839716278",
    "latitude": "29.92761976215325",
    "geocoded_column": {
      "latitude": "29.92761976215325",
      "longitude": "-89.99636839716278"
    }
  },
  {
    "service_request": "2023-1020968",
    "request_type": "Property Maintenance",
    "request_reason": "Property Maintenance",
    "date_created": "2023-07-26T16:30:50.000",
    "date_modified": "2023-07-26T16:30:50.000",
    "request_status": "Pending",
    "responsible_agency": "Department of Code Enforcement",
    "final_address": "8700 Spruce St",
    "address_councildis": "A",
    "status": "Pending",
    "rowid": "1020968",
    "final_x": "3662230.15354",
    "final_y": "531884.220035",
    "longitude": "-90.12890577742411",
    "latitude": "29.95706818071898",
    "geocoded_column": {
      "latitude": "29.95706818071898",
      "longitude": "-90.12890577742411"
    }
  },
  {
    "service_request": "2023-1020967",
    "request_type": "Trash/Recycling",
    "request_reason": "Order Recycling Cart",
    "date_created": "2023-07-26T16:30:34.000",
    "date_modified": "2023-07-26T16:30:34.000",
    "request_status": "Pending",
    "responsible_agency": "Department of Sanitation",
    "final_address": "2608 St Peter St",
    "address_councildis": "D",
    "status": "Pending",
    "rowid": "1020967",
    "final_x": "3676985.74946",
    "final_y": "536556.798087",
    "longitude": "-90.08215104297007",
    "latitude": "29.969481466210212",
    "geocoded_column": {
      "latitude": "29.969481466210212",
      "longitude": "-90.08215104297007"
    }
  },
  {
    "service_request": "2023-1020966",
    "request_type": "Trash/Recycling",
    "request_reason": "Order Recycling Cart",
    "date_created": "2023-07-26T16:29:40.000",
    "date_modified": "2023-07-26T16:29:40.000",
    "request_status": "Pending",
    "responsible_agency": "Department of Sanitation",
    "final_address": "2610 St Peter St",
    "address_councildis": "D",
    "status": "Pending",
    "rowid": "1020966",
    "final_x": "3676978.48648",
    "final_y": "536532.755719",
    "longitude": "-90.08217480914124",
    "latitude": "29.969415575955576",
    "geocoded_column": {
      "latitude": "29.969415575955576",
      "longitude": "-90.08217480914124"
    }
  },
  {
    "service_request": "2023-1020965",
    "request_type": "Trash/Recycling",
    "request_reason": "Order Trash Cart",
    "date_created": "2023-07-26T16:28:55.000",
    "date_modified": "2023-07-26T16:28:55.000",
    "request_status": "Pending",
    "responsible_agency": "Department of Sanitation",
    "final_address": "2610 St Peter St",
    "address_councildis": "D",
    "status": "Assigned to Contractor",
    "contractor": "Richards Disposal",
    "rowid": "1020965",
    "final_x": "3676978.48648",
    "final_y": "536532.755719",
    "longitude": "-90.08217480914124",
    "latitude": "29.969415575955576",
    "geocoded_column": {
      "latitude": "29.969415575955576",
      "longitude": "-90.08217480914124"
    }
  },
  {
    "service_request": "2023-1020964",
    "request_type": "Property Maintenance",
    "request_reason": "Property Maintenance",
    "date_created": "2023-07-26T16:28:18.000",
    "date_modified": "2023-07-26T16:28:18.000",
    "request_status": "Pending",
    "responsible_agency": "Department of Code Enforcement",
    "final_address": "8700 Spruce St",
    "address_councildis": "A",
    "status": "Pending",
    "rowid": "1020964",
    "final_x": "3662230.15354",
    "final_y": "531884.220035",
    "longitude": "-90.12890577742411",
    "latitude": "29.95706818071898",
    "geocoded_column": {
      "latitude": "29.95706818071898",
      "longitude": "-90.12890577742411"
    }
  },
  {
    "service_request": "2023-1020963",
    "request_type": "Trash/Recycling",
    "request_reason": "Request a Large Item Pick Up",
    "date_created": "2023-07-26T16:27:22.000",
    "date_modified": "2023-07-26T16:27:22.000",
    "request_status": "Pending",
    "responsible_agency": "Department of Sanitation",
    "final_address": "809 Greenwood St",
    "address_councildis": "A",
    "status": "Assigned to Contractor",
    "contractor": "IV Waste",
    "rowid": "1020963",
    "final_x": "3668712.73818",
    "final_y": "542889.363853",
    "longitude": "-90.10806412574146",
    "latitude": "29.987139683685193",
    "geocoded_column": {
      "latitude": "29.987139683685193",
      "longitude": "-90.10806412574146"
    }
  },
  {
    "service_request": "2023-1020962",
    "request_type": "Roads/Drainage",
    "request_reason": "Debris in Roadway",
    "date_created": "2023-07-26T16:27:16.000",
    "date_modified": "2023-07-26T16:27:16.000",
    "request_status": "Pending",
    "responsible_agency": "Department of Public Works",
    "final_address": "MIRABEAU AVE & PARIS AVE",
    "address_councildis": "D",
    "status": "Pending",
    "rowid": "1020962",
    "final_x": "3679261.8",
    "final_y": "550295.18",
    "longitude": "-90.07448642904647",
    "latitude": "30.00718867062235",
    "geocoded_column": {
      "latitude": "30.00718867062235",
      "longitude": "-90.07448642904647"
    }
  },
  {
    "service_request": "2023-1020961",
    "request_type": "Trash/Recycling",
    "request_reason": "Replace Trash Cart",
    "date_created": "2023-07-26T16:27:15.000",
    "date_modified": "2023-07-26T16:27:16.000",
    "request_status": "Pending",
    "responsible_agency": "Department of Sanitation",
    "final_address": "2608 St Peter St",
    "address_councildis": "D",
    "status": "Assigned to Contractor",
    "contractor": "Richards Disposal",
    "rowid": "1020961",
    "final_x": "3676985.74946",
    "final_y": "536556.798087",
    "longitude": "-90.08215104297007",
    "latitude": "29.969481466210212",
    "geocoded_column": {
      "latitude": "29.969481466210212",
      "longitude": "-90.08215104297007"
    }
  },
  {
    "service_request": "2023-1020960",
    "request_type": "Trash/Recycling",
    "request_reason": "Request a Large Item Pick Up",
    "date_created": "2023-07-26T16:25:33.000",
    "date_modified": "2023-07-26T16:25:33.000",
    "request_status": "Pending",
    "responsible_agency": "Department of Sanitation",
    "final_address": "3611 Banks St",
    "address_councildis": "B",
    "status": "Assigned to Contractor",
    "contractor": "Richards Disposal",
    "rowid": "1020960",
    "final_x": "3671825.01556",
    "final_y": "536354.504199",
    "longitude": "-90.09845598749936",
    "latitude": "29.969079165152838",
    "geocoded_column": {
      "latitude": "29.969079165152838",
      "longitude": "-90.09845598749936"
    }
  },
  {
    "service_request": "2023-1020959",
    "request_type": "Trash/Recycling",
    "request_reason": "Order Recycling Cart",
    "date_created": "2023-07-26T16:24:57.000",
    "date_modified": "2023-07-26T16:24:58.000",
    "request_status": "Pending",
    "responsible_agency": "Department of Sanitation",
    "final_address": "2216 Dumaine St",
    "address_councildis": "D",
    "status": "Pending",
    "rowid": "1020959",
    "final_x": "3678656.6509",
    "final_y": "536327.863367",
    "longitude": "-90.07688212538099",
    "latitude": "29.968801700337224",
    "geocoded_column": {
      "latitude": "29.968801700337224",
      "longitude": "-90.07688212538099"
    }
  },
  {
    "service_request": "2023-1020958",
    "request_type": "Trash/Recycling",
    "request_reason": "Replace Trash Cart",
    "date_created": "2023-07-26T16:23:46.000",
    "date_modified": "2023-07-26T16:23:47.000",
    "request_status": "Pending",
    "responsible_agency": "Department of Sanitation",
    "final_address": "3640 Rue Delphine",
    "address_councildis": "C",
    "status": "Assigned to Contractor",
    "contractor": "Richards Disposal",
    "rowid": "1020958",
    "final_x": "3703082.81911",
    "final_y": "517139.214261",
    "longitude": "-90.00044826761842",
    "latitude": "29.915280601949295",
    "geocoded_column": {
      "latitude": "29.915280601949295",
      "longitude": "-90.00044826761842"
    }
  },
  {
    "service_request": "2023-1020957",
    "request_type": "Trash/Recycling",
    "request_reason": "Request a Large Item Pick Up",
    "date_created": "2023-07-26T16:23:11.000",
    "date_modified": "2023-07-26T16:23:12.000",
    "request_status": "Pending",
    "responsible_agency": "Department of Sanitation",
    "final_address": "1535 Cambronne St",
    "address_councildis": "A",
    "status": "Assigned to Contractor",
    "contractor": "Richards Disposal",
    "rowid": "1020957",
    "final_x": "3662091.96768",
    "final_y": "530056.730689",
    "longitude": "-90.12940275975785",
    "latitude": "29.952047168276682",
    "geocoded_column": {
      "latitude": "29.952047168276682",
      "longitude": "-90.12940275975785"
    }
  },
  {
    "service_request": "2023-1020956",
    "request_type": "Trash/Recycling",
    "request_reason": "Replace Trash Cart",
    "date_created": "2023-07-26T16:22:42.000",
    "date_modified": "2023-07-26T16:22:42.000",
    "request_status": "Pending",
    "responsible_agency": "Department of Sanitation",
    "final_address": "1535 Cambronne St",
    "address_councildis": "A",
    "status": "Assigned to Contractor",
    "contractor": "Richards Disposal",
    "rowid": "1020956",
    "final_x": "3662091.96768",
    "final_y": "530056.730689",
    "longitude": "-90.12940275975785",
    "latitude": "29.952047168276682",
    "geocoded_column": {
      "latitude": "29.952047168276682",
      "longitude": "-90.12940275975785"
    }
  },
  {
    "service_request": "2023-1020955",
    "request_type": "Trash/Recycling",
    "request_reason": "Replace Trash Cart",
    "date_created": "2023-07-26T16:22:09.000",
    "date_modified": "2023-07-26T16:22:09.000",
    "request_status": "Pending",
    "responsible_agency": "Department of Sanitation",
    "final_address": "5050 W St Andrews Cir",
    "address_councildis": "E",
    "status": "Assigned to Contractor",
    "contractor": "Waste Pro",
    "rowid": "1020955",
    "final_x": "3719160.72453",
    "final_y": "559705.241757",
    "longitude": "-89.94807687500277",
    "latitude": "30.031796978644277",
    "geocoded_column": {
      "latitude": "30.031796978644277",
      "longitude": "-89.94807687500277"
    }
  },
  {
    "service_request": "2023-1020954",
    "request_type": "Trash/Recycling",
    "request_reason": "Repair Trash Cart",
    "date_created": "2023-07-26T16:21:50.000",
    "date_modified": "2023-07-26T16:21:51.000",
    "request_status": "Pending",
    "responsible_agency": "Department of Sanitation",
    "final_address": "8213 Green St",
    "address_councildis": "A",
    "status": "Assigned to Contractor",
    "contractor": "Richards Disposal",
    "rowid": "1020954",
    "final_x": "3662814.37767",
    "final_y": "530040.020993",
    "longitude": "-90.12712227230463",
    "latitude": "29.951980331318904",
    "geocoded_column": {
      "latitude": "29.951980331318904",
      "longitude": "-90.12712227230463"
    }
  },
  {
    "service_request": "2023-1020953",
    "request_type": "Trash/Recycling",
    "request_reason": "Request a Large Item Pick Up",
    "date_created": "2023-07-26T16:13:44.000",
    "date_modified": "2023-07-26T16:13:45.000",
    "request_status": "Pending",
    "responsible_agency": "Department of Sanitation",
    "final_address": "3305 Banks St",
    "address_councildis": "B",
    "status": "Assigned to Contractor",
    "contractor": "Richards Disposal",
    "rowid": "1020953",
    "final_x": "3672824.12987",
    "final_y": "535570.82471",
    "longitude": "-90.0953274486141",
    "latitude": "29.966894665677692",
    "geocoded_column": {
      "latitude": "29.966894665677692",
      "longitude": "-90.0953274486141"
    }
  },
  {
    "service_request": "2023-1020951",
    "request_type": "Trash/Recycling",
    "request_reason": "Order Recycling Cart",
    "date_created": "2023-07-26T16:13:04.000",
    "date_modified": "2023-07-26T16:13:04.000",
    "request_status": "Pending",
    "responsible_agency": "Department of Sanitation",
    "final_address": "1620 Killdeer St",
    "address_councildis": "D",
    "status": "Pending",
    "rowid": "1020951",
    "final_x": "3678683.97026",
    "final_y": "557146.446043",
    "longitude": "-90.07607445564093",
    "latitude": "30.026044616387207",
    "geocoded_column": {
      "latitude": "30.026044616387207",
      "longitude": "-90.07607445564093"
    }
  },
  {
    "service_request": "2023-1020952",
    "request_type": "Parks & Parkways",
    "request_reason": "Request Tree Service (Right of Way/Public Property)",
    "date_created": "2023-07-26T16:13:04.000",
    "date_modified": "2023-07-26T16:13:05.000",
    "request_status": "Pending",
    "responsible_agency": "Department of Parks & Parkway",
    "final_address": "PARIS AVE & MIRABEAU AVE",
    "address_councildis": "D",
    "status": "Pending",
    "rowid": "1020952",
    "final_x": "3679251.1",
    "final_y": "550377.78",
    "longitude": "-90.07451736644796",
    "latitude": "30.007416114259573",
    "geocoded_column": {
      "latitude": "30.007416114259573",
      "longitude": "-90.07451736644796"
    }
  },
  {
    "service_request": "2023-1020950",
    "request_type": "Property Maintenance",
    "request_reason": "Property Maintenance",
    "date_created": "2023-07-26T16:12:55.000",
    "date_modified": "2023-07-26T16:12:55.000",
    "request_status": "Pending",
    "responsible_agency": "Department of Code Enforcement",
    "final_address": "418 Evelina St",
    "address_councildis": "C",
    "status": "Pending",
    "rowid": "1020950",
    "final_x": "3686968.48662",
    "final_y": "529488.894273",
    "longitude": "-90.05087463250685",
    "latitude": "29.94974366854969",
    "geocoded_column": {
      "latitude": "29.94974366854969",
      "longitude": "-90.05087463250685"
    }
  },
  {
    "service_request": "2023-1020949",
    "request_type": "Traffic Signals/Signs/Striping/Streetlights",
    "request_reason": "Street Light Outage/Malfunction",
    "date_created": "2023-07-26T16:09:36.000",
    "date_modified": "2023-07-26T16:09:37.000",
    "request_status": "Pending",
    "responsible_agency": "Department of Public Works",
    "final_address": "0 BLK Bienville St",
    "address_councildis": "C",
    "status": "Assigned to Contractor",
    "contractor": "Legacy Professional Services",
    "rowid": "1020949",
    "final_x": "3682796.7971",
    "final_y": "530442.12099",
    "longitude": "-90.06401321104035",
    "latitude": "29.95249244398008",
    "geocoded_column": {
      "latitude": "29.95249244398008",
      "longitude": "-90.06401321104035"
    }
  },
  {
    "service_request": "2023-1020948",
    "request_type": "Property Maintenance",
    "request_reason": "Property Maintenance",
    "date_created": "2023-07-26T16:03:55.000",
    "date_modified": "2023-07-26T16:03:55.000",
    "request_status": "Pending",
    "responsible_agency": "Department of Code Enforcement",
    "final_address": "319 S Clark St",
    "address_councildis": "B",
    "status": "Pending",
    "rowid": "1020948",
    "final_x": "3672217.87572",
    "final_y": "536215.432711",
    "longitude": "-90.09722004309926",
    "latitude": "29.96868511782007",
    "geocoded_column": {
      "latitude": "29.96868511782007",
      "longitude": "-90.09722004309926"
    }
  },
  {
    "service_request": "2023-1020947",
    "request_type": "Trash/Recycling",
    "request_reason": "Request a Large Item Pick Up",
    "date_created": "2023-07-26T16:00:50.000",
    "date_modified": "2023-07-26T16:00:51.000",
    "request_status": "Pending",
    "responsible_agency": "Department of Sanitation",
    "final_address": "7120 Camberley Dr",
    "address_councildis": "E",
    "status": "Assigned to Contractor",
    "contractor": "Waste Pro",
    "rowid": "1020947",
    "final_x": "3713294.12734",
    "final_y": "564751.252834",
    "longitude": "-89.96642523058308",
    "latitude": "30.045865190888264",
    "geocoded_column": {
      "latitude": "30.045865190888264",
      "longitude": "-89.96642523058308"
    }
  },
  {
    "service_request": "2023-1020946",
    "request_type": "Mosquito, Termite & Rodent Control",
    "request_reason": "Rodent Complaint (Rats)",
    "date_created": "2023-07-26T16:00:26.000",
    "date_modified": "2023-07-26T16:00:26.000",
    "request_status": "Pending",
    "responsible_agency": "Mosquito, Termite & Rodent Control Board",
    "final_address": "1329 S Roman St",
    "address_councildis": "B",
    "status": "Pending",
    "rowid": "1020946",
    "final_x": "3674631.16929",
    "final_y": "528828.085632",
    "longitude": "-90.08985188985692",
    "latitude": "29.948300578814724",
    "geocoded_column": {
      "latitude": "29.948300578814724",
      "longitude": "-90.08985188985692"
    }
  },
  {
    "service_request": "2023-1020943",
    "request_type": "Parks & Parkways",
    "request_reason": "Request Tree Service (Right of Way/Public Property)",
    "date_created": "2023-07-26T16:00:09.000",
    "date_modified": "2023-07-26T16:00:10.000",
    "request_status": "Pending",
    "responsible_agency": "Department of Parks & Parkway",
    "final_address": "1854 General Collins Ave",
    "address_councildis": "C",
    "status": "Pending",
    "rowid": "1020943",
    "final_x": "3698561.88452",
    "final_y": "523893.707004",
    "longitude": "-90.01447252633749",
    "latitude": "29.933996974191935",
    "geocoded_column": {
      "latitude": "29.933996974191935",
      "longitude": "-90.01447252633749"
    }
  },
  {
    "service_request": "2023-1020942",
    "request_type": "Property Maintenance",
    "request_reason": "Property Maintenance",
    "date_created": "2023-07-26T15:59:36.000",
    "date_modified": "2023-07-26T15:59:36.000",
    "request_status": "Pending",
    "responsible_agency": "Department of Code Enforcement",
    "final_address": "4212 General Pershing St",
    "address_councildis": "B",
    "status": "Pending",
    "rowid": "1020942",
    "final_x": "3669798.01716",
    "final_y": "529498.255489",
    "longitude": "-90.10508950478437",
    "latitude": "29.950286661856513",
    "geocoded_column": {
      "latitude": "29.950286661856513",
      "longitude": "-90.10508950478437"
    }
  },
  {
    "service_request": "2023-1020941",
    "request_type": "Parks & Parkways",
    "request_reason": "Request Tree Service (Right of Way/Public Property)",
    "date_created": "2023-07-26T15:53:35.000",
    "date_modified": "2023-07-26T15:53:35.000",
    "request_status": "Pending",
    "responsible_agency": "Department of Parks & Parkway",
    "final_address": "1524 Broadway St",
    "address_councildis": "A",
    "status": "Inspected",
    "rowid": "1020941",
    "final_x": "3664859.70452",
    "final_y": "527626.607231",
    "longitude": "-90.12074470998571",
    "latitude": "29.945284861310032",
    "geocoded_column": {
      "latitude": "29.945284861310032",
      "longitude": "-90.12074470998571"
    }
  },
  {
    "service_request": "2023-1020940",
    "request_type": "Traffic Signals/Signs/Striping/Streetlights",
    "request_reason": "Street Light Outage/Malfunction",
    "date_created": "2023-07-26T15:52:33.000",
    "date_modified": "2023-07-26T15:52:33.000",
    "request_status": "Pending",
    "responsible_agency": "Department of Public Works",
    "final_address": "1524 Broadway St",
    "address_councildis": "A",
    "status": "Assigned to Contractor",
    "contractor": "Legacy Professional Services",
    "rowid": "1020940",
    "final_x": "3664859.70452",
    "final_y": "527626.607231",
    "longitude": "-90.12074470998571",
    "latitude": "29.945284861310032",
    "geocoded_column": {
      "latitude": "29.945284861310032",
      "longitude": "-90.12074470998571"
    }
  },
  {
    "service_request": "2023-1020939",
    "request_type": "Trash/Recycling",
    "request_reason": "Replace Trash Cart",
    "date_created": "2023-07-26T15:50:23.000",
    "date_modified": "2023-07-26T15:50:24.000",
    "request_status": "Pending",
    "responsible_agency": "Department of Sanitation",
    "final_address": "1524 Broadway St",
    "address_councildis": "A",
    "status": "Assigned to Contractor",
    "contractor": "Richards Disposal",
    "rowid": "1020939",
    "final_x": "3664859.70452",
    "final_y": "527626.607231",
    "longitude": "-90.12074470998571",
    "latitude": "29.945284861310032",
    "geocoded_column": {
      "latitude": "29.945284861310032",
      "longitude": "-90.12074470998571"
    }
  },
  {
    "service_request": "2023-1020938",
    "request_type": "Traffic Signals/Signs/Striping/Streetlights",
    "request_reason": "Street Light Outage/Malfunction",
    "date_created": "2023-07-26T15:48:11.000",
    "date_modified": "2023-07-26T15:48:12.000",
    "request_status": "Pending",
    "responsible_agency": "Department of Public Works",
    "final_address": "2205 St Maurice Ave",
    "address_councildis": "E",
    "status": "Assigned to Contractor",
    "contractor": "Legacy Professional Services",
    "rowid": "1020938",
    "final_x": "3701486.3041",
    "final_y": "537137.107784",
    "longitude": "-90.0047555516357",
    "latitude": "29.9703187475045",
    "geocoded_column": {
      "latitude": "29.9703187475045",
      "longitude": "-90.0047555516357"
    }
  },
  {
    "service_request": "2023-1020937",
    "request_type": "Trash/Recycling",
    "request_reason": "Replace Trash Cart",
    "date_created": "2023-07-26T15:47:36.000",
    "date_modified": "2023-07-26T15:47:36.000",
    "request_status": "Closed",
    "responsible_agency": "Department of Sanitation",
    "final_address": "4513 Baudin St",
    "address_councildis": "A",
    "status": "Resolved",
    "rowid": "1020937",
    "final_x": "3668650.12468",
    "final_y": "538228.753801",
    "longitude": "-90.10841927108513",
    "latitude": "29.974326424238107",
    "geocoded_column": {
      "latitude": "29.974326424238107",
      "longitude": "-90.10841927108513"
    }
  },
  {
    "service_request": "2023-1020936",
    "request_type": "Trash/Recycling",
    "request_reason": "MIssed Recycling Pick-Up",
    "date_created": "2023-07-26T15:47:31.000",
    "date_modified": "2023-07-26T15:47:32.000",
    "request_status": "Pending",
    "responsible_agency": "Department of Sanitation",
    "final_address": "4742 Marque Dr",
    "address_councildis": "E",
    "status": "Assigned to Contractor",
    "contractor": "Waste Pro",
    "rowid": "1020936",
    "final_x": "3709993.0899",
    "final_y": "555714.336857",
    "longitude": "-89.97719609430311",
    "latitude": "30.02112511749475",
    "geocoded_column": {
      "latitude": "30.02112511749475",
      "longitude": "-89.97719609430311"
    }
  },
  {
    "service_request": "2023-1020935",
    "request_type": "Traffic Signals/Signs/Striping/Streetlights",
    "request_reason": "Street Light Outage/Malfunction",
    "date_created": "2023-07-26T15:43:54.000",
    "date_modified": "2023-07-26T15:43:55.000",
    "request_status": "Pending",
    "responsible_agency": "Department of Public Works",
    "final_address": "4254 Maple Leaf Dr",
    "address_councildis": "C",
    "status": "Assigned to Contractor",
    "contractor": "Legacy Professional Services",
    "rowid": "1020935",
    "final_x": "3706455.69572",
    "final_y": "515468.036084",
    "longitude": "-89.98986416470724",
    "latitude": "29.910577125575845",
    "geocoded_column": {
      "latitude": "29.910577125575845",
      "longitude": "-89.98986416470724"
    }
  },
  {
    "service_request": "2023-1020934",
    "request_type": "Parks & Parkways",
    "request_reason": "Request Tree Service (Right of Way/Public Property)",
    "date_created": "2023-07-26T15:39:32.000",
    "date_modified": "2023-07-26T15:39:32.000",
    "request_status": "Pending",
    "responsible_agency": "Department of Parks & Parkway",
    "final_address": "9130 Apple St",
    "address_councildis": "A",
    "status": "Pending",
    "rowid": "1020934",
    "final_x": "3662501.17946",
    "final_y": "534658.480006",
    "longitude": "-90.1279578031678",
    "latitude": "29.964688656113527",
    "geocoded_column": {
      "latitude": "29.964688656113527",
      "longitude": "-90.1279578031678"
    }
  },
  {
    "service_request": "2023-1020933",
    "request_type": "Traffic Signals/Signs/Striping/Streetlights",
    "request_reason": "Street Light Outage/Malfunction",
    "date_created": "2023-07-26T15:39:08.000",
    "date_modified": "2023-07-26T15:39:09.000",
    "request_status": "Pending",
    "responsible_agency": "Department of Public Works",
    "final_address": "2130 Tricou St",
    "address_councildis": "E",
    "status": "Assigned to Contractor",
    "contractor": "Legacy Professional Services",
    "rowid": "1020933",
    "final_x": "3701641.6273",
    "final_y": "536891.106248",
    "longitude": "-90.00427403869695",
    "latitude": "29.969637379464302",
    "geocoded_column": {
      "latitude": "29.969637379464302",
      "longitude": "-90.00427403869695"
    }
  },
  {
    "service_request": "2023-1020932",
    "request_type": "Traffic Signals/Signs/Striping/Streetlights",
    "request_reason": "Street Light Outage/Malfunction",
    "date_created": "2023-07-26T15:35:34.000",
    "date_modified": "2023-07-26T15:38:04.000",
    "request_status": "Pending",
    "responsible_agency": "Department of Public Works",
    "final_address": "2205 St Maurice Ave",
    "address_councildis": "E",
    "status": "Assigned to Contractor",
    "contractor": "Legacy Professional Services",
    "rowid": "1020932",
    "final_x": "3701486.3041",
    "final_y": "537137.107784",
    "longitude": "-90.0047555516357",
    "latitude": "29.9703187475045",
    "geocoded_column": {
      "latitude": "29.9703187475045",
      "longitude": "-90.0047555516357"
    }
  },
  {
    "service_request": "2023-1020931",
    "request_type": "Abandoned Vehicles",
    "request_reason": "Abandoned/Junk Vehicles",
    "date_created": "2023-07-26T15:34:41.000",
    "date_modified": "2023-07-26T15:34:41.000",
    "request_status": "Pending",
    "responsible_agency": "Department of Public Works",
    "final_address": "4900 Bonita Dr",
    "address_councildis": "E",
    "status": "Pending",
    "rowid": "1020931",
    "final_x": "3704363.20516",
    "final_y": "556040.714457",
    "longitude": "-89.99497275660384",
    "latitude": "30.022204539874544",
    "geocoded_column": {
      "latitude": "30.022204539874544",
      "longitude": "-89.99497275660384"
    }
  },
  {
    "service_request": "2023-1020930",
    "request_type": "Abandoned Vehicles",
    "request_reason": "Abandoned/Junk Vehicles",
    "date_created": "2023-07-26T15:31:04.000",
    "date_modified": "2023-07-26T15:31:14.000",
    "request_status": "Pending",
    "responsible_agency": "Department of Public Works",
    "final_address": "743 Aurora Oaks Dr",
    "address_councildis": "C",
    "status": "Pending",
    "rowid": "1020930",
    "final_x": "3701200.44343",
    "final_y": "519698.114616",
    "longitude": "-90.00629615692516",
    "latitude": "29.922376775539483",
    "geocoded_column": {
      "latitude": "29.922376775539483",
      "longitude": "-90.00629615692516"
    }
  },
  {
    "service_request": "2023-1020929",
    "request_type": "Trash/Recycling",
    "request_reason": "Request a Large Item Pick Up",
    "date_created": "2023-07-26T15:30:08.000",
    "date_modified": "2023-07-26T15:30:48.000",
    "request_status": "Pending",
    "responsible_agency": "Department of Sanitation",
    "final_address": "4759 Mandeville St",
    "address_councildis": "D",
    "status": "Assigned to Contractor",
    "contractor": "IV Waste",
    "rowid": "1020929",
    "final_x": "3684766.22844",
    "final_y": "550628.398868",
    "longitude": "-90.05708472233029",
    "latitude": "30.007937474226544",
    "geocoded_column": {
      "latitude": "30.007937474226544",
      "longitude": "-90.05708472233029"
    }
  },
  {
    "service_request": "2023-1020928",
    "request_type": "Property Maintenance",
    "request_reason": "Property Maintenance",
    "date_created": "2023-07-26T15:29:22.000",
    "date_modified": "2023-07-26T15:29:23.000",
    "request_status": "Pending",
    "responsible_agency": "Department of Code Enforcement",
    "final_address": "6334 Franklin Ave",
    "address_councildis": "D",
    "status": "Pending",
    "rowid": "1020928",
    "final_x": "3686179.15868",
    "final_y": "556686.473178",
    "longitude": "-90.05240690492397",
    "latitude": "30.024551602315046",
    "geocoded_column": {
      "latitude": "30.024551602315046",
      "longitude": "-90.05240690492397"
    }
  },
  {
    "service_request": "2023-1020925",
    "request_type": "Trash/Recycling",
    "request_reason": "Replace Trash Cart",
    "date_created": "2023-07-26T15:25:25.000",
    "date_modified": "2023-07-26T15:25:25.000",
    "request_status": "Pending",
    "responsible_agency": "Department of Sanitation",
    "final_address": "1821 Broadway St",
    "address_councildis": "A",
    "status": "Assigned to Contractor",
    "contractor": "Richards Disposal",
    "rowid": "1020925",
    "final_x": "3665527.928",
    "final_y": "528407.027072",
    "longitude": "-90.1186087865003",
    "latitude": "29.947411302989714",
    "geocoded_column": {
      "latitude": "29.947411302989714",
      "longitude": "-90.1186087865003"
    }
  },
  {
    "service_request": "2023-1020924",
    "request_type": "Trash/Recycling",
    "request_reason": "MIssed Recycling Pick-Up",
    "date_created": "2023-07-26T15:23:58.000",
    "date_modified": "2023-07-26T15:23:58.000",
    "request_status": "Pending",
    "responsible_agency": "Department of Sanitation",
    "final_address": "4535 Bundy Rd",
    "address_councildis": "E",
    "status": "Assigned to Contractor",
    "contractor": "Waste Pro",
    "rowid": "1020924",
    "final_x": "3709552.16472",
    "final_y": "554679.693656",
    "longitude": "-89.97862793095993",
    "latitude": "30.018294593466365",
    "geocoded_column": {
      "latitude": "30.018294593466365",
      "longitude": "-89.97862793095993"
    }
  },
  {
    "service_request": "2023-1020923",
    "request_type": "Parks & Parkways",
    "request_reason": "Request Tree Service (Right of Way/Public Property)",
    "date_created": "2023-07-26T15:19:40.000",
    "date_modified": "2023-07-26T15:28:05.000",
    "request_status": "Pending",
    "responsible_agency": "Department of Parks & Parkway",
    "final_address": "3536 Toledano St",
    "address_councildis": "B",
    "status": "Pending",
    "rowid": "1020923",
    "final_x": "3671632.52481",
    "final_y": "528449.20352",
    "longitude": "-90.09933275149187",
    "latitude": "29.947347915464537",
    "geocoded_column": {
      "latitude": "29.947347915464537",
      "longitude": "-90.09933275149187"
    }
  },
  {
    "service_request": "2023-1020922",
    "request_type": "Roads/Drainage",
    "request_reason": "Pothole",
    "date_created": "2023-07-26T15:18:13.000",
    "date_modified": "2023-07-26T15:18:21.000",
    "request_status": "Pending",
    "responsible_agency": "Department of Public Works",
    "final_address": "2232 Leon C Simon Dr",
    "address_councildis": "D",
    "status": "Pending",
    "rowid": "1020922",
    "final_x": "3683713.73628",
    "final_y": "556782.13161",
    "longitude": "-90.06019384264474",
    "latitude": "30.02489017921577",
    "geocoded_column": {
      "latitude": "30.02489017921577",
      "longitude": "-90.06019384264474"
    }
  },
  {
    "service_request": "2023-1020920",
    "request_type": "Trash/Recycling",
    "request_reason": "Request a Large Item Pick Up",
    "date_created": "2023-07-26T15:11:32.000",
    "date_modified": "2023-07-26T15:11:32.000",
    "request_status": "Pending",
    "responsible_agency": "Department of Sanitation",
    "final_address": "4560 Francisco Verrett Dr",
    "address_councildis": "E",
    "status": "Assigned to Contractor",
    "contractor": "Waste Pro",
    "rowid": "1020920",
    "final_x": "3704299.35614",
    "final_y": "554026.151256",
    "longitude": "-89.9952488368954",
    "latitude": "30.016667317013255",
    "geocoded_column": {
      "latitude": "30.016667317013255",
      "longitude": "-89.9952488368954"
    }
  },
  {
    "service_request": "2023-1020919",
    "request_type": "Roads/Drainage",
    "request_reason": "Catch Basin - Clogged",
    "date_created": "2023-07-26T15:07:22.000",
    "date_modified": "2023-07-26T16:47:55.000",
    "request_status": "Pending",
    "responsible_agency": "Department of Public Works",
    "final_address": "4742 Francis Dr",
    "address_councildis": "D",
    "status": "Inspected",
    "rowid": "1020919",
    "final_x": "3698168.47568",
    "final_y": "554412.813848",
    "longitude": "-90.01460564949014",
    "latitude": "30.017925927463644",
    "geocoded_column": {
      "latitude": "30.017925927463644",
      "longitude": "-90.01460564949014"
    }
  },
  {
    "service_request": "2023-1020918",
    "request_type": "Trash/Recycling",
    "request_reason": "Order Recycling Cart",
    "date_created": "2023-07-26T15:02:00.000",
    "date_modified": "2023-07-26T15:02:00.000",
    "request_status": "Pending",
    "responsible_agency": "Department of Sanitation",
    "final_address": "6501 Florida Ave",
    "address_councildis": "E",
    "status": "Pending",
    "rowid": "1020918",
    "final_x": "3703272.98903",
    "final_y": "538555.922121",
    "longitude": "-89.99906087212624",
    "latitude": "29.974162886657158",
    "geocoded_column": {
      "latitude": "29.974162886657158",
      "longitude": "-89.99906087212624"
    }
  },
  {
    "service_request": "2023-1020917",
    "request_type": "Trash/Recycling",
    "request_reason": "Repair Trash Cart",
    "date_created": "2023-07-26T15:01:51.000",
    "date_modified": "2023-07-26T15:02:37.000",
    "request_status": "Pending",
    "responsible_agency": "Department of Sanitation",
    "final_address": "1221 Constantinople St",
    "address_councildis": "B",
    "status": "Assigned to Contractor",
    "contractor": "Richards Disposal",
    "rowid": "1020917",
    "final_x": "3672464.70081",
    "final_y": "520181.419896",
    "longitude": "-90.09698691327688",
    "latitude": "29.92458952289487",
    "geocoded_column": {
      "latitude": "29.92458952289487",
      "longitude": "-90.09698691327688"
    }
  },
  {
    "service_request": "2023-1020916",
    "request_type": "Property Maintenance",
    "request_reason": "Property Maintenance",
    "date_created": "2023-07-26T14:58:17.000",
    "date_modified": "2023-07-26T14:58:18.000",
    "request_status": "Pending",
    "responsible_agency": "Department of Code Enforcement",
    "final_address": "314 S Dupre St",
    "address_councildis": "B",
    "status": "Pending",
    "rowid": "1020916",
    "final_x": "3674094.83412",
    "final_y": "534872.713478",
    "longitude": "-90.09133845404165",
    "latitude": "29.964937283410297",
    "geocoded_column": {
      "latitude": "29.964937283410297",
      "longitude": "-90.09133845404165"
    }
  },
  {
    "service_request": "2023-1020915",
    "request_type": "Trash/Recycling",
    "request_reason": "Order Recycling Cart",
    "date_created": "2023-07-26T14:54:14.000",
    "date_modified": "2023-07-26T14:54:14.000",
    "request_status": "Pending",
    "responsible_agency": "Department of Sanitation",
    "final_address": "5807 Lafaye St",
    "address_councildis": "D",
    "status": "Pending",
    "rowid": "1020915",
    "final_x": "3687223.54639",
    "final_y": "554583.56444",
    "longitude": "-90.04918129812192",
    "latitude": "30.018737239997133",
    "geocoded_column": {
      "latitude": "30.018737239997133",
      "longitude": "-90.04918129812192"
    }
  },
  {
    "service_request": "2023-1020914",
    "request_type": "Trash/Recycling",
    "request_reason": "Request a Large Item Pick Up",
    "date_created": "2023-07-26T14:54:11.000",
    "date_modified": "2023-07-26T14:54:12.000",
    "request_status": "Pending",
    "responsible_agency": "Department of Sanitation",
    "final_address": "2727 Bruxelles St",
    "address_councildis": "D",
    "status": "Assigned to Contractor",
    "contractor": "IV Waste",
    "rowid": "1020914",
    "final_x": "3680369.39163",
    "final_y": "542476.472973",
    "longitude": "-90.07125931370967",
    "latitude": "29.985656493447326",
    "geocoded_column": {
      "latitude": "29.985656493447326",
      "longitude": "-90.07125931370967"
    }
  },
  {
    "service_request": "2023-1020913",
    "request_type": "Trash/Recycling",
    "request_reason": "MIssed Recycling Pick-Up",
    "date_created": "2023-07-26T14:50:26.000",
    "date_modified": "2023-07-26T14:50:27.000",
    "request_status": "Pending",
    "responsible_agency": "Department of Sanitation",
    "final_address": "7724 Michigan St",
    "address_councildis": "E",
    "status": "Assigned to Contractor",
    "contractor": "Waste Pro",
    "rowid": "1020913",
    "final_x": "3711406.89323",
    "final_y": "567007.971556",
    "longitude": "-89.9723050590839",
    "latitude": "30.052132022374142",
    "geocoded_column": {
      "latitude": "30.052132022374142",
      "longitude": "-89.9723050590839"
    }
  },
  {
    "service_request": "2023-1020912",
    "request_type": "Trash/Recycling",
    "request_reason": "Request a Large Item Pick Up",
    "date_created": "2023-07-26T14:48:14.000",
    "date_modified": "2023-07-26T14:48:14.000",
    "request_status": "Pending",
    "responsible_agency": "Department of Sanitation",
    "final_address": "14544 Duane Rd",
    "address_councildis": "E",
    "status": "Assigned to Contractor",
    "contractor": "Waste Pro",
    "rowid": "1020912",
    "final_x": "3720821.2183",
    "final_y": "573338.248874",
    "longitude": "-89.94230669864447",
    "latitude": "30.069226803721783",
    "geocoded_column": {
      "latitude": "30.069226803721783",
      "longitude": "-89.94230669864447"
    }
  },
  {
    "service_request": "2023-1020911",
    "request_type": "Trash/Recycling",
    "request_reason": "Order Recycling Cart",
    "date_created": "2023-07-26T14:47:24.000",
    "date_modified": "2023-07-26T14:47:24.000",
    "request_status": "Pending",
    "responsible_agency": "Department of Sanitation",
    "final_address": "4943 Lancelot Dr",
    "address_councildis": "E",
    "status": "Pending",
    "rowid": "1020911",
    "final_x": "3707394.7786",
    "final_y": "556773.764698",
    "longitude": "-89.98536657251711",
    "latitude": "30.02412243188629",
    "geocoded_column": {
      "latitude": "30.02412243188629",
      "longitude": "-89.98536657251711"
    }
  },
  {
    "service_request": "2023-1020910",
    "request_type": "Traffic Signals/Signs/Striping/Streetlights",
    "request_reason": "Traffic Sign Missing/Damaged",
    "date_created": "2023-07-26T14:45:44.000",
    "date_modified": "2023-07-26T14:45:44.000",
    "request_status": "Pending",
    "responsible_agency": "Department of Public Works",
    "final_address": "4100 BLK Johnny Jackson Jr Blvd",
    "address_councildis": "D",
    "status": "Pending",
    "rowid": "1020910",
    "final_x": "3691618.73156",
    "final_y": "548694.387307",
    "longitude": "-90.0355048967553",
    "latitude": "30.002408010507963",
    "geocoded_column": {
      "latitude": "30.002408010507963",
      "longitude": "-90.0355048967553"
    }
  },
  {
    "service_request": "2023-1020908",
    "request_type": "Trash/Recycling",
    "request_reason": "Repair Recycling Cart",
    "date_created": "2023-07-26T14:38:35.000",
    "date_modified": "2023-07-26T14:38:35.000",
    "request_status": "Pending",
    "responsible_agency": "Department of Sanitation",
    "final_address": "1122 Fern St",
    "address_councildis": "A",
    "status": "Pending",
    "rowid": "1020908",
    "final_x": "3662388.47258",
    "final_y": "527748.584447",
    "longitude": "-90.12854316174943",
    "latitude": "29.945691937357495",
    "geocoded_column": {
      "latitude": "29.945691937357495",
      "longitude": "-90.12854316174943"
    }
  },
  {
    "service_request": "2023-1020907",
    "request_type": "Trash/Recycling",
    "request_reason": "Request a Large Item Pick Up",
    "date_created": "2023-07-26T14:38:31.000",
    "date_modified": "2023-07-26T14:38:32.000",
    "request_status": "Pending",
    "responsible_agency": "Department of Sanitation",
    "final_address": "3828 General Taylor St",
    "address_councildis": "B",
    "status": "Assigned to Contractor",
    "contractor": "Richards Disposal",
    "rowid": "1020907",
    "final_x": "3670760.80084",
    "final_y": "528840.728384",
    "longitude": "-90.10207184060567",
    "latitude": "29.948450265605473",
    "geocoded_column": {
      "latitude": "29.948450265605473",
      "longitude": "-90.10207184060567"
    }
  },
  {
    "service_request": "2023-1020906",
    "request_type": "Trash/Recycling",
    "request_reason": "Replace Trash Cart",
    "date_created": "2023-07-26T14:34:02.000",
    "date_modified": "2023-07-26T14:34:02.000",
    "request_status": "Pending",
    "responsible_agency": "Department of Sanitation",
    "final_address": "4318 Magazine St",
    "address_councildis": "B",
    "status": "Assigned to Contractor",
    "contractor": "Richards Disposal",
    "rowid": "1020906",
    "final_x": "3671242.54036",
    "final_y": "518689.425271",
    "longitude": "-90.10089552697251",
    "latitude": "29.92052321606648",
    "geocoded_column": {
      "latitude": "29.92052321606648",
      "longitude": "-90.10089552697251"
    }
  },
  {
    "service_request": "2023-1020905",
    "request_type": "Trash/Recycling",
    "request_reason": "Repair Trash Cart",
    "date_created": "2023-07-26T14:33:44.000",
    "date_modified": "2023-07-26T14:33:45.000",
    "request_status": "Pending",
    "responsible_agency": "Department of Sanitation",
    "final_address": "8301 Lomond Rd",
    "address_councildis": "E",
    "status": "Assigned to Contractor",
    "contractor": "Waste Pro",
    "rowid": "1020905",
    "final_x": "3703054.73188",
    "final_y": "561832.818719",
    "longitude": "-89.99889403786482",
    "latitude": "30.038172533824554",
    "geocoded_column": {
      "latitude": "30.038172533824554",
      "longitude": "-89.99889403786482"
    }
  },
  {
    "service_request": "2023-1020903",
    "request_type": "Trash/Recycling",
    "request_reason": "Request a Large Item Pick Up",
    "date_created": "2023-07-26T14:32:32.000",
    "date_modified": "2023-07-26T14:32:52.000",
    "request_status": "Pending",
    "responsible_agency": "Department of Sanitation",
    "final_address": "8301 Lomond Rd",
    "address_councildis": "E",
    "status": "Assigned to Contractor",
    "contractor": "Waste Pro",
    "rowid": "1020903",
    "final_x": "3703054.73188",
    "final_y": "561832.818719",
    "longitude": "-89.99889403786482",
    "latitude": "30.038172533824554",
    "geocoded_column": {
      "latitude": "30.038172533824554",
      "longitude": "-89.99889403786482"
    }
  },
  {
    "service_request": "2023-1020902",
    "request_type": "Traffic Signals/Signs/Striping/Streetlights",
    "request_reason": "Street Light Outage/Malfunction",
    "date_created": "2023-07-26T14:30:41.000",
    "date_modified": "2023-07-26T14:30:42.000",
    "request_status": "Pending",
    "responsible_agency": "Department of Public Works",
    "final_address": "6414 Cartier Dr",
    "address_councildis": "D",
    "status": "Assigned to Contractor",
    "contractor": "Legacy Professional Services",
    "rowid": "1020902",
    "final_x": "3677170.35618",
    "final_y": "556647.09865",
    "longitude": "-90.08087453490832",
    "latitude": "30.024717171873323",
    "geocoded_column": {
      "latitude": "30.024717171873323",
      "longitude": "-90.08087453490832"
    }
  },
  {
    "service_request": "2023-1020901",
    "request_type": "Roads/Drainage",
    "request_reason": "Street Flooding / Drainage",
    "date_created": "2023-07-26T14:27:03.000",
    "date_modified": "2023-07-26T14:27:03.000",
    "request_status": "Pending",
    "responsible_agency": "Department of Public Works",
    "final_address": "ROYAL ST & LIZARDI ST",
    "address_councildis": "E",
    "status": "Pending",
    "rowid": "1020901",
    "final_x": "3696109.3",
    "final_y": "532648.78",
    "longitude": "-90.02189885905538",
    "latitude": "29.958147771331298",
    "geocoded_column": {
      "latitude": "29.958147771331298",
      "longitude": "-90.02189885905538"
    }
  },
  {
    "service_request": "2023-1020900",
    "request_type": "Abandoned Vehicles",
    "request_reason": "Vehicle Blocking Your Driveway",
    "date_created": "2023-07-26T14:26:24.000",
    "date_modified": "2023-07-26T14:26:24.000",
    "request_status": "Pending",
    "responsible_agency": "Department of Public Works",
    "final_address": "2404 Bienville Ave",
    "address_councildis": "B",
    "status": "Pending",
    "rowid": "1020900",
    "final_x": "3676806.54005",
    "final_y": "534902.313158",
    "longitude": "-90.08277402664487",
    "latitude": "29.96493757417276",
    "geocoded_column": {
      "latitude": "29.96493757417276",
      "longitude": "-90.08277402664487"
    }
  },
  {
    "service_request": "2023-1020899",
    "request_type": "Mayor's Request",
    "request_reason": "Requests to the Mayor",
    "date_created": "2023-07-26T14:23:03.000",
    "date_modified": "2023-07-26T14:23:03.000",
    "request_status": "Pending",
    "responsible_agency": "Executive Office of the Mayor",
    "final_address": "827 Jackson Ave",
    "address_councildis": "B",
    "status": "Pending",
    "rowid": "1020899",
    "final_x": "3679436.818",
    "final_y": "521415.824889",
    "longitude": "-90.07493550160358",
    "latitude": "29.927775039397318",
    "geocoded_column": {
      "latitude": "29.927775039397318",
      "longitude": "-90.07493550160358"
    }
  },
  {
    "service_request": "2023-1020898",
    "request_type": "Roads/Drainage",
    "request_reason": "Damaged Sidewalk",
    "date_created": "2023-07-26T14:22:56.000",
    "date_modified": "2023-07-26T16:22:05.000",
    "request_status": "Pending",
    "responsible_agency": "Department of Public Works",
    "final_address": "9896 E Wheaton Cir",
    "address_councildis": "E",
    "status": "Inspected",
    "rowid": "1020898",
    "final_x": "3709213.2051",
    "final_y": "562701.389408",
    "longitude": "-89.97939942284849",
    "latitude": "30.040362113156448",
    "geocoded_column": {
      "latitude": "30.040362113156448",
      "longitude": "-89.97939942284849"
    }
  },
  {
    "service_request": "2023-1020897",
    "request_type": "Trash/Recycling",
    "request_reason": "Repair Trash Cart",
    "date_created": "2023-07-26T14:22:55.000",
    "date_modified": "2023-07-26T14:22:56.000",
    "request_status": "Pending",
    "responsible_agency": "Department of Sanitation",
    "final_address": "429 Amethyst St",
    "address_councildis": "D",
    "status": "Assigned to Contractor",
    "contractor": "IV Waste",
    "rowid": "1020897",
    "final_x": "3667631.67284",
    "final_y": "556678.378138",
    "longitude": "-90.11101421883531",
    "latitude": "30.025086413441702",
    "geocoded_column": {
      "latitude": "30.025086413441702",
      "longitude": "-90.11101421883531"
    }
  },
  {
    "service_request": "2023-1020896",
    "request_type": "Trash/Recycling",
    "request_reason": "Dead Animal Pick Up",
    "date_created": "2023-07-26T14:22:04.000",
    "date_modified": "2023-07-26T14:23:26.000",
    "request_status": "Pending",
    "responsible_agency": "Department of Sanitation",
    "final_address": "429 Amethyst St",
    "address_councildis": "D",
    "status": "Assigned to Contractor",
    "contractor": "IV Waste",
    "rowid": "1020896",
    "final_x": "3667631.67284",
    "final_y": "556678.378138",
    "longitude": "-90.11101421883531",
    "latitude": "30.025086413441702",
    "geocoded_column": {
      "latitude": "30.025086413441702",
      "longitude": "-90.11101421883531"
    }
  },