[
  {
    "service_request": "2022-864794",
    "request_type": "Health Related Questions",
    "request_reason": "Noise Ordinance Complaint",
    "date_created": "2022-03-06T01:51:53.000",
    "date_modified": "2022-03-06T01:51:53.000",
    "request_status": "Pending",
    "responsible_agency": "Health Department",
    "final_address": "5100 Lasalle St, New Orleans, Louisiana, 70115",
    "address_councildis": "B",
    "status": "Pending",
    "rowid": "864794",
    "final_x": "3668440.0521",
    "final_y": "523352.444539",
    "longitude": "-90.10958450624467",
    "latitude": "29.933427623030152",
    "geocoded_column": {
      "latitude": "29.933427623030152",
      "longitude": "-90.10958450624467"
    }
  },
  {
    "service_request": "2022-864793",
    "request_type": "Health Related Questions",
    "request_reason": "Noise Ordinance Complaint",
    "date_created": "2022-03-06T01:29:41.000",
    "date_modified": "2022-03-06T01:29:41.000",
    "request_status": "Pending",
    "responsible_agency": "Health Department",
    "final_address": "New Orleans, Louisiana",
    "status": "Pending",
    "rowid": "864793",
    "longitude": "0.0",
    "latitude": "0.0",
    "geocoded_column": {
      "latitude": "0.0",
      "longitude": "0.0"
    }
  },
  {
    "service_request": "2022-864792",
    "request_type": "Abandoned Vehicles",
    "request_reason": "Vehicle Blocking Your Driveway",
    "date_created": "2022-03-06T01:16:18.000",
    "date_modified": "2022-03-06T01:16:18.000",
    "request_status": "Pending",
    "responsible_agency": "Department of Public Works",
    "final_address": "2121 Burdette St",
    "address_councildis": "A",
    "status": "Pending",
    "rowid": "864792",
    "final_x": "3665113.62298",
    "final_y": "530034.530497",
    "longitude": "-90.11986249249206",
    "latitude": "29.951898481390913",
    "geocoded_column": {
      "latitude": "29.951898481390913",
      "longitude": "-90.11986249249206"
    }
  },
  {
    "service_request": "2022-864791",
    "request_type": "Traffic Signals/Signs/Striping/Streetlights",
    "request_reason": "Street Light Outage/Malfunction",
    "date_created": "2022-03-06T01:09:13.000",
    "date_modified": "2022-03-06T01:09:14.000",
    "request_status": "Pending",
    "responsible_agency": "Department of Public Works",
    "final_address": "977 N Carrollton Ave",
    "address_councildis": "A",
    "status": "Pending",
    "contractor": "Royal Engineering",
    "rowid": "864791",
    "final_x": "3673488.93064",
    "final_y": "541086.234572",
    "longitude": "-90.0930394693642",
    "latitude": "29.98204040144654",
    "geocoded_column": {
      "latitude": "29.98204040144654",
      "longitude": "-90.0930394693642"
    }
  },
  {
    "service_request": "2022-864790",
    "request_type": "Abandoned Vehicles",
    "request_reason": "Vehicle Blocking Your Driveway",
    "date_created": "2022-03-06T01:04:22.000",
    "date_modified": "2022-03-06T01:04:22.000",
    "request_status": "Pending",
    "responsible_agency": "Department of Public Works",
    "final_address": "2121 Burdette St",
    "address_councildis": "A",
    "status": "Pending",
    "rowid": "864790",
    "final_x": "3665113.62298",
    "final_y": "530034.530497",
    "longitude": "-90.11986249249206",
    "latitude": "29.951898481390913",
    "geocoded_column": {
      "latitude": "29.951898481390913",
      "longitude": "-90.11986249249206"
    }
  },
  {
    "service_request": "2022-864789",
    "request_type": "Abandoned Vehicles",
    "request_reason": "Vehicle Blocking Your Driveway",
    "date_created": "2022-03-06T00:47:00.000",
    "date_modified": "2022-03-06T00:47:00.000",
    "request_status": "Pending",
    "responsible_agency": "Department of Public Works",
    "final_address": "2121 Burdette St",
    "address_councildis": "A",
    "status": "Pending",
    "rowid": "864789",
    "final_x": "3665113.62298",
    "final_y": "530034.530497",
    "longitude": "-90.11986249249206",
    "latitude": "29.951898481390913",
    "geocoded_column": {
      "latitude": "29.951898481390913",
      "longitude": "-90.11986249249206"
    }
  },
  {
    "service_request": "2022-864788",
    "request_type": "Trash/Recycling",
    "request_reason": "Request a Large Item Pick Up",
    "date_created": "2022-03-06T00:07:23.000",
    "date_modified": "2022-03-06T00:07:24.000",
    "request_status": "Pending",
    "responsible_agency": "Department of Sanitation",
    "final_address": "426 S Gayoso St",
    "address_councildis": "B",
    "status": "Assigned to Contractor",
    "contractor": "Richards Disposal",
    "rowid": "864788",
    "final_x": "3673489.21934",
    "final_y": "534677.84007",
    "longitude": "-90.09325761175919",
    "latitude": "29.964419482870234",
    "geocoded_column": {
      "latitude": "29.964419482870234",
      "longitude": "-90.09325761175919"
    }
  },
  {
    "service_request": "2022-864787",
    "request_type": "Trash/Recycling",
    "request_reason": "Missed Trash Pick-Up",
    "date_created": "2022-03-05T22:34:16.000",
    "date_modified": "2022-03-05T22:34:17.000",
    "request_status": "Pending",
    "responsible_agency": "Department of Sanitation",
    "final_address": "8429 Hickory St",
    "address_councildis": "A",
    "status": "Assigned to Contractor",
    "contractor": "Richards Disposal",
    "rowid": "864787",
    "final_x": "3662427.32947",
    "final_y": "530853.292482",
    "longitude": "-90.12831738866616",
    "latitude": "29.954227763148374",
    "geocoded_column": {
      "latitude": "29.954227763148374",
      "longitude": "-90.12831738866616"
    }
  },
  {
    "service_request": "2022-864786",
    "request_type": "Property Maintenance",
    "request_reason": "Property Maintenance",
    "date_created": "2022-03-05T22:29:46.000",
    "date_modified": "2022-03-05T22:29:46.000",
    "request_status": "Pending",
    "responsible_agency": "Department of Code Enforcement",
    "final_address": "4957 Venus St",
    "address_councildis": "D",
    "status": "Pending",
    "rowid": "864786",
    "final_x": "3686505.49826",
    "final_y": "551473.950421",
    "longitude": "-90.05155997673839",
    "latitude": "30.010209051207404",
    "geocoded_column": {
      "latitude": "30.010209051207404",
      "longitude": "-90.05155997673839"
    }
  },
  {
    "service_request": "2022-864784",
    "request_type": "Safety & Permits",
    "request_reason": "Licenses & Permits",
    "date_created": "2022-03-05T21:50:37.000",
    "date_modified": "2022-03-05T21:50:37.000",
    "request_status": "Pending",
    "responsible_agency": "Safety and Permits",
    "final_address": "2005 Painters St",
    "address_councildis": "D",
    "status": "Pending",
    "rowid": "864784",
    "final_x": "3687374.26377",
    "final_y": "539899.626826",
    "longitude": "-90.04922503152666",
    "latitude": "29.9783570726551",
    "geocoded_column": {
      "latitude": "29.9783570726551",
      "longitude": "-90.04922503152666"
    }
  },
  {
    "service_request": "2022-864783",
    "request_type": "Roads/Drainage",
    "request_reason": "Unpermitted work in ROW",
    "date_created": "2022-03-05T21:16:58.000",
    "date_modified": "2022-03-05T21:16:58.000",
    "request_status": "Pending",
    "responsible_agency": "Department of Public Works",
    "final_address": "3111 Grand Route St John St",
    "address_councildis": "A",
    "status": "Pending",
    "rowid": "864783",
    "final_x": "3676507.66805",
    "final_y": "540406.357323",
    "longitude": "-90.0835282619005",
    "latitude": "29.980080781175236",
    "geocoded_column": {
      "latitude": "29.980080781175236",
      "longitude": "-90.0835282619005"
    }
  },
  {
    "service_request": "2022-864782",
    "request_type": "Traffic Signals/Signs/Striping/Streetlights",
    "request_reason": "Street Light Outage/Malfunction",
    "date_created": "2022-03-05T20:44:15.000",
    "date_modified": "2022-03-05T20:44:16.000",
    "request_status": "Pending",
    "responsible_agency": "Department of Public Works",
    "final_address": "11040 Morrison Rd",
    "address_councildis": "E",
    "status": "Pending",
    "contractor": "Royal Engineering",
    "rowid": "864782",
    "final_x": "3711375.19538",
    "final_y": "564974.300898",
    "longitude": "-89.97248158496139",
    "latitude": "30.04654128636643",
    "geocoded_column": {
      "latitude": "30.04654128636643",
      "longitude": "-89.97248158496139"
    }
  },
  {
    "service_request": "2022-864781",
    "request_type": "Trash/Recycling",
    "request_reason": "Order Trash Cart",
    "date_created": "2022-03-05T20:43:16.000",
    "date_modified": "2022-03-05T20:43:17.000",
    "request_status": "Pending",
    "responsible_agency": "Department of Sanitation",
    "final_address": "4937 Alsace St",
    "address_councildis": "E",
    "status": "Assigned to Contractor",
    "contractor": "Metro Disposal",
    "rowid": "864781",
    "final_x": "3730485.76634",
    "final_y": "563089.08304",
    "longitude": "-89.91215707506072",
    "latitude": "30.040719811367495",
    "geocoded_column": {
      "latitude": "30.040719811367495",
      "longitude": "-89.91215707506072"
    }
  },
  {
    "service_request": "2022-864780",
    "request_type": "Traffic Signals/Signs/Striping/Streetlights",
    "request_reason": "Street Light Outage/Malfunction",
    "date_created": "2022-03-05T20:42:51.000",
    "date_modified": "2022-03-05T20:42:52.000",
    "request_status": "Pending",
    "responsible_agency": "Department of Public Works",
    "final_address": "11040 Morrison Rd",
    "address_councildis": "E",
    "status": "Pending",
    "contractor": "Royal Engineering",
    "rowid": "864780",
    "final_x": "3711375.19538",
    "final_y": "564974.300898",
    "longitude": "-89.97248158496139",
    "latitude": "30.04654128636643",
    "geocoded_column": {
      "latitude": "30.04654128636643",
      "longitude": "-89.97248158496139"
    }
  },
  {
    "service_request": "2022-864779",
    "request_type": "Traffic Signals/Signs/Striping/Streetlights",
    "request_reason": "Street Light Outage/Malfunction",
    "date_created": "2022-03-05T20:41:43.000",
    "date_modified": "2022-03-05T20:41:43.000",
    "request_status": "Pending",
    "responsible_agency": "Department of Public Works",
    "final_address": "11040 Morrison Rd",
    "address_councildis": "E",
    "status": "Pending",
    "contractor": "Royal Engineering",
    "rowid": "864779",
    "final_x": "3711375.19538",
    "final_y": "564974.300898",
    "longitude": "-89.97248158496139",
    "latitude": "30.04654128636643",
    "geocoded_column": {
      "latitude": "30.04654128636643",
      "longitude": "-89.97248158496139"
    }
  },
  {
    "service_request": "2022-864778",
    "request_type": "Traffic Signals/Signs/Striping/Streetlights",
    "request_reason": "Street Light Outage/Malfunction",
    "date_created": "2022-03-05T20:40:26.000",
    "date_modified": "2022-03-05T20:40:27.000",
    "request_status": "Pending",
    "responsible_agency": "Department of Public Works",
    "final_address": "11040 Morrison Rd",
    "address_councildis": "E",
    "status": "Pending",
    "contractor": "Royal Engineering",
    "rowid": "864778",
    "final_x": "3711375.19538",
    "final_y": "564974.300898",
    "longitude": "-89.97248158496139",
    "latitude": "30.04654128636643",
    "geocoded_column": {
      "latitude": "30.04654128636643",
      "longitude": "-89.97248158496139"
    }
  },
  {
    "service_request": "2022-864777",
    "request_type": "Traffic Signals/Signs/Striping/Streetlights",
    "request_reason": "Street Light Outage/Malfunction",
    "date_created": "2022-03-05T20:38:39.000",
    "date_modified": "2022-03-05T20:38:39.000",
    "request_status": "Pending",
    "responsible_agency": "Department of Public Works",
    "final_address": "11040 Morrison Rd",
    "address_councildis": "E",
    "status": "Pending",
    "contractor": "Royal Engineering",
    "rowid": "864777",
    "final_x": "3711375.19538",
    "final_y": "564974.300898",
    "longitude": "-89.97248158496139",
    "latitude": "30.04654128636643",
    "geocoded_column": {
      "latitude": "30.04654128636643",
      "longitude": "-89.97248158496139"
    }
  },
  {
    "service_request": "2022-864776",
    "request_type": "Traffic Signals/Signs/Striping/Streetlights",
    "request_reason": "Street Light Outage/Malfunction",
    "date_created": "2022-03-05T20:36:19.000",
    "date_modified": "2022-03-05T20:36:20.000",
    "request_status": "Pending",
    "responsible_agency": "Department of Public Works",
    "final_address": "11040 Morrison Rd",
    "address_councildis": "E",
    "status": "Pending",
    "contractor": "Royal Engineering",
    "rowid": "864776",
    "final_x": "3711375.19538",
    "final_y": "564974.300898",
    "longitude": "-89.97248158496139",
    "latitude": "30.04654128636643",
    "geocoded_column": {
      "latitude": "30.04654128636643",
      "longitude": "-89.97248158496139"
    }
  },
  {
    "service_request": "2022-864775",
    "request_type": "Traffic Signals/Signs/Striping/Streetlights",
    "request_reason": "Street Light Outage/Malfunction",
    "date_created": "2022-03-05T20:35:22.000",
    "date_modified": "2022-03-05T20:35:23.000",
    "request_status": "Pending",
    "responsible_agency": "Department of Public Works",
    "final_address": "11040 Morrison Rd",
    "address_councildis": "E",
    "status": "Pending",
    "contractor": "Royal Engineering",
    "rowid": "864775",
    "final_x": "3711375.19538",
    "final_y": "564974.300898",
    "longitude": "-89.97248158496139",
    "latitude": "30.04654128636643",
    "geocoded_column": {
      "latitude": "30.04654128636643",
      "longitude": "-89.97248158496139"
    }
  },
  {
    "service_request": "2022-864774",
    "request_type": "Traffic Signals/Signs/Striping/Streetlights",
    "request_reason": "Street Light Knocked Down/Leaning",
    "date_created": "2022-03-05T20:32:01.000",
    "date_modified": "2022-03-05T20:32:02.000",
    "request_status": "Pending",
    "responsible_agency": "Department of Public Works",
    "final_address": "1486 N Miro St",
    "address_councildis": "D",
    "status": "Pending",
    "contractor": "Royal Engineering",
    "rowid": "864774",
    "final_x": "3680053.88008",
    "final_y": "538427.148233",
    "longitude": "-90.07239663560443",
    "latitude": "29.974531809527317",
    "geocoded_column": {
      "latitude": "29.974531809527317",
      "longitude": "-90.07239663560443"
    }
  },
  {
    "service_request": "2022-864773",
    "request_type": "Traffic Signals/Signs/Striping/Streetlights",
    "request_reason": "Street Light Outage/Malfunction",
    "date_created": "2022-03-05T20:28:06.000",
    "date_modified": "2022-03-05T20:28:07.000",
    "request_status": "Pending",
    "responsible_agency": "Department of Public Works",
    "final_address": "11040 Morrison Rd",
    "address_councildis": "E",
    "status": "Pending",
    "contractor": "Royal Engineering",
    "rowid": "864773",
    "final_x": "3711375.19538",
    "final_y": "564974.300898",
    "longitude": "-89.97248158496139",
    "latitude": "30.04654128636643",
    "geocoded_column": {
      "latitude": "30.04654128636643",
      "longitude": "-89.97248158496139"
    }
  },
  {
    "service_request": "2022-864772",
    "request_type": "Traffic Signals/Signs/Striping/Streetlights",
    "request_reason": "Street Light Outage/Malfunction",
    "date_created": "2022-03-05T20:27:05.000",
    "date_modified": "2022-03-05T20:27:05.000",
    "request_status": "Pending",
    "responsible_agency": "Department of Public Works",
    "final_address": "11040 Morrison Rd",
    "address_councildis": "E",
    "status": "Pending",
    "contractor": "Royal Engineering",
    "rowid": "864772",
    "final_x": "3711375.19538",
    "final_y": "564974.300898",
    "longitude": "-89.97248158496139",
    "latitude": "30.04654128636643",
    "geocoded_column": {
      "latitude": "30.04654128636643",
      "longitude": "-89.97248158496139"
    }
  },
  {
    "service_request": "2022-864771",
    "request_type": "Traffic Signals/Signs/Striping/Streetlights",
    "request_reason": "Street Light Outage/Malfunction",
    "date_created": "2022-03-05T20:25:47.000",
    "date_modified": "2022-03-05T20:25:47.000",
    "request_status": "Pending",
    "responsible_agency": "Department of Public Works",
    "final_address": "11040 Morrison Rd",
    "address_councildis": "E",
    "status": "Pending",
    "contractor": "Royal Engineering",
    "rowid": "864771",
    "final_x": "3711375.19538",
    "final_y": "564974.300898",
    "longitude": "-89.97248158496139",
    "latitude": "30.04654128636643",
    "geocoded_column": {
      "latitude": "30.04654128636643",
      "longitude": "-89.97248158496139"
    }
  },
  {
    "service_request": "2022-864770",
    "request_type": "Traffic Signals/Signs/Striping/Streetlights",
    "request_reason": "Street Light Outage/Malfunction",
    "date_created": "2022-03-05T20:24:35.000",
    "date_modified": "2022-03-05T20:24:36.000",
    "request_status": "Pending",
    "responsible_agency": "Department of Public Works",
    "final_address": "11040 Morrison Rd",
    "address_councildis": "E",
    "status": "Pending",
    "contractor": "Royal Engineering",
    "rowid": "864770",
    "final_x": "3711375.19538",
    "final_y": "564974.300898",
    "longitude": "-89.97248158496139",
    "latitude": "30.04654128636643",
    "geocoded_column": {
      "latitude": "30.04654128636643",
      "longitude": "-89.97248158496139"
    }
  },
  {
    "service_request": "2022-864769",
    "request_type": "Traffic Signals/Signs/Striping/Streetlights",
    "request_reason": "Street Light Outage/Malfunction",
    "date_created": "2022-03-05T20:22:22.000",
    "date_modified": "2022-03-05T20:22:23.000",
    "request_status": "Pending",
    "responsible_agency": "Department of Public Works",
    "final_address": "11040 Morrison Rd",
    "address_councildis": "E",
    "status": "Pending",
    "contractor": "Royal Engineering",
    "rowid": "864769",
    "final_x": "3711375.19538",
    "final_y": "564974.300898",
    "longitude": "-89.97248158496139",
    "latitude": "30.04654128636643",
    "geocoded_column": {
      "latitude": "30.04654128636643",
      "longitude": "-89.97248158496139"
    }
  },
  {
    "service_request": "2022-864768",
    "request_type": "Trash/Recycling",
    "request_reason": "Request a Large Item Pick Up",
    "date_created": "2022-03-05T20:13:57.000",
    "date_modified": "2022-03-05T20:13:58.000",
    "request_status": "Pending",
    "responsible_agency": "Department of Sanitation",
    "final_address": "4204 Pauger St",
    "address_councildis": "D",
    "status": "Assigned to Contractor",
    "contractor": "Metro Disposal",
    "rowid": "864768",
    "final_x": "3682861.58639",
    "final_y": "548072.365266",
    "longitude": "-90.06319156434347",
    "latitude": "30.00096749563433",
    "geocoded_column": {
      "latitude": "30.00096749563433",
      "longitude": "-90.06319156434347"
    }
  },
  {
    "service_request": "2022-864767",
    "request_type": "Abandoned Vehicles",
    "request_reason": "Abandoned/Junk Vehicles",
    "date_created": "2022-03-05T19:40:58.000",
    "date_modified": "2022-03-05T19:40:58.000",
    "request_status": "Pending",
    "responsible_agency": "Department of Public Works",
    "final_address": "1708 Bayou Rd",
    "address_councildis": "D",
    "status": "Pending",
    "rowid": "864767",
    "final_x": "3680829.84847",
    "final_y": "536278.164295",
    "longitude": "-90.0700207687551",
    "latitude": "29.968599342180728",
    "geocoded_column": {
      "latitude": "29.968599342180728",
      "longitude": "-90.0700207687551"
    }
  },
  {
    "service_request": "2022-864766",
    "request_type": "Trash/Recycling",
    "request_reason": "Missed Trash Pick-Up",
    "date_created": "2022-03-05T19:38:13.000",
    "date_modified": "2022-03-05T19:38:14.000",
    "request_status": "Pending",
    "responsible_agency": "Department of Sanitation",
    "final_address": "2000 S Carrollton Ave",
    "address_councildis": "A",
    "status": "Assigned to Contractor",
    "contractor": "Richards Disposal",
    "rowid": "864766",
    "final_x": "3663869.15655",
    "final_y": "530500.026242",
    "longitude": "-90.12377643009548",
    "latitude": "29.953214623781495",
    "geocoded_column": {
      "latitude": "29.953214623781495",
      "longitude": "-90.12377643009548"
    }
  },
  {
    "service_request": "2022-864765",
    "request_type": "Trash/Recycling",
    "request_reason": "Replace Trash Cart",
    "date_created": "2022-03-05T18:57:01.000",
    "date_modified": "2022-03-05T18:57:02.000",
    "request_status": "Pending",
    "responsible_agency": "Department of Sanitation",
    "final_address": "1823 Old Roman St",
    "address_councildis": "D",
    "status": "Assigned to Contractor",
    "contractor": "Metro Disposal",
    "rowid": "864765",
    "final_x": "3682361.72796",
    "final_y": "539280.385354",
    "longitude": "-90.06507807354359",
    "latitude": "29.976807881114762",
    "geocoded_column": {
      "latitude": "29.976807881114762",
      "longitude": "-90.06507807354359"
    }
  },
  {
    "service_request": "2022-864764",
    "request_type": "Traffic Signals/Signs/Striping/Streetlights",
    "request_reason": "Street Light Outage/Malfunction",
    "date_created": "2022-03-05T18:53:57.000",
    "date_modified": "2022-03-05T18:53:58.000",
    "request_status": "Pending",
    "responsible_agency": "Department of Public Works",
    "final_address": "1005 Franklin Ave",
    "address_councildis": "C",
    "status": "Pending",
    "contractor": "Royal Engineering",
    "rowid": "864764",
    "final_x": "3687063.27849",
    "final_y": "536077.976839",
    "longitude": "-90.0503423824888",
    "latitude": "29.96785845446925",
    "geocoded_column": {
      "latitude": "29.96785845446925",
      "longitude": "-90.0503423824888"
    }
  },
  {
    "service_request": "2022-864762",
    "request_type": "Traffic Signals/Signs/Striping/Streetlights",
    "request_reason": "Street Light Outage/Malfunction",
    "date_created": "2022-03-05T18:37:26.000",
    "date_modified": "2022-03-05T18:37:26.000",
    "request_status": "Pending",
    "responsible_agency": "Department of Public Works",
    "final_address": "26 Grand Canyon Dr",
    "address_councildis": "C",
    "status": "Pending",
    "contractor": "Royal Engineering",
    "rowid": "864762",
    "final_x": "3699750.71332",
    "final_y": "517157.420853",
    "longitude": "-90.01096488939694",
    "latitude": "29.915436821529568",
    "geocoded_column": {
      "latitude": "29.915436821529568",
      "longitude": "-90.01096488939694"
    }
  },
  {
    "service_request": "2022-864761",
    "request_type": "Property Maintenance",
    "request_reason": "Property Maintenance",
    "date_created": "2022-03-05T18:22:33.000",
    "date_modified": "2022-03-05T18:22:33.000",
    "request_status": "Pending",
    "responsible_agency": "Department of Code Enforcement",
    "final_address": "4508 S Tonti St",
    "address_councildis": "B",
    "status": "Pending",
    "rowid": "864761",
    "final_x": "3669636.68929",
    "final_y": "528054.376959",
    "longitude": "-90.10564774153707",
    "latitude": "29.946321221434367",
    "geocoded_column": {
      "latitude": "29.946321221434367",
      "longitude": "-90.10564774153707"
    }
  },
  {
    "service_request": "2022-864760",
    "request_type": "Trash/Recycling",
    "request_reason": "MIssed Recycling Pick-Up",
    "date_created": "2022-03-05T17:13:22.000",
    "date_modified": "2022-03-05T17:13:23.000",
    "request_status": "Pending",
    "responsible_agency": "Department of Sanitation",
    "final_address": "343 Eleonore St",
    "address_councildis": "A",
    "status": "Assigned to Contractor",
    "contractor": "Richards Disposal",
    "rowid": "864760",
    "final_x": "3664945.26701",
    "final_y": "517638.475894",
    "longitude": "-90.12080827122699",
    "latitude": "29.917818172483525",
    "geocoded_column": {
      "latitude": "29.917818172483525",
      "longitude": "-90.12080827122699"
    }
  },
  {
    "service_request": "2022-864759",
    "request_type": "Trash/Recycling",
    "request_reason": "Missed Trash Pick-Up",
    "date_created": "2022-03-05T17:12:31.000",
    "date_modified": "2022-03-05T17:12:32.000",
    "request_status": "Pending",
    "responsible_agency": "Department of Sanitation",
    "final_address": "343 Eleonore St",
    "address_councildis": "A",
    "status": "Assigned to Contractor",
    "contractor": "Richards Disposal",
    "rowid": "864759",
    "final_x": "3664945.26701",
    "final_y": "517638.475894",
    "longitude": "-90.12080827122699",
    "latitude": "29.917818172483525",
    "geocoded_column": {
      "latitude": "29.917818172483525",
      "longitude": "-90.12080827122699"
    }
  },
  {
    "service_request": "2022-864758",
    "request_type": "Property Maintenance",
    "request_reason": "Property Maintenance",
    "date_created": "2022-03-05T17:11:30.000",
    "date_modified": "2022-03-05T17:11:30.000",
    "request_status": "Pending",
    "responsible_agency": "Department of Code Enforcement",
    "final_address": "1929 N Rampart St",
    "address_councildis": "C",
    "status": "Pending",
    "rowid": "864758",
    "final_x": "3684125.25013",
    "final_y": "535903.872775",
    "longitude": "-90.05962686541663",
    "latitude": "29.967469856719422",
    "geocoded_column": {
      "latitude": "29.967469856719422",
      "longitude": "-90.05962686541663"
    }
  },
  {
    "service_request": "2022-864757",
    "request_type": "Trash/Recycling",
    "request_reason": "Illegal Dumping",
    "date_created": "2022-03-05T17:08:27.000",
    "date_modified": "2022-03-05T17:08:27.000",
    "request_status": "Pending",
    "responsible_agency": "Department of Sanitation",
    "final_address": "2800 Mansfield Ave",
    "address_councildis": "C",
    "status": "Pending",
    "rowid": "864757",
    "final_x": "3709267.03985",
    "final_y": "519603.32556",
    "longitude": "-89.98083697221183",
    "latitude": "29.921856794918607",
    "geocoded_column": {
      "latitude": "29.921856794918607",
      "longitude": "-89.98083697221183"
    }
  },
  {
    "service_request": "2022-864756",
    "request_type": "Roads/Drainage",
    "request_reason": "Catch Basin - Broken/Damage",
    "date_created": "2022-03-05T16:40:43.000",
    "date_modified": "2022-03-05T16:40:43.000",
    "request_status": "Pending",
    "responsible_agency": "Department of Public Works",
    "final_address": "446 Pelican Ave",
    "address_councildis": "C",
    "status": "Pending",
    "rowid": "864756",
    "final_x": "3686792.84553",
    "final_y": "530767.036034",
    "longitude": "-90.05138406002935",
    "latitude": "29.95326352543922",
    "geocoded_column": {
      "latitude": "29.95326352543922",
      "longitude": "-90.05138406002935"
    }
  },
  {
    "service_request": "2022-864755",
    "request_type": "Abandoned Vehicles",
    "request_reason": "Abandoned/Junk Vehicles",
    "date_created": "2022-03-05T16:32:29.000",
    "date_modified": "2022-03-05T16:32:29.000",
    "request_status": "Pending",
    "responsible_agency": "Department of Public Works",
    "final_address": "1807 2nd St, New Orleans, Louisiana, 70113",
    "status": "Pending",
    "rowid": "864755",
    "longitude": "0.0",
    "latitude": "0.0",
    "geocoded_column": {
      "latitude": "0.0",
      "longitude": "0.0"
    }
  },
  {
    "service_request": "2022-864754",
    "request_type": "Abandoned Vehicles",
    "request_reason": "Abandoned/Junk Vehicles",
    "date_created": "2022-03-05T16:31:55.000",
    "date_modified": "2022-03-05T16:31:55.000",
    "request_status": "Pending",
    "responsible_agency": "Department of Public Works",
    "final_address": "1030 Arabella St",
    "address_councildis": "A",
    "status": "Pending",
    "rowid": "864754",
    "final_x": "3665985.89351",
    "final_y": "519860.701688",
    "longitude": "-90.11744914342509",
    "latitude": "29.92389827639747",
    "geocoded_column": {
      "latitude": "29.92389827639747",
      "longitude": "-90.11744914342509"
    }
  },
  {
    "service_request": "2022-864753",
    "request_type": "Abandoned Vehicles",
    "request_reason": "Vehicle Blocking Your Driveway",
    "date_created": "2022-03-05T16:30:52.000",
    "date_modified": "2022-03-05T16:30:52.000",
    "request_status": "Pending",
    "responsible_agency": "Department of Public Works",
    "final_address": "5525 Loyola Ave",
    "address_councildis": "A",
    "status": "Pending",
    "rowid": "864753",
    "final_x": "3667173.37485",
    "final_y": "523161.052603",
    "longitude": "-90.11358977877336",
    "latitude": "29.93293849311588",
    "geocoded_column": {
      "latitude": "29.93293849311588",
      "longitude": "-90.11358977877336"
    }
  },
  {
    "service_request": "2022-864752",
    "request_type": "Roads/Drainage",
    "request_reason": "Damaged Sidewalk",
    "date_created": "2022-03-05T16:14:06.000",
    "date_modified": "2022-03-05T16:14:06.000",
    "request_status": "Pending",
    "responsible_agency": "Department of Public Works",
    "final_address": "6338 Music St",
    "address_councildis": "D",
    "status": "Pending",
    "rowid": "864752",
    "final_x": "3685155.99759",
    "final_y": "556560.127066",
    "longitude": "-90.05564436220845",
    "latitude": "30.024235607498646",
    "geocoded_column": {
      "latitude": "30.024235607498646",
      "longitude": "-90.05564436220845"
    }
  },
  {
    "service_request": "2022-864751",
    "request_type": "Trash/Recycling",
    "request_reason": "Repair Trash Cart",
    "date_created": "2022-03-05T16:12:05.000",
    "date_modified": "2022-03-05T16:12:05.000",
    "request_status": "Pending",
    "responsible_agency": "Department of Sanitation",
    "final_address": "2528 Robert St",
    "address_councildis": "B",
    "status": "Assigned to Contractor",
    "contractor": "Richards Disposal",
    "rowid": "864751",
    "final_x": "3668789.8105",
    "final_y": "524857.84102",
    "longitude": "-90.1084295321585",
    "latitude": "29.93755670419459",
    "geocoded_column": {
      "latitude": "29.93755670419459",
      "longitude": "-90.1084295321585"
    }
  },
  {
    "service_request": "2022-864750",
    "request_type": "Trash/Recycling",
    "request_reason": "Replace Trash Cart",
    "date_created": "2022-03-05T16:05:22.000",
    "date_modified": "2022-03-05T16:05:24.000",
    "request_status": "Pending",
    "responsible_agency": "Department of Sanitation",
    "final_address": "7350 Means Ave, New Orleans, Louisiana, 70127",
    "address_councildis": "E",
    "status": "Assigned to Contractor",
    "contractor": "Metro Disposal",
    "rowid": "864750",
    "final_x": "3708471.83288",
    "final_y": "563919.301665",
    "longitude": "-89.98169697749965",
    "latitude": "30.043734952310366",
    "geocoded_column": {
      "latitude": "30.043734952310366",
      "longitude": "-89.98169697749965"
    }
  },
  {
    "service_request": "2022-864749",
    "request_type": "Trash/Recycling",
    "request_reason": "Missed Trash Pick-Up",
    "date_created": "2022-03-05T15:59:15.000",
    "date_modified": "2022-03-05T15:59:16.000",
    "request_status": "Pending",
    "responsible_agency": "Department of Sanitation",
    "final_address": "4713 Baudin St",
    "address_councildis": "A",
    "status": "Assigned to Contractor",
    "contractor": "Richards Disposal",
    "rowid": "864749",
    "final_x": "3668069.05716",
    "final_y": "538675.029385",
    "longitude": "-90.11023938073886",
    "latitude": "29.975570599468433",
    "geocoded_column": {
      "latitude": "29.975570599468433",
      "longitude": "-90.11023938073886"
    }
  },
  {
    "service_request": "2022-864748",
    "request_type": "Trash/Recycling",
    "request_reason": "Illegal Dumping",
    "date_created": "2022-03-05T15:47:33.000",
    "date_modified": "2022-03-05T15:47:33.000",
    "request_status": "Pending",
    "responsible_agency": "Department of Sanitation",
    "final_address": "6747 Cindy Pl",
    "address_councildis": "E",
    "status": "Pending",
    "rowid": "864748",
    "final_x": "3707229.64196",
    "final_y": "558903.8191",
    "longitude": "-89.98580921656352",
    "latitude": "30.029984589396555",
    "geocoded_column": {
      "latitude": "30.029984589396555",
      "longitude": "-89.98580921656352"
    }
  },
  {
    "service_request": "2022-864747",
    "request_type": "Property Maintenance",
    "request_reason": "Property Maintenance",
    "date_created": "2022-03-05T15:43:39.000",
    "date_modified": "2022-03-05T15:43:39.000",
    "request_status": "Pending",
    "responsible_agency": "Department of Code Enforcement",
    "final_address": "6700 Cindy Pl",
    "address_councildis": "E",
    "status": "Pending",
    "rowid": "864747",
    "final_x": "3707199.446",
    "final_y": "558627.075036",
    "longitude": "-89.98591491844806",
    "latitude": "30.02922462809095",
    "geocoded_column": {
      "latitude": "30.02922462809095",
      "longitude": "-89.98591491844806"
    }
  },
  {
    "service_request": "2022-864746",
    "request_type": "Trash/Recycling",
    "request_reason": "Request a Large Item Pick Up",
    "date_created": "2022-03-05T15:29:01.000",
    "date_modified": "2022-03-05T15:29:02.000",
    "request_status": "Pending",
    "responsible_agency": "Department of Sanitation",
    "final_address": "1811 Louisa St",
    "address_councildis": "D",
    "status": "Assigned to Contractor",
    "contractor": "Metro Disposal",
    "rowid": "864746",
    "final_x": "3690282.8655",
    "final_y": "538608.570697",
    "longitude": "-90.04008466328578",
    "latitude": "29.974717178602628",
    "geocoded_column": {
      "latitude": "29.974717178602628",
      "longitude": "-90.04008466328578"
    }
  },
  {
    "service_request": "2022-864745",
    "request_type": "Trash/Recycling",
    "request_reason": "Dead Animal Pick Up",
    "date_created": "2022-03-05T15:28:52.000",
    "date_modified": "2022-03-05T15:28:53.000",
    "request_status": "Pending",
    "responsible_agency": "Department of Sanitation",
    "final_address": "1454 Farragut St",
    "address_councildis": "C",
    "status": "Assigned to Contractor",
    "contractor": "Richards Disposal",
    "rowid": "864745",
    "final_x": "3692379.17584",
    "final_y": "525732.194557",
    "longitude": "-90.03392519114193",
    "latitude": "29.93924641382243",
    "geocoded_column": {
      "latitude": "29.93924641382243",
      "longitude": "-90.03392519114193"
    }
  },
  {
    "service_request": "2022-864744",
    "request_type": "Trash/Recycling",
    "request_reason": "Replace Trash Cart",
    "date_created": "2022-03-05T15:16:00.000",
    "date_modified": "2022-03-05T15:16:01.000",
    "request_status": "Pending",
    "responsible_agency": "Department of Sanitation",
    "final_address": "927 Valence St",
    "address_councildis": "B",
    "status": "Assigned to Contractor",
    "contractor": "Richards Disposal",
    "rowid": "864744",
    "final_x": "3669986.85223",
    "final_y": "518910.134711",
    "longitude": "-90.10485169058202",
    "latitude": "29.92116717418285",
    "geocoded_column": {
      "latitude": "29.92116717418285",
      "longitude": "-90.10485169058202"
    }
  },
  {
    "service_request": "2022-864743",
    "request_type": "Trash/Recycling",
    "request_reason": "Request a Large Item Pick Up",
    "date_created": "2022-03-05T14:56:43.000",
    "date_modified": "2022-03-05T14:56:43.000",
    "request_status": "Pending",
    "responsible_agency": "Department of Sanitation",
    "final_address": "512 Dauphine St",
    "address_councildis": "C",
    "status": "Assigned to Contractor",
    "contractor": "Empire Services",
    "rowid": "864743",
    "final_x": "3681621.75612",
    "final_y": "532383.684483",
    "longitude": "-90.06765573557347",
    "latitude": "29.957866824418414",
    "geocoded_column": {
      "latitude": "29.957866824418414",
      "longitude": "-90.06765573557347"
    }
  },
  {
    "service_request": "2022-864742",
    "request_type": "Abandoned Vehicles",
    "request_reason": "Abandoned/Junk Vehicles",
    "date_created": "2022-03-05T14:54:34.000",
    "date_modified": "2022-03-05T14:54:34.000",
    "request_status": "Pending",
    "responsible_agency": "Department of Public Works",
    "final_address": "516 Josephine St",
    "address_councildis": "B",
    "status": "Pending",
    "rowid": "864742",
    "final_x": "3680410.20655",
    "final_y": "520632.44876",
    "longitude": "-90.07188996996925",
    "latitude": "29.925591581529062",
    "geocoded_column": {
      "latitude": "29.925591581529062",
      "longitude": "-90.07188996996925"
    }
  },
  {
    "service_request": "2022-864741",
    "request_type": "Trash/Recycling",
    "request_reason": "Order Recycling Cart",
    "date_created": "2022-03-05T14:46:01.000",
    "date_modified": "2022-03-05T14:46:01.000",
    "request_status": "Pending",
    "responsible_agency": "Department of Sanitation",
    "final_address": "2527 Rousseau St",
    "address_councildis": "B",
    "status": "Pending",
    "rowid": "864741",
    "final_x": "3678838.56968",
    "final_y": "519354.066743",
    "longitude": "-90.07689539686832",
    "latitude": "29.922123927917102",
    "geocoded_column": {
      "latitude": "29.922123927917102",
      "longitude": "-90.07689539686832"
    }
  },
  {
    "service_request": "2022-864740",
    "request_type": "Trash/Recycling",
    "request_reason": "Order Recycling Cart",
    "date_created": "2022-03-05T14:43:08.000",
    "date_modified": "2022-03-05T14:43:08.000",
    "request_status": "Pending",
    "responsible_agency": "Department of Sanitation",
    "final_address": "2506 Frenchmen St",
    "address_councildis": "D",
    "status": "Pending",
    "rowid": "864740",
    "final_x": "3684135.54754",
    "final_y": "541500.649868",
    "longitude": "-90.05939784006343",
    "latitude": "29.982858725685745",
    "geocoded_column": {
      "latitude": "29.982858725685745",
      "longitude": "-90.05939784006343"
    }
  },
  {
    "service_request": "2022-864739",
    "request_type": "Trash/Recycling",
    "request_reason": "Missed Trash Pick-Up",
    "date_created": "2022-03-05T14:14:50.000",
    "date_modified": "2022-03-05T14:14:51.000",
    "request_status": "Pending",
    "responsible_agency": "Department of Sanitation",
    "final_address": "8720 Hickory St",
    "address_councildis": "A",
    "status": "Assigned to Contractor",
    "contractor": "Richards Disposal",
    "rowid": "864739",
    "final_x": "3661646.9481",
    "final_y": "531455.816195",
    "longitude": "-90.13076156623289",
    "latitude": "29.955907051901747",
    "geocoded_column": {
      "latitude": "29.955907051901747",
      "longitude": "-90.13076156623289"
    }
  },
  {
    "service_request": "2022-864738",
    "request_type": "Trash/Recycling",
    "request_reason": "Replace Trash Cart",
    "date_created": "2022-03-05T14:10:04.000",
    "date_modified": "2022-03-05T14:10:04.000",
    "request_status": "Pending",
    "responsible_agency": "Department of Sanitation",
    "final_address": "438 Elmira Ave",
    "address_councildis": "C",
    "status": "Assigned to Contractor",
    "contractor": "Richards Disposal",
    "rowid": "864738",
    "final_x": "3688269.72783",
    "final_y": "529996.576193",
    "longitude": "-90.04674803076581",
    "latitude": "29.951099509870524",
    "geocoded_column": {
      "latitude": "29.951099509870524",
      "longitude": "-90.04674803076581"
    }
  },
  {
    "service_request": "2022-864737",
    "request_type": "Trash/Recycling",
    "request_reason": "Order Recycling Cart",
    "date_created": "2022-03-05T14:07:57.000",
    "date_modified": "2022-03-05T14:07:57.000",
    "request_status": "Pending",
    "responsible_agency": "Department of Sanitation",
    "final_address": "440 Elmira Ave",
    "address_councildis": "C",
    "status": "Pending",
    "rowid": "864737",
    "final_x": "3688268.00169",
    "final_y": "529975.189697",
    "longitude": "-90.04675423925879",
    "latitude": "29.951040757637166",
    "geocoded_column": {
      "latitude": "29.951040757637166",
      "longitude": "-90.04675423925879"
    }
  },
  {
    "service_request": "2022-864736",
    "request_type": "Trash/Recycling",
    "request_reason": "Replace Trash Cart",
    "date_created": "2022-03-05T14:03:32.000",
    "date_modified": "2022-03-05T14:03:33.000",
    "request_status": "Pending",
    "responsible_agency": "Department of Sanitation",
    "final_address": "716 N Rendon St",
    "address_councildis": "A",
    "status": "Assigned to Contractor",
    "contractor": "Richards Disposal",
    "rowid": "864736",
    "final_x": "3674998.19502",
    "final_y": "538251.992329",
    "longitude": "-90.08836974490248",
    "latitude": "29.974202199440988",
    "geocoded_column": {
      "latitude": "29.974202199440988",
      "longitude": "-90.08836974490248"
    }
  },
  {
    "service_request": "2022-864735",
    "request_type": "Trash/Recycling",
    "request_reason": "Replace Trash Cart",
    "date_created": "2022-03-05T14:03:25.000",
    "date_modified": "2022-03-05T14:03:26.000",
    "request_status": "Pending",
    "responsible_agency": "Department of Sanitation",
    "final_address": "1237 St Roch Ave",
    "address_councildis": "C",
    "status": "Assigned to Contractor",
    "contractor": "Metro Disposal",
    "rowid": "864735",
    "final_x": "3686525.51708",
    "final_y": "537089.051784",
    "longitude": "-90.05200494040486",
    "latitude": "29.97065510353535",
    "geocoded_column": {
      "latitude": "29.97065510353535",
      "longitude": "-90.05200494040486"
    }
  },
  {
    "service_request": "2022-864734",
    "request_type": "Trash/Recycling",
    "request_reason": "Illegal Dumping",
    "date_created": "2022-03-05T13:54:50.000",
    "date_modified": "2022-03-05T13:54:50.000",
    "request_status": "Pending",
    "responsible_agency": "Department of Sanitation",
    "final_address": "1900 N Rampart St",
    "address_councildis": "C",
    "status": "Pending",
    "rowid": "864734",
    "final_x": "3683962.59285",
    "final_y": "535815.709511",
    "longitude": "-90.0601436330744",
    "latitude": "29.96723240883532",
    "geocoded_column": {
      "latitude": "29.96723240883532",
      "longitude": "-90.0601436330744"
    }
  },
  {
    "service_request": "2022-864733",
    "request_type": "Property Maintenance",
    "request_reason": "Property Maintenance",
    "date_created": "2022-03-05T13:53:00.000",
    "date_modified": "2022-03-05T13:53:00.000",
    "request_status": "Pending",
    "responsible_agency": "Department of Code Enforcement",
    "final_address": "1230 Annette St",
    "address_councildis": "C",
    "status": "Pending",
    "rowid": "864733",
    "final_x": "3683094.61397",
    "final_y": "536404.798407",
    "longitude": "-90.06286409002696",
    "latitude": "29.968878690308095",
    "geocoded_column": {
      "latitude": "29.968878690308095",
      "longitude": "-90.06286409002696"
    }
  },
  {
    "service_request": "2022-864732",
    "request_type": "Trash/Recycling",
    "request_reason": "Illegal Dumping",
    "date_created": "2022-03-05T13:51:27.000",
    "date_modified": "2022-03-05T13:51:27.000",
    "request_status": "Pending",
    "responsible_agency": "Department of Code Enforcement",
    "final_address": "1908 N Rampart St, New Orleans, Louisiana, 70116",
    "status": "Pending",
    "rowid": "864732",
    "longitude": "0.0",
    "latitude": "0.0",
    "geocoded_column": {
      "latitude": "0.0",
      "longitude": "0.0"
    }
  },
  {
    "service_request": "2022-864731",
    "request_type": "Property Maintenance",
    "request_reason": "Property Maintenance",
    "date_created": "2022-03-05T13:51:25.000",
    "date_modified": "2022-03-05T13:51:25.000",
    "request_status": "Pending",
    "responsible_agency": "Department of Code Enforcement",
    "final_address": "1240 Annette St",
    "address_councildis": "C",
    "status": "Pending",
    "rowid": "864731",
    "final_x": "3683085.41039",
    "final_y": "536486.819527",
    "longitude": "-90.06289028352829",
    "latitude": "29.969104500625477",
    "geocoded_column": {
      "latitude": "29.969104500625477",
      "longitude": "-90.06289028352829"
    }
  },
  {
    "service_request": "2022-864730",
    "request_type": "Trash/Recycling",
    "request_reason": "Request a Large Item Pick Up",
    "date_created": "2022-03-05T13:48:56.000",
    "date_modified": "2022-03-05T13:48:56.000",
    "request_status": "Pending",
    "responsible_agency": "Department of Sanitation",
    "final_address": "1036 Brooklyn Ave",
    "address_councildis": "C",
    "status": "Assigned to Contractor",
    "contractor": "Richards Disposal",
    "rowid": "864730",
    "final_x": "3686251.76354",
    "final_y": "527557.211007",
    "longitude": "-90.05320579063476",
    "latitude": "29.944454233865702",
    "geocoded_column": {
      "latitude": "29.944454233865702",
      "longitude": "-90.05320579063476"
    }
  },
  {
    "service_request": "2022-864729",
    "request_type": "Property Maintenance",
    "request_reason": "Property Maintenance",
    "date_created": "2022-03-05T13:44:56.000",
    "date_modified": "2022-03-05T13:44:56.000",
    "request_status": "Pending",
    "responsible_agency": "Department of Code Enforcement",
    "final_address": "1242 St Anthony St",
    "address_councildis": "C",
    "status": "Pending",
    "rowid": "864729",
    "final_x": "3683435.71439",
    "final_y": "536508.097351",
    "longitude": "-90.06178325451364",
    "latitude": "29.969152323039523",
    "geocoded_column": {
      "latitude": "29.969152323039523",
      "longitude": "-90.06178325451364"
    }
  },
  {
    "service_request": "2022-864728",
    "request_type": "Property Maintenance",
    "request_reason": "Property Maintenance",
    "date_created": "2022-03-05T13:43:57.000",
    "date_modified": "2022-03-05T13:43:57.000",
    "request_status": "Pending",
    "responsible_agency": "Department of Code Enforcement",
    "final_address": "1842 Pauger St",
    "address_councildis": "C",
    "status": "Pending",
    "rowid": "864728",
    "final_x": "3683817.97948",
    "final_y": "536531.003719",
    "longitude": "-90.06057523197822",
    "latitude": "29.969203637950603",
    "geocoded_column": {
      "latitude": "29.969203637950603",
      "longitude": "-90.06057523197822"
    }
  },
  {
    "service_request": "2022-864727",
    "request_type": "Trash/Recycling",
    "request_reason": "Request a Large Item Pick Up",
    "date_created": "2022-03-05T13:34:47.000",
    "date_modified": "2022-03-05T13:34:48.000",
    "request_status": "Pending",
    "responsible_agency": "Department of Sanitation",
    "final_address": "1120 Aline St",
    "address_councildis": "B",
    "status": "Assigned to Contractor",
    "contractor": "Richards Disposal",
    "rowid": "864727",
    "final_x": "3674367.12769",
    "final_y": "519529.734327",
    "longitude": "-90.09100388912645",
    "latitude": "29.92274101754247",
    "geocoded_column": {
      "latitude": "29.92274101754247",
      "longitude": "-90.09100388912645"
    }
  },
  {
    "service_request": "2022-864726",
    "request_type": "Trash/Recycling",
    "request_reason": "Replace Trash Cart",
    "date_created": "2022-03-05T13:30:22.000",
    "date_modified": "2022-03-05T13:30:22.000",
    "request_status": "Pending",
    "responsible_agency": "Department of Sanitation",
    "final_address": "2026 Prytania St Unit F",
    "address_councildis": "B",
    "status": "Assigned to Contractor",
    "contractor": "Richards Disposal",
    "rowid": "864726",
    "final_x": "3678427.27925",
    "final_y": "523539.125307",
    "longitude": "-90.07804894729465",
    "latitude": "29.933643867834153",
    "geocoded_column": {
      "latitude": "29.933643867834153",
      "longitude": "-90.07804894729465"
    }
  },
  {
    "service_request": "2022-864725",
    "request_type": "Trash/Recycling",
    "request_reason": "Request a Large Item Pick Up",
    "date_created": "2022-03-05T13:30:13.000",
    "date_modified": "2022-03-05T13:30:14.000",
    "request_status": "Pending",
    "responsible_agency": "Department of Sanitation",
    "final_address": "4001 Delgado Dr",
    "address_councildis": "A",
    "status": "Assigned to Contractor",
    "contractor": "Richards Disposal",
    "rowid": "864725",
    "final_x": "3673961.03969",
    "final_y": "540821.842059",
    "longitude": "-90.0915573699634",
    "latitude": "29.981299352875205",
    "geocoded_column": {
      "latitude": "29.981299352875205",
      "longitude": "-90.0915573699634"
    }
  },
  {
    "service_request": "2022-864724",
    "request_type": "Trash/Recycling",
    "request_reason": "MIssed Recycling Pick-Up",
    "date_created": "2022-03-05T13:18:45.000",
    "date_modified": "2022-03-05T13:18:45.000",
    "request_status": "Pending",
    "responsible_agency": "Department of Sanitation",
    "final_address": "2412 S Saratoga St",
    "address_councildis": "B",
    "status": "Assigned to Contractor",
    "contractor": "Richards Disposal",
    "rowid": "864724",
    "final_x": "3675879.20225",
    "final_y": "524608.144956",
    "longitude": "-90.08605636752623",
    "latitude": "29.936659832396415",
    "geocoded_column": {
      "latitude": "29.936659832396415",
      "longitude": "-90.08605636752623"
    }
  },
  {
    "service_request": "2022-864723",
    "request_type": "Traffic Signals/Signs/Striping/Streetlights",
    "request_reason": "Traffic Sign Missing/Damaged",
    "date_created": "2022-03-05T12:59:50.000",
    "date_modified": "2022-03-05T12:59:50.000",
    "request_status": "Pending",
    "responsible_agency": "Department of Public Works",
    "final_address": "201 Crystal St",
    "address_councildis": "D",
    "status": "Pending",
    "rowid": "864723",
    "final_x": "3667148.17479",
    "final_y": "556203.40041",
    "longitude": "-90.11255799253688",
    "latitude": "30.023794566550798",
    "geocoded_column": {
      "latitude": "30.023794566550798",
      "longitude": "-90.11255799253688"
    }
  },
  {
    "service_request": "2022-864722",
    "request_type": "Abandoned Vehicles",
    "request_reason": "Abandoned/Junk Vehicles",
    "date_created": "2022-03-05T12:57:02.000",
    "date_modified": "2022-03-05T12:57:02.000",
    "request_status": "Pending",
    "responsible_agency": "Department of Public Works",
    "final_address": "11226 Notaway Ln",
    "address_councildis": "E",
    "status": "Pending",
    "rowid": "864722",
    "final_x": "3717740.80697",
    "final_y": "559313.975709",
    "longitude": "-89.95257873812537",
    "latitude": "30.03076827795563",
    "geocoded_column": {
      "latitude": "30.03076827795563",
      "longitude": "-89.95257873812537"
    }
  },
  {
    "service_request": "2022-864721",
    "request_type": "Abandoned Vehicles",
    "request_reason": "Abandoned/Junk Vehicles",
    "date_created": "2022-03-05T12:55:04.000",
    "date_modified": "2022-03-05T12:55:04.000",
    "request_status": "Pending",
    "responsible_agency": "Department of Public Works",
    "final_address": "2503 Jefferson Ave",
    "address_councildis": "B",
    "status": "Pending",
    "rowid": "864721",
    "final_x": "3668179.06349",
    "final_y": "524710.1559",
    "longitude": "-90.11036268740745",
    "latitude": "29.937168555740143",
    "geocoded_column": {
      "latitude": "29.937168555740143",
      "longitude": "-90.11036268740745"
    }
  },
  {
    "service_request": "2022-864719",
    "request_type": "Trash/Recycling",
    "request_reason": "Replace Trash Cart",
    "date_created": "2022-03-05T12:46:04.000",
    "date_modified": "2022-03-05T12:46:05.000",
    "request_status": "Pending",
    "responsible_agency": "Department of Sanitation",
    "final_address": "221 S Solomon St",
    "address_councildis": "A",
    "status": "Assigned to Contractor",
    "contractor": "Richards Disposal",
    "rowid": "864719",
    "final_x": "3670188.28474",
    "final_y": "538266.980041",
    "longitude": "-90.10356009003696",
    "latitude": "29.97438623102531",
    "geocoded_column": {
      "latitude": "29.97438623102531",
      "longitude": "-90.10356009003696"
    }
  },
  {
    "service_request": "2022-864718",
    "request_type": "Trash/Recycling",
    "request_reason": "Request a Large Item Pick Up",
    "date_created": "2022-03-05T12:32:24.000",
    "date_modified": "2022-03-05T12:32:25.000",
    "request_status": "Pending",
    "responsible_agency": "Department of Sanitation",
    "final_address": "13335 Dwyer Blvd",
    "address_councildis": "E",
    "status": "Assigned to Contractor",
    "contractor": "Metro Disposal",
    "rowid": "864718",
    "final_x": "3725202.27782",
    "final_y": "561837.838815",
    "longitude": "-89.92890291018888",
    "latitude": "30.037458531639118",
    "geocoded_column": {
      "latitude": "30.037458531639118",
      "longitude": "-89.92890291018888"
    }
  },
  {
    "service_request": "2022-864717",
    "request_type": "Roads/Drainage",
    "request_reason": "Pothole",
    "date_created": "2022-03-05T12:25:37.000",
    "date_modified": "2022-03-05T12:25:37.000",
    "request_status": "Pending",
    "responsible_agency": "Department of Public Works",
    "final_address": "2338 Governor Nicholls St",
    "address_councildis": "D",
    "status": "Pending",
    "rowid": "864717",
    "final_x": "3678895.19362",
    "final_y": "537516.957704",
    "longitude": "-90.07608758947717",
    "latitude": "29.9720641077998",
    "geocoded_column": {
      "latitude": "29.9720641077998",
      "longitude": "-90.07608758947717"
    }
  },
  {
    "service_request": "2022-864716",
    "request_type": "Abandoned Vehicles",
    "request_reason": "Abandoned/Junk Vehicles",
    "date_created": "2022-03-05T12:21:49.000",
    "date_modified": "2022-03-05T12:21:49.000",
    "request_status": "Pending",
    "responsible_agency": "Department of Public Works",
    "final_address": "1939 Canal St",
    "address_councildis": "B",
    "status": "Pending",
    "rowid": "864716",
    "final_x": "3677660.00949",
    "final_y": "533484.557316",
    "longitude": "-90.08012778820033",
    "latitude": "29.961013586088104",
    "geocoded_column": {
      "latitude": "29.961013586088104",
      "longitude": "-90.08012778820033"
    }
  },
  {
    "service_request": "2022-864715",
    "request_type": "Property Maintenance",
    "request_reason": "Property Maintenance",
    "date_created": "2022-03-05T12:16:04.000",
    "date_modified": "2022-03-05T12:16:04.000",
    "request_status": "Pending",
    "responsible_agency": "Department of Code Enforcement",
    "final_address": "2022 Bienville Ave",
    "address_councildis": "B",
    "status": "Pending",
    "rowid": "864715",
    "final_x": "3677815.002",
    "final_y": "534143.839109",
    "longitude": "-90.0796155714666",
    "latitude": "29.962821725852937",
    "geocoded_column": {
      "latitude": "29.962821725852937",
      "longitude": "-90.0796155714666"
    }
  },
  {
    "service_request": "2022-864714",
    "request_type": "Property Maintenance",
    "request_reason": "Property Maintenance",
    "date_created": "2022-03-05T12:13:10.000",
    "date_modified": "2022-03-05T12:13:10.000",
    "request_status": "Pending",
    "responsible_agency": "Department of Code Enforcement",
    "final_address": "115 N Prieur St",
    "address_councildis": "B",
    "status": "Pending",
    "rowid": "864714",
    "final_x": "3677666.49589",
    "final_y": "533688.443589",
    "longitude": "-90.08010026356433",
    "latitude": "29.96157400933251",
    "geocoded_column": {
      "latitude": "29.96157400933251",
      "longitude": "-90.08010026356433"
    }
  },
  {
    "service_request": "2022-864713",
    "request_type": "Trash/Recycling",
    "request_reason": "Repair Trash Cart",
    "date_created": "2022-03-05T12:11:29.000",
    "date_modified": "2022-03-05T12:11:30.000",
    "request_status": "Pending",
    "responsible_agency": "Department of Sanitation",
    "final_address": "8633 S Claiborne Ave",
    "address_councildis": "A",
    "status": "Assigned to Contractor",
    "contractor": "Richards Disposal",
    "rowid": "864713",
    "final_x": "3663393.23149",
    "final_y": "532987.754628",
    "longitude": "-90.12519638024321",
    "latitude": "29.96006887450437",
    "geocoded_column": {
      "latitude": "29.96006887450437",
      "longitude": "-90.12519638024321"
    }
  },
  {
    "service_request": "2022-864712",
    "request_type": "Trash/Recycling",
    "request_reason": "Missed Trash Pick-Up",
    "date_created": "2022-03-05T12:09:02.000",
    "date_modified": "2022-03-05T12:09:02.000",
    "request_status": "Pending",
    "responsible_agency": "Department of Sanitation",
    "final_address": "8722 Hickory St",
    "address_councildis": "A",
    "status": "Assigned to Contractor",
    "contractor": "Richards Disposal",
    "rowid": "864712",
    "final_x": "3661634.41203",
    "final_y": "531466.736899",
    "longitude": "-90.13080078909681",
    "latitude": "29.95593744207061",
    "geocoded_column": {
      "latitude": "29.95593744207061",
      "longitude": "-90.13080078909681"
    }
  },
  {
    "service_request": "2022-864711",
    "request_type": "Roads/Drainage",
    "request_reason": "Catch Basin - Clogged",
    "date_created": "2022-03-05T11:42:40.000",
    "date_modified": "2022-03-05T11:42:40.000",
    "request_status": "Pending",
    "responsible_agency": "Department of Public Works",
    "final_address": "5515 Danneel St",
    "address_councildis": "A",
    "status": "Pending",
    "rowid": "864711",
    "final_x": "3667076.40205",
    "final_y": "522452.748218",
    "longitude": "-90.11391971229378",
    "latitude": "29.930993719674174",
    "geocoded_column": {
      "latitude": "29.930993719674174",
      "longitude": "-90.11391971229378"
    }
  },
  {
    "service_request": "2022-864710",
    "request_type": "Abandoned Vehicles",
    "request_reason": "Abandoned/Junk Vehicles",
    "date_created": "2022-03-05T11:40:49.000",
    "date_modified": "2022-03-05T11:40:49.000",
    "request_status": "Pending",
    "responsible_agency": "Department of Public Works",
    "final_address": "3438 Cleveland Ave",
    "address_councildis": "B",
    "status": "Pending",
    "rowid": "864710",
    "final_x": "3672612.03816",
    "final_y": "536597.805639",
    "longitude": "-90.09596221290224",
    "latitude": "29.969724816618136",
    "geocoded_column": {
      "latitude": "29.969724816618136",
      "longitude": "-90.09596221290224"
    }
  },
  {
    "service_request": "2022-864709",
    "request_type": "Property Maintenance",
    "request_reason": "Property Maintenance",
    "date_created": "2022-03-05T11:25:06.000",
    "date_modified": "2022-03-05T11:25:06.000",
    "request_status": "Pending",
    "responsible_agency": "Department of Code Enforcement",
    "final_address": "5601 Charlotte Dr",
    "address_councildis": "D",
    "status": "Pending",
    "rowid": "864709",
    "final_x": "3680107.08379",
    "final_y": "553072.800983",
    "longitude": "-90.07171932560362",
    "latitude": "30.01480056546364",
    "geocoded_column": {
      "latitude": "30.01480056546364",
      "longitude": "-90.07171932560362"
    }
  },
  {
    "service_request": "2022-864708",
    "request_type": "Abandoned Vehicles",
    "request_reason": "Abandoned/Junk Vehicles",
    "date_created": "2022-03-05T11:23:40.000",
    "date_modified": "2022-03-05T11:23:40.000",
    "request_status": "Pending",
    "responsible_agency": "Department of Public Works",
    "final_address": "4226 Jena St",
    "address_councildis": "A",
    "status": "Pending",
    "rowid": "864708",
    "final_x": "3669327.5401",
    "final_y": "528922.74304",
    "longitude": "-90.10659448340216",
    "latitude": "29.948718049187242",
    "geocoded_column": {
      "latitude": "29.948718049187242",
      "longitude": "-90.10659448340216"
    }
  },
  {
    "service_request": "2022-864707",
    "request_type": "Property Maintenance",
    "request_reason": "Property Maintenance",
    "date_created": "2022-03-05T11:20:30.000",
    "date_modified": "2022-03-05T11:20:30.000",
    "request_status": "Pending",
    "responsible_agency": "Department of Code Enforcement",
    "final_address": "12001 N Interstate 10 Service Rd",
    "address_councildis": "E",
    "status": "Pending",
    "rowid": "864707",
    "final_x": "3715066.34872",
    "final_y": "565450.587874",
    "longitude": "-89.96079770998031",
    "latitude": "30.047729827976184",
    "geocoded_column": {
      "latitude": "30.047729827976184",
      "longitude": "-89.96079770998031"
    }
  },
  {
    "service_request": "2022-864706",
    "request_type": "Safety & Permits",
    "request_reason": "Licenses & Permits",
    "date_created": "2022-03-05T11:19:38.000",
    "date_modified": "2022-03-05T11:19:38.000",
    "request_status": "Pending",
    "responsible_agency": "Safety and Permits",
    "final_address": "1500 BLK Marigny St",
    "address_councildis": "C",
    "status": "Pending",
    "rowid": "864706",
    "final_x": "3685285.54442",
    "final_y": "537994.568812",
    "longitude": "-90.05588903334282",
    "latitude": "29.973183027837635",
    "geocoded_column": {
      "latitude": "29.973183027837635",
      "longitude": "-90.05588903334282"
    }
  },
  {
    "service_request": "2022-864705",
    "request_type": "Trash/Recycling",
    "request_reason": "Illegal Dumping",
    "date_created": "2022-03-05T11:17:05.000",
    "date_modified": "2022-03-05T11:17:05.000",
    "request_status": "Pending",
    "responsible_agency": "Department of Code Enforcement",
    "final_address": "ANNETTE ST & FLORIDA AVE",
    "address_councildis": "D",
    "status": "Pending",
    "rowid": "864705",
    "final_x": "3682591.8",
    "final_y": "543109.38",
    "longitude": "-90.0642174923735",
    "latitude": "29.987329270363002",
    "geocoded_column": {
      "latitude": "29.987329270363002",
      "longitude": "-90.0642174923735"
    }
  },
  {
    "service_request": "2022-864704",
    "request_type": "Trash/Recycling",
    "request_reason": "Missed Trash Pick-Up",
    "date_created": "2022-03-05T11:16:32.000",
    "date_modified": "2022-03-05T11:16:33.000",
    "request_status": "Pending",
    "responsible_agency": "Department of Sanitation",
    "final_address": "210 S Solomon St",
    "address_councildis": "A",
    "status": "Assigned to Contractor",
    "contractor": "Richards Disposal",
    "rowid": "864704",
    "final_x": "3670288.12833",
    "final_y": "538260.723081",
    "longitude": "-90.10324497154112",
    "latitude": "29.974366079662964",
    "geocoded_column": {
      "latitude": "29.974366079662964",
      "longitude": "-90.10324497154112"
    }
  },
  {
    "service_request": "2022-864703",
    "request_type": "Trash/Recycling",
    "request_reason": "Missed Trash Pick-Up",
    "date_created": "2022-03-05T11:15:45.000",
    "date_modified": "2022-03-05T11:15:45.000",
    "request_status": "Pending",
    "responsible_agency": "Department of Sanitation",
    "final_address": "13629 N Cavelier Dr",
    "address_councildis": "E",
    "status": "Assigned to Contractor",
    "contractor": "Metro Disposal",
    "rowid": "864703",
    "final_x": "3723920.47878",
    "final_y": "569804.045414",
    "longitude": "-89.93264589736121",
    "latitude": "30.059405423528183",
    "geocoded_column": {
      "latitude": "30.059405423528183",
      "longitude": "-89.93264589736121"
    }
  },
  {
    "service_request": "2022-864702",
    "request_type": "Trash/Recycling",
    "request_reason": "Missed Trash Pick-Up",
    "date_created": "2022-03-05T11:12:03.000",
    "date_modified": "2022-03-05T11:12:04.000",
    "request_status": "Pending",
    "responsible_agency": "Department of Sanitation",
    "final_address": "1514 Jefferson Ave",
    "address_councildis": "A",
    "status": "Assigned to Contractor",
    "contractor": "Richards Disposal",
    "rowid": "864702",
    "final_x": "3667123.60666",
    "final_y": "520687.995001",
    "longitude": "-90.11382998562364",
    "latitude": "29.92613982681207",
    "geocoded_column": {
      "latitude": "29.92613982681207",
      "longitude": "-90.11382998562364"
    }
  },
  {
    "service_request": "2022-864700",
    "request_type": "Trash/Recycling",
    "request_reason": "Missed Trash Pick-Up",
    "date_created": "2022-03-05T11:00:00.000",
    "date_modified": "2022-03-05T11:00:01.000",
    "request_status": "Pending",
    "responsible_agency": "Department of Sanitation",
    "final_address": "76 Neron Pl, New Orleans, Louisiana, 70118",
    "address_councildis": "A",
    "status": "Assigned to Contractor",
    "contractor": "Richards Disposal",
    "rowid": "864700",
    "final_x": "3666000.50976",
    "final_y": "529904.768641",
    "longitude": "-90.11706646244387",
    "latitude": "29.951515822858482",
    "geocoded_column": {
      "latitude": "29.951515822858482",
      "longitude": "-90.11706646244387"
    }
  },
  {
    "service_request": "2022-864699",
    "request_type": "Roads/Drainage",
    "request_reason": "Debris in Roadway",
    "date_created": "2022-03-05T10:50:31.000",
    "date_modified": "2022-03-05T12:57:15.000",
    "request_status": "Pending",
    "responsible_agency": "Department of Public Works",
    "final_address": "New Orleans,LA",
    "address_councildis": "A",
    "rowid": "864699",
    "final_x": "3663439.09828",
    "final_y": "520107.486476",
    "longitude": "-90.12548028609595",
    "latitude": "29.924650921150008",
    "geocoded_column": {
      "latitude": "29.924650921150008",
      "longitude": "-90.12548028609595"
    }
  },
  {
    "service_request": "2022-864698",
    "request_type": "Abandoned Vehicles",
    "request_reason": "Abandoned/Junk Vehicles",
    "date_created": "2022-03-05T10:41:43.000",
    "date_modified": "2022-03-05T10:43:52.000",
    "request_status": "Pending",
    "responsible_agency": "Department of Public Works",
    "final_address": "3345 Agriculture St",
    "address_councildis": "D",
    "status": "Pending",
    "rowid": "864698",
    "final_x": "3691860.03888",
    "final_y": "542942.338509",
    "longitude": "-90.03494848530389",
    "latitude": "29.986584449581553",
    "geocoded_column": {
      "latitude": "29.986584449581553",
      "longitude": "-90.03494848530389"
    }
  },
  {
    "service_request": "2022-864697",
    "request_type": "Trash/Recycling",
    "request_reason": "Illegal Dumping",
    "date_created": "2022-03-05T10:40:13.000",
    "date_modified": "2022-03-05T10:40:13.000",
    "request_status": "Pending",
    "responsible_agency": "Department of Sanitation",
    "final_address": "New Orleans, Louisiana",
    "status": "Pending",
    "rowid": "864697",
    "longitude": "0.0",
    "latitude": "0.0",
    "geocoded_column": {
      "latitude": "0.0",
      "longitude": "0.0"
    }
  },
  {
    "service_request": "2022-864696",
    "request_type": "Roads/Drainage",
    "request_reason": "Pothole",
    "date_created": "2022-03-05T10:39:38.000",
    "date_modified": "2022-03-05T10:39:38.000",
    "request_status": "Pending",
    "responsible_agency": "Department of Public Works",
    "final_address": "S CARROLLTON AVE & ORPHEUS CT",
    "address_councildis": "B",
    "status": "Pending",
    "rowid": "864696",
    "final_x": "3667892.8",
    "final_y": "534715.78",
    "longitude": "-90.11092945065096",
    "latitude": "29.964689156466342",
    "geocoded_column": {
      "latitude": "29.964689156466342",
      "longitude": "-90.11092945065096"
    }
  },
  {
    "service_request": "2022-864695",
    "request_type": "Roads/Drainage",
    "request_reason": "Pothole",
    "date_created": "2022-03-05T10:39:36.000",
    "date_modified": "2022-03-05T10:39:36.000",
    "request_status": "Pending",
    "responsible_agency": "Department of Public Works",
    "final_address": "S CARROLLTON AVE & ORPHEUS CT",
    "address_councildis": "B",
    "status": "Pending",
    "rowid": "864695",
    "final_x": "3667892.8",
    "final_y": "534715.78",
    "longitude": "-90.11092945065096",
    "latitude": "29.964689156466342",
    "geocoded_column": {
      "latitude": "29.964689156466342",
      "longitude": "-90.11092945065096"
    }
  },
  {
    "service_request": "2022-864694",
    "request_type": "Trash/Recycling",
    "request_reason": "Dead Animal Pick Up",
    "date_created": "2022-03-05T10:35:13.000",
    "date_modified": "2022-03-05T12:55:53.000",
    "request_status": "Pending",
    "responsible_agency": "Department of Sanitation",
    "final_address": "Bullard Ave & Notaway Ln, New Orleans, Louisiana, 70128",
    "address_councildis": "E",
    "status": "Assigned to Contractor",
    "contractor": "Metro Disposal",
    "rowid": "864694",
    "final_x": "3718623.9",
    "final_y": "560003.28",
    "longitude": "-89.94976187717572",
    "latitude": "30.032634297394875",
    "geocoded_column": {
      "latitude": "30.032634297394875",
      "longitude": "-89.94976187717572"
    }
  },
  {
    "service_request": "2022-864692",
    "request_type": "Trash/Recycling",
    "request_reason": "Missed Trash Pick-Up",
    "date_created": "2022-03-05T10:32:28.000",
    "date_modified": "2022-03-05T10:32:28.000",
    "request_status": "Pending",
    "responsible_agency": "Department of Sanitation",
    "final_address": "8940 Willow St",
    "address_councildis": "A",
    "status": "Assigned to Contractor",
    "contractor": "Richards Disposal",
    "rowid": "864692",
    "final_x": "3660084.51398",
    "final_y": "530982.031874",
    "longitude": "-90.13571085533376",
    "latitude": "29.95464929369039",
    "geocoded_column": {
      "latitude": "29.95464929369039",
      "longitude": "-90.13571085533376"
    }
  },
  {
    "service_request": "2022-864691",
    "request_type": "Trash/Recycling",
    "request_reason": "Repair Recycling Cart",
    "date_created": "2022-03-05T10:29:52.000",
    "date_modified": "2022-03-05T10:29:52.000",
    "request_status": "Pending",
    "responsible_agency": "Department of Sanitation",
    "final_address": "750 Conrad St",
    "address_councildis": "A",
    "status": "Pending",
    "rowid": "864691",
    "final_x": "3669546.93966",
    "final_y": "554161.445464",
    "longitude": "-90.10504751174115",
    "latitude": "30.018109428638933",
    "geocoded_column": {
      "latitude": "30.018109428638933",
      "longitude": "-90.10504751174115"
    }
  },
  {
    "service_request": "2022-864690",
    "request_type": "Abandoned Vehicles",
    "request_reason": "Abandoned/Junk Vehicles",
    "date_created": "2022-03-05T10:19:20.000",
    "date_modified": "2022-03-05T10:21:15.000",
    "request_status": "Pending",
    "responsible_agency": "Department of Public Works",
    "final_address": "1755 St Charles Ave",
    "address_councildis": "B",
    "status": "Pending",
    "rowid": "864690",
    "final_x": "3678537.36731",
    "final_y": "524594.319356",
    "longitude": "-90.07766490001445",
    "latitude": "29.9365419876982",
    "geocoded_column": {
      "latitude": "29.9365419876982",
      "longitude": "-90.07766490001445"
    }
  },
  {
    "service_request": "2022-864689",
    "request_type": "Traffic Signals/Signs/Striping/Streetlights",
    "request_reason": "Request for Stop Sign",
    "date_created": "2022-03-05T10:17:11.000",
    "date_modified": "2022-03-05T10:17:11.000",
    "request_status": "Pending",
    "responsible_agency": "Department of Public Works",
    "final_address": "6151 Charlotte Dr",
    "address_councildis": "D",
    "status": "Pending",
    "rowid": "864689",
    "final_x": "3679891.36578",
    "final_y": "555351.627993",
    "longitude": "-90.07232165345893",
    "latitude": "30.02107304082613",
    "geocoded_column": {
      "latitude": "30.02107304082613",
      "longitude": "-90.07232165345893"
    }
  },
  {
    "service_request": "2022-864688",
    "request_type": "Trash/Recycling",
    "request_reason": "Request a Large Item Pick Up",
    "date_created": "2022-03-05T10:13:03.000",
    "date_modified": "2022-03-05T10:13:04.000",
    "request_status": "Pending",
    "responsible_agency": "Department of Sanitation",
    "final_address": "2114 Lowerline St",
    "address_councildis": "A",
    "status": "Assigned to Contractor",
    "contractor": "Richards Disposal",
    "rowid": "864688",
    "final_x": "3665477.70938",
    "final_y": "529657.266689",
    "longitude": "-90.11872550262122",
    "latitude": "29.950850521218268",
    "geocoded_column": {
      "latitude": "29.950850521218268",
      "longitude": "-90.11872550262122"
    }
  },
  {
    "service_request": "2022-864687",
    "request_type": "Trash/Recycling",
    "request_reason": "Missed Trash Pick-Up",
    "date_created": "2022-03-05T09:48:38.000",
    "date_modified": "2022-03-05T09:48:38.000",
    "request_status": "Pending",
    "responsible_agency": "Department of Sanitation",
    "final_address": "3434 Monroe St",
    "address_councildis": "A",
    "status": "Assigned to Contractor",
    "contractor": "Richards Disposal",
    "rowid": "864687",
    "final_x": "3665812.2752",
    "final_y": "535813.958727",
    "longitude": "-90.11746283091631",
    "latitude": "29.967769651064902",
    "geocoded_column": {
      "latitude": "29.967769651064902",
      "longitude": "-90.11746283091631"
    }
  },
  {
    "service_request": "2022-864686",
    "request_type": "Property Maintenance",
    "request_reason": "Property Maintenance",
    "date_created": "2022-03-05T09:46:19.000",
    "date_modified": "2022-03-05T09:46:19.000",
    "request_status": "Pending",
    "responsible_agency": "Department of Code Enforcement",
    "final_address": "2664 Clover St",
    "address_councildis": "D",
    "status": "Pending",
    "rowid": "864686",
    "final_x": "3687659.47036",
    "final_y": "546630.243089",
    "longitude": "-90.04808580777637",
    "latitude": "29.996855072774995",
    "geocoded_column": {
      "latitude": "29.996855072774995",
      "longitude": "-90.04808580777637"
    }
  },
  {
    "service_request": "2022-864685",
    "request_type": "Abandoned Vehicles",
    "request_reason": "Abandoned/Junk Vehicles",
    "date_created": "2022-03-05T09:40:56.000",
    "date_modified": "2022-03-05T09:43:48.000",
    "request_status": "Pending",
    "responsible_agency": "Department of Public Works",
    "final_address": "801 Frenchmen St",
    "address_councildis": "C",
    "status": "Pending",
    "rowid": "864685",
    "final_x": "3684699.039",
    "final_y": "535277.983494",
    "longitude": "-90.05783683464468",
    "latitude": "29.965731327497792",
    "geocoded_column": {
      "latitude": "29.965731327497792",
      "longitude": "-90.05783683464468"
    }
  },
  {
    "service_request": "2022-864684",
    "request_type": "Trash/Recycling",
    "request_reason": "Order Trash Cart",
    "date_created": "2022-03-05T09:34:22.000",
    "date_modified": "2022-03-05T09:34:23.000",
    "request_status": "Pending",
    "responsible_agency": "Department of Sanitation",
    "final_address": "4871 Brittany Ct",
    "address_councildis": "E",
    "status": "Assigned to Contractor",
    "contractor": "Metro Disposal",
    "rowid": "864684",
    "final_x": "3726863.1271",
    "final_y": "561937.993183",
    "longitude": "-89.92365042187599",
    "latitude": "30.037677837195453",
    "geocoded_column": {
      "latitude": "30.037677837195453",
      "longitude": "-89.92365042187599"
    }
  },
  {
    "service_request": "2022-864682",
    "request_type": "Trash/Recycling",
    "request_reason": "Request a Large Item Pick Up",
    "date_created": "2022-03-05T09:21:43.000",
    "date_modified": "2022-03-05T12:54:52.000",
    "request_status": "Pending",
    "responsible_agency": "Department of Sanitation",
    "final_address": "8002 Cohn St, New Orleans, Louisiana, 70118",
    "address_councildis": "A",
    "status": "Assigned to Contractor",
    "contractor": "Richards Disposal",
    "rowid": "864682",
    "final_x": "3663883.72839",
    "final_y": "529887.555329",
    "longitude": "-90.12375083334992",
    "latitude": "29.951530103922668",
    "geocoded_column": {
      "latitude": "29.951530103922668",
      "longitude": "-90.12375083334992"
    }
  },
  {
    "service_request": "2022-864681",
    "request_type": "Trash/Recycling",
    "request_reason": "Missed Trash Pick-Up",
    "date_created": "2022-03-05T09:02:10.000",
    "date_modified": "2022-03-05T09:02:10.000",
    "request_status": "Pending",
    "responsible_agency": "Department of Sanitation",
    "final_address": "4011 Laurel St, New Orleans, Louisiana, 70115",
    "address_councildis": "B",
    "status": "Assigned to Contractor",
    "contractor": "Richards Disposal",
    "rowid": "864681",
    "final_x": "3672474.6139",
    "final_y": "518223.737334",
    "longitude": "-90.09702229766205",
    "latitude": "29.919206226667217",
    "geocoded_column": {
      "latitude": "29.919206226667217",
      "longitude": "-90.09702229766205"
    }
  },
  {
    "service_request": "2022-864680",
    "request_type": "Abandoned Vehicles",
    "request_reason": "Abandoned/Junk Vehicles",
    "date_created": "2022-03-05T08:59:55.000",
    "date_modified": "2022-03-05T08:59:56.000",
    "request_status": "Pending",
    "responsible_agency": "Department of Public Works",
    "final_address": "MARTIN LUTHER KING JR BLVD & S PRIEUR ST",
    "address_councildis": "B",
    "status": "Pending",
    "rowid": "864680",
    "final_x": "3674196.3",
    "final_y": "528739.88",
    "longitude": "-90.09122797254419",
    "latitude": "29.94807101168472",
    "geocoded_column": {
      "latitude": "29.94807101168472",
      "longitude": "-90.09122797254419"
    }
  },
  {
    "service_request": "2022-864679",
    "request_type": "Trash/Recycling",
    "request_reason": "MIssed Recycling Pick-Up",
    "date_created": "2022-03-05T08:58:17.000",
    "date_modified": "2022-03-05T08:58:18.000",
    "request_status": "Pending",
    "responsible_agency": "Department of Sanitation",
    "final_address": "1822 S Rendon St",
    "address_councildis": "B",
    "status": "Assigned to Contractor",
    "contractor": "Richards Disposal",
    "rowid": "864679",
    "final_x": "3669468.3323",
    "final_y": "530394.165506",
    "longitude": "-90.10610018198294",
    "latitude": "29.952759833904608",
    "geocoded_column": {
      "latitude": "29.952759833904608",
      "longitude": "-90.10610018198294"
    }
  },
  {
    "service_request": "2022-864678",
    "request_type": "Trash/Recycling",
    "request_reason": "Replace Trash Cart",
    "date_created": "2022-03-05T08:57:14.000",
    "date_modified": "2022-03-05T08:57:15.000",
    "request_status": "Pending",
    "responsible_agency": "Department of Sanitation",
    "final_address": "5101 Venus St",
    "address_councildis": "D",
    "status": "Assigned to Contractor",
    "contractor": "Metro Disposal",
    "rowid": "864678",
    "final_x": "3686494.22204",
    "final_y": "551614.191253",
    "longitude": "-90.05159064620115",
    "latitude": "30.010595009055894",
    "geocoded_column": {
      "latitude": "30.010595009055894",
      "longitude": "-90.05159064620115"
    }
  },
  {
    "service_request": "2022-864677",
    "request_type": "Trash/Recycling",
    "request_reason": "Replace Trash Cart",
    "date_created": "2022-03-05T08:45:58.000",
    "date_modified": "2022-03-05T08:45:59.000",
    "request_status": "Pending",
    "responsible_agency": "Department of Sanitation",
    "final_address": "3426 Lancaster St, New Orleans, Louisiana, 70131",
    "address_councildis": "C",
    "status": "Assigned to Contractor",
    "contractor": "Richards Disposal",
    "rowid": "864677",
    "final_x": "3709951.70424",
    "final_y": "518042.270646",
    "longitude": "-89.97873405114713",
    "latitude": "29.917542202042114",
    "geocoded_column": {
      "latitude": "29.917542202042114",
      "longitude": "-89.97873405114713"
    }
  },
  {
    "service_request": "2022-864675",
    "request_type": "Trash/Recycling",
    "request_reason": "Missed Trash Pick-Up",
    "date_created": "2022-03-05T08:33:45.000",
    "date_modified": "2022-03-05T08:33:45.000",
    "request_status": "Pending",
    "responsible_agency": "Department of Sanitation",
    "final_address": "8400 BLK Nelson St",
    "address_councildis": "A",
    "status": "Assigned to Contractor",
    "contractor": "Richards Disposal",
    "rowid": "864675",
    "final_x": "3664193.04953",
    "final_y": "532684.308107",
    "longitude": "-90.1226808400854",
    "latitude": "29.95921128342338",
    "geocoded_column": {
      "latitude": "29.95921128342338",
      "longitude": "-90.1226808400854"
    }
  },
  {
    "service_request": "2022-864674",
    "request_type": "Trash/Recycling",
    "request_reason": "Start Trash Service",
    "date_created": "2022-03-05T08:31:35.000",
    "date_modified": "2022-03-05T08:31:36.000",
    "request_status": "Pending",
    "responsible_agency": "Department of Sanitation",
    "final_address": "1711 First St",
    "address_councildis": "B",
    "status": "Assigned to Contractor",
    "contractor": "Richards Disposal",
    "rowid": "864674",
    "final_x": "3676712.67502",
    "final_y": "523631.322491",
    "longitude": "-90.08345869396895",
    "latitude": "29.93394891767212",
    "geocoded_column": {
      "latitude": "29.93394891767212",
      "longitude": "-90.08345869396895"
    }
  },
  {
    "service_request": "2022-864673",
    "request_type": "Abandoned Vehicles",
    "request_reason": "Abandoned/Junk Vehicles",
    "date_created": "2022-03-05T08:31:18.000",
    "date_modified": "2022-03-05T08:31:18.000",
    "request_status": "Pending",
    "responsible_agency": "Department of Public Works",
    "final_address": "1011 Fourth St",
    "address_councildis": "B",
    "status": "Pending",
    "rowid": "864673",
    "final_x": "3677498.35054",
    "final_y": "520798.082425",
    "longitude": "-90.08107609893078",
    "latitude": "29.9261348435615",
    "geocoded_column": {
      "latitude": "29.9261348435615",
      "longitude": "-90.08107609893078"
    }
  },
  {
    "service_request": "2022-864672",
    "request_type": "Trash/Recycling",
    "request_reason": "Order Trash Cart",
    "date_created": "2022-03-05T08:29:35.000",
    "date_modified": "2022-03-05T08:29:36.000",
    "request_status": "Pending",
    "responsible_agency": "Department of Sanitation",
    "final_address": "1711 First St",
    "address_councildis": "B",
    "status": "Assigned to Contractor",
    "contractor": "Richards Disposal",
    "rowid": "864672",
    "final_x": "3676712.67502",
    "final_y": "523631.322491",
    "longitude": "-90.08345869396895",
    "latitude": "29.93394891767212",
    "geocoded_column": {
      "latitude": "29.93394891767212",
      "longitude": "-90.08345869396895"
    }
  },
  {
    "service_request": "2022-864671",
    "request_type": "Trash/Recycling",
    "request_reason": "Missed Trash Pick-Up",
    "date_created": "2022-03-05T08:27:57.000",
    "date_modified": "2022-03-05T08:27:58.000",
    "request_status": "Pending",
    "responsible_agency": "Department of Sanitation",
    "final_address": "5432 N Tonti St",
    "address_councildis": "E",
    "status": "Assigned to Contractor",
    "contractor": "Metro Disposal",
    "rowid": "864671",
    "final_x": "3698710.71248",
    "final_y": "538346.579401",
    "longitude": "-90.01347712230108",
    "latitude": "29.973732557170134",
    "geocoded_column": {
      "latitude": "29.973732557170134",
      "longitude": "-90.01347712230108"
    }
  },
  {
    "service_request": "2022-864670",
    "request_type": "Roads/Drainage",
    "request_reason": "Catch Basin - Clogged",
    "date_created": "2022-03-05T08:27:03.000",
    "date_modified": "2022-03-05T08:27:03.000",
    "request_status": "Pending",
    "responsible_agency": "Department of Public Works",
    "final_address": "6300 St Roch Ave",
    "address_councildis": "D",
    "status": "Pending",
    "rowid": "864670",
    "final_x": "3684773.61525",
    "final_y": "556305.314202",
    "longitude": "-90.05686158769011",
    "latitude": "30.023546684803883",
    "geocoded_column": {
      "latitude": "30.023546684803883",
      "longitude": "-90.05686158769011"
    }
  },
  {
    "service_request": "2022-864669",
    "request_type": "Trash/Recycling",
    "request_reason": "Request a Large Item Pick Up",
    "date_created": "2022-03-05T08:26:11.000",
    "date_modified": "2022-03-05T08:26:12.000",
    "request_status": "Pending",
    "responsible_agency": "Department of Sanitation",
    "final_address": "3327 General Taylor St",
    "address_councildis": "B",
    "status": "Assigned to Contractor",
    "contractor": "Richards Disposal",
    "rowid": "864669",
    "final_x": "3671232.2578",
    "final_y": "527219.966783",
    "longitude": "-90.10063830407029",
    "latitude": "29.943979762985556",
    "geocoded_column": {
      "latitude": "29.943979762985556",
      "longitude": "-90.10063830407029"
    }
  },
  {
    "service_request": "2022-864668",
    "request_type": "Roads/Drainage",
    "request_reason": "Pothole",
    "date_created": "2022-03-05T08:22:28.000",
    "date_modified": "2022-03-05T08:22:28.000",
    "request_status": "Pending",
    "responsible_agency": "Department of Public Works",
    "final_address": "3522 Iberville St",
    "address_councildis": "B",
    "status": "Pending",
    "rowid": "864668",
    "final_x": "3672924.44481",
    "final_y": "537429.234376",
    "longitude": "-90.0949472246691",
    "latitude": "29.97200168464759",
    "geocoded_column": {
      "latitude": "29.97200168464759",
      "longitude": "-90.0949472246691"
    }
  },
  {
    "service_request": "2022-864667",
    "request_type": "Trash/Recycling",
    "request_reason": "Replace Trash Cart",
    "date_created": "2022-03-05T08:19:42.000",
    "date_modified": "2022-03-05T08:19:43.000",
    "request_status": "Pending",
    "responsible_agency": "Department of Sanitation",
    "final_address": "5432 N Tonti St",
    "address_councildis": "E",
    "status": "Assigned to Contractor",
    "contractor": "Metro Disposal",
    "rowid": "864667",
    "final_x": "3698710.71248",
    "final_y": "538346.579401",
    "longitude": "-90.01347712230108",
    "latitude": "29.973732557170134",
    "geocoded_column": {
      "latitude": "29.973732557170134",
      "longitude": "-90.01347712230108"
    }
  },
  {
    "service_request": "2022-864666",
    "request_type": "Trash/Recycling",
    "request_reason": "Change Size of Trash Cart",
    "date_created": "2022-03-05T08:18:04.000",
    "date_modified": "2022-03-05T08:18:05.000",
    "request_status": "Pending",
    "responsible_agency": "Department of Sanitation",
    "final_address": "5432 N Tonti St",
    "address_councildis": "E",
    "status": "Assigned to Contractor",
    "contractor": "Metro Disposal",
    "rowid": "864666",
    "final_x": "3698710.71248",
    "final_y": "538346.579401",
    "longitude": "-90.01347712230108",
    "latitude": "29.973732557170134",
    "geocoded_column": {
      "latitude": "29.973732557170134",
      "longitude": "-90.01347712230108"
    }
  },
  {
    "service_request": "2022-864665",
    "request_type": "Trash/Recycling",
    "request_reason": "Missed Trash Pick-Up",
    "date_created": "2022-03-05T08:17:41.000",
    "date_modified": "2022-03-05T08:17:41.000",
    "request_status": "Pending",
    "responsible_agency": "Department of Sanitation",
    "final_address": "3615 Gravier St",
    "address_councildis": "B",
    "status": "Assigned to Contractor",
    "contractor": "Richards Disposal",
    "rowid": "864665",
    "final_x": "3670798.30241",
    "final_y": "535073.826118",
    "longitude": "-90.10174189891801",
    "latitude": "29.965588114117594",
    "geocoded_column": {
      "latitude": "29.965588114117594",
      "longitude": "-90.10174189891801"
    }
  },
  {
    "service_request": "2022-864664",
    "request_type": "Trash/Recycling",
    "request_reason": "Missed Trash Pick-Up",
    "date_created": "2022-03-05T08:16:08.000",
    "date_modified": "2022-03-05T08:16:08.000",
    "request_status": "Pending",
    "responsible_agency": "Department of Sanitation",
    "final_address": "5432 N Tonti St",
    "address_councildis": "E",
    "status": "Assigned to Contractor",
    "contractor": "Metro Disposal",
    "rowid": "864664",
    "final_x": "3698710.71248",
    "final_y": "538346.579401",
    "longitude": "-90.01347712230108",
    "latitude": "29.973732557170134",
    "geocoded_column": {
      "latitude": "29.973732557170134",
      "longitude": "-90.01347712230108"
    }
  },
  {
    "service_request": "2022-864663",
    "request_type": "Trash/Recycling",
    "request_reason": "Repair Recycling Cart",
    "date_created": "2022-03-05T08:15:45.000",
    "date_modified": "2022-03-05T08:15:45.000",
    "request_status": "Pending",
    "responsible_agency": "Department of Sanitation",
    "final_address": "2003 Audubon St",
    "address_councildis": "A",
    "status": "Pending",
    "rowid": "864663",
    "final_x": "3666062.82061",
    "final_y": "528704.901504",
    "longitude": "-90.11690993406673",
    "latitude": "29.94821475851725",
    "geocoded_column": {
      "latitude": "29.94821475851725",
      "longitude": "-90.11690993406673"
    }
  },
  {
    "service_request": "2022-864662",
    "request_type": "Traffic Signals/Signs/Striping/Streetlights",
    "request_reason": "Street Light Outage/Malfunction",
    "date_created": "2022-03-05T08:13:49.000",
    "date_modified": "2022-03-05T08:13:50.000",
    "request_status": "Pending",
    "responsible_agency": "Department of Public Works",
    "final_address": "2223 Marengo St",
    "address_councildis": "B",
    "status": "Pending",
    "contractor": "Royal Engineering",
    "rowid": "864662",
    "final_x": "3671775.25364",
    "final_y": "523316.789563",
    "longitude": "-90.09905665812164",
    "latitude": "29.93323121947047",
    "geocoded_column": {
      "latitude": "29.93323121947047",
      "longitude": "-90.09905665812164"
    }
  },
  {
    "service_request": "2022-864661",
    "request_type": "Trash/Recycling",
    "request_reason": "Missed Trash Pick-Up",
    "date_created": "2022-03-05T08:03:45.000",
    "date_modified": "2022-03-05T08:03:46.000",
    "request_status": "Pending",
    "responsible_agency": "Department of Sanitation",
    "final_address": "2871 Law St",
    "address_councildis": "D",
    "status": "Assigned to Contractor",
    "contractor": "Metro Disposal",
    "rowid": "864661",
    "final_x": "3688735.16201",
    "final_y": "542118.752589",
    "longitude": "-90.0448480196841",
    "latitude": "29.984416874262678",
    "geocoded_column": {
      "latitude": "29.984416874262678",
      "longitude": "-90.0448480196841"
    }
  },
  {
    "service_request": "2022-864660",
    "request_type": "Traffic Signals/Signs/Striping/Streetlights",
    "request_reason": "Traffic Signal Malfunctioning/Damaged",
    "date_created": "2022-03-05T07:40:49.000",
    "date_modified": "2022-03-05T11:19:36.000",
    "request_status": "Pending",
    "responsible_agency": "Department of Public Works",
    "final_address": "St Charles Ave & Broadway St, New Orleans, Louisiana, 70118",
    "address_councildis": "A",
    "status": "Pending",
    "rowid": "864660",
    "final_x": "3662943.8",
    "final_y": "524671.38",
    "longitude": "-90.12689209759247",
    "latitude": "29.937214538648533",
    "geocoded_column": {
      "latitude": "29.937214538648533",
      "longitude": "-90.12689209759247"
    }
  },
  {
    "service_request": "2022-864659",
    "request_type": "Trash/Recycling",
    "request_reason": "Missed Trash Pick-Up",
    "date_created": "2022-03-05T07:21:45.000",
    "date_modified": "2022-03-05T12:53:34.000",
    "request_status": "Pending",
    "responsible_agency": "Department of Sanitation",
    "final_address": "New Orleans,LA",
    "address_councildis": "B",
    "status": "Assigned to Contractor",
    "contractor": "Richards Disposal",
    "rowid": "864659",
    "final_x": "3669684.4763",
    "final_y": "528022.290047",
    "longitude": "-90.10549794640185",
    "latitude": "29.946231584955317",
    "geocoded_column": {
      "latitude": "29.946231584955317",
      "longitude": "-90.10549794640185"
    }
  },
  {
    "service_request": "2022-864658",
    "request_type": "Trash/Recycling",
    "request_reason": "Missed Trash Pick-Up",
    "date_created": "2022-03-05T07:02:44.000",
    "date_modified": "2022-03-05T07:02:45.000",
    "request_status": "Pending",
    "responsible_agency": "Department of Sanitation",
    "final_address": "3636 Jena St",
    "address_councildis": "B",
    "status": "Assigned to Contractor",
    "contractor": "Richards Disposal",
    "rowid": "864658",
    "final_x": "3669684.4763",
    "final_y": "528022.290047",
    "longitude": "-90.10549794640185",
    "latitude": "29.946231584955317",
    "geocoded_column": {
      "latitude": "29.946231584955317",
      "longitude": "-90.10549794640185"
    }
  },
  {
    "service_request": "2022-864657",
    "request_type": "Traffic Signals/Signs/Striping/Streetlights",
    "request_reason": "Traffic Signal Malfunctioning/Damaged",
    "date_created": "2022-03-05T06:55:31.000",
    "date_modified": "2022-03-05T06:55:31.000",
    "request_status": "Pending",
    "responsible_agency": "Department of Public Works",
    "final_address": "7201 St Charles Ave",
    "address_councildis": "A",
    "status": "Pending",
    "rowid": "864657",
    "final_x": "3662954.26451",
    "final_y": "524901.768316",
    "longitude": "-90.12685140188145",
    "latitude": "29.937847730481433",
    "geocoded_column": {
      "latitude": "29.937847730481433",
      "longitude": "-90.12685140188145"
    }
  },
  {
    "service_request": "2022-864656",
    "request_type": "Mosquito, Termite & Rodent Control",
    "request_reason": "Rodent Complaint (Rats)",
    "date_created": "2022-03-05T06:42:45.000",
    "date_modified": "2022-03-05T06:42:45.000",
    "request_status": "Pending",
    "responsible_agency": "Mosquito, Termite & Rodent Control Board",
    "final_address": "1400 St Charles Ave",
    "address_councildis": "B",
    "status": "Pending",
    "rowid": "864656",
    "final_x": "3679423.82319",
    "final_y": "525708.419581",
    "longitude": "-90.07482769232304",
    "latitude": "29.939578654117575",
    "geocoded_column": {
      "latitude": "29.939578654117575",
      "longitude": "-90.07482769232304"
    }
  },
  {
    "service_request": "2022-864655",
    "request_type": "Roads/Drainage",
    "request_reason": "Street Subsidence (Sinking)",
    "date_created": "2022-03-05T02:13:06.000",
    "date_modified": "2022-03-05T02:13:06.000",
    "request_status": "Pending",
    "responsible_agency": "Department of Public Works",
    "final_address": "3000 St Claude Ave",
    "address_councildis": "C",
    "status": "Pending",
    "rowid": "864655",
    "final_x": "3688461.97321",
    "final_y": "536089.109127",
    "longitude": "-90.04592487855443",
    "latitude": "29.967845927596073",
    "geocoded_column": {
      "latitude": "29.967845927596073",
      "longitude": "-90.04592487855443"
    }
  },
  {
    "service_request": "2022-864654",
    "request_type": "COVID-19",
    "request_reason": "Sanitation Supplies",
    "date_created": "2022-03-05T02:10:40.000",
    "date_modified": "2022-03-05T02:10:40.000",
    "request_status": "Pending",
    "responsible_agency": "Safety and Permits",
    "final_address": "1300 Perdido St",
    "address_councildis": "B",
    "status": "Pending",
    "rowid": "864654",
    "final_x": "3678683.48347",
    "final_y": "530227.987073",
    "longitude": "-90.07700859883013",
    "latitude": "29.952028297123956",
    "geocoded_column": {
      "latitude": "29.952028297123956",
      "longitude": "-90.07700859883013"
    }
  },
  {
    "service_request": "2022-864651",
    "request_type": "Safety & Permits",
    "request_reason": "Construction permit",
    "date_created": "2022-03-05T01:58:09.000",
    "date_modified": "2022-03-05T01:58:09.000",
    "request_status": "Pending",
    "responsible_agency": "Department of Code Enforcement",
    "status": "Pending",
    "rowid": "864651",
    "longitude": "0.0",
    "latitude": "0.0",
    "geocoded_column": {
      "latitude": "0.0",
      "longitude": "0.0"
    }
  },
  {
    "service_request": "2022-864650",
    "request_type": "Roads/Drainage",
    "request_reason": "Street Flooding / Drainage",
    "date_created": "2022-03-05T01:53:02.000",
    "date_modified": "2022-03-05T01:53:02.000",
    "request_status": "Pending",
    "responsible_agency": "Department of Public Works",
    "final_address": "3005 St Claude Ave",
    "address_councildis": "C",
    "status": "Pending",
    "rowid": "864650",
    "final_x": "3688524.8319",
    "final_y": "536225.644615",
    "longitude": "-90.04572152412861",
    "latitude": "29.968219410326896",
    "geocoded_column": {
      "latitude": "29.968219410326896",
      "longitude": "-90.04572152412861"
    }
  },
  {
    "service_request": "2022-864649",
    "request_type": "Property Maintenance",
    "request_reason": "Property Maintenance",
    "date_created": "2022-03-05T01:51:27.000",
    "date_modified": "2022-03-05T01:51:27.000",
    "request_status": "Pending",
    "responsible_agency": "Department of Code Enforcement",
    "final_address": "3011 St Claude Ave",
    "address_councildis": "C",
    "status": "Pending",
    "rowid": "864649",
    "final_x": "3688558.73481",
    "final_y": "536217.302279",
    "longitude": "-90.04561475367828",
    "latitude": "29.96819542422598",
    "geocoded_column": {
      "latitude": "29.96819542422598",
      "longitude": "-90.04561475367828"
    }
  },
  {
    "service_request": "2022-864648",
    "request_type": "Traffic Signals/Signs/Striping/Streetlights",
    "request_reason": "Traffic Signal Malfunctioning/Damaged",
    "date_created": "2022-03-04T23:59:39.000",
    "date_modified": "2022-03-04T23:59:39.000",
    "request_status": "Pending",
    "responsible_agency": "Department of Public Works",
    "final_address": "I 10 E & ELYSIAN FIELDS EXIT",
    "address_councildis": "D",
    "status": "Pending",
    "rowid": "864648",
    "final_x": "3683757.2",
    "final_y": "539689.88",
    "longitude": "-90.06065637550557",
    "latitude": "29.9778913045239",
    "geocoded_column": {
      "latitude": "29.9778913045239",
      "longitude": "-90.06065637550557"
    }
  },
  {
    "service_request": "2022-864647",
    "request_type": "Trash/Recycling",
    "request_reason": "Order Recycling Cart",
    "date_created": "2022-03-04T20:59:40.000",
    "date_modified": "2022-03-04T20:59:40.000",
    "request_status": "Pending",
    "responsible_agency": "Department of Sanitation",
    "final_address": "813 Clouet St, New Orleans, Louisiana, 70117",
    "address_councildis": "C",
    "status": "Pending",
    "rowid": "864647",
    "final_x": "3688783.68502",
    "final_y": "534985.549894",
    "longitude": "-90.04494809195158",
    "latitude": "29.964801582520025",
    "geocoded_column": {
      "latitude": "29.964801582520025",
      "longitude": "-90.04494809195158"
    }
  },