[
  {
    "service_request": "2023-963358",
    "request_type": "Trash/Recycling",
    "request_reason": "Missed Trash Pick-Up",
    "date_created": "2023-01-09T01:11:38.000",
    "date_modified": "2023-01-09T01:11:45.000",
    "request_status": "Pending",
    "responsible_agency": "Department of Sanitation",
    "final_address": "939 Seventh St",
    "address_councildis": "B",
    "status": "Assigned to Contractor",
    "contractor": "Richards Disposal",
    "rowid": "963358",
    "final_x": "3676639.38568",
    "final_y": "520053.925048",
    "longitude": "-90.08381322144345",
    "latitude": "29.924114436043542",
    "geocoded_column": {
      "latitude": "29.924114436043542",
      "longitude": "-90.08381322144345"
    }
  },
  {
    "service_request": "2023-963357",
    "request_type": "Health Related Request",
    "request_reason": "Noise Ordinance Complaint",
    "date_created": "2023-01-09T00:00:00.000",
    "date_modified": "2023-01-09T00:00:00.000",
    "request_status": "Pending",
    "responsible_agency": "Health Department",
    "final_address": "1009 N Claiborne Ave, New Orleans, Louisiana, 70116",
    "address_councildis": "D",
    "status": "Pending",
    "rowid": "963357",
    "final_x": "3680417.66101",
    "final_y": "535635.218886",
    "longitude": "-90.07134484150656",
    "latitude": "29.966843952035386",
    "geocoded_column": {
      "latitude": "29.966843952035386",
      "longitude": "-90.07134484150656"
    }
  },
  {
    "service_request": "2023-963356",
    "request_type": "Traffic Signals/Signs/Striping/Streetlights",
    "request_reason": "Request for Stop Sign",
    "date_created": "2023-01-08T23:41:37.000",
    "date_modified": "2023-01-08T23:41:37.000",
    "request_status": "Pending",
    "responsible_agency": "Department of Public Works",
    "final_address": "901 Independence St",
    "address_councildis": "C",
    "status": "Pending",
    "rowid": "963356",
    "final_x": "3690800.63638",
    "final_y": "534743.073414",
    "longitude": "-90.0385873669013",
    "latitude": "29.964072344558815",
    "geocoded_column": {
      "latitude": "29.964072344558815",
      "longitude": "-90.0385873669013"
    }
  },
  {
    "service_request": "2023-963355",
    "request_type": "Abandoned Vehicles",
    "request_reason": "Vehicle Blocking Your Driveway",
    "date_created": "2023-01-08T22:58:27.000",
    "date_modified": "2023-01-08T22:58:27.000",
    "request_status": "Pending",
    "responsible_agency": "Department of Public Works",
    "final_address": "1039 Henriette Delille St",
    "address_councildis": "C",
    "status": "Pending",
    "rowid": "963355",
    "final_x": "3681889.73378",
    "final_y": "534749.450182",
    "longitude": "-90.0667269616528",
    "latitude": "29.96436373017848",
    "geocoded_column": {
      "latitude": "29.96436373017848",
      "longitude": "-90.0667269616528"
    }
  },
  {
    "service_request": "2023-963354",
    "request_type": "Trash/Recycling",
    "request_reason": "Missed Trash Pick-Up",
    "date_created": "2023-01-08T22:49:44.000",
    "date_modified": "2023-01-08T22:49:45.000",
    "request_status": "Pending",
    "responsible_agency": "Department of Sanitation",
    "final_address": "2408 Chelsea Dr",
    "address_councildis": "C",
    "status": "Assigned to Contractor",
    "contractor": "Richards Disposal",
    "rowid": "963354",
    "final_x": "3704873.20555",
    "final_y": "522572.848442",
    "longitude": "-89.99459681762286",
    "latitude": "29.93016382272805",
    "geocoded_column": {
      "latitude": "29.93016382272805",
      "longitude": "-89.99459681762286"
    }
  },
  {
    "service_request": "2023-963353",
    "request_type": "Mosquito, Termite & Rodent Control",
    "request_reason": "Mosquito Complaint",
    "date_created": "2023-01-08T22:49:07.000",
    "date_modified": "2023-01-08T22:49:07.000",
    "request_status": "Pending",
    "responsible_agency": "Mosquito, Termite & Rodent Control Board",
    "final_address": "1512 Monroe St",
    "address_councildis": "A",
    "status": "Pending",
    "rowid": "963353",
    "final_x": "3661157.06842",
    "final_y": "530709.243714",
    "longitude": "-90.13233315354378",
    "latitude": "29.953868346051877",
    "geocoded_column": {
      "latitude": "29.953868346051877",
      "longitude": "-90.13233315354378"
    }
  },
  {
    "service_request": "2023-963352",
    "request_type": "Trash/Recycling",
    "request_reason": "Missed Trash Pick-Up",
    "date_created": "2023-01-08T22:33:01.000",
    "date_modified": "2023-01-08T22:33:02.000",
    "request_status": "Pending",
    "responsible_agency": "Department of Sanitation",
    "final_address": "1417 Seventh St",
    "address_councildis": "B",
    "status": "Assigned to Contractor",
    "contractor": "Richards Disposal",
    "rowid": "963352",
    "final_x": "3675745.0203",
    "final_y": "521387.580537",
    "longitude": "-90.08659061439701",
    "latitude": "29.927808344422044",
    "geocoded_column": {
      "latitude": "29.927808344422044",
      "longitude": "-90.08659061439701"
    }
  },
  {
    "service_request": "2023-963351",
    "request_type": "Roads/Drainage",
    "request_reason": "Catch Basin - Broken/Damage",
    "date_created": "2023-01-08T22:30:54.000",
    "date_modified": "2023-01-08T22:30:54.000",
    "request_status": "Pending",
    "responsible_agency": "Department of Public Works",
    "final_address": "1439 Seventh St",
    "address_councildis": "B",
    "status": "Pending",
    "rowid": "963351",
    "final_x": "3675660.07867",
    "final_y": "521510.292729",
    "longitude": "-90.08685454140718",
    "latitude": "29.928148304208772",
    "geocoded_column": {
      "latitude": "29.928148304208772",
      "longitude": "-90.08685454140718"
    }
  },
  {
    "service_request": "2023-963350",
    "request_type": "Trash/Recycling",
    "request_reason": "Missed Trash Pick-Up",
    "date_created": "2023-01-08T22:06:42.000",
    "date_modified": "2023-01-08T22:06:42.000",
    "request_status": "Pending",
    "responsible_agency": "Department of Sanitation",
    "final_address": "506 Opelousas Ave",
    "address_councildis": "C",
    "status": "Assigned to Contractor",
    "contractor": "Richards Disposal",
    "rowid": "963350",
    "final_x": "3687163.69903",
    "final_y": "529177.167552",
    "longitude": "-90.05026928040276",
    "latitude": "29.948880517407147",
    "geocoded_column": {
      "latitude": "29.948880517407147",
      "longitude": "-90.05026928040276"
    }
  },
  {
    "service_request": "2023-963349",
    "request_type": "Trash/Recycling",
    "request_reason": "Missed Trash Pick-Up",
    "date_created": "2023-01-08T21:58:34.000",
    "date_modified": "2023-01-08T21:58:35.000",
    "request_status": "Pending",
    "responsible_agency": "Department of Sanitation",
    "final_address": "7573 Patterson St",
    "address_councildis": "C",
    "status": "Assigned to Contractor",
    "contractor": "Richards Disposal",
    "rowid": "963349",
    "final_x": "3712230.74251",
    "final_y": "518967.892535",
    "longitude": "-89.97150575580237",
    "latitude": "29.920013056495883",
    "geocoded_column": {
      "latitude": "29.920013056495883",
      "longitude": "-89.97150575580237"
    }
  },
  {
    "service_request": "2023-963348",
    "request_type": "Trash/Recycling",
    "request_reason": "Missed Trash Pick-Up",
    "date_created": "2023-01-08T21:49:11.000",
    "date_modified": "2023-01-08T21:49:12.000",
    "request_status": "Pending",
    "responsible_agency": "Department of Sanitation",
    "final_address": "3103 Chippewa St",
    "address_councildis": "B",
    "status": "Assigned to Contractor",
    "contractor": "Richards Disposal",
    "rowid": "963348",
    "final_x": "3676877.71285",
    "final_y": "518956.302199",
    "longitude": "-90.08309871087482",
    "latitude": "29.921089179503205",
    "geocoded_column": {
      "latitude": "29.921089179503205",
      "longitude": "-90.08309871087482"
    }
  },
  {
    "service_request": "2023-963347",
    "request_type": "Trash/Recycling",
    "request_reason": "Missed Trash Pick-Up",
    "date_created": "2023-01-08T21:47:51.000",
    "date_modified": "2023-01-08T21:47:52.000",
    "request_status": "Pending",
    "responsible_agency": "Department of Sanitation",
    "final_address": "1221 Delachaise St, New Orleans, Louisiana, 70115",
    "address_councildis": "B",
    "status": "Assigned to Contractor",
    "contractor": "Richards Disposal",
    "rowid": "963347",
    "final_x": "3674488.01614",
    "final_y": "519984.44684",
    "longitude": "-90.09060672450686",
    "latitude": "29.923987726308425",
    "geocoded_column": {
      "latitude": "29.923987726308425",
      "longitude": "-90.09060672450686"
    }
  },
  {
    "service_request": "2023-963346",
    "request_type": "Trash/Recycling",
    "request_reason": "Replace Trash Cart",
    "date_created": "2023-01-08T21:41:56.000",
    "date_modified": "2023-01-08T21:41:56.000",
    "request_status": "Pending",
    "responsible_agency": "Department of Sanitation",
    "final_address": "4427 Chestnut St",
    "address_councildis": "B",
    "status": "Assigned to Contractor",
    "contractor": "Richards Disposal",
    "rowid": "963346",
    "final_x": "3670703.92673",
    "final_y": "519532.753591",
    "longitude": "-90.10256709043344",
    "latitude": "29.922858019452768",
    "geocoded_column": {
      "latitude": "29.922858019452768",
      "longitude": "-90.10256709043344"
    }
  },
  {
    "service_request": "2023-963345",
    "request_type": "Trash/Recycling",
    "request_reason": "Missed Trash Pick-Up",
    "date_created": "2023-01-08T21:40:19.000",
    "date_modified": "2023-01-08T21:40:19.000",
    "request_status": "Pending",
    "responsible_agency": "Department of Sanitation",
    "final_address": "5515 Chestnut St",
    "address_councildis": "A",
    "status": "Assigned to Contractor",
    "contractor": "Richards Disposal",
    "rowid": "963345",
    "final_x": "3666464.75463",
    "final_y": "519675.00684",
    "longitude": "-90.11594377306251",
    "latitude": "29.92337369333792",
    "geocoded_column": {
      "latitude": "29.92337369333792",
      "longitude": "-90.11594377306251"
    }
  },
  {
    "service_request": "2023-963344",
    "request_type": "Trash/Recycling",
    "request_reason": "Missed Trash Pick-Up",
    "date_created": "2023-01-08T21:38:23.000",
    "date_modified": "2023-01-08T21:38:24.000",
    "request_status": "Pending",
    "responsible_agency": "Department of Sanitation",
    "final_address": "5741 Norland Ave",
    "address_councildis": "C",
    "status": "Assigned to Contractor",
    "contractor": "Richards Disposal",
    "rowid": "963344",
    "final_x": "3704825.1475",
    "final_y": "520471.338488",
    "longitude": "-89.9948260239106",
    "latitude": "29.92438694690811",
    "geocoded_column": {
      "latitude": "29.92438694690811",
      "longitude": "-89.9948260239106"
    }
  },
  {
    "service_request": "2023-963343",
    "request_type": "Trash/Recycling",
    "request_reason": "MIssed Recycling Pick-Up",
    "date_created": "2023-01-08T21:28:34.000",
    "date_modified": "2023-01-08T21:28:35.000",
    "request_status": "Pending",
    "responsible_agency": "Department of Sanitation",
    "final_address": "6010 Freret St",
    "address_councildis": "A",
    "status": "Assigned to Contractor",
    "contractor": "Richards Disposal",
    "rowid": "963343",
    "final_x": "3666255.89319",
    "final_y": "524406.470524",
    "longitude": "-90.1164444570858",
    "latitude": "29.936389818373097",
    "geocoded_column": {
      "latitude": "29.936389818373097",
      "longitude": "-90.1164444570858"
    }
  },
  {
    "service_request": "2023-963342",
    "request_type": "Trash/Recycling",
    "request_reason": "Missed Trash Pick-Up",
    "date_created": "2023-01-08T21:27:45.000",
    "date_modified": "2023-01-08T21:27:46.000",
    "request_status": "Pending",
    "responsible_agency": "Department of Sanitation",
    "final_address": "6010 Freret St",
    "address_councildis": "A",
    "status": "Assigned to Contractor",
    "contractor": "Richards Disposal",
    "rowid": "963342",
    "final_x": "3666255.89319",
    "final_y": "524406.470524",
    "longitude": "-90.1164444570858",
    "latitude": "29.936389818373097",
    "geocoded_column": {
      "latitude": "29.936389818373097",
      "longitude": "-90.1164444570858"
    }
  },
  {
    "service_request": "2023-963341",
    "request_type": "Traffic Signals/Signs/Striping/Streetlights",
    "request_reason": "Street Light Outage/Malfunction",
    "date_created": "2023-01-08T21:22:33.000",
    "date_modified": "2023-01-08T21:22:34.000",
    "request_status": "Pending",
    "responsible_agency": "Department of Public Works",
    "final_address": "7900 Placid St",
    "address_councildis": "E",
    "status": "Assigned to Contractor",
    "contractor": "Legacy Professional Services",
    "rowid": "963341",
    "final_x": "3713957.37944",
    "final_y": "569370.807654",
    "longitude": "-89.96415458625329",
    "latitude": "30.05854530802537",
    "geocoded_column": {
      "latitude": "30.05854530802537",
      "longitude": "-89.96415458625329"
    }
  },
  {
    "service_request": "2023-963340",
    "request_type": "Health Related Request",
    "request_reason": "Noise Ordinance Complaint",
    "date_created": "2023-01-08T21:17:26.000",
    "date_modified": "2023-01-08T21:17:26.000",
    "request_status": "Pending",
    "responsible_agency": "Health Department",
    "final_address": "3116 Washington Ave",
    "address_councildis": "B",
    "status": "Pending",
    "rowid": "963340",
    "final_x": "3672795.23329",
    "final_y": "527121.305151",
    "longitude": "-90.09570691479465",
    "latitude": "29.943662148981783",
    "geocoded_column": {
      "latitude": "29.943662148981783",
      "longitude": "-90.09570691479465"
    }
  },
  {
    "service_request": "2023-963339",
    "request_type": "Trash/Recycling",
    "request_reason": "Missed Trash Pick-Up",
    "date_created": "2023-01-08T21:15:09.000",
    "date_modified": "2023-01-08T21:15:10.000",
    "request_status": "Pending",
    "responsible_agency": "Department of Sanitation",
    "final_address": "2238 Octavia St",
    "address_councildis": "A",
    "status": "Assigned to Contractor",
    "contractor": "Richards Disposal",
    "rowid": "963339",
    "final_x": "3667525.90497",
    "final_y": "524035.669052",
    "longitude": "-90.11244744390633",
    "latitude": "29.935333085488466",
    "geocoded_column": {
      "latitude": "29.935333085488466",
      "longitude": "-90.11244744390633"
    }
  },
  {
    "service_request": "2023-963338",
    "request_type": "Trash/Recycling",
    "request_reason": "Missed Trash Pick-Up",
    "date_created": "2023-01-08T21:15:09.000",
    "date_modified": "2023-01-08T21:15:09.000",
    "request_status": "Pending",
    "responsible_agency": "Department of Sanitation",
    "final_address": "2238 Octavia St",
    "address_councildis": "A",
    "status": "Assigned to Contractor",
    "contractor": "Richards Disposal",
    "rowid": "963338",
    "final_x": "3667525.90497",
    "final_y": "524035.669052",
    "longitude": "-90.11244744390633",
    "latitude": "29.935333085488466",
    "geocoded_column": {
      "latitude": "29.935333085488466",
      "longitude": "-90.11244744390633"
    }
  },
  {
    "service_request": "2023-963337",
    "request_type": "Health Related Request",
    "request_reason": "Noise Ordinance Complaint",
    "date_created": "2023-01-08T21:11:17.000",
    "date_modified": "2023-01-08T21:11:17.000",
    "request_status": "Pending",
    "responsible_agency": "Health Department",
    "final_address": "3116 Washington Ave",
    "address_councildis": "B",
    "status": "Pending",
    "rowid": "963337",
    "final_x": "3672795.23329",
    "final_y": "527121.305151",
    "longitude": "-90.09570691479465",
    "latitude": "29.943662148981783",
    "geocoded_column": {
      "latitude": "29.943662148981783",
      "longitude": "-90.09570691479465"
    }
  },
  {
    "service_request": "2023-963336",
    "request_type": "Trash/Recycling",
    "request_reason": "Request a Large Item Pick Up",
    "date_created": "2023-01-08T21:04:18.000",
    "date_modified": "2023-01-08T21:04:19.000",
    "request_status": "Pending",
    "responsible_agency": "Department of Sanitation",
    "final_address": "3831 Lennox Blvd",
    "address_councildis": "C",
    "status": "Assigned to Contractor",
    "contractor": "Richards Disposal",
    "rowid": "963336",
    "final_x": "3700465.48061",
    "final_y": "517125.426165",
    "longitude": "-90.00870999961347",
    "latitude": "29.915326146081327",
    "geocoded_column": {
      "latitude": "29.915326146081327",
      "longitude": "-90.00870999961347"
    }
  },
  {
    "service_request": "2023-963335",
    "request_type": "Trash/Recycling",
    "request_reason": "Missed Trash Pick-Up",
    "date_created": "2023-01-08T20:51:29.000",
    "date_modified": "2023-01-08T20:51:30.000",
    "request_status": "Pending",
    "responsible_agency": "Department of Sanitation",
    "final_address": "2836 Octavia St, New Orleans, Louisiana, 70115",
    "address_councildis": "A",
    "status": "Assigned to Contractor",
    "contractor": "Richards Disposal",
    "rowid": "963335",
    "final_x": "3667970.57748",
    "final_y": "525998.136701",
    "longitude": "-90.1109775148086",
    "latitude": "29.940716205485018",
    "geocoded_column": {
      "latitude": "29.940716205485018",
      "longitude": "-90.1109775148086"
    }
  },
  {
    "service_request": "2023-963334",
    "request_type": "Trash/Recycling",
    "request_reason": "Missed Trash Pick-Up",
    "date_created": "2023-01-08T20:51:14.000",
    "date_modified": "2023-01-08T20:51:15.000",
    "request_status": "Pending",
    "responsible_agency": "Department of Sanitation",
    "final_address": "1129 Orange St",
    "address_councildis": "B",
    "status": "Assigned to Contractor",
    "contractor": "Richards Disposal",
    "rowid": "963334",
    "final_x": "3679869.44155",
    "final_y": "523574.302267",
    "longitude": "-90.07349489489827",
    "latitude": "29.93369707179771",
    "geocoded_column": {
      "latitude": "29.93369707179771",
      "longitude": "-90.07349489489827"
    }
  },
  {
    "service_request": "2023-963333",
    "request_type": "Property Maintenance",
    "request_reason": "Property Maintenance",
    "date_created": "2023-01-08T20:50:02.000",
    "date_modified": "2023-01-08T20:50:02.000",
    "request_status": "Pending",
    "responsible_agency": "Department of Code Enforcement",
    "final_address": "29 S Oak Ridge Ct",
    "address_councildis": "E",
    "status": "Pending",
    "rowid": "963333",
    "final_x": "3713853.86104",
    "final_y": "567820.232804",
    "longitude": "-89.96454034292587",
    "latitude": "30.054285264073794",
    "geocoded_column": {
      "latitude": "30.054285264073794",
      "longitude": "-89.96454034292587"
    }
  },
  {
    "service_request": "2023-963332",
    "request_type": "Trash/Recycling",
    "request_reason": "Missed Trash Pick-Up",
    "date_created": "2023-01-08T20:47:13.000",
    "date_modified": "2023-01-08T20:47:13.000",
    "request_status": "Pending",
    "responsible_agency": "Department of Sanitation",
    "final_address": "2924 Camp St",
    "address_councildis": "B",
    "status": "Assigned to Contractor",
    "contractor": "Richards Disposal",
    "rowid": "963332",
    "final_x": "3676273.25742",
    "final_y": "520685.504377",
    "longitude": "-90.08494723928573",
    "latitude": "29.925862048108147",
    "geocoded_column": {
      "latitude": "29.925862048108147",
      "longitude": "-90.08494723928573"
    }
  },
  {
    "service_request": "2023-963331",
    "request_type": "Trash/Recycling",
    "request_reason": "Missed Trash Pick-Up",
    "date_created": "2023-01-08T20:44:26.000",
    "date_modified": "2023-01-08T20:44:27.000",
    "request_status": "Pending",
    "responsible_agency": "Department of Sanitation",
    "final_address": "603 S Hennessey St",
    "address_councildis": "A",
    "status": "Assigned to Contractor",
    "contractor": "Richards Disposal",
    "rowid": "963331",
    "final_x": "3669039.6946",
    "final_y": "537362.203912",
    "longitude": "-90.10721819869046",
    "latitude": "29.97193224613524",
    "geocoded_column": {
      "latitude": "29.97193224613524",
      "longitude": "-90.10721819869046"
    }
  },
  {
    "service_request": "2023-963330",
    "request_type": "Traffic Signals/Signs/Striping/Streetlights",
    "request_reason": "Street Light Outage/Malfunction",
    "date_created": "2023-01-08T20:21:51.000",
    "date_modified": "2023-01-08T20:21:52.000",
    "request_status": "Pending",
    "responsible_agency": "Department of Public Works",
    "final_address": "2420 Camp St",
    "address_councildis": "B",
    "status": "Assigned to Contractor",
    "contractor": "Legacy Professional Services",
    "rowid": "963330",
    "final_x": "3677780.43573",
    "final_y": "521651.899257",
    "longitude": "-90.08015615976566",
    "latitude": "29.928474082126506",
    "geocoded_column": {
      "latitude": "29.928474082126506",
      "longitude": "-90.08015615976566"
    }
  },
  {
    "service_request": "2023-963329",
    "request_type": "Parks & Parkways",
    "request_reason": "Tree Stump (removal, grind)",
    "date_created": "2023-01-08T20:18:54.000",
    "date_modified": "2023-01-08T20:18:54.000",
    "request_status": "Pending",
    "responsible_agency": "Department of Parks & Parkway",
    "final_address": "1135 St Andrew St",
    "address_councildis": "B",
    "status": "Pending",
    "rowid": "963329",
    "final_x": "3679323.84559",
    "final_y": "522868.673787",
    "longitude": "-90.07524177280013",
    "latitude": "29.931773308816666",
    "geocoded_column": {
      "latitude": "29.931773308816666",
      "longitude": "-90.07524177280013"
    }
  },
  {
    "service_request": "2023-963328",
    "request_type": "Traffic Signals/Signs/Striping/Streetlights",
    "request_reason": "Street Light Outage/Malfunction",
    "date_created": "2023-01-08T20:17:42.000",
    "date_modified": "2023-01-08T20:17:42.000",
    "request_status": "Pending",
    "responsible_agency": "Department of Public Works",
    "final_address": "N ROCHEBLAVE ST & ARTS ST",
    "address_councildis": "D",
    "status": "Assigned to Contractor",
    "contractor": "Legacy Professional Services",
    "rowid": "963328",
    "final_x": "3686824.1",
    "final_y": "541265.58",
    "longitude": "-90.0509143605899",
    "latitude": "29.982129902826387",
    "geocoded_column": {
      "latitude": "29.982129902826387",
      "longitude": "-90.0509143605899"
    }
  },
  {
    "service_request": "2023-963327",
    "request_type": "Trash/Recycling",
    "request_reason": "Missed Trash Pick-Up",
    "date_created": "2023-01-08T20:17:36.000",
    "date_modified": "2023-01-08T20:17:37.000",
    "request_status": "Pending",
    "responsible_agency": "Department of Sanitation",
    "final_address": "1138 Josephine St, New Orleans, Louisiana, 70130",
    "address_councildis": "B",
    "status": "Assigned to Contractor",
    "contractor": "Richards Disposal",
    "rowid": "963327",
    "final_x": "3678939.07432",
    "final_y": "522549.966266",
    "longitude": "-90.0764674893942",
    "latitude": "29.930908578442235",
    "geocoded_column": {
      "latitude": "29.930908578442235",
      "longitude": "-90.0764674893942"
    }
  },
  {
    "service_request": "2023-963326",
    "request_type": "Trash/Recycling",
    "request_reason": "MIssed Recycling Pick-Up",
    "date_created": "2023-01-08T20:16:27.000",
    "date_modified": "2023-01-08T20:16:28.000",
    "request_status": "Pending",
    "responsible_agency": "Department of Sanitation",
    "final_address": "540 Audubon St, New Orleans, Louisiana, 70118",
    "address_councildis": "A",
    "status": "Assigned to Contractor",
    "contractor": "Richards Disposal",
    "rowid": "963326",
    "final_x": "3662849.61095",
    "final_y": "524071.19782",
    "longitude": "-90.12720940469075",
    "latitude": "29.93556695424618",
    "geocoded_column": {
      "latitude": "29.93556695424618",
      "longitude": "-90.12720940469075"
    }
  },
  {
    "service_request": "2023-963325",
    "request_type": "Traffic Signals/Signs/Striping/Streetlights",
    "request_reason": "Street Light Outage/Malfunction",
    "date_created": "2023-01-08T20:02:06.000",
    "date_modified": "2023-01-08T20:02:07.000",
    "request_status": "Pending",
    "responsible_agency": "Department of Public Works",
    "final_address": "6825 Wuerpel St",
    "address_councildis": "A",
    "status": "Assigned to Contractor",
    "contractor": "Legacy Professional Services",
    "rowid": "963325",
    "final_x": "3667311.7145",
    "final_y": "552892.913687",
    "longitude": "-90.112152720372",
    "latitude": "30.01468710663251",
    "geocoded_column": {
      "latitude": "30.01468710663251",
      "longitude": "-90.112152720372"
    }
  },
  {
    "service_request": "2023-963324",
    "request_type": "Trash/Recycling",
    "request_reason": "Replace Trash Cart",
    "date_created": "2023-01-08T19:51:18.000",
    "date_modified": "2023-01-08T19:51:18.000",
    "request_status": "Pending",
    "responsible_agency": "Department of Sanitation",
    "final_address": "718 Aline St",
    "address_councildis": "B",
    "status": "Assigned to Contractor",
    "contractor": "Richards Disposal",
    "rowid": "963324",
    "final_x": "3674890.23758",
    "final_y": "518012.458998",
    "longitude": "-90.08940463061303",
    "latitude": "29.918553391632983",
    "geocoded_column": {
      "latitude": "29.918553391632983",
      "longitude": "-90.08940463061303"
    }
  },
  {
    "service_request": "2023-963323",
    "request_type": "Trash/Recycling",
    "request_reason": "Missed Trash Pick-Up",
    "date_created": "2023-01-08T19:24:38.000",
    "date_modified": "2023-01-08T19:24:44.000",
    "request_status": "Pending",
    "responsible_agency": "Department of Sanitation",
    "final_address": "5612 Chestnut St",
    "address_councildis": "A",
    "status": "Assigned to Contractor",
    "contractor": "Richards Disposal",
    "rowid": "963323",
    "final_x": "3666078.69076",
    "final_y": "519529.868151",
    "longitude": "-90.11716729891765",
    "latitude": "29.92298588031543",
    "geocoded_column": {
      "latitude": "29.92298588031543",
      "longitude": "-90.11716729891765"
    }
  },
  {
    "service_request": "2023-963322",
    "request_type": "Trash/Recycling",
    "request_reason": "Replace Trash Cart",
    "date_created": "2023-01-08T19:19:38.000",
    "date_modified": "2023-01-08T19:19:38.000",
    "request_status": "Pending",
    "responsible_agency": "Department of Sanitation",
    "final_address": "427 S Norman C Francis Prkwy",
    "address_councildis": "B",
    "status": "Assigned to Contractor",
    "contractor": "Richards Disposal",
    "rowid": "963322",
    "final_x": "3672201.39591",
    "final_y": "535661.805574",
    "longitude": "-90.09729094761855",
    "latitude": "29.967163318160335",
    "geocoded_column": {
      "latitude": "29.967163318160335",
      "longitude": "-90.09729094761855"
    }
  },
  {
    "service_request": "2023-963321",
    "request_type": "Roads/Drainage",
    "request_reason": "Pothole",
    "date_created": "2023-01-08T19:17:58.000",
    "date_modified": "2023-01-08T19:17:58.000",
    "request_status": "Pending",
    "responsible_agency": "Department of Public Works",
    "final_address": "5835 Marigny St",
    "address_councildis": "D",
    "status": "Pending",
    "rowid": "963321",
    "final_x": "3684017.21909",
    "final_y": "554573.181016",
    "longitude": "-90.0593124951405",
    "latitude": "30.018807103813273",
    "geocoded_column": {
      "latitude": "30.018807103813273",
      "longitude": "-90.0593124951405"
    }
  },
  {
    "service_request": "2023-963320",
    "request_type": "Trash/Recycling",
    "request_reason": "Request a Large Item Pick Up",
    "date_created": "2023-01-08T19:09:13.000",
    "date_modified": "2023-01-08T19:09:14.000",
    "request_status": "Pending",
    "responsible_agency": "Department of Sanitation",
    "final_address": "48 Morrison Ct",
    "address_councildis": "E",
    "status": "Assigned to Contractor",
    "contractor": "Waste Pro",
    "rowid": "963320",
    "final_x": "3704039.79594",
    "final_y": "561367.661342",
    "longitude": "-89.99579816478452",
    "latitude": "30.036861953283275",
    "geocoded_column": {
      "latitude": "30.036861953283275",
      "longitude": "-89.99579816478452"
    }
  },
  {
    "service_request": "2023-963319",
    "request_type": "Trash/Recycling",
    "request_reason": "Missed Trash Pick-Up",
    "date_created": "2023-01-08T19:07:31.000",
    "date_modified": "2023-01-08T19:07:32.000",
    "request_status": "Pending",
    "responsible_agency": "Department of Sanitation",
    "final_address": "2216 Wirth Pl",
    "address_councildis": "A",
    "status": "Assigned to Contractor",
    "contractor": "Richards Disposal",
    "rowid": "963319",
    "final_x": "3667026.72327",
    "final_y": "524340.441276",
    "longitude": "-90.11401312858841",
    "latitude": "29.93618572702672",
    "geocoded_column": {
      "latitude": "29.93618572702672",
      "longitude": "-90.11401312858841"
    }
  },
  {
    "service_request": "2023-963317",
    "request_type": "Trash/Recycling",
    "request_reason": "Missed Trash Pick-Up",
    "date_created": "2023-01-08T18:42:50.000",
    "date_modified": "2023-01-08T18:42:51.000",
    "request_status": "Pending",
    "responsible_agency": "Department of Sanitation",
    "final_address": "3005 Danneel St",
    "address_councildis": "B",
    "status": "Assigned to Contractor",
    "contractor": "Richards Disposal",
    "rowid": "963317",
    "final_x": "3674384.4132",
    "final_y": "523278.785723",
    "longitude": "-90.09082099848675",
    "latitude": "29.93304918287073",
    "geocoded_column": {
      "latitude": "29.93304918287073",
      "longitude": "-90.09082099848675"
    }
  },
  {
    "service_request": "2023-963315",
    "request_type": "Abandoned Vehicles",
    "request_reason": "Abandoned/Junk Vehicles",
    "date_created": "2023-01-08T18:16:38.000",
    "date_modified": "2023-01-08T18:16:38.000",
    "request_status": "Pending",
    "responsible_agency": "Department of Public Works",
    "final_address": "4TH ST & CLARA ST",
    "address_councildis": "B",
    "status": "Pending",
    "rowid": "963315",
    "final_x": "3673838.8",
    "final_y": "526250.58",
    "longitude": "-90.09244186387369",
    "latitude": "29.94123690581234",
    "geocoded_column": {
      "latitude": "29.94123690581234",
      "longitude": "-90.09244186387369"
    }
  },
  {
    "service_request": "2023-963314",
    "request_type": "Traffic Signals/Signs/Striping/Streetlights",
    "request_reason": "Street Light Outage/Malfunction",
    "date_created": "2023-01-08T18:16:08.000",
    "date_modified": "2023-01-08T18:16:09.000",
    "request_status": "Pending",
    "responsible_agency": "Department of Public Works",
    "final_address": "MAGNOLIA ST & 3RD ST",
    "address_councildis": "B",
    "status": "Assigned to Contractor",
    "contractor": "Legacy Professional Services",
    "rowid": "963314",
    "final_x": "3674260.9",
    "final_y": "526167.48",
    "longitude": "-90.09111205680676",
    "latitude": "29.940995832152755",
    "geocoded_column": {
      "latitude": "29.940995832152755",
      "longitude": "-90.09111205680676"
    }
  },
  {
    "service_request": "2023-963313",
    "request_type": "Traffic Signals/Signs/Striping/Streetlights",
    "request_reason": "Street Light Outage/Malfunction",
    "date_created": "2023-01-08T18:12:39.000",
    "date_modified": "2023-01-08T18:12:40.000",
    "request_status": "Pending",
    "responsible_agency": "Department of Public Works",
    "final_address": "2608 Clara St",
    "address_councildis": "B",
    "status": "Assigned to Contractor",
    "contractor": "Legacy Professional Services",
    "rowid": "963313",
    "final_x": "3674049.28424",
    "final_y": "526309.574462",
    "longitude": "-90.09177530620175",
    "latitude": "29.941392851858346",
    "geocoded_column": {
      "latitude": "29.941392851858346",
      "longitude": "-90.09177530620175"
    }
  },
  {
    "service_request": "2023-963312",
    "request_type": "Trash/Recycling",
    "request_reason": "Missed Trash Pick-Up",
    "date_created": "2023-01-08T18:06:49.000",
    "date_modified": "2023-01-08T18:06:49.000",
    "request_status": "Pending",
    "responsible_agency": "Department of Sanitation",
    "final_address": "8018 Panola Street ",
    "address_councildis": "A",
    "status": "Assigned to Contractor",
    "contractor": "Richards Disposal",
    "rowid": "963312",
    "final_x": "3664276.65453",
    "final_y": "530491.00845",
    "longitude": "-90.12249002281837",
    "latitude": "29.953177993579686",
    "geocoded_column": {
      "latitude": "29.953177993579686",
      "longitude": "-90.12249002281837"
    }
  },
  {
    "service_request": "2023-963311",
    "request_type": "Trash/Recycling",
    "request_reason": "Request a Large Item Pick Up",
    "date_created": "2023-01-08T18:04:53.000",
    "date_modified": "2023-01-08T18:04:54.000",
    "request_status": "Pending",
    "responsible_agency": "Department of Sanitation",
    "final_address": "8014 Panola St",
    "address_councildis": "A",
    "status": "Assigned to Contractor",
    "contractor": "Richards Disposal",
    "rowid": "963311",
    "final_x": "3664287.00224",
    "final_y": "530481.272578",
    "longitude": "-90.12245767395585",
    "latitude": "29.95315092241425",
    "geocoded_column": {
      "latitude": "29.95315092241425",
      "longitude": "-90.12245767395585"
    }
  },
  {
    "service_request": "2023-963310",
    "request_type": "Trash/Recycling",
    "request_reason": "Missed Trash Pick-Up",
    "date_created": "2023-01-08T17:47:46.000",
    "date_modified": "2023-01-08T17:47:46.000",
    "request_status": "Pending",
    "responsible_agency": "Department of Sanitation",
    "final_address": "5901 Annunciation St, New Orleans, Louisiana, 70115",
    "address_councildis": "A",
    "status": "Assigned to Contractor",
    "contractor": "Richards Disposal",
    "rowid": "963310",
    "final_x": "3664896.39904",
    "final_y": "517808.893494",
    "longitude": "-90.12095682959371",
    "latitude": "29.918288189582633",
    "geocoded_column": {
      "latitude": "29.918288189582633",
      "longitude": "-90.12095682959371"
    }
  },
  {
    "service_request": "2023-963309",
    "request_type": "Trash/Recycling",
    "request_reason": "Request a Large Item Pick Up",
    "date_created": "2023-01-08T17:47:42.000",
    "date_modified": "2023-01-08T17:47:42.000",
    "request_status": "Pending",
    "responsible_agency": "Department of Sanitation",
    "final_address": "5501 Loyola Ave",
    "address_councildis": "A",
    "status": "Assigned to Contractor",
    "contractor": "Richards Disposal",
    "rowid": "963309",
    "final_x": "3667289.62343",
    "final_y": "523107.538107",
    "longitude": "-90.11322458818319",
    "latitude": "29.93278794218939",
    "geocoded_column": {
      "latitude": "29.93278794218939",
      "longitude": "-90.11322458818319"
    }
  },
  {
    "service_request": "2023-963308",
    "request_type": "Trash/Recycling",
    "request_reason": "MIssed Recycling Pick-Up",
    "date_created": "2023-01-08T17:44:27.000",
    "date_modified": "2023-01-08T17:44:28.000",
    "request_status": "Pending",
    "responsible_agency": "Department of Sanitation",
    "final_address": "1604 Robert C. Blakes, Sr. Dr",
    "address_councildis": "B",
    "status": "Assigned to Contractor",
    "contractor": "Richards Disposal",
    "rowid": "963308",
    "final_x": "3678647.1204",
    "final_y": "525437.572413",
    "longitude": "-90.07728922277693",
    "latitude": "29.938857347755224",
    "geocoded_column": {
      "latitude": "29.938857347755224",
      "longitude": "-90.07728922277693"
    }
  },
  {
    "service_request": "2023-963307",
    "request_type": "Trash/Recycling",
    "request_reason": "Request a Large Item Pick Up",
    "date_created": "2023-01-08T17:44:09.000",
    "date_modified": "2023-01-08T17:44:09.000",
    "request_status": "Pending",
    "responsible_agency": "Department of Sanitation",
    "final_address": "1405 Pine St",
    "address_councildis": "A",
    "status": "Assigned to Contractor",
    "contractor": "Richards Disposal",
    "rowid": "963307",
    "final_x": "3664379.5984",
    "final_y": "527283.341439",
    "longitude": "-90.12227201870313",
    "latitude": "29.94435495219521",
    "geocoded_column": {
      "latitude": "29.94435495219521",
      "longitude": "-90.12227201870313"
    }
  },
  {
    "service_request": "2023-963306",
    "request_type": "Trash/Recycling",
    "request_reason": "Missed Trash Pick-Up",
    "date_created": "2023-01-08T17:40:14.000",
    "date_modified": "2023-01-08T17:40:15.000",
    "request_status": "Pending",
    "responsible_agency": "Department of Sanitation",
    "final_address": "1227 Leonidas St",
    "address_councildis": "A",
    "status": "Assigned to Contractor",
    "contractor": "Richards Disposal",
    "rowid": "963306",
    "final_x": "3660847.15021",
    "final_y": "529727.962049",
    "longitude": "-90.13334420214194",
    "latitude": "29.951179064887057",
    "geocoded_column": {
      "latitude": "29.951179064887057",
      "longitude": "-90.13334420214194"
    }
  },
  {
    "service_request": "2023-963305",
    "request_type": "Trash/Recycling",
    "request_reason": "Missed Trash Pick-Up",
    "date_created": "2023-01-08T17:39:26.000",
    "date_modified": "2023-01-08T17:39:27.000",
    "request_status": "Pending",
    "responsible_agency": "Department of Sanitation",
    "final_address": "915 Sixth St",
    "address_councildis": "B",
    "status": "Assigned to Contractor",
    "contractor": "Richards Disposal",
    "rowid": "963305",
    "final_x": "3676994.15125",
    "final_y": "520069.34828",
    "longitude": "-90.0826928195403",
    "latitude": "29.924146202614033",
    "geocoded_column": {
      "latitude": "29.924146202614033",
      "longitude": "-90.0826928195403"
    }
  },
  {
    "service_request": "2023-963304",
    "request_type": "Traffic Signals/Signs/Striping/Streetlights",
    "request_reason": "Street Light Outage/Malfunction",
    "date_created": "2023-01-08T17:37:27.000",
    "date_modified": "2023-01-08T17:37:28.000",
    "request_status": "Pending",
    "responsible_agency": "Department of Public Works",
    "final_address": "3316 W St Roch Ave",
    "address_councildis": "D",
    "status": "Assigned to Contractor",
    "contractor": "Legacy Professional Services",
    "rowid": "963304",
    "final_x": "3685576.7734",
    "final_y": "545004.950543",
    "longitude": "-90.05472221995836",
    "latitude": "29.992450170049192",
    "geocoded_column": {
      "latitude": "29.992450170049192",
      "longitude": "-90.05472221995836"
    }
  },
  {
    "service_request": "2023-963303",
    "request_type": "Trash/Recycling",
    "request_reason": "Missed Trash Pick-Up",
    "date_created": "2023-01-08T17:30:23.000",
    "date_modified": "2023-01-08T17:30:23.000",
    "request_status": "Pending",
    "responsible_agency": "Department of Sanitation",
    "final_address": "2824 Calhoun St",
    "address_councildis": "A",
    "status": "Assigned to Contractor",
    "contractor": "Richards Disposal",
    "rowid": "963303",
    "final_x": "3666618.59533",
    "final_y": "527138.943231",
    "longitude": "-90.11520768200867",
    "latitude": "29.943892644482503",
    "geocoded_column": {
      "latitude": "29.943892644482503",
      "longitude": "-90.11520768200867"
    }
  },
  {
    "service_request": "2023-963302",
    "request_type": "Trash/Recycling",
    "request_reason": "Missed Trash Pick-Up",
    "date_created": "2023-01-08T17:23:13.000",
    "date_modified": "2023-01-08T17:23:17.000",
    "request_status": "Pending",
    "responsible_agency": "Department of Sanitation",
    "final_address": "9 Glen Abbey Way",
    "address_councildis": "C",
    "status": "Assigned to Contractor",
    "contractor": "Richards Disposal",
    "rowid": "963302",
    "final_x": "3716814.38207",
    "final_y": "515364.901044",
    "longitude": "-89.9571741774657",
    "latitude": "29.909955521547126",
    "geocoded_column": {
      "latitude": "29.909955521547126",
      "longitude": "-89.9571741774657"
    }
  },
  {
    "service_request": "2023-963301",
    "request_type": "Traffic Signals/Signs/Striping/Streetlights",
    "request_reason": "Street Light Outage/Malfunction",
    "date_created": "2023-01-08T17:22:18.000",
    "date_modified": "2023-01-08T17:22:26.000",
    "request_status": "Pending",
    "responsible_agency": "Department of Public Works",
    "final_address": "1206 Aline St",
    "address_councildis": "B",
    "status": "Assigned to Contractor",
    "contractor": "Legacy Professional Services",
    "rowid": "963301",
    "final_x": "3674238.93198",
    "final_y": "519813.24396",
    "longitude": "-90.0913988530049",
    "latitude": "29.923524399172525",
    "geocoded_column": {
      "latitude": "29.923524399172525",
      "longitude": "-90.0913988530049"
    }
  },
  {
    "service_request": "2023-963300",
    "request_type": "Trash/Recycling",
    "request_reason": "Missed Trash Pick-Up",
    "date_created": "2023-01-08T17:16:55.000",
    "date_modified": "2023-01-08T17:16:56.000",
    "request_status": "Pending",
    "responsible_agency": "Department of Sanitation",
    "final_address": "2319 Robert St",
    "address_councildis": "B",
    "status": "Assigned to Contractor",
    "contractor": "Richards Disposal",
    "rowid": "963300",
    "final_x": "3668865.91905",
    "final_y": "524093.208316",
    "longitude": "-90.10821506143428",
    "latitude": "29.935451972774175",
    "geocoded_column": {
      "latitude": "29.935451972774175",
      "longitude": "-90.10821506143428"
    }
  },
  {
    "service_request": "2023-963299",
    "request_type": "Trash/Recycling",
    "request_reason": "Missed Trash Pick-Up",
    "date_created": "2023-01-08T17:15:06.000",
    "date_modified": "2023-01-08T17:15:07.000",
    "request_status": "Pending",
    "responsible_agency": "Department of Sanitation",
    "final_address": "5627 Oxford Pl",
    "address_councildis": "C",
    "status": "Assigned to Contractor",
    "contractor": "Richards Disposal",
    "rowid": "963299",
    "final_x": "3704379.04727",
    "final_y": "520037.140344",
    "longitude": "-89.99625019145219",
    "latitude": "29.92320737393539",
    "geocoded_column": {
      "latitude": "29.92320737393539",
      "longitude": "-89.99625019145219"
    }
  },
  {
    "service_request": "2023-963298",
    "request_type": "Trash/Recycling",
    "request_reason": "Missed Trash Pick-Up",
    "date_created": "2023-01-08T17:13:31.000",
    "date_modified": "2023-01-08T17:13:32.000",
    "request_status": "Pending",
    "responsible_agency": "Department of Sanitation",
    "final_address": "1443 Calhoun St",
    "address_councildis": "A",
    "status": "Assigned to Contractor",
    "contractor": "Richards Disposal",
    "rowid": "963298",
    "final_x": "3664448.56986",
    "final_y": "521930.606842",
    "longitude": "-90.12223288176175",
    "latitude": "29.9296346305856",
    "geocoded_column": {
      "latitude": "29.9296346305856",
      "longitude": "-90.12223288176175"
    }
  },
  {
    "service_request": "2023-963297",
    "request_type": "Trash/Recycling",
    "request_reason": "Missed Trash Pick-Up",
    "date_created": "2023-01-08T17:12:36.000",
    "date_modified": "2023-01-08T17:12:37.000",
    "request_status": "Pending",
    "responsible_agency": "Department of Sanitation",
    "final_address": "1115 Arabella St",
    "address_councildis": "A",
    "status": "Assigned to Contractor",
    "contractor": "Richards Disposal",
    "rowid": "963297",
    "final_x": "3666117.66861",
    "final_y": "520060.285368",
    "longitude": "-90.11702648760547",
    "latitude": "29.924443223132393",
    "geocoded_column": {
      "latitude": "29.924443223132393",
      "longitude": "-90.11702648760547"
    }
  },
  {
    "service_request": "2023-963296",
    "request_type": "Property Maintenance",
    "request_reason": "Property Maintenance",
    "date_created": "2023-01-08T17:10:08.000",
    "date_modified": "2023-01-08T17:10:08.000",
    "request_status": "Pending",
    "responsible_agency": "Department of Code Enforcement",
    "final_address": "2265 N Villere St",
    "address_councildis": "C",
    "status": "Pending",
    "rowid": "963296",
    "final_x": "3685558.41353",
    "final_y": "537504.205512",
    "longitude": "-90.05504453663616",
    "latitude": "29.97182633244571",
    "geocoded_column": {
      "latitude": "29.97182633244571",
      "longitude": "-90.05504453663616"
    }
  },
  {
    "service_request": "2023-963295",
    "request_type": "Trash/Recycling",
    "request_reason": "Missed Trash Pick-Up",
    "date_created": "2023-01-08T17:08:21.000",
    "date_modified": "2023-01-08T17:08:21.000",
    "request_status": "Pending",
    "responsible_agency": "Department of Sanitation",
    "final_address": "2415 Palmer Ave",
    "address_councildis": "A",
    "status": "Assigned to Contractor",
    "contractor": "Richards Disposal",
    "rowid": "963295",
    "final_x": "3666423.63194",
    "final_y": "525659.551037",
    "longitude": "-90.11587286495433",
    "latitude": "29.93983048926382",
    "geocoded_column": {
      "latitude": "29.93983048926382",
      "longitude": "-90.11587286495433"
    }
  },
  {
    "service_request": "2023-963294",
    "request_type": "Trash/Recycling",
    "request_reason": "Missed Trash Pick-Up",
    "date_created": "2023-01-08T17:07:29.000",
    "date_modified": "2023-01-08T17:07:29.000",
    "request_status": "Pending",
    "responsible_agency": "Department of Sanitation",
    "final_address": "8614 Palm St",
    "address_councildis": "A",
    "status": "Assigned to Contractor",
    "contractor": "Richards Disposal",
    "rowid": "963294",
    "final_x": "3666264.80833",
    "final_y": "535965.639495",
    "longitude": "-90.116028624094",
    "latitude": "29.968173511534115",
    "geocoded_column": {
      "latitude": "29.968173511534115",
      "longitude": "-90.116028624094"
    }
  },
  {
    "service_request": "2023-963293",
    "request_type": "Traffic Signals/Signs/Striping/Streetlights",
    "request_reason": "Traffic Sign Missing/Damaged",
    "date_created": "2023-01-08T17:03:04.000",
    "date_modified": "2023-01-08T17:03:04.000",
    "request_status": "Pending",
    "responsible_agency": "Department of Public Works",
    "final_address": "1244 Congress St",
    "address_councildis": "C",
    "status": "Pending",
    "rowid": "963293",
    "final_x": "3690856.46134",
    "final_y": "536284.306631",
    "longitude": "-90.03835607180646",
    "latitude": "29.96830846011051",
    "geocoded_column": {
      "latitude": "29.96830846011051",
      "longitude": "-90.03835607180646"
    }
  },
  {
    "service_request": "2023-963291",
    "request_type": "Trash/Recycling",
    "request_reason": "Missed Trash Pick-Up",
    "date_created": "2023-01-08T17:02:28.000",
    "date_modified": "2023-01-08T17:02:29.000",
    "request_status": "Pending",
    "responsible_agency": "Department of Sanitation",
    "final_address": "2608 St Andrew St",
    "address_councildis": "B",
    "status": "Assigned to Contractor",
    "contractor": "Richards Disposal",
    "rowid": "963291",
    "final_x": "3675779.80776",
    "final_y": "526952.723582",
    "longitude": "-90.08628960366138",
    "latitude": "29.943109628125935",
    "geocoded_column": {
      "latitude": "29.943109628125935",
      "longitude": "-90.08628960366138"
    }
  },
  {
    "service_request": "2023-963290",
    "request_type": "Abandoned Vehicles",
    "request_reason": "Abandoned/Junk Vehicles",
    "date_created": "2023-01-08T17:01:07.000",
    "date_modified": "2023-01-08T17:01:07.000",
    "request_status": "Pending",
    "responsible_agency": "Department of Public Works",
    "final_address": "3210 Gravier St",
    "address_councildis": "B",
    "status": "Pending",
    "rowid": "963290",
    "final_x": "3672187.92769",
    "final_y": "534175.720965",
    "longitude": "-90.09738410181727",
    "latitude": "29.963077482958436",
    "geocoded_column": {
      "latitude": "29.963077482958436",
      "longitude": "-90.09738410181727"
    }
  },
  {
    "service_request": "2023-963289",
    "request_type": "Trash/Recycling",
    "request_reason": "Replace Recycling Cart",
    "date_created": "2023-01-08T16:53:49.000",
    "date_modified": "2023-01-08T16:53:49.000",
    "request_status": "Pending",
    "responsible_agency": "Department of Sanitation",
    "final_address": "438 Millaudon St",
    "address_councildis": "A",
    "status": "Pending",
    "rowid": "963289",
    "final_x": "3662047.29587",
    "final_y": "524917.913468",
    "longitude": "-90.12971425500784",
    "latitude": "29.93791835189131",
    "geocoded_column": {
      "latitude": "29.93791835189131",
      "longitude": "-90.12971425500784"
    }
  },
  {
    "service_request": "2023-963288",
    "request_type": "Property Maintenance",
    "request_reason": "Property Maintenance",
    "date_created": "2023-01-08T16:46:37.000",
    "date_modified": "2023-01-08T16:46:37.000",
    "request_status": "Pending",
    "responsible_agency": "Department of Code Enforcement",
    "final_address": "1324 Spain St",
    "address_councildis": "C",
    "status": "Pending",
    "rowid": "963288",
    "final_x": "3686024.10338",
    "final_y": "537335.573576",
    "longitude": "-90.05357976623453",
    "latitude": "29.97134836030026",
    "geocoded_column": {
      "latitude": "29.97134836030026",
      "longitude": "-90.05357976623453"
    }
  },
  {
    "service_request": "2023-963287",
    "request_type": "Trash/Recycling",
    "request_reason": "MIssed Recycling Pick-Up",
    "date_created": "2023-01-08T16:45:33.000",
    "date_modified": "2023-01-08T16:45:33.000",
    "request_status": "Pending",
    "responsible_agency": "Department of Sanitation",
    "final_address": "4716 Annunciation St Unit 1C",
    "address_councildis": "B",
    "status": "Assigned to Contractor",
    "contractor": "Richards Disposal",
    "rowid": "963287",
    "final_x": "3669832.37761",
    "final_y": "517586.197942",
    "longitude": "-90.10538408491216",
    "latitude": "29.917531319647225",
    "geocoded_column": {
      "latitude": "29.917531319647225",
      "longitude": "-90.10538408491216"
    }
  },
  {
    "service_request": "2023-963286",
    "request_type": "Property Maintenance",
    "request_reason": "Property Maintenance",
    "date_created": "2023-01-08T16:43:33.000",
    "date_modified": "2023-01-08T16:43:33.000",
    "request_status": "Pending",
    "responsible_agency": "Department of Code Enforcement",
    "final_address": "1341 Spain St",
    "address_councildis": "C",
    "status": "Pending",
    "rowid": "963286",
    "final_x": "3686086.90076",
    "final_y": "537456.811016",
    "longitude": "-90.05337716663703",
    "latitude": "29.97167979226605",
    "geocoded_column": {
      "latitude": "29.97167979226605",
      "longitude": "-90.05337716663703"
    }
  },
  {
    "service_request": "2023-963285",
    "request_type": "Trash/Recycling",
    "request_reason": "Missed Trash Pick-Up",
    "date_created": "2023-01-08T16:36:05.000",
    "date_modified": "2023-01-08T16:36:06.000",
    "request_status": "Pending",
    "responsible_agency": "Department of Sanitation",
    "final_address": "130 S Murat St",
    "address_councildis": "A",
    "status": "Assigned to Contractor",
    "contractor": "Richards Disposal",
    "rowid": "963285",
    "final_x": "3669543.29223",
    "final_y": "539119.185482",
    "longitude": "-90.10556829656949",
    "latitude": "29.976748527138856",
    "geocoded_column": {
      "latitude": "29.976748527138856",
      "longitude": "-90.10556829656949"
    }
  },
  {
    "service_request": "2023-963284",
    "request_type": "Trash/Recycling",
    "request_reason": "MIssed Recycling Pick-Up",
    "date_created": "2023-01-08T16:28:38.000",
    "date_modified": "2023-01-08T16:28:39.000",
    "request_status": "Pending",
    "responsible_agency": "Department of Sanitation",
    "final_address": "522 Leontine St",
    "address_councildis": "B",
    "status": "Assigned to Contractor",
    "contractor": "Richards Disposal",
    "rowid": "963284",
    "final_x": "3666955.93639",
    "final_y": "517389.323701",
    "longitude": "-90.11447003989285",
    "latitude": "29.91707442434475",
    "geocoded_column": {
      "latitude": "29.91707442434475",
      "longitude": "-90.11447003989285"
    }
  },
  {
    "service_request": "2023-963283",
    "request_type": "Traffic Signals/Signs/Striping/Streetlights",
    "request_reason": "Street Light Outage/Malfunction",
    "date_created": "2023-01-08T16:22:41.000",
    "date_modified": "2023-01-08T16:22:42.000",
    "request_status": "Pending",
    "responsible_agency": "Department of Public Works",
    "final_address": "4700 Maid Marion Dr",
    "address_councildis": "E",
    "status": "Assigned to Contractor",
    "contractor": "Legacy Professional Services",
    "rowid": "963283",
    "final_x": "3716910.49983",
    "final_y": "556805.692954",
    "longitude": "-89.9552978205614",
    "latitude": "30.02389898783686",
    "geocoded_column": {
      "latitude": "30.02389898783686",
      "longitude": "-89.9552978205614"
    }
  },
  {
    "service_request": "2023-963282",
    "request_type": "Traffic Signals/Signs/Striping/Streetlights",
    "request_reason": "Street Light Outage/Malfunction",
    "date_created": "2023-01-08T16:20:31.000",
    "date_modified": "2023-01-08T16:20:31.000",
    "request_status": "Pending",
    "responsible_agency": "Department of Public Works",
    "final_address": "11214 Prentiss Ave",
    "address_councildis": "E",
    "status": "Assigned to Contractor",
    "contractor": "Legacy Professional Services",
    "rowid": "963282",
    "final_x": "3716901.30975",
    "final_y": "556641.098458",
    "longitude": "-89.9553331136756",
    "latitude": "30.02344672239996",
    "geocoded_column": {
      "latitude": "30.02344672239996",
      "longitude": "-89.9553331136756"
    }
  },
  {
    "service_request": "2023-963281",
    "request_type": "Roads/Drainage",
    "request_reason": "Catch Basin - Clogged",
    "date_created": "2023-01-08T16:15:39.000",
    "date_modified": "2023-01-08T16:15:39.000",
    "request_status": "Pending",
    "responsible_agency": "Department of Public Works",
    "final_address": "2115 Decatur St",
    "address_councildis": "C",
    "status": "Pending",
    "rowid": "963281",
    "final_x": "3684898.51484",
    "final_y": "534157.975429",
    "longitude": "-90.05724628809114",
    "latitude": "29.96264558501145",
    "geocoded_column": {
      "latitude": "29.96264558501145",
      "longitude": "-90.05724628809114"
    }
  },
  {
    "service_request": "2023-963280",
    "request_type": "Trash/Recycling",
    "request_reason": "Missed Trash Pick-Up",
    "date_created": "2023-01-08T16:15:29.000",
    "date_modified": "2023-01-08T16:15:29.000",
    "request_status": "Pending",
    "responsible_agency": "Department of Sanitation",
    "final_address": "1328 Nashville Ave, New Orleans, Louisiana, 70115",
    "address_councildis": "A",
    "status": "Assigned to Contractor",
    "contractor": "Richards Disposal",
    "rowid": "963280",
    "final_x": "3665901.6448",
    "final_y": "520970.597433",
    "longitude": "-90.11767791722147",
    "latitude": "29.926952597823295",
    "geocoded_column": {
      "latitude": "29.926952597823295",
      "longitude": "-90.11767791722147"
    }
  },
  {
    "service_request": "2023-963279",
    "request_type": "Trash/Recycling",
    "request_reason": "Missed Trash Pick-Up",
    "date_created": "2023-01-08T16:12:31.000",
    "date_modified": "2023-01-08T16:12:32.000",
    "request_status": "Pending",
    "responsible_agency": "Department of Sanitation",
    "final_address": "6019 Constance St",
    "address_councildis": "A",
    "status": "Assigned to Contractor",
    "contractor": "Richards Disposal",
    "rowid": "963279",
    "final_x": "3664455.57927",
    "final_y": "519040.795127",
    "longitude": "-90.12230717031808",
    "latitude": "29.921688352267896",
    "geocoded_column": {
      "latitude": "29.921688352267896",
      "longitude": "-90.12230717031808"
    }
  },
  {
    "service_request": "2023-963278",
    "request_type": "Trash/Recycling",
    "request_reason": "Order Recycling Cart",
    "date_created": "2023-01-08T16:10:49.000",
    "date_modified": "2023-01-08T16:10:49.000",
    "request_status": "Pending",
    "responsible_agency": "Department of Sanitation",
    "final_address": "2223 St Philip St",
    "address_councildis": "D",
    "status": "Pending",
    "rowid": "963278",
    "final_x": "3678908.82498",
    "final_y": "536741.299655",
    "longitude": "-90.0760714179991",
    "latitude": "29.969930902921597",
    "geocoded_column": {
      "latitude": "29.969930902921597",
      "longitude": "-90.0760714179991"
    }
  },
  {
    "service_request": "2023-963277",
    "request_type": "Trash/Recycling",
    "request_reason": "MIssed Recycling Pick-Up",
    "date_created": "2023-01-08T16:10:35.000",
    "date_modified": "2023-01-08T16:10:35.000",
    "request_status": "Pending",
    "responsible_agency": "Department of Sanitation",
    "final_address": "3410 Octavia St",
    "address_councildis": "A",
    "status": "Assigned to Contractor",
    "contractor": "Richards Disposal",
    "rowid": "963277",
    "final_x": "3668434.20308",
    "final_y": "528118.250367",
    "longitude": "-90.10944226906062",
    "latitude": "29.94653222389129",
    "geocoded_column": {
      "latitude": "29.94653222389129",
      "longitude": "-90.10944226906062"
    }
  },
  {
    "service_request": "2023-963276",
    "request_type": "Trash/Recycling",
    "request_reason": "Order Recycling Cart",
    "date_created": "2023-01-08T16:04:31.000",
    "date_modified": "2023-01-08T16:04:31.000",
    "request_status": "Pending",
    "responsible_agency": "Department of Sanitation",
    "final_address": "7316 Brevard Ave",
    "address_councildis": "E",
    "status": "Pending",
    "rowid": "963276",
    "final_x": "3706742.42763",
    "final_y": "562669.714464",
    "longitude": "-89.98720899734684",
    "latitude": "30.040355062985892",
    "geocoded_column": {
      "latitude": "30.040355062985892",
      "longitude": "-89.98720899734684"
    }
  },
  {
    "service_request": "2023-963275",
    "request_type": "Trash/Recycling",
    "request_reason": "Request a Large Item Pick Up",
    "date_created": "2023-01-08T16:02:48.000",
    "date_modified": "2023-01-08T16:02:50.000",
    "request_status": "Pending",
    "responsible_agency": "Department of Sanitation",
    "final_address": "6122 Dauphine St",
    "address_councildis": "E",
    "status": "Assigned to Contractor",
    "contractor": "Waste Pro",
    "rowid": "963275",
    "final_x": "3699207.76989",
    "final_y": "532078.315779",
    "longitude": "-90.01213557797783",
    "latitude": "29.956481323665226",
    "geocoded_column": {
      "latitude": "29.956481323665226",
      "longitude": "-90.01213557797783"
    }
  },
  {
    "service_request": "2023-963274",
    "request_type": "Trash/Recycling",
    "request_reason": "Request a Large Item Pick Up",
    "date_created": "2023-01-08T16:02:06.000",
    "date_modified": "2023-01-08T16:02:07.000",
    "request_status": "Pending",
    "responsible_agency": "Department of Sanitation",
    "final_address": "4711 De Montluzin St",
    "address_councildis": "D",
    "status": "Assigned to Contractor",
    "contractor": "IV Waste",
    "rowid": "963274",
    "final_x": "3687213.86294",
    "final_y": "550428.308244",
    "longitude": "-90.04935901287789",
    "latitude": "30.007312110274842",
    "geocoded_column": {
      "latitude": "30.007312110274842",
      "longitude": "-90.04935901287789"
    }
  },
  {
    "service_request": "2023-963272",
    "request_type": "Trash/Recycling",
    "request_reason": "Request a Large Item Pick Up",
    "date_created": "2023-01-08T15:54:36.000",
    "date_modified": "2023-01-08T15:54:36.000",
    "request_status": "Pending",
    "responsible_agency": "Department of Sanitation",
    "final_address": "2432 Onzaga St",
    "address_councildis": "D",
    "status": "Assigned to Contractor",
    "contractor": "IV Waste",
    "rowid": "963272",
    "final_x": "3679921.50984",
    "final_y": "539929.300554",
    "longitude": "-90.07276250098178",
    "latitude": "29.978666213267473",
    "geocoded_column": {
      "latitude": "29.978666213267473",
      "longitude": "-90.07276250098178"
    }
  },
  {
    "service_request": "2023-963273",
    "request_type": "Abandoned Vehicles",
    "request_reason": "Abandoned/Junk Vehicles",
    "date_created": "2023-01-08T15:54:36.000",
    "date_modified": "2023-01-08T15:54:36.000",
    "request_status": "Pending",
    "responsible_agency": "Department of Public Works",
    "final_address": "201 Baronne St",
    "address_councildis": "B",
    "status": "Pending",
    "rowid": "963273",
    "final_x": "3680155.78946",
    "final_y": "530664.581762",
    "longitude": "-90.07234457860008",
    "latitude": "29.953184316362155",
    "geocoded_column": {
      "latitude": "29.953184316362155",
      "longitude": "-90.07234457860008"
    }
  },
  {
    "service_request": "2023-963270",
    "request_type": "Trash/Recycling",
    "request_reason": "Missed Trash Pick-Up",
    "date_created": "2023-01-08T15:53:45.000",
    "date_modified": "2023-01-08T15:53:46.000",
    "request_status": "Pending",
    "responsible_agency": "Department of Sanitation",
    "final_address": "8332 Willow St",
    "address_councildis": "A",
    "status": "Assigned to Contractor",
    "contractor": "Richards Disposal",
    "rowid": "963270",
    "final_x": "3661662.63046",
    "final_y": "529541.233025",
    "longitude": "-90.13077549500203",
    "latitude": "29.950642112195084",
    "geocoded_column": {
      "latitude": "29.950642112195084",
      "longitude": "-90.13077549500203"
    }
  },
  {
    "service_request": "2023-963269",
    "request_type": "Roads/Drainage",
    "request_reason": "Catch Basin - Clogged",
    "date_created": "2023-01-08T15:51:27.000",
    "date_modified": "2023-01-08T15:51:27.000",
    "request_status": "Pending",
    "responsible_agency": "Department of Public Works",
    "final_address": "2115 Decatur St",
    "address_councildis": "C",
    "status": "Pending",
    "rowid": "963269",
    "final_x": "3684898.51484",
    "final_y": "534157.975429",
    "longitude": "-90.05724628809114",
    "latitude": "29.96264558501145",
    "geocoded_column": {
      "latitude": "29.96264558501145",
      "longitude": "-90.05724628809114"
    }
  },
  {
    "service_request": "2023-963268",
    "request_type": "Roads/Drainage",
    "request_reason": "Catch Basin - Clogged",
    "date_created": "2023-01-08T15:48:29.000",
    "date_modified": "2023-01-08T15:48:29.000",
    "request_status": "Pending",
    "responsible_agency": "Department of Public Works",
    "final_address": "2115 Decatur St",
    "address_councildis": "C",
    "status": "Pending",
    "rowid": "963268",
    "final_x": "3684898.51484",
    "final_y": "534157.975429",
    "longitude": "-90.05724628809114",
    "latitude": "29.96264558501145",
    "geocoded_column": {
      "latitude": "29.96264558501145",
      "longitude": "-90.05724628809114"
    }
  },
  {
    "service_request": "2023-963267",
    "request_type": "Trash/Recycling",
    "request_reason": "Missed Trash Pick-Up",
    "date_created": "2023-01-08T15:43:54.000",
    "date_modified": "2023-01-08T15:43:55.000",
    "request_status": "Pending",
    "responsible_agency": "Department of Sanitation",
    "final_address": "538 Nashville Ave",
    "address_councildis": "A",
    "status": "Assigned to Contractor",
    "contractor": "Richards Disposal",
    "rowid": "963267",
    "final_x": "3665317.38285",
    "final_y": "518311.224758",
    "longitude": "-90.11961120901421",
    "latitude": "29.919657189044997",
    "geocoded_column": {
      "latitude": "29.919657189044997",
      "longitude": "-90.11961120901421"
    }
  },
  {
    "service_request": "2023-963266",
    "request_type": "Trash/Recycling",
    "request_reason": "Missed Trash Pick-Up",
    "date_created": "2023-01-08T15:35:43.000",
    "date_modified": "2023-01-08T15:35:43.000",
    "request_status": "Pending",
    "responsible_agency": "Department of Sanitation",
    "final_address": "2408 Constance St",
    "address_councildis": "B",
    "status": "Assigned to Contractor",
    "contractor": "Richards Disposal",
    "rowid": "963266",
    "final_x": "3678220.92782",
    "final_y": "521103.957433",
    "longitude": "-90.07878455884868",
    "latitude": "29.926954166710136",
    "geocoded_column": {
      "latitude": "29.926954166710136",
      "longitude": "-90.07878455884868"
    }
  },
  {
    "service_request": "2023-963265",
    "request_type": "Trash/Recycling",
    "request_reason": "Missed Trash Pick-Up",
    "date_created": "2023-01-08T15:35:07.000",
    "date_modified": "2023-01-08T15:35:08.000",
    "request_status": "Pending",
    "responsible_agency": "Department of Sanitation",
    "final_address": "2410 Constance St",
    "address_councildis": "B",
    "status": "Assigned to Contractor",
    "contractor": "Richards Disposal",
    "rowid": "963265",
    "final_x": "3678215.12974",
    "final_y": "521100.988665",
    "longitude": "-90.07880296447401",
    "latitude": "29.926946178117543",
    "geocoded_column": {
      "latitude": "29.926946178117543",
      "longitude": "-90.07880296447401"
    }
  },
  {
    "service_request": "2023-963264",
    "request_type": "Abandoned Vehicles",
    "request_reason": "Abandoned/Junk Vehicles",
    "date_created": "2023-01-08T15:33:06.000",
    "date_modified": "2023-01-08T15:33:06.000",
    "request_status": "Pending",
    "responsible_agency": "Department of Public Works",
    "final_address": "3512 Bienville Ave",
    "address_councildis": "B",
    "status": "Pending",
    "rowid": "963264",
    "final_x": "3673173.5051",
    "final_y": "537658.103752",
    "longitude": "-90.09415283356853",
    "latitude": "29.972623594131427",
    "geocoded_column": {
      "latitude": "29.972623594131427",
      "longitude": "-90.09415283356853"
    }
  },
  {
    "service_request": "2023-963263",
    "request_type": "Trash/Recycling",
    "request_reason": "Missed Trash Pick-Up",
    "date_created": "2023-01-08T15:32:02.000",
    "date_modified": "2023-01-08T15:32:03.000",
    "request_status": "Pending",
    "responsible_agency": "Department of Sanitation",
    "final_address": "5501 Loyola Ave",
    "address_councildis": "A",
    "status": "Assigned to Contractor",
    "contractor": "Richards Disposal",
    "rowid": "963263",
    "final_x": "3667289.62343",
    "final_y": "523107.538107",
    "longitude": "-90.11322458818319",
    "latitude": "29.93278794218939",
    "geocoded_column": {
      "latitude": "29.93278794218939",
      "longitude": "-90.11322458818319"
    }
  },
  {
    "service_request": "2023-963262",
    "request_type": "Trash/Recycling",
    "request_reason": "Order Recycling Cart",
    "date_created": "2023-01-08T15:26:41.000",
    "date_modified": "2023-01-08T15:26:42.000",
    "request_status": "Pending",
    "responsible_agency": "Department of Sanitation",
    "final_address": "430 S St Patrick St",
    "address_councildis": "A",
    "status": "Pending",
    "rowid": "963262",
    "final_x": "3668230.85223",
    "final_y": "538624.739273",
    "longitude": "-90.10973008179639",
    "latitude": "29.975427568811888",
    "geocoded_column": {
      "latitude": "29.975427568811888",
      "longitude": "-90.10973008179639"
    }
  },
  {
    "service_request": "2023-963261",
    "request_type": "Trash/Recycling",
    "request_reason": "Missed Trash Pick-Up",
    "date_created": "2023-01-08T15:20:21.000",
    "date_modified": "2023-01-08T15:20:22.000",
    "request_status": "Pending",
    "responsible_agency": "Department of Sanitation",
    "final_address": "1001 Stanton Rd",
    "address_councildis": "C",
    "status": "Assigned to Contractor",
    "contractor": "Richards Disposal",
    "rowid": "963261",
    "final_x": "3721620.78527",
    "final_y": "518114.21599",
    "longitude": "-89.94189904242201",
    "latitude": "29.917355551016247",
    "geocoded_column": {
      "latitude": "29.917355551016247",
      "longitude": "-89.94189904242201"
    }
  },
  {
    "service_request": "2023-963260",
    "request_type": "Trash/Recycling",
    "request_reason": "Missed Trash Pick-Up",
    "date_created": "2023-01-08T15:13:59.000",
    "date_modified": "2023-01-08T15:13:59.000",
    "request_status": "Pending",
    "responsible_agency": "Department of Sanitation",
    "final_address": "1127 Terpsichore St",
    "address_councildis": "B",
    "status": "Assigned to Contractor",
    "contractor": "Richards Disposal",
    "rowid": "963260",
    "final_x": "3680179.80411",
    "final_y": "524617.095164",
    "longitude": "-90.07247887116023",
    "latitude": "29.93655502115556",
    "geocoded_column": {
      "latitude": "29.93655502115556",
      "longitude": "-90.07247887116023"
    }
  },
  {
    "service_request": "2023-963259",
    "request_type": "Trash/Recycling",
    "request_reason": "Missed Trash Pick-Up",
    "date_created": "2023-01-08T15:13:57.000",
    "date_modified": "2023-01-08T15:13:58.000",
    "request_status": "Pending",
    "responsible_agency": "Department of Sanitation",
    "final_address": "3160 Jack Wyman Rd",
    "address_councildis": "C",
    "status": "Assigned to Contractor",
    "contractor": "Richards Disposal",
    "rowid": "963259",
    "final_x": "3717462.9548",
    "final_y": "518154.743734",
    "longitude": "-89.95502126026116",
    "latitude": "29.91760516371888",
    "geocoded_column": {
      "latitude": "29.91760516371888",
      "longitude": "-89.95502126026116"
    }
  },
  {
    "service_request": "2023-963258",
    "request_type": "Trash/Recycling",
    "request_reason": "Replace Recycling Cart",
    "date_created": "2023-01-08T15:13:21.000",
    "date_modified": "2023-01-08T15:13:21.000",
    "request_status": "Pending",
    "responsible_agency": "Department of Sanitation",
    "final_address": "1450 Madrid St",
    "address_councildis": "D",
    "status": "Pending",
    "rowid": "963258",
    "final_x": "3677860.67835",
    "final_y": "554495.022552",
    "longitude": "-90.07876768663448",
    "latitude": "30.018778978826028",
    "geocoded_column": {
      "latitude": "30.018778978826028",
      "longitude": "-90.07876768663448"
    }
  },
  {
    "service_request": "2023-963257",
    "request_type": "Trash/Recycling",
    "request_reason": "Order Recycling Cart",
    "date_created": "2023-01-08T15:01:54.000",
    "date_modified": "2023-01-08T15:01:54.000",
    "request_status": "Pending",
    "responsible_agency": "Department of Sanitation",
    "final_address": "10614 Prentiss Ave",
    "address_councildis": "E",
    "status": "Pending",
    "rowid": "963257",
    "final_x": "3714751.27346",
    "final_y": "556443.278554",
    "longitude": "-89.96213418350783",
    "latitude": "30.02297371660274",
    "geocoded_column": {
      "latitude": "30.02297371660274",
      "longitude": "-89.96213418350783"
    }
  },
  {
    "service_request": "2023-963256",
    "request_type": "Trash/Recycling",
    "request_reason": "Missed Trash Pick-Up",
    "date_created": "2023-01-08T14:56:28.000",
    "date_modified": "2023-01-08T14:56:29.000",
    "request_status": "Pending",
    "responsible_agency": "Department of Sanitation",
    "final_address": "7828 Pearl St",
    "address_councildis": "A",
    "status": "Assigned to Contractor",
    "contractor": "Richards Disposal",
    "rowid": "963256",
    "final_x": "3660930.90458",
    "final_y": "525943.294461",
    "longitude": "-90.13320490899129",
    "latitude": "29.940770023156066",
    "geocoded_column": {
      "latitude": "29.940770023156066",
      "longitude": "-90.13320490899129"
    }
  },
  {
    "service_request": "2023-963255",
    "request_type": "Roads/Drainage",
    "request_reason": "Man hole cover issue",
    "date_created": "2023-01-08T14:55:50.000",
    "date_modified": "2023-01-08T14:55:50.000",
    "request_status": "Pending",
    "responsible_agency": "Department of Public Works",
    "final_address": "1100 BLK Magnolia St",
    "address_councildis": "B",
    "status": "Pending",
    "rowid": "963255",
    "final_x": "3676496.99966",
    "final_y": "528579.988888",
    "longitude": "-90.08396923052904",
    "latitude": "29.947562587346543",
    "geocoded_column": {
      "latitude": "29.947562587346543",
      "longitude": "-90.08396923052904"
    }
  },
  {
    "service_request": "2023-963254",
    "request_type": "Trash/Recycling",
    "request_reason": "Missed Trash Pick-Up",
    "date_created": "2023-01-08T14:53:25.000",
    "date_modified": "2023-01-08T14:53:25.000",
    "request_status": "Pending",
    "responsible_agency": "Department of Sanitation",
    "final_address": "7828 Pearl St",
    "address_councildis": "A",
    "status": "Assigned to Contractor",
    "contractor": "Richards Disposal",
    "rowid": "963254",
    "final_x": "3660930.90458",
    "final_y": "525943.294461",
    "longitude": "-90.13320490899129",
    "latitude": "29.940770023156066",
    "geocoded_column": {
      "latitude": "29.940770023156066",
      "longitude": "-90.13320490899129"
    }
  },
  {
    "service_request": "2023-963253",
    "request_type": "Trash/Recycling",
    "request_reason": "Order Recycling Cart",
    "date_created": "2023-01-08T14:50:59.000",
    "date_modified": "2023-01-08T14:50:59.000",
    "request_status": "Pending",
    "responsible_agency": "Department of Sanitation",
    "final_address": "1023 Louisiana Ave Unit E",
    "address_councildis": "B",
    "status": "Pending",
    "rowid": "963253",
    "final_x": "3675239.00513",
    "final_y": "519534.826423",
    "longitude": "-90.08825153949974",
    "latitude": "29.9227289977844",
    "geocoded_column": {
      "latitude": "29.9227289977844",
      "longitude": "-90.08825153949974"
    }
  },
  {
    "service_request": "2023-963252",
    "request_type": "Trash/Recycling",
    "request_reason": "Replace Trash Cart",
    "date_created": "2023-01-08T14:50:34.000",
    "date_modified": "2023-01-08T14:50:35.000",
    "request_status": "Pending",
    "responsible_agency": "Department of Sanitation",
    "final_address": "2416 Broadway St",
    "address_councildis": "A",
    "status": "Assigned to Contractor",
    "contractor": "Richards Disposal",
    "rowid": "963252",
    "final_x": "3666634.66746",
    "final_y": "530275.214657",
    "longitude": "-90.11505165675878",
    "latitude": "29.952515904601903",
    "geocoded_column": {
      "latitude": "29.952515904601903",
      "longitude": "-90.11505165675878"
    }
  },
  {
    "service_request": "2023-963251",
    "request_type": "Trash/Recycling",
    "request_reason": "Missed Trash Pick-Up",
    "date_created": "2023-01-08T14:50:06.000",
    "date_modified": "2023-01-08T14:50:07.000",
    "request_status": "Pending",
    "responsible_agency": "Department of Sanitation",
    "final_address": "7716 St Charles Ave",
    "address_councildis": "A",
    "status": "Assigned to Contractor",
    "contractor": "Richards Disposal",
    "rowid": "963251",
    "final_x": "3661506.94182",
    "final_y": "525890.618621",
    "longitude": "-90.13138799415552",
    "latitude": "29.940608579161307",
    "geocoded_column": {
      "latitude": "29.940608579161307",
      "longitude": "-90.13138799415552"
    }
  },
  {
    "service_request": "2023-963250",
    "request_type": "Trash/Recycling",
    "request_reason": "Order Recycling Cart",
    "date_created": "2023-01-08T14:33:08.000",
    "date_modified": "2023-01-08T14:33:08.000",
    "request_status": "Pending",
    "responsible_agency": "Department of Sanitation",
    "final_address": "2826 Ramsey Dr",
    "address_councildis": "C",
    "status": "Pending",
    "rowid": "963250",
    "final_x": "3703208.45617",
    "final_y": "520302.961208",
    "longitude": "-89.9999355090533",
    "latitude": "29.923975796945594",
    "geocoded_column": {
      "latitude": "29.923975796945594",
      "longitude": "-89.9999355090533"
    }
  },
  {
    "service_request": "2023-963249",
    "request_type": "Trash/Recycling",
    "request_reason": "Missed Trash Pick-Up",
    "date_created": "2023-01-08T14:23:55.000",
    "date_modified": "2023-01-08T14:23:56.000",
    "request_status": "Pending",
    "responsible_agency": "Department of Sanitation",
    "final_address": "5620 Hurst St Apt B",
    "address_councildis": "A",
    "status": "Assigned to Contractor",
    "contractor": "Richards Disposal",
    "rowid": "963249",
    "final_x": "3666483.93761",
    "final_y": "521532.221625",
    "longitude": "-90.11582092702776",
    "latitude": "29.92847988707572",
    "geocoded_column": {
      "latitude": "29.92847988707572",
      "longitude": "-90.11582092702776"
    }
  },
  {
    "service_request": "2023-963248",
    "request_type": "Abandoned Vehicles",
    "request_reason": "Abandoned/Junk Vehicles",
    "date_created": "2023-01-08T14:23:46.000",
    "date_modified": "2023-01-08T14:23:46.000",
    "request_status": "Pending",
    "responsible_agency": "Department of Public Works",
    "final_address": "617 Piety St",
    "address_councildis": "C",
    "status": "Pending",
    "rowid": "963248",
    "final_x": "3689449.72239",
    "final_y": "534116.980613",
    "longitude": "-90.04287568686836",
    "latitude": "29.96239271125384",
    "geocoded_column": {
      "latitude": "29.96239271125384",
      "longitude": "-90.04287568686836"
    }
  },
  {
    "service_request": "2023-963247",
    "request_type": "Trash/Recycling",
    "request_reason": "Order Recycling Cart",
    "date_created": "2023-01-08T14:18:29.000",
    "date_modified": "2023-01-08T14:18:29.000",
    "request_status": "Pending",
    "responsible_agency": "Department of Sanitation",
    "final_address": "2825 Pine St",
    "address_councildis": "B",
    "status": "Pending",
    "rowid": "963247",
    "final_x": "3667215.68941",
    "final_y": "531623.989699",
    "longitude": "-90.11317169631421",
    "latitude": "29.956207596055677",
    "geocoded_column": {
      "latitude": "29.956207596055677",
      "longitude": "-90.11317169631421"
    }
  },
  {
    "service_request": "2023-963246",
    "request_type": "Trash/Recycling",
    "request_reason": "Request a Large Item Pick Up",
    "date_created": "2023-01-08T14:18:13.000",
    "date_modified": "2023-01-08T14:18:14.000",
    "request_status": "Pending",
    "responsible_agency": "Department of Sanitation",
    "final_address": "823 Navarre St",
    "address_councildis": "A",
    "status": "Assigned to Contractor",
    "contractor": "IV Waste",
    "rowid": "963246",
    "final_x": "3668889.28391",
    "final_y": "543864.262094",
    "longitude": "-90.1074735353296",
    "latitude": "29.989815128562917",
    "geocoded_column": {
      "latitude": "29.989815128562917",
      "longitude": "-90.1074735353296"
    }
  },
  {
    "service_request": "2023-963245",
    "request_type": "Trash/Recycling",
    "request_reason": "Missed Trash Pick-Up",
    "date_created": "2023-01-08T14:13:18.000",
    "date_modified": "2023-01-08T14:13:18.000",
    "request_status": "Pending",
    "responsible_agency": "Department of Sanitation",
    "final_address": "4518 St Claude Ave",
    "address_councildis": "C",
    "status": "Assigned to Contractor",
    "contractor": "IV Waste",
    "rowid": "963245",
    "final_x": "3693488.77744",
    "final_y": "534789.894214",
    "longitude": "-90.03009681156085",
    "latitude": "29.964117291392498",
    "geocoded_column": {
      "latitude": "29.964117291392498",
      "longitude": "-90.03009681156085"
    }
  },
  {
    "service_request": "2023-963244",
    "request_type": "Trash/Recycling",
    "request_reason": "Request a Large Item Pick Up",
    "date_created": "2023-01-08T14:10:36.000",
    "date_modified": "2023-01-08T14:10:37.000",
    "request_status": "Pending",
    "responsible_agency": "Department of Sanitation",
    "final_address": "4021 Cleveland Ave, New Orleans, Louisiana, 70119",
    "address_councildis": "A",
    "status": "Assigned to Contractor",
    "contractor": "Richards Disposal",
    "rowid": "963244",
    "final_x": "3671100.35681",
    "final_y": "537865.193609",
    "longitude": "-90.10069319323783",
    "latitude": "29.973254506589637",
    "geocoded_column": {
      "latitude": "29.973254506589637",
      "longitude": "-90.10069319323783"
    }
  },
  {
    "service_request": "2023-963243",
    "request_type": "Trash/Recycling",
    "request_reason": "Replace Recycling Cart",
    "date_created": "2023-01-08T14:01:34.000",
    "date_modified": "2023-01-08T14:01:34.000",
    "request_status": "Pending",
    "responsible_agency": "Department of Sanitation",
    "final_address": "3313 Camp St",
    "address_councildis": "B",
    "status": "Pending",
    "rowid": "963243",
    "final_x": "3675111.24366",
    "final_y": "520117.95052",
    "longitude": "-90.08863483730508",
    "latitude": "29.924336217978798",
    "geocoded_column": {
      "latitude": "29.924336217978798",
      "longitude": "-90.08863483730508"
    }
  },
  {
    "service_request": "2023-963242",
    "request_type": "Trash/Recycling",
    "request_reason": "Missed Trash Pick-Up",
    "date_created": "2023-01-08T13:47:59.000",
    "date_modified": "2023-01-08T13:48:00.000",
    "request_status": "Pending",
    "responsible_agency": "Department of Sanitation",
    "final_address": "1206 Jefferson Ave",
    "address_councildis": "A",
    "status": "Assigned to Contractor",
    "contractor": "Richards Disposal",
    "rowid": "963242",
    "final_x": "3666900.94433",
    "final_y": "519906.93676",
    "longitude": "-90.1145590940449",
    "latitude": "29.92399867754222",
    "geocoded_column": {
      "latitude": "29.92399867754222",
      "longitude": "-90.1145590940449"
    }
  },
  {
    "service_request": "2023-963241",
    "request_type": "Trash/Recycling",
    "request_reason": "Missed Trash Pick-Up",
    "date_created": "2023-01-08T13:44:04.000",
    "date_modified": "2023-01-08T13:44:05.000",
    "request_status": "Pending",
    "responsible_agency": "Department of Sanitation",
    "final_address": "436 S Murat St",
    "address_councildis": "A",
    "status": "Assigned to Contractor",
    "contractor": "Richards Disposal",
    "rowid": "963241",
    "final_x": "3668801.84846",
    "final_y": "538131.468873",
    "longitude": "-90.10794337591298",
    "latitude": "29.974054462710484",
    "geocoded_column": {
      "latitude": "29.974054462710484",
      "longitude": "-90.10794337591298"
    }
  },
  {
    "service_request": "2023-963240",
    "request_type": "Trash/Recycling",
    "request_reason": "Missed Trash Pick-Up",
    "date_created": "2023-01-08T13:37:03.000",
    "date_modified": "2023-01-08T13:37:04.000",
    "request_status": "Pending",
    "responsible_agency": "Department of Sanitation",
    "final_address": "2829 St Thomas St",
    "address_councildis": "B",
    "status": "Assigned to Contractor",
    "contractor": "Richards Disposal",
    "rowid": "963240",
    "final_x": "3677782.89064",
    "final_y": "519246.191671",
    "longitude": "-90.0802314621467",
    "latitude": "29.921859093698817",
    "geocoded_column": {
      "latitude": "29.921859093698817",
      "longitude": "-90.0802314621467"
    }
  },
  {
    "service_request": "2023-963239",
    "request_type": "Abandoned Vehicles",
    "request_reason": "Abandoned/Junk Vehicles",
    "date_created": "2023-01-08T13:34:50.000",
    "date_modified": "2023-01-08T13:34:50.000",
    "request_status": "Pending",
    "responsible_agency": "Department of Public Works",
    "final_address": "122 S Bernadotte St",
    "address_councildis": "A",
    "status": "Pending",
    "rowid": "963239",
    "final_x": "3668722.60321",
    "final_y": "539861.507274",
    "longitude": "-90.10813522848689",
    "latitude": "29.978813815705518",
    "geocoded_column": {
      "latitude": "29.978813815705518",
      "longitude": "-90.10813522848689"
    }
  },
  {
    "service_request": "2023-963238",
    "request_type": "Trash/Recycling",
    "request_reason": "Order Recycling Cart",
    "date_created": "2023-01-08T13:32:49.000",
    "date_modified": "2023-01-08T13:32:49.000",
    "request_status": "Pending",
    "responsible_agency": "Department of Sanitation",
    "final_address": "607 Flood St",
    "address_councildis": "E",
    "status": "Pending",
    "rowid": "963238",
    "final_x": "3697266.69763",
    "final_y": "532064.620355",
    "longitude": "-90.0182653078044",
    "latitude": "29.956505064242272",
    "geocoded_column": {
      "latitude": "29.956505064242272",
      "longitude": "-90.0182653078044"
    }
  },
  {
    "service_request": "2023-963237",
    "request_type": "Trash/Recycling",
    "request_reason": "Missed Trash Pick-Up",
    "date_created": "2023-01-08T13:32:16.000",
    "date_modified": "2023-01-08T13:32:16.000",
    "request_status": "Pending",
    "responsible_agency": "Department of Sanitation",
    "final_address": "1816 Sixth St",
    "address_councildis": "B",
    "status": "Assigned to Contractor",
    "contractor": "Richards Disposal",
    "rowid": "963237",
    "final_x": "3674980.72763",
    "final_y": "522970.342267",
    "longitude": "-90.08894904805263",
    "latitude": "29.932183270135248",
    "geocoded_column": {
      "latitude": "29.932183270135248",
      "longitude": "-90.08894904805263"
    }
  },
  {
    "service_request": "2023-963236",
    "request_type": "Trash/Recycling",
    "request_reason": "Missed Trash Pick-Up",
    "date_created": "2023-01-08T13:27:52.000",
    "date_modified": "2023-01-08T13:27:53.000",
    "request_status": "Pending",
    "responsible_agency": "Department of Sanitation",
    "final_address": "6308 Magazine St",
    "address_councildis": "A",
    "status": "Assigned to Contractor",
    "contractor": "Richards Disposal",
    "rowid": "963236",
    "final_x": "3663350.91207",
    "final_y": "519731.009144",
    "longitude": "-90.12577118595324",
    "latitude": "29.92361828196433",
    "geocoded_column": {
      "latitude": "29.92361828196433",
      "longitude": "-90.12577118595324"
    }
  },
  {
    "service_request": "2023-963235",
    "request_type": "Trash/Recycling",
    "request_reason": "Request a Large Item Pick Up",
    "date_created": "2023-01-08T13:19:50.000",
    "date_modified": "2023-01-08T13:19:51.000",
    "request_status": "Pending",
    "responsible_agency": "Department of Sanitation",
    "final_address": "5314 St Anthony Ave",
    "address_councildis": "D",
    "status": "Assigned to Contractor",
    "contractor": "IV Waste",
    "rowid": "963235",
    "final_x": "3682090.1876",
    "final_y": "552537.304982",
    "longitude": "-90.06547240069479",
    "latitude": "30.01326795939257",
    "geocoded_column": {
      "latitude": "30.01326795939257",
      "longitude": "-90.06547240069479"
    }
  },
  {
    "service_request": "2023-963234",
    "request_type": "Trash/Recycling",
    "request_reason": "Missed Trash Pick-Up",
    "date_created": "2023-01-08T13:18:31.000",
    "date_modified": "2023-01-08T13:18:32.000",
    "request_status": "Pending",
    "responsible_agency": "Department of Sanitation",
    "final_address": "4822 Cleveland Ave",
    "address_councildis": "A",
    "status": "Assigned to Contractor",
    "contractor": "Richards Disposal",
    "rowid": "963234",
    "final_x": "3668365.69857",
    "final_y": "539808.562826",
    "longitude": "-90.10926425820907",
    "latitude": "29.97867872482772",
    "geocoded_column": {
      "latitude": "29.97867872482772",
      "longitude": "-90.10926425820907"
    }
  },
  {
    "service_request": "2023-963233",
    "request_type": "Trash/Recycling",
    "request_reason": "Missed Trash Pick-Up",
    "date_created": "2023-01-08T13:14:59.000",
    "date_modified": "2023-01-08T13:15:00.000",
    "request_status": "Pending",
    "responsible_agency": "Department of Sanitation",
    "final_address": "534 Arabella St",
    "address_councildis": "A",
    "status": "Assigned to Contractor",
    "contractor": "Richards Disposal",
    "rowid": "963233",
    "final_x": "3665645.01709",
    "final_y": "518241.218294",
    "longitude": "-90.11857936795134",
    "latitude": "29.91945514651018",
    "geocoded_column": {
      "latitude": "29.91945514651018",
      "longitude": "-90.11857936795134"
    }
  },
  {
    "service_request": "2023-963232",
    "request_type": "Trash/Recycling",
    "request_reason": "Missed Trash Pick-Up",
    "date_created": "2023-01-08T13:14:29.000",
    "date_modified": "2023-01-08T13:14:29.000",
    "request_status": "Pending",
    "responsible_agency": "Department of Sanitation",
    "final_address": "2236 Dublin St, New Orleans, Louisiana, 70118",
    "address_councildis": "A",
    "status": "Assigned to Contractor",
    "contractor": "Richards Disposal",
    "rowid": "963232",
    "final_x": "3664234.64589",
    "final_y": "531455.995011",
    "longitude": "-90.12259047246525",
    "latitude": "29.955832613978846",
    "geocoded_column": {
      "latitude": "29.955832613978846",
      "longitude": "-90.12259047246525"
    }
  },
  {
    "service_request": "2023-963231",
    "request_type": "Traffic Signals/Signs/Striping/Streetlights",
    "request_reason": "Street Light Outage/Malfunction",
    "date_created": "2023-01-08T13:12:49.000",
    "date_modified": "2023-01-08T13:12:50.000",
    "request_status": "Pending",
    "responsible_agency": "Department of Public Works",
    "final_address": "101 28Th St",
    "address_councildis": "A",
    "status": "Assigned to Contractor",
    "contractor": "Legacy Professional Services",
    "rowid": "963231",
    "final_x": "3666168.93025",
    "final_y": "550227.056468",
    "longitude": "-90.11585287149754",
    "latitude": "30.007390368901522",
    "geocoded_column": {
      "latitude": "30.007390368901522",
      "longitude": "-90.11585287149754"
    }
  },
  {
    "service_request": "2023-963230",
    "request_type": "Roads/Drainage",
    "request_reason": "Street Flooding / Drainage",
    "date_created": "2023-01-08T13:09:04.000",
    "date_modified": "2023-01-08T13:09:04.000",
    "request_status": "Pending",
    "responsible_agency": "Department of Public Works",
    "final_address": "2400 Marengo St",
    "address_councildis": "B",
    "status": "Pending",
    "rowid": "963230",
    "final_x": "3671617.36244",
    "final_y": "523839.382523",
    "longitude": "-90.0995373472736",
    "latitude": "29.93467285701258",
    "geocoded_column": {
      "latitude": "29.93467285701258",
      "longitude": "-90.0995373472736"
    }
  },
  {
    "service_request": "2023-963229",
    "request_type": "Trash/Recycling",
    "request_reason": "Missed Trash Pick-Up",
    "date_created": "2023-01-08T13:07:27.000",
    "date_modified": "2023-01-08T13:07:28.000",
    "request_status": "Pending",
    "responsible_agency": "Department of Sanitation",
    "final_address": "1400 Calhoun St",
    "address_councildis": "A",
    "status": "Assigned to Contractor",
    "contractor": "Richards Disposal",
    "rowid": "963229",
    "final_x": "3664223.96167",
    "final_y": "521676.592953",
    "longitude": "-90.1229504034107",
    "latitude": "29.928942698287965",
    "geocoded_column": {
      "latitude": "29.928942698287965",
      "longitude": "-90.1229504034107"
    }
  },
  {
    "service_request": "2023-963228",
    "request_type": "Trash/Recycling",
    "request_reason": "Request a Large Item Pick Up",
    "date_created": "2023-01-08T13:00:12.000",
    "date_modified": "2023-01-08T13:00:14.000",
    "request_status": "Pending",
    "responsible_agency": "Department of Sanitation",
    "final_address": "6049 Warrington Dr",
    "address_councildis": "D",
    "status": "Assigned to Contractor",
    "contractor": "IV Waste",
    "rowid": "963228",
    "final_x": "3680773.63189",
    "final_y": "555160.991065",
    "longitude": "-90.06954058789954",
    "latitude": "30.020522131955993",
    "geocoded_column": {
      "latitude": "30.020522131955993",
      "longitude": "-90.06954058789954"
    }
  },
  {
    "service_request": "2023-963227",
    "request_type": "Trash/Recycling",
    "request_reason": "Missed Trash Pick-Up",
    "date_created": "2023-01-08T12:59:00.000",
    "date_modified": "2023-01-08T12:59:01.000",
    "request_status": "Pending",
    "responsible_agency": "Department of Sanitation",
    "final_address": "5531 Freret St",
    "address_councildis": "A",
    "status": "Assigned to Contractor",
    "contractor": "Richards Disposal",
    "rowid": "963227",
    "final_x": "3667399.82823",
    "final_y": "524165.411708",
    "longitude": "-90.11284110699744",
    "latitude": "29.935693529417932",
    "geocoded_column": {
      "latitude": "29.935693529417932",
      "longitude": "-90.11284110699744"
    }
  },
  {
    "service_request": "2023-963226",
    "request_type": "Trash/Recycling",
    "request_reason": "Missed Trash Pick-Up",
    "date_created": "2023-01-08T12:55:20.000",
    "date_modified": "2023-01-08T12:55:21.000",
    "request_status": "Pending",
    "responsible_agency": "Department of Sanitation",
    "final_address": "8635 Green St",
    "address_councildis": "A",
    "status": "Assigned to Contractor",
    "contractor": "Richards Disposal",
    "rowid": "963226",
    "final_x": "3661639.16595",
    "final_y": "531094.678466",
    "longitude": "-90.13079810741583",
    "latitude": "29.95491426431273",
    "geocoded_column": {
      "latitude": "29.95491426431273",
      "longitude": "-90.13079810741583"
    }
  },
  {
    "service_request": "2023-963225",
    "request_type": "Trash/Recycling",
    "request_reason": "Missed Trash Pick-Up",
    "date_created": "2023-01-08T12:52:56.000",
    "date_modified": "2023-01-08T12:52:57.000",
    "request_status": "Pending",
    "responsible_agency": "Department of Sanitation",
    "final_address": "1517 Erie St",
    "address_councildis": "C",
    "status": "Assigned to Contractor",
    "contractor": "Richards Disposal",
    "rowid": "963225",
    "final_x": "3690111.30499",
    "final_y": "522396.090682",
    "longitude": "-90.04120389261251",
    "latitude": "29.930143779214816",
    "geocoded_column": {
      "latitude": "29.930143779214816",
      "longitude": "-90.04120389261251"
    }
  },
  {
    "service_request": "2023-963224",
    "request_type": "Trash/Recycling",
    "request_reason": "Damaged Caused By Contractor",
    "date_created": "2023-01-08T12:52:45.000",
    "date_modified": "2023-01-08T12:52:46.000",
    "request_status": "Pending",
    "responsible_agency": "Department of Sanitation",
    "final_address": "713 Burgundy St",
    "address_councildis": "C",
    "status": "Assigned to Contractor",
    "contractor": "Empire Services",
    "rowid": "963224",
    "final_x": "3681730.36962",
    "final_y": "533203.416068",
    "longitude": "-90.06728416504679",
    "latitude": "29.960117507768988",
    "geocoded_column": {
      "latitude": "29.960117507768988",
      "longitude": "-90.06728416504679"
    }
  },
  {
    "service_request": "2023-963223",
    "request_type": "Trash/Recycling",
    "request_reason": "Missed Trash Pick-Up",
    "date_created": "2023-01-08T12:48:31.000",
    "date_modified": "2023-01-08T12:48:31.000",
    "request_status": "Pending",
    "responsible_agency": "Department of Sanitation",
    "final_address": "7903 Zimple St",
    "address_councildis": "A",
    "status": "Assigned to Contractor",
    "contractor": "Richards Disposal",
    "rowid": "963223",
    "final_x": "3662270.58528",
    "final_y": "527679.708671",
    "longitude": "-90.12891765849915",
    "latitude": "29.945505958739833",
    "geocoded_column": {
      "latitude": "29.945505958739833",
      "longitude": "-90.12891765849915"
    }
  },
  {
    "service_request": "2023-963222",
    "request_type": "Property Maintenance",
    "request_reason": "Property Maintenance",
    "date_created": "2023-01-08T12:41:39.000",
    "date_modified": "2023-01-08T12:41:39.000",
    "request_status": "Pending",
    "responsible_agency": "Department of Code Enforcement",
    "final_address": "1020 Desire St",
    "address_councildis": "C",
    "status": "Pending",
    "rowid": "963222",
    "final_x": "3690091.43433",
    "final_y": "535461.391814",
    "longitude": "-90.04080136874742",
    "latitude": "29.966069484430676",
    "geocoded_column": {
      "latitude": "29.966069484430676",
      "longitude": "-90.04080136874742"
    }
  },
  {
    "service_request": "2023-963221",
    "request_type": "Trash/Recycling",
    "request_reason": "MIssed Recycling Pick-Up",
    "date_created": "2023-01-08T12:29:22.000",
    "date_modified": "2023-01-08T12:29:23.000",
    "request_status": "Pending",
    "responsible_agency": "Department of Sanitation",
    "final_address": "1208 N Lopez St, New Orleans, Louisiana, 70119",
    "address_councildis": "A",
    "status": "Assigned to Contractor",
    "contractor": "Richards Disposal",
    "rowid": "963221",
    "final_x": "3676353.45243",
    "final_y": "539471.208266",
    "longitude": "-90.08404754210885",
    "latitude": "29.977514067157664",
    "geocoded_column": {
      "latitude": "29.977514067157664",
      "longitude": "-90.08404754210885"
    }
  },
  {
    "service_request": "2023-963220",
    "request_type": "Roads/Drainage",
    "request_reason": "Man hole cover issue",
    "date_created": "2023-01-08T12:21:59.000",
    "date_modified": "2023-01-08T12:22:00.000",
    "request_status": "Pending",
    "responsible_agency": "Department of Public Works",
    "final_address": "ESPLANADE EXIT & N CLAIBORNE AVE",
    "address_councildis": "C",
    "status": "Pending",
    "rowid": "963220",
    "final_x": "3680357.78",
    "final_y": "535245.57",
    "longitude": "-90.07154749584774",
    "latitude": "29.96577436427052",
    "geocoded_column": {
      "latitude": "29.96577436427052",
      "longitude": "-90.07154749584774"
    }
  },
  {
    "service_request": "2023-963219",
    "request_type": "Trash/Recycling",
    "request_reason": "Missed Trash Pick-Up",
    "date_created": "2023-01-08T12:18:29.000",
    "date_modified": "2023-01-08T12:18:30.000",
    "request_status": "Pending",
    "responsible_agency": "Department of Sanitation",
    "final_address": "3525 Audubon Ct",
    "address_councildis": "B",
    "status": "Assigned to Contractor",
    "contractor": "Richards Disposal",
    "rowid": "963219",
    "final_x": "3669146.75092",
    "final_y": "533240.06266",
    "longitude": "-90.10701942356681",
    "latitude": "29.960594580353472",
    "geocoded_column": {
      "latitude": "29.960594580353472",
      "longitude": "-90.10701942356681"
    }
  },