[
  {
    "service_request": "2025-1168324",
    "request_type": "Trash/Recycling",
    "request_reason": "Request a Large Item Pick Up",
    "date_created": "2025-02-11T23:55:33.000",
    "date_modified": "2025-02-11T23:55:37.000",
    "request_status": "Pending",
    "responsible_agency": "Department of Sanitation",
    "final_address": "8712 Dinkins St",
    "address_councildis": "E",
    "status": "Assigned to Contractor",
    "contractor": "Waste Pro",
    "rowid": "1168324",
    "final_x": "3704252.68279",
    "final_y": "563130.581088",
    "longitude": "-89.99506033330624",
    "latitude": "30.041702453837395",
    "geocoded_column": {
      "latitude": "30.041702453837395",
      "longitude": "-89.99506033330624"
    }
  },
  {
    "service_request": "2025-1168323",
    "request_type": "Trash/Recycling",
    "request_reason": "Request a Large Item Pick Up",
    "date_created": "2025-02-11T23:45:35.000",
    "date_modified": "2025-02-11T23:45:38.000",
    "request_status": "Pending",
    "responsible_agency": "Department of Sanitation",
    "final_address": "8712 Dinkins St",
    "address_councildis": "E",
    "status": "Assigned to Contractor",
    "contractor": "Waste Pro",
    "rowid": "1168323",
    "final_x": "3704252.68279",
    "final_y": "563130.581088",
    "longitude": "-89.99506033330624",
    "latitude": "30.041702453837395",
    "geocoded_column": {
      "latitude": "30.041702453837395",
      "longitude": "-89.99506033330624"
    }
  },
  {
    "service_request": "2025-1168322",
    "request_type": "Abandoned Vehicles",
    "request_reason": "Abandoned/Junk Vehicles",
    "date_created": "2025-02-11T23:07:00.000",
    "date_modified": "2025-02-11T23:07:02.000",
    "request_status": "Pending",
    "responsible_agency": "Department of Public Works",
    "final_address": "3023 Martin Luther King, Jr. Blvd",
    "address_councildis": "B",
    "status": "Pending",
    "rowid": "1168322",
    "final_x": "3674911.75016",
    "final_y": "528323.950784",
    "longitude": "-90.08898326531674",
    "latitude": "29.946905999210877",
    "geocoded_column": {
      "latitude": "29.946905999210877",
      "longitude": "-90.08898326531674"
    }
  },
  {
    "service_request": "2025-1168321",
    "request_type": "Abandoned Vehicles",
    "request_reason": "Abandoned/Junk Vehicles",
    "date_created": "2025-02-11T23:05:44.000",
    "date_modified": "2025-02-11T23:05:45.000",
    "request_status": "Pending",
    "responsible_agency": "Department of Public Works",
    "final_address": "3023 Martin Luther King, Jr. Blvd",
    "address_councildis": "B",
    "status": "Pending",
    "rowid": "1168321",
    "final_x": "3674911.75016",
    "final_y": "528323.950784",
    "longitude": "-90.08898326531674",
    "latitude": "29.946905999210877",
    "geocoded_column": {
      "latitude": "29.946905999210877",
      "longitude": "-90.08898326531674"
    }
  },
  {
    "service_request": "2025-1168320",
    "request_type": "Abandoned Vehicles",
    "request_reason": "Abandoned/Junk Vehicles",
    "date_created": "2025-02-11T23:03:39.000",
    "date_modified": "2025-02-11T23:03:41.000",
    "request_status": "Pending",
    "responsible_agency": "Department of Public Works",
    "status": "Pending",
    "rowid": "1168320",
    "longitude": "0.0",
    "latitude": "0.0",
    "geocoded_column": {
      "latitude": "0.0",
      "longitude": "0.0"
    }
  },
  {
    "service_request": "2025-1168317",
    "request_type": "Trash/Recycling",
    "request_reason": "Request a Large Item Pick Up",
    "date_created": "2025-02-11T22:51:28.000",
    "date_modified": "2025-02-11T22:51:30.000",
    "request_status": "Pending",
    "responsible_agency": "Department of Sanitation",
    "final_address": "4501 Bundy Rd",
    "address_councildis": "E",
    "status": "Assigned to Contractor",
    "contractor": "Waste Pro",
    "rowid": "1168317",
    "final_x": "3709576.93163",
    "final_y": "554427.214232",
    "longitude": "-89.97855910947135",
    "latitude": "30.017599568111656",
    "geocoded_column": {
      "latitude": "30.017599568111656",
      "longitude": "-89.97855910947135"
    }
  },
  {
    "service_request": "2025-1168316",
    "request_type": "General Services",
    "request_reason": "General Service Request",
    "date_created": "2025-02-11T22:08:18.000",
    "date_modified": "2025-02-11T22:08:20.000",
    "request_status": "Pending",
    "responsible_agency": "Orleans Parish Communication District",
    "final_address": "520 Filmore Ave",
    "address_councildis": "A",
    "status": "Pending",
    "rowid": "1168316",
    "final_x": "3668374.28334",
    "final_y": "551988.476118",
    "longitude": "-90.10882604619033",
    "latitude": "30.012169040889674",
    "geocoded_column": {
      "latitude": "30.012169040889674",
      "longitude": "-90.10882604619033"
    }
  },
  {
    "service_request": "2025-1168315",
    "request_type": "Trash/Recycling",
    "request_reason": "Request a Large Item Pick Up",
    "date_created": "2025-02-11T22:07:02.000",
    "date_modified": "2025-02-11T22:07:04.000",
    "request_status": "Pending",
    "responsible_agency": "Department of Sanitation",
    "final_address": "7717 Woodbine Dr",
    "address_councildis": "E",
    "status": "Assigned to Contractor",
    "contractor": "Waste Pro",
    "rowid": "1168315",
    "final_x": "3701930.11927",
    "final_y": "561693.984927",
    "longitude": "-90.00245317479602",
    "latitude": "30.037826759519366",
    "geocoded_column": {
      "latitude": "30.037826759519366",
      "longitude": "-90.00245317479602"
    }
  },
  {
    "service_request": "2025-1168314",
    "request_type": "Streetlights",
    "request_reason": "Streetlight Outage/Malfunction",
    "date_created": "2025-02-11T21:39:18.000",
    "date_modified": "2025-02-11T21:39:19.000",
    "request_status": "Pending",
    "responsible_agency": "Department of Public Works",
    "final_address": "2617 Laurel St",
    "address_councildis": "B",
    "status": "Pending",
    "contractor": "Legacy Professional Services",
    "rowid": "1168314",
    "final_x": "3677836.89307",
    "final_y": "520493.393464",
    "longitude": "-90.08001793779636",
    "latitude": "29.925286870251444",
    "geocoded_column": {
      "latitude": "29.925286870251444",
      "longitude": "-90.08001793779636"
    }
  },
  {
    "service_request": "2025-1168313",
    "request_type": "Streetlights",
    "request_reason": "Streetlight Outage/Malfunction",
    "date_created": "2025-02-11T21:27:57.000",
    "date_modified": "2025-02-11T21:27:58.000",
    "request_status": "Pending",
    "responsible_agency": "Department of Public Works",
    "final_address": "5110 Norgate Dr",
    "address_councildis": "E",
    "status": "Pending",
    "contractor": "Legacy Professional Services",
    "rowid": "1168313",
    "final_x": "3707508.7884",
    "final_y": "557083.977306",
    "longitude": "-89.98499479170547",
    "latitude": "30.024971707236336",
    "geocoded_column": {
      "latitude": "30.024971707236336",
      "longitude": "-89.98499479170547"
    }
  },
  {
    "service_request": "2025-1168312",
    "request_type": "Streetlights",
    "request_reason": "Streetlight Outage/Malfunction",
    "date_created": "2025-02-11T21:25:05.000",
    "date_modified": "2025-02-11T21:25:06.000",
    "request_status": "Pending",
    "responsible_agency": "Department of Public Works",
    "final_address": "5100 Norgate Dr",
    "address_councildis": "E",
    "status": "Pending",
    "contractor": "Legacy Professional Services",
    "rowid": "1168312",
    "final_x": "3707538.04523",
    "final_y": "557029.02377",
    "longitude": "-89.98490438907999",
    "latitude": "30.02481965980444",
    "geocoded_column": {
      "latitude": "30.02481965980444",
      "longitude": "-89.98490438907999"
    }
  },
  {
    "service_request": "2025-1168311",
    "request_type": "Streetlights",
    "request_reason": "Streetlight Outage/Malfunction",
    "date_created": "2025-02-11T21:22:54.000",
    "date_modified": "2025-02-11T21:22:55.000",
    "request_status": "Pending",
    "responsible_agency": "Department of Public Works",
    "final_address": "5100 Norgate Dr",
    "address_councildis": "E",
    "status": "Pending",
    "contractor": "Legacy Professional Services",
    "rowid": "1168311",
    "final_x": "3707538.04523",
    "final_y": "557029.02377",
    "longitude": "-89.98490438907999",
    "latitude": "30.02481965980444",
    "geocoded_column": {
      "latitude": "30.02481965980444",
      "longitude": "-89.98490438907999"
    }
  },
  {
    "service_request": "2025-1168310",
    "request_type": "Trash/Recycling",
    "request_reason": "Request a Large Item Pick Up",
    "date_created": "2025-02-11T21:19:07.000",
    "date_modified": "2025-02-11T21:19:09.000",
    "request_status": "Pending",
    "responsible_agency": "Department of Sanitation",
    "final_address": "4006 Annunciation St",
    "address_councildis": "B",
    "status": "Assigned to Contractor",
    "contractor": "IV Waste",
    "rowid": "1168310",
    "final_x": "3672530.69691",
    "final_y": "517853.182198",
    "longitude": "-90.0968578934684",
    "latitude": "29.91818565394963",
    "geocoded_column": {
      "latitude": "29.91818565394963",
      "longitude": "-90.0968578934684"
    }
  },
  {
    "service_request": "2025-1168309",
    "request_type": "Streetlights",
    "request_reason": "Streetlight Outage/Malfunction",
    "date_created": "2025-02-11T21:19:02.000",
    "date_modified": "2025-02-11T21:19:03.000",
    "request_status": "Pending",
    "responsible_agency": "Department of Public Works",
    "final_address": "5100 Norgate Dr",
    "address_councildis": "E",
    "status": "Pending",
    "contractor": "Legacy Professional Services",
    "rowid": "1168309",
    "final_x": "3707538.04523",
    "final_y": "557029.02377",
    "longitude": "-89.98490438907999",
    "latitude": "30.02481965980444",
    "geocoded_column": {
      "latitude": "30.02481965980444",
      "longitude": "-89.98490438907999"
    }
  },
  {
    "service_request": "2025-1168308",
    "request_type": "Trash/Recycling",
    "request_reason": "Request a Large Item Pick Up",
    "date_created": "2025-02-11T21:18:59.000",
    "date_modified": "2025-02-11T21:19:01.000",
    "request_status": "Pending",
    "responsible_agency": "Department of Sanitation",
    "final_address": "5313 Zeno Pl",
    "address_councildis": "E",
    "status": "Assigned to Contractor",
    "contractor": "Waste Pro",
    "rowid": "1168308",
    "final_x": "3718340.7278",
    "final_y": "561576.304671",
    "longitude": "-89.95059672789853",
    "latitude": "30.036968877612576",
    "geocoded_column": {
      "latitude": "30.036968877612576",
      "longitude": "-89.95059672789853"
    }
  },
  {
    "service_request": "2025-1168307",
    "request_type": "Drainage",
    "request_reason": "WaterMain Break",
    "date_created": "2025-02-11T20:59:43.000",
    "date_modified": "2025-02-11T20:59:45.000",
    "request_status": "Pending",
    "responsible_agency": "Department of Public Works",
    "final_address": "POYDRAS ST & S CLAIBORNE AVE",
    "address_councildis": "B",
    "status": "Pending",
    "rowid": "1168307",
    "final_x": "3676795.1",
    "final_y": "530810.68",
    "longitude": "-90.08295115364751",
    "latitude": "29.95368730370341",
    "geocoded_column": {
      "latitude": "29.95368730370341",
      "longitude": "-90.08295115364751"
    }
  },
  {
    "service_request": "2025-1168306",
    "request_type": "Trash/Recycling",
    "request_reason": "Replace Trash Cart",
    "date_created": "2025-02-11T20:59:23.000",
    "date_modified": "2025-02-11T20:59:25.000",
    "request_status": "Pending",
    "responsible_agency": "Department of Sanitation",
    "final_address": "9700 River Rd",
    "address_councildis": "C",
    "status": "Assigned to Contractor",
    "contractor": "Richards Disposal",
    "rowid": "1168306",
    "final_x": "3721261.99046",
    "final_y": "518359.03839",
    "longitude": "-89.94302216289488",
    "latitude": "29.918040699790303",
    "geocoded_column": {
      "latitude": "29.918040699790303",
      "longitude": "-89.94302216289488"
    }
  },
  {
    "service_request": "2025-1168304",
    "request_type": "Trash/Recycling",
    "request_reason": "Order Trash Cart",
    "date_created": "2025-02-11T20:51:04.000",
    "date_modified": "2025-02-11T20:51:08.000",
    "request_status": "Pending",
    "responsible_agency": "Department of Sanitation",
    "final_address": "8213 Green St",
    "address_councildis": "A",
    "status": "Assigned to Contractor",
    "contractor": "IV Waste",
    "rowid": "1168304",
    "final_x": "3662814.37767",
    "final_y": "530040.020993",
    "longitude": "-90.12712227230463",
    "latitude": "29.951980331318904",
    "geocoded_column": {
      "latitude": "29.951980331318904",
      "longitude": "-90.12712227230463"
    }
  },
  {
    "service_request": "2025-1168302",
    "request_type": "Trash/Recycling",
    "request_reason": "Request a Large Item Pick Up",
    "date_created": "2025-02-11T20:43:02.000",
    "date_modified": "2025-02-11T20:43:04.000",
    "request_status": "Pending",
    "responsible_agency": "Department of Sanitation",
    "final_address": "5520 Hawthorne Pl",
    "address_councildis": "A",
    "status": "Assigned to Contractor",
    "contractor": "IV Waste",
    "rowid": "1168302",
    "final_x": "3667719.94817",
    "final_y": "544459.351567",
    "longitude": "-90.11114710969673",
    "latitude": "29.991485767460503",
    "geocoded_column": {
      "latitude": "29.991485767460503",
      "longitude": "-90.11114710969673"
    }
  },
  {
    "service_request": "2025-1168301",
    "request_type": "Trash/Recycling",
    "request_reason": "Request a Large Item Pick Up",
    "date_created": "2025-02-11T20:11:21.000",
    "date_modified": "2025-02-11T20:11:23.000",
    "request_status": "Pending",
    "responsible_agency": "Department of Sanitation",
    "final_address": "4822 Kendall Dr",
    "address_councildis": "D",
    "status": "Assigned to Contractor",
    "contractor": "IV Waste",
    "rowid": "1168301",
    "final_x": "3690304.76476",
    "final_y": "550978.900117",
    "longitude": "-90.03957438074102",
    "latitude": "30.00873043903212",
    "geocoded_column": {
      "latitude": "30.00873043903212",
      "longitude": "-90.03957438074102"
    }
  },
  {
    "service_request": "2025-1168300",
    "request_type": "Trash/Recycling",
    "request_reason": "Missed Trash Pick-Up",
    "date_created": "2025-02-11T20:07:12.000",
    "date_modified": "2025-02-11T20:07:14.000",
    "request_status": "Pending",
    "responsible_agency": "Department of Sanitation",
    "final_address": "533 Belleville St",
    "address_councildis": "C",
    "status": "Assigned to Contractor",
    "contractor": "Richards Disposal",
    "rowid": "1168300",
    "final_x": "3687793.07811",
    "final_y": "529658.152897",
    "longitude": "-90.04826503279001",
    "latitude": "29.95018366923498",
    "geocoded_column": {
      "latitude": "29.95018366923498",
      "longitude": "-90.04826503279001"
    }
  },
  {
    "service_request": "2025-1168299",
    "request_type": "Safety & Permits",
    "request_reason": "Licenses & Permits",
    "date_created": "2025-02-11T19:48:52.000",
    "date_modified": "2025-02-11T19:48:55.000",
    "request_status": "Pending",
    "responsible_agency": "Safety and Permits",
    "final_address": "1300 St Anthony St",
    "address_councildis": "C",
    "status": "Pending",
    "rowid": "1168299",
    "final_x": "3683415.31829",
    "final_y": "536582.977863",
    "longitude": "-90.06184504269403",
    "latitude": "29.969358840870264",
    "geocoded_column": {
      "latitude": "29.969358840870264",
      "longitude": "-90.06184504269403"
    }
  },
  {
    "service_request": "2025-1168298",
    "request_type": "Safety & Permits",
    "request_reason": "Zoning Enforcement",
    "date_created": "2025-02-11T19:37:52.000",
    "date_modified": "2025-02-11T19:37:55.000",
    "request_status": "Pending",
    "responsible_agency": "Safety and Permits",
    "final_address": "1242 St Anthony St",
    "address_councildis": "C",
    "status": "Pending",
    "rowid": "1168298",
    "final_x": "3683435.71439",
    "final_y": "536508.097351",
    "longitude": "-90.06178325451364",
    "latitude": "29.969152323039523",
    "geocoded_column": {
      "latitude": "29.969152323039523",
      "longitude": "-90.06178325451364"
    }
  },
  {
    "service_request": "2025-1168297",
    "request_type": "Trash/Recycling",
    "request_reason": "Request a Large Item Pick Up",
    "date_created": "2025-02-11T19:23:18.000",
    "date_modified": "2025-02-11T19:23:19.000",
    "request_status": "Pending",
    "responsible_agency": "Department of Sanitation",
    "final_address": "4603 Arts St",
    "address_councildis": "D",
    "status": "Assigned to Contractor",
    "contractor": "IV Waste",
    "rowid": "1168297",
    "final_x": "3686075.61398",
    "final_y": "549639.599188",
    "longitude": "-90.05298289541811",
    "latitude": "30.00517846870325",
    "geocoded_column": {
      "latitude": "30.00517846870325",
      "longitude": "-90.05298289541811"
    }
  },
  {
    "service_request": "2025-1168296",
    "request_type": "Roads and Streets",
    "request_reason": "Pothole",
    "date_created": "2025-02-11T19:20:21.000",
    "date_modified": "2025-02-11T19:20:23.000",
    "request_status": "Pending",
    "responsible_agency": "Department of Public Works",
    "final_address": "1200 BLK Delery St",
    "address_councildis": "E",
    "status": "Pending",
    "rowid": "1168296",
    "final_x": "3700719.3938",
    "final_y": "533639.880999",
    "longitude": "-90.00730533580018",
    "latitude": "29.960727058965926",
    "geocoded_column": {
      "latitude": "29.960727058965926",
      "longitude": "-90.00730533580018"
    }
  },
  {
    "service_request": "2025-1168295",
    "request_type": "Drainage",
    "request_reason": "Street Flooding",
    "date_created": "2025-02-11T19:18:44.000",
    "date_modified": "2025-02-11T19:18:45.000",
    "request_status": "Pending",
    "responsible_agency": "Sewerage & Water Board ",
    "final_address": "635 Tricou St",
    "address_councildis": "E",
    "status": "Pending",
    "rowid": "1168295",
    "final_x": "3699572.23152",
    "final_y": "531567.439747",
    "longitude": "-90.01100335176132",
    "latitude": "29.95506503561965",
    "geocoded_column": {
      "latitude": "29.95506503561965",
      "longitude": "-90.01100335176132"
    }
  },
  {
    "service_request": "2025-1168294",
    "request_type": "Drainage",
    "request_reason": "Street Flooding",
    "date_created": "2025-02-11T19:16:47.000",
    "date_modified": "2025-02-11T19:16:49.000",
    "request_status": "Pending",
    "responsible_agency": "Sewerage & Water Board ",
    "final_address": "212 Norland Ave",
    "address_councildis": "C",
    "status": "Pending",
    "rowid": "1168294",
    "final_x": "3706613.75281",
    "final_y": "520470.194744",
    "longitude": "-89.98918010316903",
    "latitude": "29.92432623069721",
    "geocoded_column": {
      "latitude": "29.92432623069721",
      "longitude": "-89.98918010316903"
    }
  },
  {
    "service_request": "2025-1168293",
    "request_type": "Trash/Recycling",
    "request_reason": "Order Recycling Cart",
    "date_created": "2025-02-11T19:07:14.000",
    "date_modified": "2025-02-11T19:07:16.000",
    "request_status": "Pending",
    "responsible_agency": "Department of Sanitation",
    "final_address": "1629 Conery St",
    "address_councildis": "B",
    "status": "Pending",
    "rowid": "1168293",
    "final_x": "3675549.34075",
    "final_y": "522667.935994",
    "longitude": "-90.08716437249724",
    "latitude": "29.931334759374074",
    "geocoded_column": {
      "latitude": "29.931334759374074",
      "longitude": "-90.08716437249724"
    }
  },
  {
    "service_request": "2025-1168292",
    "request_type": "Trash/Recycling",
    "request_reason": "Request a Large Item Pick Up",
    "date_created": "2025-02-11T19:05:44.000",
    "date_modified": "2025-02-11T19:05:46.000",
    "request_status": "Pending",
    "responsible_agency": "Department of Sanitation",
    "final_address": "3920 S Pin Oak Ave",
    "address_councildis": "C",
    "status": "Assigned to Contractor",
    "contractor": "Richards Disposal",
    "rowid": "1168292",
    "final_x": "3704935.83217",
    "final_y": "513637.39877",
    "longitude": "-89.99472864771663",
    "latitude": "29.905592410816674",
    "geocoded_column": {
      "latitude": "29.905592410816674",
      "longitude": "-89.99472864771663"
    }
  },
  {
    "service_request": "2025-1168291",
    "request_type": "Streetlights",
    "request_reason": "Streetlight Outage/Malfunction",
    "date_created": "2025-02-11T18:45:29.000",
    "date_modified": "2025-02-11T18:45:30.000",
    "request_status": "Pending",
    "responsible_agency": "Department of Public Works",
    "final_address": "6318 Carlson Dr",
    "address_councildis": "D",
    "status": "Pending",
    "contractor": "Legacy Professional Services",
    "rowid": "1168291",
    "final_x": "3679353.33781",
    "final_y": "556895.299866",
    "longitude": "-90.07396806094755",
    "latitude": "30.025333844572998",
    "geocoded_column": {
      "latitude": "30.025333844572998",
      "longitude": "-90.07396806094755"
    }
  },
  {
    "service_request": "2025-1168290",
    "request_type": "Trash/Recycling",
    "request_reason": "Damaged Caused By Contractor",
    "date_created": "2025-02-11T18:32:43.000",
    "date_modified": "2025-02-11T18:32:45.000",
    "request_status": "Pending",
    "responsible_agency": "Department of Sanitation",
    "final_address": "343 20Th St",
    "address_councildis": "A",
    "status": "Assigned to Contractor",
    "contractor": "IV Waste",
    "rowid": "1168290",
    "final_x": "3664848.83162",
    "final_y": "549107.286291",
    "longitude": "-90.12006091283126",
    "latitude": "30.004349889532367",
    "geocoded_column": {
      "latitude": "30.004349889532367",
      "longitude": "-90.12006091283126"
    }
  },
  {
    "service_request": "2025-1168289",
    "request_type": "Trash/Recycling",
    "request_reason": "Order Trash Cart",
    "date_created": "2025-02-11T18:26:00.000",
    "date_modified": "2025-02-11T18:26:04.000",
    "request_status": "Pending",
    "responsible_agency": "Department of Sanitation",
    "final_address": "3906 Hamilton St",
    "address_councildis": "A",
    "status": "Assigned to Contractor",
    "contractor": "IV Waste",
    "rowid": "1168289",
    "final_x": "3665841.67111",
    "final_y": "537920.935753",
    "longitude": "-90.11729938227272",
    "latitude": "29.973562280348624",
    "geocoded_column": {
      "latitude": "29.973562280348624",
      "longitude": "-90.11729938227272"
    }
  },
  {
    "service_request": "2025-1168288",
    "request_type": "Property Maintenance",
    "request_reason": "Property Maintenance",
    "date_created": "2025-02-11T18:16:14.000",
    "date_modified": "2025-02-11T18:16:15.000",
    "request_status": "Pending",
    "responsible_agency": "Department of Code Enforcement",
    "final_address": "4421 Toulouse St",
    "address_councildis": "A",
    "status": "Pending",
    "rowid": "1168288",
    "final_x": "3670953.87342",
    "final_y": "540738.279627",
    "longitude": "-90.10105823589643",
    "latitude": "29.981158851569056",
    "geocoded_column": {
      "latitude": "29.981158851569056",
      "longitude": "-90.10105823589643"
    }
  },
  {
    "service_request": "2025-1168287",
    "request_type": "Parks & Parkways",
    "request_reason": "Request Grass Cutting Service (City Owned Property)",
    "date_created": "2025-02-11T18:07:45.000",
    "date_modified": "2025-02-11T18:07:48.000",
    "request_status": "Pending",
    "responsible_agency": "Department of Parks & Parkway",
    "final_address": "3904 Toledano St",
    "address_councildis": "B",
    "status": "Pending",
    "rowid": "1168287",
    "final_x": "3671326.44359",
    "final_y": "529167.3632",
    "longitude": "-90.10027476811725",
    "latitude": "29.949331679263693",
    "geocoded_column": {
      "latitude": "29.949331679263693",
      "longitude": "-90.10027476811725"
    }
  },
  {
    "service_request": "2025-1168286",
    "request_type": "Trash/Recycling",
    "request_reason": "Repair Recycling Cart",
    "date_created": "2025-02-11T18:05:06.000",
    "date_modified": "2025-02-11T18:05:08.000",
    "request_status": "Pending",
    "responsible_agency": "Department of Sanitation",
    "final_address": "845 Bungalow Ct",
    "address_councildis": "A",
    "status": "Pending",
    "rowid": "1168286",
    "final_x": "3672617.5323",
    "final_y": "540592.456011",
    "longitude": "-90.09580861288023",
    "latitude": "29.980708586002475",
    "geocoded_column": {
      "latitude": "29.980708586002475",
      "longitude": "-90.09580861288023"
    }
  },
  {
    "service_request": "2025-1168285",
    "request_type": "Trash/Recycling",
    "request_reason": "Replace Trash Cart",
    "date_created": "2025-02-11T18:01:17.000",
    "date_modified": "2025-02-11T18:01:19.000",
    "request_status": "Pending",
    "responsible_agency": "Department of Sanitation",
    "final_address": "524 Webster St",
    "address_councildis": "A",
    "status": "Assigned to Contractor",
    "contractor": "IV Waste",
    "rowid": "1168285",
    "final_x": "3663805.97069",
    "final_y": "518664.821111",
    "longitude": "-90.12437023669355",
    "latitude": "29.920673403342576",
    "geocoded_column": {
      "latitude": "29.920673403342576",
      "longitude": "-90.12437023669355"
    }
  },
  {
    "service_request": "2025-1168284",
    "request_type": "Trash/Recycling",
    "request_reason": "Replace Trash Cart",
    "date_created": "2025-02-11T18:01:15.000",
    "date_modified": "2025-02-11T18:01:17.000",
    "request_status": "Pending",
    "responsible_agency": "Department of Sanitation",
    "final_address": "840 Bungalow Ct",
    "address_councildis": "A",
    "status": "Assigned to Contractor",
    "contractor": "IV Waste",
    "rowid": "1168284",
    "final_x": "3672657.35214",
    "final_y": "540571.262219",
    "longitude": "-90.09568356717004",
    "latitude": "29.980649127738786",
    "geocoded_column": {
      "latitude": "29.980649127738786",
      "longitude": "-90.09568356717004"
    }
  },
  {
    "service_request": "2025-1168283",
    "request_type": "Trash/Recycling",
    "request_reason": "Request a Large Item Pick Up",
    "date_created": "2025-02-11T17:53:59.000",
    "date_modified": "2025-02-11T17:54:02.000",
    "request_status": "Pending",
    "responsible_agency": "Department of Sanitation",
    "final_address": "2604 Calhoun St",
    "address_councildis": "A",
    "status": "Assigned to Contractor",
    "contractor": "IV Waste",
    "rowid": "1168283",
    "final_x": "3666303.09639",
    "final_y": "526461.24947",
    "longitude": "-90.11622652950933",
    "latitude": "29.94203842345606",
    "geocoded_column": {
      "latitude": "29.94203842345606",
      "longitude": "-90.11622652950933"
    }
  },
  {
    "service_request": "2025-1168282",
    "request_type": "Trash/Recycling",
    "request_reason": "Repair Trash Cart",
    "date_created": "2025-02-11T17:32:53.000",
    "date_modified": "2025-02-11T17:32:56.000",
    "request_status": "Pending",
    "responsible_agency": "Department of Sanitation",
    "final_address": "5922 Marshal Foch St",
    "address_councildis": "A",
    "status": "Assigned to Contractor",
    "contractor": "IV Waste",
    "rowid": "1168282",
    "final_x": "3669687.36385",
    "final_y": "546714.013649",
    "longitude": "-90.10485610438451",
    "latitude": "29.997627462283",
    "geocoded_column": {
      "latitude": "29.997627462283",
      "longitude": "-90.10485610438451"
    }
  },
  {
    "service_request": "2025-1168281",
    "request_type": "Trash/Recycling",
    "request_reason": "Request a Large Item Pick Up",
    "date_created": "2025-02-11T17:16:36.000",
    "date_modified": "2025-02-11T17:16:39.000",
    "request_status": "Pending",
    "responsible_agency": "Department of Sanitation",
    "final_address": "825 Polk St",
    "address_councildis": "A",
    "status": "Assigned to Contractor",
    "contractor": "IV Waste",
    "rowid": "1168281",
    "final_x": "3669421.49703",
    "final_y": "547248.314193",
    "longitude": "-90.10567788951828",
    "latitude": "29.99910443868108",
    "geocoded_column": {
      "latitude": "29.99910443868108",
      "longitude": "-90.10567788951828"
    }
  },
  {
    "service_request": "2025-1168280",
    "request_type": "Trash/Recycling",
    "request_reason": "Missed Trash Pick-Up",
    "date_created": "2025-02-11T17:16:13.000",
    "date_modified": "2025-02-11T17:16:16.000",
    "request_status": "Pending",
    "responsible_agency": "Department of Sanitation",
    "final_address": "4604 Toulouse St",
    "address_councildis": "A",
    "status": "Assigned to Contractor",
    "contractor": "IV Waste",
    "rowid": "1168280",
    "final_x": "3670410.99143",
    "final_y": "541046.069324",
    "longitude": "-90.102762466925",
    "latitude": "29.98202121075726",
    "geocoded_column": {
      "latitude": "29.98202121075726",
      "longitude": "-90.102762466925"
    }
  },
  {
    "service_request": "2025-1168279",
    "request_type": "Trash/Recycling",
    "request_reason": "Replace Recycling Cart",
    "date_created": "2025-02-11T17:14:40.000",
    "date_modified": "2025-02-11T17:14:42.000",
    "request_status": "Pending",
    "responsible_agency": "Department of Sanitation",
    "final_address": "3236 Castiglione St",
    "address_councildis": "A",
    "status": "Pending",
    "rowid": "1168279",
    "final_x": "3677938.63496",
    "final_y": "542751.913677",
    "longitude": "-90.07892756696572",
    "latitude": "29.986487252812807",
    "geocoded_column": {
      "latitude": "29.986487252812807",
      "longitude": "-90.07892756696572"
    }
  },
  {
    "service_request": "2025-1168278",
    "request_type": "Trash/Recycling",
    "request_reason": "Request a Large Item Pick Up",
    "date_created": "2025-02-11T17:07:56.000",
    "date_modified": "2025-02-11T17:07:58.000",
    "request_status": "Pending",
    "responsible_agency": "Department of Sanitation",
    "final_address": "26 Grand Canyon Dr",
    "address_councildis": "C",
    "status": "Assigned to Contractor",
    "contractor": "Richards Disposal",
    "rowid": "1168278",
    "final_x": "3699750.71332",
    "final_y": "517157.420853",
    "longitude": "-90.01096488939694",
    "latitude": "29.915436821529568",
    "geocoded_column": {
      "latitude": "29.915436821529568",
      "longitude": "-90.01096488939694"
    }
  },
  {
    "service_request": "2025-1168277",
    "request_type": "Traffic Signals",
    "request_reason": "Traffic Signal Malfunctioning or Damaged",
    "date_created": "2025-02-11T16:44:09.000",
    "date_modified": "2025-02-11T16:44:11.000",
    "request_status": "Pending",
    "responsible_agency": "Department of Public Works",
    "final_address": "1113 Canal St",
    "address_councildis": "C",
    "status": "Pending",
    "rowid": "1168277",
    "final_x": "3679968.03432",
    "final_y": "531722.365507",
    "longitude": "-90.07290068736697",
    "latitude": "29.956098544788674",
    "geocoded_column": {
      "latitude": "29.956098544788674",
      "longitude": "-90.07290068736697"
    }
  },
  {
    "service_request": "2025-1168276",
    "request_type": "Trash/Recycling",
    "request_reason": "Request a Large Item Pick Up",
    "date_created": "2025-02-11T16:43:40.000",
    "date_modified": "2025-02-11T16:43:42.000",
    "request_status": "Pending",
    "responsible_agency": "Department of Sanitation",
    "final_address": "2156 Timoleon St",
    "address_councildis": "D",
    "status": "Assigned to Contractor",
    "contractor": "IV Waste",
    "rowid": "1168276",
    "final_x": "3683534.92828",
    "final_y": "551054.905941",
    "longitude": "-90.06095980129848",
    "latitude": "30.00914786619365",
    "geocoded_column": {
      "latitude": "30.00914786619365",
      "longitude": "-90.06095980129848"
    }
  },
  {
    "service_request": "2025-1168275",
    "request_type": "Trash/Recycling",
    "request_reason": "Request a Large Item Pick Up",
    "date_created": "2025-02-11T16:41:47.000",
    "date_modified": "2025-02-11T16:42:02.000",
    "request_status": "Pending",
    "responsible_agency": "Department of Sanitation",
    "final_address": "4783 Lancelot Dr",
    "address_councildis": "E",
    "status": "Assigned to Contractor",
    "contractor": "Waste Pro",
    "rowid": "1168275",
    "final_x": "3707491.54142",
    "final_y": "555797.698329",
    "longitude": "-89.98509711235381",
    "latitude": "30.02143549900781",
    "geocoded_column": {
      "latitude": "30.02143549900781",
      "longitude": "-89.98509711235381"
    }
  },
  {
    "service_request": "2025-1168274",
    "request_type": "Property Maintenance",
    "request_reason": "Property Maintenance",
    "date_created": "2025-02-11T16:39:03.000",
    "date_modified": "2025-02-11T16:39:05.000",
    "request_status": "Pending",
    "responsible_agency": "Department of Code Enforcement",
    "final_address": "801 Newton St",
    "address_councildis": "C",
    "status": "Pending",
    "rowid": "1168274",
    "final_x": "3687861.75663",
    "final_y": "527914.722559",
    "longitude": "-90.04810992735483",
    "latitude": "29.945387713152545",
    "geocoded_column": {
      "latitude": "29.945387713152545",
      "longitude": "-90.04810992735483"
    }
  },
  {
    "service_request": "2025-1168273",
    "request_type": "Trash/Recycling",
    "request_reason": "Request a Large Item Pick Up",
    "date_created": "2025-02-11T16:36:44.000",
    "date_modified": "2025-02-11T16:36:46.000",
    "request_status": "Pending",
    "responsible_agency": "Department of Sanitation",
    "final_address": "4029 Elba St",
    "address_councildis": "B",
    "status": "Assigned to Contractor",
    "contractor": "IV Waste",
    "rowid": "1168273",
    "final_x": "3670690.0882",
    "final_y": "529871.369665",
    "longitude": "-90.10226014820044",
    "latitude": "29.951286280184327",
    "geocoded_column": {
      "latitude": "29.951286280184327",
      "longitude": "-90.10226014820044"
    }
  },
  {
    "service_request": "2025-1168272",
    "request_type": "Trash/Recycling",
    "request_reason": "Request a Large Item Pick Up",
    "date_created": "2025-02-11T16:36:37.000",
    "date_modified": "2025-02-11T16:36:40.000",
    "request_status": "Pending",
    "responsible_agency": "Department of Sanitation",
    "final_address": "4845 Marque Dr",
    "address_councildis": "E",
    "status": "Assigned to Contractor",
    "contractor": "Waste Pro",
    "rowid": "1168272",
    "final_x": "3710022.34757",
    "final_y": "556525.276186",
    "longitude": "-89.97707332049688",
    "latitude": "30.023353931186254",
    "geocoded_column": {
      "latitude": "30.023353931186254",
      "longitude": "-89.97707332049688"
    }
  },
  {
    "service_request": "2025-1168271",
    "request_type": "Trash/Recycling",
    "request_reason": "Replace Trash Cart",
    "date_created": "2025-02-11T16:36:04.000",
    "date_modified": "2025-02-11T16:36:07.000",
    "request_status": "Pending",
    "responsible_agency": "Department of Sanitation",
    "final_address": "4029 Elba St",
    "address_councildis": "B",
    "status": "Assigned to Contractor",
    "contractor": "IV Waste",
    "rowid": "1168271",
    "final_x": "3670690.0882",
    "final_y": "529871.369665",
    "longitude": "-90.10226014820044",
    "latitude": "29.951286280184327",
    "geocoded_column": {
      "latitude": "29.951286280184327",
      "longitude": "-90.10226014820044"
    }
  },
  {
    "service_request": "2025-1168270",
    "request_type": "Mosquito, Termite & Rodent Control",
    "request_reason": "Rodent Complaint (Rats)",
    "date_created": "2025-02-11T16:35:09.000",
    "date_modified": "2025-02-11T16:35:11.000",
    "request_status": "Pending",
    "responsible_agency": "Mosquito, Termite & Rodent Control Board",
    "final_address": "1229 State St",
    "address_councildis": "A",
    "status": "Pending",
    "rowid": "1168270",
    "final_x": "3665264.29044",
    "final_y": "520705.280377",
    "longitude": "-90.11969875656914",
    "latitude": "29.926241637102766",
    "geocoded_column": {
      "latitude": "29.926241637102766",
      "longitude": "-90.11969875656914"
    }
  },
  {
    "service_request": "2025-1168269",
    "request_type": "Trash/Recycling",
    "request_reason": "Request a Large Item Pick Up",
    "date_created": "2025-02-11T16:28:37.000",
    "date_modified": "2025-02-11T16:28:39.000",
    "request_status": "Pending",
    "responsible_agency": "Department of Sanitation",
    "final_address": "4261 Trieste St",
    "address_councildis": "E",
    "status": "Assigned to Contractor",
    "contractor": "Waste Pro",
    "rowid": "1168269",
    "final_x": "3760154.47049",
    "final_y": "573079.150057",
    "longitude": "-89.81797891540721",
    "latitude": "30.06714279680244",
    "geocoded_column": {
      "latitude": "30.06714279680244",
      "longitude": "-89.81797891540721"
    }
  },
  {
    "service_request": "2025-1168268",
    "request_type": "Trash/Recycling",
    "request_reason": "Request a Large Item Pick Up",
    "date_created": "2025-02-11T16:28:31.000",
    "date_modified": "2025-02-11T16:28:33.000",
    "request_status": "Pending",
    "responsible_agency": "Department of Sanitation",
    "final_address": "1850 Industry St",
    "address_councildis": "D",
    "status": "Assigned to Contractor",
    "contractor": "IV Waste",
    "rowid": "1168268",
    "final_x": "3681989.72565",
    "final_y": "542699.435277",
    "longitude": "-90.06613355153333",
    "latitude": "29.986220388892217",
    "geocoded_column": {
      "latitude": "29.986220388892217",
      "longitude": "-90.06613355153333"
    }
  },
  {
    "service_request": "2025-1168267",
    "request_type": "Trash/Recycling",
    "request_reason": "Request a Large Item Pick Up",
    "date_created": "2025-02-11T16:21:48.000",
    "date_modified": "2025-02-11T16:22:01.000",
    "request_status": "Pending",
    "responsible_agency": "Department of Sanitation",
    "final_address": "2501 Ramsey Dr",
    "address_councildis": "C",
    "status": "Assigned to Contractor",
    "contractor": "Richards Disposal",
    "rowid": "1168267",
    "final_x": "3703088.51876",
    "final_y": "521878.111034",
    "longitude": "-90.00025625927462",
    "latitude": "29.92831074995481",
    "geocoded_column": {
      "latitude": "29.92831074995481",
      "longitude": "-90.00025625927462"
    }
  },
  {
    "service_request": "2025-1168266",
    "request_type": "Trash/Recycling",
    "request_reason": "Request a Large Item Pick Up",
    "date_created": "2025-02-11T16:20:48.000",
    "date_modified": "2025-02-11T16:54:51.000",
    "case_close_date": "2025-02-11T10:54:51.000",
    "request_status": "Closed",
    "responsible_agency": "Department of Sanitation",
    "final_address": "10936 N Hardy St",
    "address_councildis": "E",
    "status": "Duplicate Request",
    "contractor": "Waste Pro",
    "contractor_action": "Duplicate",
    "rowid": "1168266",
    "final_x": "3712737.29048",
    "final_y": "562073.068383",
    "longitude": "-89.96828593261456",
    "latitude": "30.038519515150128",
    "geocoded_column": {
      "latitude": "30.038519515150128",
      "longitude": "-89.96828593261456"
    }
  },
  {
    "service_request": "2025-1168265",
    "request_type": "Streetlights",
    "request_reason": "Streetlight Outage/Malfunction",
    "date_created": "2025-02-11T16:19:37.000",
    "date_modified": "2025-02-11T16:19:38.000",
    "request_status": "Pending",
    "responsible_agency": "Department of Public Works",
    "final_address": "11000 Morrison Rd",
    "address_councildis": "E",
    "status": "Pending",
    "contractor": "Legacy Professional Services",
    "rowid": "1168265",
    "final_x": "3711086.46129",
    "final_y": "564795.005026",
    "longitude": "-89.97340085206483",
    "latitude": "30.046057720631513",
    "geocoded_column": {
      "latitude": "30.046057720631513",
      "longitude": "-89.97340085206483"
    }
  },
  {
    "service_request": "2025-1168263",
    "request_type": "Trash/Recycling",
    "request_reason": "Request a Large Item Pick Up",
    "date_created": "2025-02-11T16:18:56.000",
    "date_modified": "2025-02-11T16:18:58.000",
    "request_status": "Pending",
    "responsible_agency": "Department of Sanitation",
    "final_address": "1401 Laharpe St",
    "address_councildis": "C",
    "status": "Assigned to Contractor",
    "contractor": "IV Waste",
    "rowid": "1168263",
    "final_x": "3682496.51599",
    "final_y": "537095.763528",
    "longitude": "-90.064728760481",
    "latitude": "29.970796826477144",
    "geocoded_column": {
      "latitude": "29.970796826477144",
      "longitude": "-90.064728760481"
    }
  },
  {
    "service_request": "2025-1168262",
    "request_type": "Abandoned Vehicles",
    "request_reason": "Abandoned/Junk Vehicles",
    "date_created": "2025-02-11T16:14:22.000",
    "date_modified": "2025-02-11T16:14:24.000",
    "request_status": "Pending",
    "responsible_agency": "Department of Public Works",
    "final_address": "1840 S Chippewa St",
    "address_councildis": "B",
    "status": "Pending",
    "rowid": "1168262",
    "final_x": "3680908.49896",
    "final_y": "521877.694906",
    "longitude": "-90.07027368427084",
    "latitude": "29.929000506707638",
    "geocoded_column": {
      "latitude": "29.929000506707638",
      "longitude": "-90.07027368427084"
    }
  },
  {
    "service_request": "2025-1168261",
    "request_type": "Trash/Recycling",
    "request_reason": "Request a Large Item Pick Up",
    "date_created": "2025-02-11T16:09:22.000",
    "date_modified": "2025-02-11T16:09:24.000",
    "request_status": "Pending",
    "responsible_agency": "Department of Sanitation",
    "final_address": "10936 N Hardy St",
    "address_councildis": "E",
    "status": "Assigned to Contractor",
    "contractor": "Waste Pro",
    "rowid": "1168261",
    "final_x": "3712737.29048",
    "final_y": "562073.068383",
    "longitude": "-89.96828593261456",
    "latitude": "30.038519515150128",
    "geocoded_column": {
      "latitude": "30.038519515150128",
      "longitude": "-89.96828593261456"
    }
  },
  {
    "service_request": "2025-1168260",
    "request_type": "Trash/Recycling",
    "request_reason": "Request a Large Item Pick Up",
    "date_created": "2025-02-11T16:08:05.000",
    "date_modified": "2025-02-11T16:08:08.000",
    "request_status": "Pending",
    "responsible_agency": "Department of Sanitation",
    "final_address": "7004 Pritchard Pl",
    "address_councildis": "B",
    "status": "Assigned to Contractor",
    "contractor": "IV Waste",
    "rowid": "1168260",
    "final_x": "3667966.77594",
    "final_y": "531084.328706",
    "longitude": "-90.11081819162402",
    "latitude": "29.954701692004907",
    "geocoded_column": {
      "latitude": "29.954701692004907",
      "longitude": "-90.11081819162402"
    }
  },
  {
    "service_request": "2025-1168259",
    "request_type": "Trash/Recycling",
    "request_reason": "Repair Trash Cart",
    "date_created": "2025-02-11T16:03:12.000",
    "date_modified": "2025-02-11T16:03:14.000",
    "request_status": "Pending",
    "responsible_agency": "Department of Sanitation",
    "final_address": "1011 Eighth St",
    "address_councildis": "B",
    "status": "Assigned to Contractor",
    "contractor": "IV Waste",
    "rowid": "1168259",
    "final_x": "3676284.9428",
    "final_y": "520043.333432",
    "longitude": "-90.08493243784591",
    "latitude": "29.924095935646115",
    "geocoded_column": {
      "latitude": "29.924095935646115",
      "longitude": "-90.08493243784591"
    }
  },
  {
    "service_request": "2025-1168258",
    "request_type": "Trash/Recycling",
    "request_reason": "Request a Large Item Pick Up",
    "date_created": "2025-02-11T16:02:32.000",
    "date_modified": "2025-02-11T16:02:34.000",
    "request_status": "Pending",
    "responsible_agency": "Department of Sanitation",
    "final_address": "714 Canal St",
    "address_councildis": "B",
    "status": "Assigned to Contractor",
    "contractor": "IV Waste",
    "rowid": "1168258",
    "final_x": "3681001.50683",
    "final_y": "530695.43117",
    "longitude": "-90.06967309674111",
    "latitude": "29.953243523446712",
    "geocoded_column": {
      "latitude": "29.953243523446712",
      "longitude": "-90.06967309674111"
    }
  },
  {
    "service_request": "2025-1168257",
    "request_type": "Parks & Parkways",
    "request_reason": "Request Tree Service (Right of Way/Public Property)",
    "date_created": "2025-02-11T16:00:43.000",
    "date_modified": "2025-02-11T16:00:45.000",
    "request_status": "Pending",
    "responsible_agency": "Department of Parks & Parkway",
    "final_address": "3059 Carver Rams Way",
    "address_councildis": "D",
    "status": "Pending",
    "rowid": "1168257",
    "final_x": "3691045.03356",
    "final_y": "545593.263312",
    "longitude": "-90.03742807251649",
    "latitude": "29.993898903788136",
    "geocoded_column": {
      "latitude": "29.993898903788136",
      "longitude": "-90.03742807251649"
    }
  },
  {
    "service_request": "2025-1168256",
    "request_type": "Abandoned Vehicles",
    "request_reason": "Abandoned/Junk Vehicles",
    "date_created": "2025-02-11T16:00:16.000",
    "date_modified": "2025-02-11T16:00:18.000",
    "request_status": "Pending",
    "responsible_agency": "Department of Public Works",
    "final_address": "2624 Comet St",
    "address_councildis": "C",
    "status": "Pending",
    "rowid": "1168256",
    "final_x": "3699879.05872",
    "final_y": "521264.658809",
    "longitude": "-90.01041011159434",
    "latitude": "29.92672624736865",
    "geocoded_column": {
      "latitude": "29.92672624736865",
      "longitude": "-90.01041011159434"
    }
  },
  {
    "service_request": "2025-1168255",
    "request_type": "Abandoned Vehicles",
    "request_reason": "Abandoned/Junk Vehicles",
    "date_created": "2025-02-11T15:58:31.000",
    "date_modified": "2025-02-11T15:58:33.000",
    "request_status": "Pending",
    "responsible_agency": "Department of Public Works",
    "final_address": "MITHRA ST & PEOPLES AVE",
    "address_councildis": "D",
    "status": "Pending",
    "rowid": "1168255",
    "final_x": "3687986.3",
    "final_y": "553014.78",
    "longitude": "-90.0468269290903",
    "latitude": "30.014400135915416",
    "geocoded_column": {
      "latitude": "30.014400135915416",
      "longitude": "-90.0468269290903"
    }
  },
  {
    "service_request": "2025-1168254",
    "request_type": "Parks & Parkways",
    "request_reason": "Request Tree Service (Right of Way/Public Property)",
    "date_created": "2025-02-11T15:56:46.000",
    "date_modified": "2025-02-11T15:56:49.000",
    "request_status": "Pending",
    "responsible_agency": "Department of Parks & Parkway",
    "final_address": "4820 Annette St",
    "address_councildis": "D",
    "status": "Pending",
    "rowid": "1168254",
    "final_x": "3681966.59317",
    "final_y": "550327.693076",
    "longitude": "-90.06594011089642",
    "latitude": "30.007196085611966",
    "geocoded_column": {
      "latitude": "30.007196085611966",
      "longitude": "-90.06594011089642"
    }
  },
  {
    "service_request": "2025-1168253",
    "request_type": "Trash/Recycling",
    "request_reason": "Order Trash Cart",
    "date_created": "2025-02-11T15:45:58.000",
    "date_modified": "2025-02-11T15:46:00.000",
    "request_status": "Pending",
    "responsible_agency": "Department of Sanitation",
    "final_address": "4025 St Claude Ave",
    "address_councildis": "C",
    "status": "Assigned to Contractor",
    "contractor": "IV Waste",
    "rowid": "1168253",
    "final_x": "3692048.39523",
    "final_y": "535405.669318",
    "longitude": "-90.03462335498965",
    "latitude": "29.96585542363172",
    "geocoded_column": {
      "latitude": "29.96585542363172",
      "longitude": "-90.03462335498965"
    }
  },
  {
    "service_request": "2025-1168252",
    "request_type": "Abandoned Vehicles",
    "request_reason": "Vehicle Blocking Your Driveway",
    "date_created": "2025-02-11T15:44:54.000",
    "date_modified": "2025-02-11T15:47:03.000",
    "request_status": "Pending",
    "responsible_agency": "Department of Public Works",
    "final_address": "8950 Colapissa St",
    "address_councildis": "A",
    "rowid": "1168252",
    "final_x": "3664191.94298",
    "final_y": "535484.584006",
    "longitude": "-90.12259089969275",
    "latitude": "29.966911156265557",
    "geocoded_column": {
      "latitude": "29.966911156265557",
      "longitude": "-90.12259089969275"
    }
  },
  {
    "service_request": "2025-1168251",
    "request_type": "Trash/Recycling",
    "request_reason": "Request a Large Item Pick Up",
    "date_created": "2025-02-11T15:36:14.000",
    "date_modified": "2025-02-11T16:31:36.000",
    "request_status": "Pending",
    "responsible_agency": "Department of Sanitation",
    "final_address": "2111 S Carrollton Ave Apt 1B",
    "address_councildis": "A",
    "status": "Assigned to Contractor",
    "contractor": "IV Waste",
    "rowid": "1168251",
    "final_x": "3664339.57082",
    "final_y": "530708.06925",
    "longitude": "-90.122284115672",
    "latitude": "29.953773012116006",
    "geocoded_column": {
      "latitude": "29.953773012116006",
      "longitude": "-90.122284115672"
    }
  },
  {
    "service_request": "2025-1168250",
    "request_type": "Trash/Recycling",
    "request_reason": "Request a Large Item Pick Up",
    "date_created": "2025-02-11T15:35:59.000",
    "date_modified": "2025-02-11T15:36:03.000",
    "request_status": "Pending",
    "responsible_agency": "Department of Sanitation",
    "final_address": "1319 Delery St",
    "address_councildis": "E",
    "status": "Assigned to Contractor",
    "contractor": "Waste Pro",
    "rowid": "1168250",
    "final_x": "3700866.70378",
    "final_y": "533910.819141",
    "longitude": "-90.00683025803815",
    "latitude": "29.96146735360797",
    "geocoded_column": {
      "latitude": "29.96146735360797",
      "longitude": "-90.00683025803815"
    }
  },
  {
    "service_request": "2025-1168249",
    "request_type": "Trash/Recycling",
    "request_reason": "Request a Large Item Pick Up",
    "date_created": "2025-02-11T15:35:07.000",
    "date_modified": "2025-02-11T15:35:10.000",
    "request_status": "Pending",
    "responsible_agency": "Department of Sanitation",
    "final_address": "4727 Francis Dr",
    "address_councildis": "D",
    "status": "Assigned to Contractor",
    "contractor": "Waste Pro",
    "rowid": "1168249",
    "final_x": "3698291.8712",
    "final_y": "554280.110424",
    "longitude": "-90.01422059623319",
    "latitude": "30.017557137900454",
    "geocoded_column": {
      "latitude": "30.017557137900454",
      "longitude": "-90.01422059623319"
    }
  },
  {
    "service_request": "2025-1168248",
    "request_type": "Trash/Recycling",
    "request_reason": "Request a Large Item Pick Up",
    "date_created": "2025-02-11T15:33:20.000",
    "date_modified": "2025-02-11T15:34:29.000",
    "request_status": "Pending",
    "responsible_agency": "Department of Sanitation",
    "final_address": "4743 Francis Dr",
    "address_councildis": "D",
    "status": "Assigned to Contractor",
    "contractor": "Waste Pro",
    "rowid": "1168248",
    "final_x": "3698277.97891",
    "final_y": "554403.153304",
    "longitude": "-90.01426001470615",
    "latitude": "30.0178958989411",
    "geocoded_column": {
      "latitude": "30.0178958989411",
      "longitude": "-90.01426001470615"
    }
  },
  {
    "service_request": "2025-1168247",
    "request_type": "Trash/Recycling",
    "request_reason": "Illegal Dumping",
    "date_created": "2025-02-11T15:32:41.000",
    "date_modified": "2025-02-11T15:32:43.000",
    "request_status": "Pending",
    "responsible_agency": "Department of Sanitation",
    "final_address": "3059 Carver Rams Way",
    "address_councildis": "D",
    "status": "Pending",
    "rowid": "1168247",
    "final_x": "3691045.03356",
    "final_y": "545593.263312",
    "longitude": "-90.03742807251649",
    "latitude": "29.993898903788136",
    "geocoded_column": {
      "latitude": "29.993898903788136",
      "longitude": "-90.03742807251649"
    }
  },
  {
    "service_request": "2025-1168246",
    "request_type": "Property Maintenance",
    "request_reason": "Property Maintenance",
    "date_created": "2025-02-11T15:31:33.000",
    "date_modified": "2025-02-11T15:31:35.000",
    "request_status": "Pending",
    "responsible_agency": "Department of Code Enforcement",
    "final_address": "1107 Louisa St",
    "address_councildis": "C",
    "status": "Pending",
    "rowid": "1168246",
    "final_x": "3689624.65839",
    "final_y": "535988.174855",
    "longitude": "-90.0422566863142",
    "latitude": "29.96753242282984",
    "geocoded_column": {
      "latitude": "29.96753242282984",
      "longitude": "-90.0422566863142"
    }
  },
  {
    "service_request": "2025-1168245",
    "request_type": "Trash/Recycling",
    "request_reason": "Request a Large Item Pick Up",
    "date_created": "2025-02-11T15:28:06.000",
    "date_modified": "2025-02-11T15:28:09.000",
    "request_status": "Pending",
    "responsible_agency": "Department of Sanitation",
    "final_address": "1919 Stephen Girard St",
    "address_councildis": "D",
    "status": "Assigned to Contractor",
    "contractor": "IV Waste",
    "rowid": "1168245",
    "final_x": "3681925.28597",
    "final_y": "548709.777363",
    "longitude": "-90.0661271400447",
    "latitude": "30.00274865515197",
    "geocoded_column": {
      "latitude": "30.00274865515197",
      "longitude": "-90.0661271400447"
    }
  },
  {
    "service_request": "2025-1168244",
    "request_type": "Trash/Recycling",
    "request_reason": "Request a Large Item Pick Up",
    "date_created": "2025-02-11T15:25:40.000",
    "date_modified": "2025-02-11T15:25:41.000",
    "request_status": "Pending",
    "responsible_agency": "Department of Sanitation",
    "final_address": "2751 St Philip St",
    "address_councildis": "A",
    "status": "Assigned to Contractor",
    "contractor": "IV Waste",
    "rowid": "1168244",
    "final_x": "3677021.02088",
    "final_y": "538190.036937",
    "longitude": "-90.08198332437856",
    "latitude": "29.973971255942626",
    "geocoded_column": {
      "latitude": "29.973971255942626",
      "longitude": "-90.08198332437856"
    }
  },
  {
    "service_request": "2025-1168243",
    "request_type": "Trash/Recycling",
    "request_reason": "Replace Recycling Cart",
    "date_created": "2025-02-11T15:25:06.000",
    "date_modified": "2025-02-11T15:25:08.000",
    "request_status": "Pending",
    "responsible_agency": "Department of Sanitation",
    "final_address": "1020 Marengo St",
    "address_councildis": "B",
    "status": "Pending",
    "rowid": "1168243",
    "final_x": "3672057.27105",
    "final_y": "519441.318455",
    "longitude": "-90.09829821530569",
    "latitude": "29.922566561974666",
    "geocoded_column": {
      "latitude": "29.922566561974666",
      "longitude": "-90.09829821530569"
    }
  },
  {
    "service_request": "2025-1168242",
    "request_type": "Trash/Recycling",
    "request_reason": "Request a Large Item Pick Up",
    "date_created": "2025-02-11T15:24:17.000",
    "date_modified": "2025-02-11T15:24:20.000",
    "request_status": "Pending",
    "responsible_agency": "Department of Sanitation",
    "final_address": "10321 Brookfield Dr",
    "address_councildis": "E",
    "status": "Assigned to Contractor",
    "contractor": "Waste Pro",
    "rowid": "1168242",
    "final_x": "3710483.0236",
    "final_y": "563227.483936",
    "longitude": "-89.97536671587568",
    "latitude": "30.04176734543833",
    "geocoded_column": {
      "latitude": "30.04176734543833",
      "longitude": "-89.97536671587568"
    }
  },
  {
    "service_request": "2025-1168241",
    "request_type": "Trash/Recycling",
    "request_reason": "Illegal Dumping",
    "date_created": "2025-02-11T15:21:56.000",
    "date_modified": "2025-02-11T15:21:58.000",
    "request_status": "Pending",
    "responsible_agency": "Department of Sanitation",
    "final_address": "1107 Louisa St",
    "address_councildis": "C",
    "status": "Pending",
    "rowid": "1168241",
    "final_x": "3689624.65839",
    "final_y": "535988.174855",
    "longitude": "-90.0422566863142",
    "latitude": "29.96753242282984",
    "geocoded_column": {
      "latitude": "29.96753242282984",
      "longitude": "-90.0422566863142"
    }
  },
  {
    "service_request": "2025-1168240",
    "request_type": "Street and Traffic Signs",
    "request_reason": "Traffic or Parking Sign Damaged or Missing",
    "date_created": "2025-02-11T15:17:26.000",
    "date_modified": "2025-02-11T15:17:28.000",
    "request_status": "Pending",
    "responsible_agency": "Department of Public Works",
    "final_address": "4125 St Charles Ave",
    "address_councildis": "B",
    "status": "Pending",
    "rowid": "1168240",
    "final_x": "3671719.07156",
    "final_y": "521138.351225",
    "longitude": "-90.09930808641639",
    "latitude": "29.927242878540238",
    "geocoded_column": {
      "latitude": "29.927242878540238",
      "longitude": "-90.09930808641639"
    }
  },
  {
    "service_request": "2025-1168239",
    "request_type": "Trash/Recycling",
    "request_reason": "Return Trash Cart",
    "date_created": "2025-02-11T15:17:14.000",
    "date_modified": "2025-02-11T15:17:17.000",
    "request_status": "Pending",
    "responsible_agency": "Department of Sanitation",
    "final_address": "1625 Nashville Ave",
    "address_councildis": "A",
    "status": "Assigned to Contractor",
    "contractor": "IV Waste",
    "rowid": "1168239",
    "final_x": "3666376.67354",
    "final_y": "522384.303866",
    "longitude": "-90.11613096431026",
    "latitude": "29.930825976550093",
    "geocoded_column": {
      "latitude": "29.930825976550093",
      "longitude": "-90.11613096431026"
    }
  },
  {
    "service_request": "2025-1168238",
    "request_type": "Trash/Recycling",
    "request_reason": "Replace Trash Cart",
    "date_created": "2025-02-11T15:16:53.000",
    "date_modified": "2025-02-11T15:16:55.000",
    "request_status": "Pending",
    "responsible_agency": "Department of Sanitation",
    "final_address": "6530 General Diaz St",
    "address_councildis": "A",
    "status": "Assigned to Contractor",
    "contractor": "IV Waste",
    "rowid": "1168238",
    "final_x": "3669747.49089",
    "final_y": "550873.948757",
    "longitude": "-90.10452523755121",
    "latitude": "30.0090640606584",
    "geocoded_column": {
      "latitude": "30.0090640606584",
      "longitude": "-90.10452523755121"
    }
  },
  {
    "service_request": "2025-1168237",
    "request_type": "Trash/Recycling",
    "request_reason": "Request a Large Item Pick Up",
    "date_created": "2025-02-11T15:11:18.000",
    "date_modified": "2025-02-11T15:11:20.000",
    "request_status": "Pending",
    "responsible_agency": "Department of Sanitation",
    "final_address": "2334 Dreux Ave",
    "address_councildis": "D",
    "status": "Assigned to Contractor",
    "contractor": "IV Waste",
    "rowid": "1168237",
    "final_x": "3684906.50703",
    "final_y": "552006.48175",
    "longitude": "-90.0565930294746",
    "latitude": "30.01172240362775",
    "geocoded_column": {
      "latitude": "30.01172240362775",
      "longitude": "-90.0565930294746"
    }
  },
  {
    "service_request": "2025-1168236",
    "request_type": "Parks & Parkways",
    "request_reason": "Request Grass Cutting Service (City Owned Property)",
    "date_created": "2025-02-11T15:06:04.000",
    "date_modified": "2025-02-11T15:06:06.000",
    "request_status": "Pending",
    "responsible_agency": "Department of Parks & Parkway",
    "final_address": "1903 Ursulines Ave",
    "address_councildis": "D",
    "status": "Pending",
    "rowid": "1168236",
    "final_x": "3680096.89051",
    "final_y": "536302.076039",
    "longitude": "-90.07233465832638",
    "latitude": "29.968687290931094",
    "geocoded_column": {
      "latitude": "29.968687290931094",
      "longitude": "-90.07233465832638"
    }
  },
  {
    "service_request": "2025-1168235",
    "request_type": "Property Maintenance",
    "request_reason": "Property Maintenance",
    "date_created": "2025-02-11T15:03:33.000",
    "date_modified": "2025-02-11T15:03:34.000",
    "request_status": "Pending",
    "responsible_agency": "Department of Code Enforcement",
    "final_address": "15550 Dwyer Blvd",
    "address_councildis": "E",
    "status": "Pending",
    "rowid": "1168235",
    "final_x": "3731153.58157",
    "final_y": "563798.126049",
    "longitude": "-89.91001875375883",
    "latitude": "30.042646590695483",
    "geocoded_column": {
      "latitude": "30.042646590695483",
      "longitude": "-89.91001875375883"
    }
  },
  {
    "service_request": "2025-1168234",
    "request_type": "Trash/Recycling",
    "request_reason": "Repair Trash Cart",
    "date_created": "2025-02-11T15:01:10.000",
    "date_modified": "2025-02-11T15:01:12.000",
    "request_status": "Pending",
    "responsible_agency": "Department of Sanitation",
    "final_address": "2018 Dante St",
    "address_councildis": "A",
    "status": "Assigned to Contractor",
    "contractor": "IV Waste",
    "rowid": "1168234",
    "final_x": "3663401.95239",
    "final_y": "531090.150914",
    "longitude": "-90.12523201968577",
    "latitude": "29.95485082824117",
    "geocoded_column": {
      "latitude": "29.95485082824117",
      "longitude": "-90.12523201968577"
    }
  },
  {
    "service_request": "2025-1168233",
    "request_type": "Street and Traffic Signs",
    "request_reason": "One Way Sign Missing or Damaged",
    "date_created": "2025-02-11T15:00:54.000",
    "date_modified": "2025-02-11T15:00:57.000",
    "request_status": "Pending",
    "responsible_agency": "Department of Public Works",
    "final_address": "BARONNE ST & POYDRAS ST",
    "address_councildis": "B",
    "status": "Pending",
    "rowid": "1168233",
    "final_x": "3679940.5",
    "final_y": "529582.38",
    "longitude": "-90.07306195309357",
    "latitude": "29.950215138363777",
    "geocoded_column": {
      "latitude": "29.950215138363777",
      "longitude": "-90.07306195309357"
    }
  },
  {
    "service_request": "2025-1168232",
    "request_type": "Street and Traffic Signs",
    "request_reason": "Stop Sign Missing or Damaged",
    "date_created": "2025-02-11T14:59:10.000",
    "date_modified": "2025-02-11T14:59:13.000",
    "request_status": "Pending",
    "responsible_agency": "Department of Public Works",
    "final_address": "PALM ST & MONROE ST",
    "address_councildis": "A",
    "status": "Pending",
    "rowid": "1168232",
    "final_x": "3666144.6",
    "final_y": "536125.98",
    "longitude": "-90.11640287063364",
    "latitude": "29.968617905693893",
    "geocoded_column": {
      "latitude": "29.968617905693893",
      "longitude": "-90.11640287063364"
    }
  },
  {
    "service_request": "2025-1168231",
    "request_type": "Streetlights",
    "request_reason": "Streetlight Outage/Malfunction",
    "date_created": "2025-02-11T14:57:31.000",
    "date_modified": "2025-02-11T14:57:32.000",
    "request_status": "Pending",
    "responsible_agency": "Department of Public Works",
    "final_address": "14703 Sai Gon Dr",
    "address_councildis": "E",
    "status": "Pending",
    "contractor": "Legacy Professional Services",
    "rowid": "1168231",
    "final_x": "3731355.09088",
    "final_y": "563692.509857",
    "longitude": "-89.90938606249566",
    "latitude": "30.04234930653559",
    "geocoded_column": {
      "latitude": "30.04234930653559",
      "longitude": "-89.90938606249566"
    }
  },
  {
    "service_request": "2025-1168230",
    "request_type": "Trash/Recycling",
    "request_reason": "Request a Large Item Pick Up",
    "date_created": "2025-02-11T14:56:36.000",
    "date_modified": "2025-02-11T14:56:38.000",
    "request_status": "Pending",
    "responsible_agency": "Department of Sanitation",
    "final_address": "617 Gordon St",
    "address_councildis": "E",
    "status": "Assigned to Contractor",
    "contractor": "Waste Pro",
    "rowid": "1168230",
    "final_x": "3698623.27018",
    "final_y": "531789.842115",
    "longitude": "-90.01399171301136",
    "latitude": "29.95570664157537",
    "geocoded_column": {
      "latitude": "29.95570664157537",
      "longitude": "-90.01399171301136"
    }
  },
  {
    "service_request": "2025-1168229",
    "request_type": "Trash/Recycling",
    "request_reason": "Missed Trash Pick-Up",
    "date_created": "2025-02-11T14:55:30.000",
    "date_modified": "2025-02-11T14:55:32.000",
    "request_status": "Pending",
    "responsible_agency": "Department of Sanitation",
    "final_address": "732 Pleasant St",
    "address_councildis": "B",
    "status": "Assigned to Contractor",
    "contractor": "IV Waste",
    "rowid": "1168229",
    "final_x": "3676109.51797",
    "final_y": "518719.079095",
    "longitude": "-90.08553171431812",
    "latitude": "29.92045991727176",
    "geocoded_column": {
      "latitude": "29.92045991727176",
      "longitude": "-90.08553171431812"
    }
  },
  {
    "service_request": "2025-1168228",
    "request_type": "Trash/Recycling",
    "request_reason": "Repair Trash Cart",
    "date_created": "2025-02-11T14:51:46.000",
    "date_modified": "2025-02-11T14:51:48.000",
    "request_status": "Pending",
    "responsible_agency": "Department of Sanitation",
    "final_address": "7928 Berg Rd",
    "address_councildis": "E",
    "status": "Assigned to Contractor",
    "contractor": "Waste Pro",
    "rowid": "1168228",
    "final_x": "3711268.54462",
    "final_y": "567677.127908",
    "longitude": "-89.97271721889696",
    "latitude": "30.053976448144912",
    "geocoded_column": {
      "latitude": "30.053976448144912",
      "longitude": "-89.97271721889696"
    }
  },
  {
    "service_request": "2025-1168227",
    "request_type": "Trash/Recycling",
    "request_reason": "Order Second Trash Cart",
    "date_created": "2025-02-11T14:51:22.000",
    "date_modified": "2025-02-11T14:51:25.000",
    "request_status": "Pending",
    "responsible_agency": "Department of Sanitation",
    "final_address": "2700 Ramsey Dr",
    "address_councildis": "C",
    "status": "Assigned to Contractor",
    "contractor": "Richards Disposal",
    "rowid": "1168227",
    "final_x": "3703166.84292",
    "final_y": "520898.812217",
    "longitude": "-90.00004498046556",
    "latitude": "29.925615512317652",
    "geocoded_column": {
      "latitude": "29.925615512317652",
      "longitude": "-90.00004498046556"
    }
  },
  {
    "service_request": "2025-1168226",
    "request_type": "Trash/Recycling",
    "request_reason": "Repair Trash Cart",
    "date_created": "2025-02-11T14:48:06.000",
    "date_modified": "2025-02-11T14:48:10.000",
    "request_status": "Pending",
    "responsible_agency": "Department of Sanitation",
    "final_address": "911 Delachaise St",
    "address_councildis": "B",
    "status": "Assigned to Contractor",
    "contractor": "IV Waste",
    "rowid": "1168226",
    "final_x": "3674950.97537",
    "final_y": "518922.500151",
    "longitude": "-90.08918172349557",
    "latitude": "29.921053899929753",
    "geocoded_column": {
      "latitude": "29.921053899929753",
      "longitude": "-90.08918172349557"
    }
  },
  {
    "service_request": "2025-1168225",
    "request_type": "Trash/Recycling",
    "request_reason": "Repair Trash Cart",
    "date_created": "2025-02-11T14:47:55.000",
    "date_modified": "2025-02-11T14:47:57.000",
    "request_status": "Pending",
    "responsible_agency": "Department of Sanitation",
    "final_address": "1400 Calhoun St",
    "address_councildis": "A",
    "status": "Assigned to Contractor",
    "contractor": "IV Waste",
    "rowid": "1168225",
    "final_x": "3664223.96167",
    "final_y": "521676.592953",
    "longitude": "-90.1229504034107",
    "latitude": "29.928942698287965",
    "geocoded_column": {
      "latitude": "29.928942698287965",
      "longitude": "-90.1229504034107"
    }
  },
  {
    "service_request": "2025-1168224",
    "request_type": "Utility Poles",
    "request_reason": "Wires Sagging/Hanging Low",
    "date_created": "2025-02-11T14:46:09.000",
    "date_modified": "2025-02-11T14:46:12.000",
    "request_status": "Pending",
    "responsible_agency": "Utility Company Collective",
    "final_address": "911 Delachaise St",
    "address_councildis": "B",
    "status": "Pending",
    "rowid": "1168224",
    "final_x": "3674950.97537",
    "final_y": "518922.500151",
    "longitude": "-90.08918172349557",
    "latitude": "29.921053899929753",
    "geocoded_column": {
      "latitude": "29.921053899929753",
      "longitude": "-90.08918172349557"
    }
  },
  {
    "service_request": "2025-1168223",
    "request_type": "Roads and Streets",
    "request_reason": "Pothole",
    "date_created": "2025-02-11T14:41:09.000",
    "date_modified": "2025-02-11T14:41:11.000",
    "request_status": "Pending",
    "responsible_agency": "Department of Public Works",
    "final_address": "2558 Lavender St",
    "address_councildis": "D",
    "status": "Pending",
    "rowid": "1168223",
    "final_x": "3686829.3135",
    "final_y": "546883.434065",
    "longitude": "-90.0506992719201",
    "latitude": "29.997576834109065",
    "geocoded_column": {
      "latitude": "29.997576834109065",
      "longitude": "-90.0506992719201"
    }
  },
  {
    "service_request": "2025-1168222",
    "request_type": "Trash/Recycling",
    "request_reason": "Request a Large Item Pick Up",
    "date_created": "2025-02-11T14:40:08.000",
    "date_modified": "2025-02-11T14:40:10.000",
    "request_status": "Pending",
    "responsible_agency": "Department of Sanitation",
    "final_address": "5314 Zeno Pl",
    "address_councildis": "E",
    "status": "Assigned to Contractor",
    "contractor": "Waste Pro",
    "rowid": "1168222",
    "final_x": "3718279.78143",
    "final_y": "561525.517023",
    "longitude": "-89.95079126598476",
    "latitude": "30.03683125427726",
    "geocoded_column": {
      "latitude": "30.03683125427726",
      "longitude": "-89.95079126598476"
    }
  },
  {
    "service_request": "2025-1168221",
    "request_type": "Trash/Recycling",
    "request_reason": "Change Size of Trash Cart",
    "date_created": "2025-02-11T14:39:45.000",
    "date_modified": "2025-02-11T14:39:48.000",
    "request_status": "Pending",
    "responsible_agency": "Department of Sanitation",
    "final_address": "9311 Belfast St",
    "address_councildis": "A",
    "status": "Assigned to Contractor",
    "contractor": "IV Waste",
    "rowid": "1168221",
    "final_x": "3662409.17139",
    "final_y": "535304.172294",
    "longitude": "-90.12822691452786",
    "latitude": "29.96646675955142",
    "geocoded_column": {
      "latitude": "29.96646675955142",
      "longitude": "-90.12822691452786"
    }
  },
  {
    "service_request": "2025-1168220",
    "request_type": "Trash/Recycling",
    "request_reason": "Illegal Dumping",
    "date_created": "2025-02-11T14:37:54.000",
    "date_modified": "2025-02-11T14:37:55.000",
    "request_status": "Pending",
    "responsible_agency": "Department of Sanitation",
    "final_address": "5907 Beechcraft St",
    "address_councildis": "D",
    "status": "Pending",
    "rowid": "1168220",
    "final_x": "3696353.26064",
    "final_y": "553186.703639",
    "longitude": "-90.02038539262581",
    "latitude": "30.01461190378941",
    "geocoded_column": {
      "latitude": "30.01461190378941",
      "longitude": "-90.02038539262581"
    }
  },
  {
    "service_request": "2025-1168219",
    "request_type": "Trash/Recycling",
    "request_reason": "Illegal Dumping",
    "date_created": "2025-02-11T14:37:00.000",
    "date_modified": "2025-02-11T14:37:05.000",
    "request_status": "Pending",
    "responsible_agency": "Department of Sanitation",
    "final_address": "9311 Belfast St",
    "address_councildis": "A",
    "status": "Pending",
    "rowid": "1168219",
    "final_x": "3662409.17139",
    "final_y": "535304.172294",
    "longitude": "-90.12822691452786",
    "latitude": "29.96646675955142",
    "geocoded_column": {
      "latitude": "29.96646675955142",
      "longitude": "-90.12822691452786"
    }
  },
  {
    "service_request": "2025-1168218",
    "request_type": "Trash/Recycling",
    "request_reason": "Request a Large Item Pick Up",
    "date_created": "2025-02-11T14:35:07.000",
    "date_modified": "2025-02-11T14:35:09.000",
    "request_status": "Pending",
    "responsible_agency": "Department of Sanitation",
    "final_address": "3121 N Prieur St",
    "address_councildis": "D",
    "status": "Assigned to Contractor",
    "contractor": "IV Waste",
    "rowid": "1168218",
    "final_x": "3689974.10384",
    "final_y": "538984.971466",
    "longitude": "-90.04104639903873",
    "latitude": "29.975761725928567",
    "geocoded_column": {
      "latitude": "29.975761725928567",
      "longitude": "-90.04104639903873"
    }
  },
  {
    "service_request": "2025-1168217",
    "request_type": "Roads and Streets",
    "request_reason": "Debris in Driving Lanes",
    "date_created": "2025-02-11T14:32:18.000",
    "date_modified": "2025-02-11T14:32:21.000",
    "request_status": "Pending",
    "responsible_agency": "Department of Public Works",
    "final_address": "PALMETTO ST & CHERRY ST",
    "address_councildis": "A",
    "status": "Pending",
    "rowid": "1168217",
    "final_x": "3665067.5",
    "final_y": "538064.48",
    "longitude": "-90.1197395872712",
    "latitude": "29.973979547653936",
    "geocoded_column": {
      "latitude": "29.973979547653936",
      "longitude": "-90.1197395872712"
    }
  },
  {
    "service_request": "2025-1168216",
    "request_type": "Roads and Streets",
    "request_reason": "Push-up/Pavement Expansion",
    "date_created": "2025-02-11T14:31:00.000",
    "date_modified": "2025-02-11T14:31:02.000",
    "request_status": "Pending",
    "responsible_agency": "Department of Public Works",
    "final_address": "6201 Tchoupitoulas St",
    "address_councildis": "A",
    "status": "Pending",
    "rowid": "1168216",
    "final_x": "3663028.05031",
    "final_y": "518013.844982",
    "longitude": "-90.12684741997188",
    "latitude": "29.91890596710324",
    "geocoded_column": {
      "latitude": "29.91890596710324",
      "longitude": "-90.12684741997188"
    }
  },
  {
    "service_request": "2025-1168215",
    "request_type": "Parks & Parkways",
    "request_reason": "Request Tree Service (Right of Way/Public Property)",
    "date_created": "2025-02-11T14:27:31.000",
    "date_modified": "2025-02-11T14:27:33.000",
    "request_status": "Pending",
    "responsible_agency": "Department of Parks & Parkway",
    "final_address": "534 Marigny St",
    "address_councildis": "C",
    "status": "Pending",
    "rowid": "1168215",
    "final_x": "3685541.69014",
    "final_y": "534470.687173",
    "longitude": "-90.05520421541748",
    "latitude": "29.963485723247633",
    "geocoded_column": {
      "latitude": "29.963485723247633",
      "longitude": "-90.05520421541748"
    }
  },
  {
    "service_request": "2025-1168214",
    "request_type": "Trash/Recycling",
    "request_reason": "Request a Large Item Pick Up",
    "date_created": "2025-02-11T14:26:14.000",
    "date_modified": "2025-02-11T14:26:17.000",
    "request_status": "Pending",
    "responsible_agency": "Department of Sanitation",
    "final_address": "5111 Baccich St",
    "address_councildis": "D",
    "status": "Assigned to Contractor",
    "contractor": "IV Waste",
    "rowid": "1168214",
    "final_x": "3687669.31503",
    "final_y": "551817.053654",
    "longitude": "-90.04787089534223",
    "latitude": "30.011116610881647",
    "geocoded_column": {
      "latitude": "30.011116610881647",
      "longitude": "-90.04787089534223"
    }
  },
  {
    "service_request": "2025-1168213",
    "request_type": "Property Maintenance",
    "request_reason": "Property Maintenance",
    "date_created": "2025-02-11T14:25:36.000",
    "date_modified": "2025-02-11T14:25:38.000",
    "request_status": "Pending",
    "responsible_agency": "Department of Code Enforcement",
    "final_address": "1325 Coliseum St",
    "address_councildis": "B",
    "status": "Pending",
    "rowid": "1168213",
    "final_x": "3679944.05941",
    "final_y": "525169.369661",
    "longitude": "-90.07320395201681",
    "latitude": "29.938080723991213",
    "geocoded_column": {
      "latitude": "29.938080723991213",
      "longitude": "-90.07320395201681"
    }
  },
  {
    "service_request": "2025-1168212",
    "request_type": "Trash/Recycling",
    "request_reason": "Dead Animal Pick Up",
    "date_created": "2025-02-11T14:24:24.000",
    "date_modified": "2025-02-11T14:24:26.000",
    "request_status": "Pending",
    "responsible_agency": "Department of Sanitation",
    "final_address": "7500 Vanderkloot Ave",
    "address_councildis": "E",
    "status": "Assigned to Contractor",
    "contractor": "Waste Pro",
    "rowid": "1168212",
    "final_x": "3706032.03934",
    "final_y": "562747.179552",
    "longitude": "-89.98945116667767",
    "latitude": "30.040590989361235",
    "geocoded_column": {
      "latitude": "30.040590989361235",
      "longitude": "-89.98945116667767"
    }
  },
  {
    "service_request": "2025-1168211",
    "request_type": "Trash/Recycling",
    "request_reason": "Repair Trash Cart",
    "date_created": "2025-02-11T14:22:58.000",
    "date_modified": "2025-02-11T14:23:00.000",
    "request_status": "Pending",
    "responsible_agency": "Department of Sanitation",
    "final_address": "2332 Jefferson Ave",
    "address_councildis": "A",
    "status": "Assigned to Contractor",
    "contractor": "IV Waste",
    "rowid": "1168211",
    "final_x": "3667911.02119",
    "final_y": "524261.608956",
    "longitude": "-90.11122401939735",
    "latitude": "29.9359430592205",
    "geocoded_column": {
      "latitude": "29.9359430592205",
      "longitude": "-90.11122401939735"
    }
  },
  {
    "service_request": "2025-1168210",
    "request_type": "Trash/Recycling",
    "request_reason": "Request a Large Item Pick Up",
    "date_created": "2025-02-11T14:22:13.000",
    "date_modified": "2025-02-11T14:22:15.000",
    "request_status": "Pending",
    "responsible_agency": "Department of Sanitation",
    "final_address": "6000 Eastover Dr",
    "address_councildis": "E",
    "status": "Assigned to Contractor",
    "contractor": "Waste Pro",
    "rowid": "1168210",
    "final_x": "3719006.6974",
    "final_y": "565431.132386",
    "longitude": "-89.94834489854064",
    "latitude": "30.04754596522158",
    "geocoded_column": {
      "latitude": "30.04754596522158",
      "longitude": "-89.94834489854064"
    }
  },
  {
    "service_request": "2025-1168209",
    "request_type": "Trash/Recycling",
    "request_reason": "Missed Trash Pick-Up",
    "date_created": "2025-02-11T14:17:50.000",
    "date_modified": "2025-02-11T14:17:52.000",
    "request_status": "Pending",
    "responsible_agency": "Department of Sanitation",
    "final_address": "10800 Roger Dr Apt B",
    "address_councildis": "E",
    "status": "Assigned to Contractor",
    "contractor": "Waste Pro",
    "rowid": "1168209",
    "final_x": "3711676.19576",
    "final_y": "562990.839008",
    "longitude": "-89.97160477452098",
    "latitude": "30.041077731620398",
    "geocoded_column": {
      "latitude": "30.041077731620398",
      "longitude": "-89.97160477452098"
    }
  },
  {
    "service_request": "2025-1168208",
    "request_type": "Trash/Recycling",
    "request_reason": "Order Trash Cart",
    "date_created": "2025-02-11T14:17:39.000",
    "date_modified": "2025-02-11T14:17:42.000",
    "request_status": "Pending",
    "responsible_agency": "Department of Sanitation",
    "final_address": "3038 Allen St",
    "address_councildis": "D",
    "status": "Assigned to Contractor",
    "contractor": "IV Waste",
    "rowid": "1168208",
    "final_x": "3682124.36757",
    "final_y": "543828.250894",
    "longitude": "-90.06566882460321",
    "latitude": "29.989320139054257",
    "geocoded_column": {
      "latitude": "29.989320139054257",
      "longitude": "-90.06566882460321"
    }
  },
  {
    "service_request": "2025-1168207",
    "request_type": "Trash/Recycling",
    "request_reason": "Order Recycling Cart",
    "date_created": "2025-02-11T14:17:25.000",
    "date_modified": "2025-02-11T14:17:25.000",
    "request_status": "Pending",
    "responsible_agency": "Department of Sanitation",
    "final_address": "3038 Allen St",
    "address_councildis": "D",
    "status": "Pending",
    "rowid": "1168207",
    "final_x": "3682124.36757",
    "final_y": "543828.250894",
    "longitude": "-90.06566882460321",
    "latitude": "29.989320139054257",
    "geocoded_column": {
      "latitude": "29.989320139054257",
      "longitude": "-90.06566882460321"
    }
  },
  {
    "service_request": "2025-1168206",
    "request_type": "Trash/Recycling",
    "request_reason": "Missed Trash Pick-Up",
    "date_created": "2025-02-11T14:17:25.000",
    "date_modified": "2025-02-11T14:17:27.000",
    "request_status": "Pending",
    "responsible_agency": "Department of Sanitation",
    "final_address": "10810 Roger Dr Apt D",
    "address_councildis": "E",
    "status": "Assigned to Contractor",
    "contractor": "Waste Pro",
    "rowid": "1168206",
    "final_x": "3711751.19576",
    "final_y": "563017.783456",
    "longitude": "-89.97136673854209",
    "latitude": "30.04114936707109",
    "geocoded_column": {
      "latitude": "30.04114936707109",
      "longitude": "-89.97136673854209"
    }
  },
  {
    "service_request": "2025-1168205",
    "request_type": "Trash/Recycling",
    "request_reason": "Missed Trash Pick-Up",
    "date_created": "2025-02-11T14:17:03.000",
    "date_modified": "2025-02-11T14:17:06.000",
    "request_status": "Pending",
    "responsible_agency": "Department of Sanitation",
    "final_address": "10810 Roger Dr Apt B",
    "address_councildis": "E",
    "status": "Assigned to Contractor",
    "contractor": "Waste Pro",
    "rowid": "1168205",
    "final_x": "3711738.41797",
    "final_y": "563035.561248",
    "longitude": "-89.97140645265476",
    "latitude": "30.041198666467974",
    "geocoded_column": {
      "latitude": "30.041198666467974",
      "longitude": "-89.97140645265476"
    }
  },
  {
    "service_request": "2025-1168204",
    "request_type": "Trash/Recycling",
    "request_reason": "Order Recycling Cart",
    "date_created": "2025-02-11T14:17:03.000",
    "date_modified": "2025-02-11T14:17:06.000",
    "request_status": "Pending",
    "responsible_agency": "Department of Sanitation",
    "final_address": "3036 Allen St",
    "address_councildis": "D",
    "status": "Pending",
    "rowid": "1168204",
    "final_x": "3682127.42901",
    "final_y": "543814.730254",
    "longitude": "-90.06565962689655",
    "latitude": "29.989282868938673",
    "geocoded_column": {
      "latitude": "29.989282868938673",
      "longitude": "-90.06565962689655"
    }
  },
  {
    "service_request": "2025-1168203",
    "request_type": "Trash/Recycling",
    "request_reason": "Request a Large Item Pick Up",
    "date_created": "2025-02-11T14:16:55.000",
    "date_modified": "2025-02-11T14:16:57.000",
    "request_status": "Pending",
    "responsible_agency": "Department of Sanitation",
    "final_address": "1422 Andry St",
    "address_councildis": "E",
    "status": "Assigned to Contractor",
    "contractor": "Waste Pro",
    "rowid": "1168203",
    "final_x": "3697479.83459",
    "final_y": "535268.111174",
    "longitude": "-90.01747613031921",
    "latitude": "29.965306799578453",
    "geocoded_column": {
      "latitude": "29.965306799578453",
      "longitude": "-90.01747613031921"
    }
  },
  {
    "service_request": "2025-1168202",
    "request_type": "Trash/Recycling",
    "request_reason": "Order Trash Cart",
    "date_created": "2025-02-11T14:16:48.000",
    "date_modified": "2025-02-11T14:16:51.000",
    "request_status": "Pending",
    "responsible_agency": "Department of Sanitation",
    "final_address": "3036 Allen St",
    "address_councildis": "D",
    "status": "Assigned to Contractor",
    "contractor": "IV Waste",
    "rowid": "1168202",
    "final_x": "3682127.42901",
    "final_y": "543814.730254",
    "longitude": "-90.06565962689655",
    "latitude": "29.989282868938673",
    "geocoded_column": {
      "latitude": "29.989282868938673",
      "longitude": "-90.06565962689655"
    }
  },
  {
    "service_request": "2025-1168201",
    "request_type": "Trash/Recycling",
    "request_reason": "Request a Large Item Pick Up",
    "date_created": "2025-02-11T14:16:28.000",
    "date_modified": "2025-02-11T14:16:30.000",
    "request_status": "Pending",
    "responsible_agency": "Department of Sanitation",
    "final_address": "7910 Windward Ct",
    "address_councildis": "E",
    "status": "Assigned to Contractor",
    "contractor": "Waste Pro",
    "rowid": "1168201",
    "final_x": "3715136.59109",
    "final_y": "570295.241895",
    "longitude": "-89.96039224227978",
    "latitude": "30.061048324165284",
    "geocoded_column": {
      "latitude": "30.061048324165284",
      "longitude": "-89.96039224227978"
    }
  },
  {
    "service_request": "2025-1168200",
    "request_type": "Abandoned Vehicles",
    "request_reason": "Abandoned/Junk Vehicles",
    "date_created": "2025-02-11T14:15:24.000",
    "date_modified": "2025-02-11T14:15:26.000",
    "request_status": "Pending",
    "responsible_agency": "Department of Public Works",
    "final_address": "2917 General Ogden St",
    "address_councildis": "A",
    "status": "Pending",
    "rowid": "1168200",
    "final_x": "3664121.3936",
    "final_y": "534898.477894",
    "longitude": "-90.12283324945423",
    "latitude": "29.965301606824696",
    "geocoded_column": {
      "latitude": "29.965301606824696",
      "longitude": "-90.12283324945423"
    }
  },
  {
    "service_request": "2025-1168199",
    "request_type": "Streetlights",
    "request_reason": "Streetlight Outage/Malfunction",
    "date_created": "2025-02-11T14:14:59.000",
    "date_modified": "2025-02-11T14:15:00.000",
    "request_status": "Pending",
    "responsible_agency": "Department of Public Works",
    "final_address": "6950 Louis Xiv St",
    "address_councildis": "A",
    "status": "Pending",
    "contractor": "Legacy Professional Services",
    "rowid": "1168199",
    "final_x": "3668571.5947",
    "final_y": "553781.152983",
    "longitude": "-90.10814209117733",
    "latitude": "30.017092470935996",
    "geocoded_column": {
      "latitude": "30.017092470935996",
      "longitude": "-90.10814209117733"
    }
  },
  {
    "service_request": "2025-1168198",
    "request_type": "Trash/Recycling",
    "request_reason": "Request a Large Item Pick Up",
    "date_created": "2025-02-11T14:14:58.000",
    "date_modified": "2025-02-11T14:15:01.000",
    "request_status": "Pending",
    "responsible_agency": "Department of Sanitation",
    "final_address": "4810 Strasbourg Pl",
    "address_councildis": "E",
    "status": "Assigned to Contractor",
    "contractor": "Waste Pro",
    "rowid": "1168198",
    "final_x": "3725814.75078",
    "final_y": "561017.83715",
    "longitude": "-89.92699918544032",
    "latitude": "30.035183209477044",
    "geocoded_column": {
      "latitude": "30.035183209477044",
      "longitude": "-89.92699918544032"
    }
  },
  {
    "service_request": "2025-1168197",
    "request_type": "Abandoned Vehicles",
    "request_reason": "Abandoned/Junk Vehicles",
    "date_created": "2025-02-11T14:09:46.000",
    "date_modified": "2025-02-11T14:09:48.000",
    "request_status": "Pending",
    "responsible_agency": "Department of Public Works",
    "final_address": "2140 Treasure St",
    "address_councildis": "D",
    "status": "Pending",
    "rowid": "1168197",
    "final_x": "3684026.83234",
    "final_y": "543969.60027",
    "longitude": "-90.05965453502165",
    "latitude": "29.98965078980018",
    "geocoded_column": {
      "latitude": "29.98965078980018",
      "longitude": "-90.05965453502165"
    }
  },
  {
    "service_request": "2025-1168196",
    "request_type": "Abandoned Vehicles",
    "request_reason": "Abandoned/Junk Vehicles",
    "date_created": "2025-02-11T14:09:40.000",
    "date_modified": "2025-02-11T14:09:42.000",
    "request_status": "Pending",
    "responsible_agency": "Department of Public Works",
    "final_address": "4200 BLK Perrier St",
    "address_councildis": "B",
    "status": "Pending",
    "rowid": "1168196",
    "final_x": "3671500.64253",
    "final_y": "520125.882108",
    "longitude": "-90.1000320136845",
    "latitude": "29.924465378806524",
    "geocoded_column": {
      "latitude": "29.924465378806524",
      "longitude": "-90.1000320136845"
    }
  },
  {
    "service_request": "2025-1168195",
    "request_type": "Property Maintenance",
    "request_reason": "Property Maintenance",
    "date_created": "2025-02-11T14:03:24.000",
    "date_modified": "2025-02-11T14:03:26.000",
    "request_status": "Pending",
    "responsible_agency": "Department of Code Enforcement",
    "final_address": "623 S Dupre St",
    "address_councildis": "B",
    "status": "Pending",
    "rowid": "1168195",
    "final_x": "3673280.93153",
    "final_y": "534060.090053",
    "longitude": "-90.09393647053447",
    "latitude": "29.962727074092562",
    "geocoded_column": {
      "latitude": "29.962727074092562",
      "longitude": "-90.09393647053447"
    }
  },
  {
    "service_request": "2025-1168194",
    "request_type": "Trash/Recycling",
    "request_reason": "Replace Trash Cart",
    "date_created": "2025-02-11T14:02:34.000",
    "date_modified": "2025-02-11T14:02:36.000",
    "request_status": "Pending",
    "responsible_agency": "Department of Sanitation",
    "final_address": "4530 S Robertson St",
    "address_councildis": "B",
    "status": "Assigned to Contractor",
    "contractor": "IV Waste",
    "rowid": "1168194",
    "final_x": "3669843.53236",
    "final_y": "524293.292796",
    "longitude": "-90.10512195111481",
    "latitude": "29.935973363445036",
    "geocoded_column": {
      "latitude": "29.935973363445036",
      "longitude": "-90.10512195111481"
    }
  },
  {
    "service_request": "2025-1168193",
    "request_type": "Trash/Recycling",
    "request_reason": "Request a Large Item Pick Up",
    "date_created": "2025-02-11T14:02:21.000",
    "date_modified": "2025-02-11T14:02:56.000",
    "request_status": "Pending",
    "responsible_agency": "Department of Sanitation",
    "final_address": "1418 Egania St",
    "address_councildis": "E",
    "status": "Assigned to Contractor",
    "contractor": "Waste Pro",
    "rowid": "1168193",
    "final_x": "3697115.90935",
    "final_y": "535333.602502",
    "longitude": "-90.0186230088138",
    "latitude": "29.965498363830843",
    "geocoded_column": {
      "latitude": "29.965498363830843",
      "longitude": "-90.0186230088138"
    }
  },
  {
    "service_request": "2025-1168192",
    "request_type": "Trash/Recycling",
    "request_reason": "Request a Large Item Pick Up",
    "date_created": "2025-02-11T14:01:08.000",
    "date_modified": "2025-02-11T14:01:12.000",
    "request_status": "Pending",
    "responsible_agency": "Department of Sanitation",
    "final_address": "4530 S Robertson St",
    "address_councildis": "B",
    "status": "Assigned to Contractor",
    "contractor": "IV Waste",
    "rowid": "1168192",
    "final_x": "3669843.53236",
    "final_y": "524293.292796",
    "longitude": "-90.10512195111481",
    "latitude": "29.935973363445036",
    "geocoded_column": {
      "latitude": "29.935973363445036",
      "longitude": "-90.10512195111481"
    }
  },
  {
    "service_request": "2025-1168191",
    "request_type": "Trash/Recycling",
    "request_reason": "Replace Trash Cart",
    "date_created": "2025-02-11T14:00:49.000",
    "date_modified": "2025-02-11T14:00:51.000",
    "request_status": "Pending",
    "responsible_agency": "Department of Sanitation",
    "final_address": "2617 S Miro St B",
    "address_councildis": "B",
    "status": "Assigned to Contractor",
    "contractor": "IV Waste",
    "rowid": "1168191",
    "final_x": "3672383.43956",
    "final_y": "528683.175744",
    "longitude": "-90.09695385071798",
    "latitude": "29.94796900456774",
    "geocoded_column": {
      "latitude": "29.94796900456774",
      "longitude": "-90.09695385071798"
    }
  },
  {
    "service_request": "2025-1168190",
    "request_type": "Trash/Recycling",
    "request_reason": "Return Trash Cart",
    "date_created": "2025-02-11T13:58:15.000",
    "date_modified": "2025-02-11T13:58:18.000",
    "request_status": "Pending",
    "responsible_agency": "Department of Sanitation",
    "final_address": "724 Evelina St",
    "address_councildis": "C",
    "status": "Assigned to Contractor",
    "contractor": "Richards Disposal",
    "rowid": "1168190",
    "final_x": "3687712.863",
    "final_y": "529546.164929",
    "longitude": "-90.04852227392078",
    "latitude": "29.94987821405223",
    "geocoded_column": {
      "latitude": "29.94987821405223",
      "longitude": "-90.04852227392078"
    }
  },
  {
    "service_request": "2025-1168189",
    "request_type": "Abandoned Vehicles",
    "request_reason": "Abandoned/Junk Vehicles",
    "date_created": "2025-02-11T13:57:41.000",
    "date_modified": "2025-02-11T13:57:43.000",
    "request_status": "Pending",
    "responsible_agency": "Department of Public Works",
    "final_address": "2616 Comet St",
    "address_councildis": "C",
    "status": "Pending",
    "rowid": "1168189",
    "final_x": "3699881.94871",
    "final_y": "521324.244025",
    "longitude": "-90.01039881708832",
    "latitude": "29.926889994459575",
    "geocoded_column": {
      "latitude": "29.926889994459575",
      "longitude": "-90.01039881708832"
    }
  },
  {
    "service_request": "2025-1168188",
    "request_type": "Property Maintenance",
    "request_reason": "Property Maintenance",
    "date_created": "2025-02-11T13:53:14.000",
    "date_modified": "2025-02-11T13:53:15.000",
    "request_status": "Pending",
    "responsible_agency": "Department of Code Enforcement",
    "final_address": "4774 Galahad Dr",
    "address_councildis": "E",
    "status": "Pending",
    "rowid": "1168188",
    "final_x": "3707114.60894",
    "final_y": "555700.369113",
    "longitude": "-89.9862917212631",
    "latitude": "30.021180070997943",
    "geocoded_column": {
      "latitude": "30.021180070997943",
      "longitude": "-89.9862917212631"
    }
  },
  {
    "service_request": "2025-1168187",
    "request_type": "Trash/Recycling",
    "request_reason": "Request a Large Item Pick Up",
    "date_created": "2025-02-11T13:52:28.000",
    "date_modified": "2025-02-11T13:52:30.000",
    "request_status": "Pending",
    "responsible_agency": "Department of Sanitation",
    "final_address": "6007 Beechcraft St",
    "address_councildis": "D",
    "status": "Assigned to Contractor",
    "contractor": "Waste Pro",
    "rowid": "1168187",
    "final_x": "3696504.12567",
    "final_y": "553200.983511",
    "longitude": "-90.01990821821788",
    "latitude": "30.014646413997145",
    "geocoded_column": {
      "latitude": "30.014646413997145",
      "longitude": "-90.01990821821788"
    }
  },
  {
    "service_request": "2025-1168186",
    "request_type": "Trash/Recycling",
    "request_reason": "Repair Trash Cart",
    "date_created": "2025-02-11T13:50:38.000",
    "date_modified": "2025-02-11T13:50:40.000",
    "request_status": "Pending",
    "responsible_agency": "Department of Sanitation",
    "final_address": "7364 Beryl St",
    "address_councildis": "D",
    "status": "Assigned to Contractor",
    "contractor": "IV Waste",
    "rowid": "1168186",
    "final_x": "3668604.59239",
    "final_y": "555926.342233",
    "longitude": "-90.1079653481641",
    "latitude": "30.022990009764627",
    "geocoded_column": {
      "latitude": "30.022990009764627",
      "longitude": "-90.1079653481641"
    }
  },
  {
    "service_request": "2025-1168185",
    "request_type": "Trash/Recycling",
    "request_reason": "Request a Large Item Pick Up",
    "date_created": "2025-02-11T13:47:12.000",
    "date_modified": "2025-02-11T13:47:16.000",
    "request_status": "Pending",
    "responsible_agency": "Department of Sanitation",
    "final_address": "5423 N Claiborne Ave",
    "address_councildis": "E",
    "status": "Assigned to Contractor",
    "contractor": "Waste Pro",
    "rowid": "1168185",
    "final_x": "3697889.62455",
    "final_y": "535862.912455",
    "longitude": "-90.01616044935164",
    "latitude": "29.966929344586255",
    "geocoded_column": {
      "latitude": "29.966929344586255",
      "longitude": "-90.01616044935164"
    }
  },
  {
    "service_request": "2025-1168184",
    "request_type": "Traffic Signals",
    "request_reason": "Traffic Signal Malfunctioning or Damaged",
    "date_created": "2025-02-11T13:45:32.000",
    "date_modified": "2025-02-11T13:45:36.000",
    "request_status": "Pending",
    "responsible_agency": "Department of Public Works",
    "final_address": "LOYOLA AVE & CALLIOPE ST",
    "address_councildis": "B",
    "status": "Pending",
    "rowid": "1168184",
    "final_x": "3678483.23",
    "final_y": "527674.85",
    "longitude": "-90.07772924389585",
    "latitude": "29.94501405841703",
    "geocoded_column": {
      "latitude": "29.94501405841703",
      "longitude": "-90.07772924389585"
    }
  },
  {
    "service_request": "2025-1168183",
    "request_type": "Trash/Recycling",
    "request_reason": "Repair Recycling Cart",
    "date_created": "2025-02-11T13:44:34.000",
    "date_modified": "2025-02-11T13:44:37.000",
    "request_status": "Pending",
    "responsible_agency": "Department of Sanitation",
    "final_address": "1014 N Carrollton Ave",
    "address_councildis": "A",
    "status": "Pending",
    "rowid": "1168183",
    "final_x": "3673787.24987",
    "final_y": "541106.512972",
    "longitude": "-90.09209653868531",
    "latitude": "29.982087277803604",
    "geocoded_column": {
      "latitude": "29.982087277803604",
      "longitude": "-90.09209653868531"
    }
  },
  {
    "service_request": "2025-1168182",
    "request_type": "Trash/Recycling",
    "request_reason": "Request a Large Item Pick Up",
    "date_created": "2025-02-11T13:37:50.000",
    "date_modified": "2025-02-11T13:37:52.000",
    "request_status": "Pending",
    "responsible_agency": "Department of Sanitation",
    "final_address": "1631 Constantinople St",
    "address_councildis": "B",
    "status": "Assigned to Contractor",
    "contractor": "IV Waste",
    "rowid": "1168182",
    "final_x": "3672332.53326",
    "final_y": "521270.297401",
    "longitude": "-90.09736704671099",
    "latitude": "29.92758750751159",
    "geocoded_column": {
      "latitude": "29.92758750751159",
      "longitude": "-90.09736704671099"
    }
  },