[
  {
    "service_request": "2022-953342",
    "request_type": "Health Related Request",
    "request_reason": "Noise Ordinance Complaint",
    "date_created": "2022-12-15T01:59:48.000",
    "date_modified": "2022-12-15T01:59:48.000",
    "request_status": "Pending",
    "responsible_agency": "Health Department",
    "final_address": "The neutral ground at Marigny & St.Claude",
    "status": "Pending",
    "rowid": "953342",
    "longitude": "0.0",
    "latitude": "0.0",
    "geocoded_column": {
      "latitude": "0.0",
      "longitude": "0.0"
    }
  },
  {
    "service_request": "2022-953341",
    "request_type": "Roads/Drainage",
    "request_reason": "Ditch Issue",
    "date_created": "2022-12-15T01:50:51.000",
    "date_modified": "2022-12-15T01:50:51.000",
    "request_status": "Pending",
    "responsible_agency": "Department of Public Works",
    "final_address": "1034 Tricou St",
    "address_councildis": "E",
    "status": "Pending",
    "rowid": "953341",
    "final_x": "3700036.54199",
    "final_y": "532901.775428",
    "longitude": "-90.00948856374288",
    "latitude": "29.958719242847327",
    "geocoded_column": {
      "latitude": "29.958719242847327",
      "longitude": "-90.00948856374288"
    }
  },
  {
    "service_request": "2022-953340",
    "request_type": "Abandoned Vehicles",
    "request_reason": "Abandoned/Junk Vehicles",
    "date_created": "2022-12-15T01:46:58.000",
    "date_modified": "2022-12-15T01:46:58.000",
    "request_status": "Pending",
    "responsible_agency": "Department of Public Works",
    "final_address": "2003 Painters St",
    "address_councildis": "D",
    "status": "Pending",
    "rowid": "953340",
    "final_x": "3687325.68828",
    "final_y": "539869.268298",
    "longitude": "-90.04937952460102",
    "latitude": "29.978275094158608",
    "geocoded_column": {
      "latitude": "29.978275094158608",
      "longitude": "-90.04937952460102"
    }
  },
  {
    "service_request": "2022-953339",
    "request_type": "Trash/Recycling",
    "request_reason": "Missed Trash Pick-Up",
    "date_created": "2022-12-14T23:22:00.000",
    "date_modified": "2022-12-14T23:22:01.000",
    "request_status": "Pending",
    "responsible_agency": "Department of Sanitation",
    "final_address": "2329 General Meyer Ave",
    "address_councildis": "C",
    "status": "Assigned to Contractor",
    "contractor": "Richards Disposal",
    "rowid": "953339",
    "final_x": "3692652.05296",
    "final_y": "527621.965631",
    "longitude": "-90.03299598049206",
    "latitude": "29.944434123735533",
    "geocoded_column": {
      "latitude": "29.944434123735533",
      "longitude": "-90.03299598049206"
    }
  },
  {
    "service_request": "2022-953338",
    "request_type": "Trash/Recycling",
    "request_reason": "MIssed Recycling Pick-Up",
    "date_created": "2022-12-14T23:14:32.000",
    "date_modified": "2022-12-14T23:14:33.000",
    "request_status": "Pending",
    "responsible_agency": "Department of Sanitation",
    "final_address": "2420 Pine St",
    "address_councildis": "A",
    "status": "Assigned to Contractor",
    "contractor": "Richards Disposal",
    "rowid": "953338",
    "final_x": "3666432.46957",
    "final_y": "530549.881794",
    "longitude": "-90.11568089195933",
    "latitude": "29.953277059479298",
    "geocoded_column": {
      "latitude": "29.953277059479298",
      "longitude": "-90.11568089195933"
    }
  },
  {
    "service_request": "2022-953337",
    "request_type": "Trash/Recycling",
    "request_reason": "Missed Trash Pick-Up",
    "date_created": "2022-12-14T23:13:47.000",
    "date_modified": "2022-12-14T23:13:47.000",
    "request_status": "Pending",
    "responsible_agency": "Department of Sanitation",
    "final_address": "2420 Pine St",
    "address_councildis": "A",
    "status": "Assigned to Contractor",
    "contractor": "Richards Disposal",
    "rowid": "953337",
    "final_x": "3666432.46957",
    "final_y": "530549.881794",
    "longitude": "-90.11568089195933",
    "latitude": "29.953277059479298",
    "geocoded_column": {
      "latitude": "29.953277059479298",
      "longitude": "-90.11568089195933"
    }
  },
  {
    "service_request": "2022-953336",
    "request_type": "Traffic Signals/Signs/Striping/Streetlights",
    "request_reason": "Street Light Outage/Malfunction",
    "date_created": "2022-12-14T23:00:07.000",
    "date_modified": "2022-12-14T23:00:08.000",
    "request_status": "Pending",
    "responsible_agency": "Department of Public Works",
    "final_address": "2630 North Rocheblave St",
    "status": "Pending",
    "contractor": "Legacy Professional Services",
    "rowid": "953336",
    "longitude": "0.0",
    "latitude": "0.0",
    "geocoded_column": {
      "latitude": "0.0",
      "longitude": "0.0"
    }
  },
  {
    "service_request": "2022-953335",
    "request_type": "Traffic Signals/Signs/Striping/Streetlights",
    "request_reason": "Request for Stop Sign",
    "date_created": "2022-12-14T22:45:16.000",
    "date_modified": "2022-12-14T22:45:16.000",
    "request_status": "Pending",
    "responsible_agency": "Department of Public Works",
    "final_address": "700 Toulouse St",
    "address_councildis": "C",
    "status": "Pending",
    "rowid": "953335",
    "final_x": "3682263.99016",
    "final_y": "532166.702659",
    "longitude": "-90.06563532576467",
    "latitude": "29.957250676515084",
    "geocoded_column": {
      "latitude": "29.957250676515084",
      "longitude": "-90.06563532576467"
    }
  },
  {
    "service_request": "2022-953334",
    "request_type": "Roads/Drainage",
    "request_reason": "Pothole",
    "date_created": "2022-12-14T22:38:32.000",
    "date_modified": "2022-12-14T22:39:36.000",
    "request_status": "Pending",
    "responsible_agency": "Department of Public Works",
    "final_address": "JULIA ST & LOYOLA AVE",
    "address_councildis": "B",
    "status": "Pending",
    "rowid": "953334",
    "final_x": "3678731.4",
    "final_y": "528435.68",
    "longitude": "-90.07691935474188",
    "latitude": "29.947098607555517",
    "geocoded_column": {
      "latitude": "29.947098607555517",
      "longitude": "-90.07691935474188"
    }
  },
  {
    "service_request": "2022-953333",
    "request_type": "Roads/Drainage",
    "request_reason": "Pothole",
    "date_created": "2022-12-14T22:36:48.000",
    "date_modified": "2022-12-14T22:36:48.000",
    "request_status": "Pending",
    "responsible_agency": "Department of Public Works",
    "final_address": "1009 St Ann St",
    "address_councildis": "C",
    "status": "Pending",
    "rowid": "953333",
    "final_x": "3681872.57116",
    "final_y": "533492.763012",
    "longitude": "-90.06682502419459",
    "latitude": "29.960908792078413",
    "geocoded_column": {
      "latitude": "29.960908792078413",
      "longitude": "-90.06682502419459"
    }
  },
  {
    "service_request": "2022-953332",
    "request_type": "Traffic Signals/Signs/Striping/Streetlights",
    "request_reason": "Street Light Outage/Malfunction",
    "date_created": "2022-12-14T22:30:16.000",
    "date_modified": "2022-12-14T22:30:16.000",
    "request_status": "Pending",
    "responsible_agency": "Department of Public Works",
    "final_address": "624 Spain St",
    "address_councildis": "C",
    "status": "Pending",
    "contractor": "Legacy Professional Services",
    "rowid": "953332",
    "final_x": "3686228.7286",
    "final_y": "534837.076166",
    "longitude": "-90.05302169831994",
    "latitude": "29.964472075978964",
    "geocoded_column": {
      "latitude": "29.964472075978964",
      "longitude": "-90.05302169831994"
    }
  },
  {
    "service_request": "2022-953331",
    "request_type": "Trash/Recycling",
    "request_reason": "MIssed Recycling Pick-Up",
    "date_created": "2022-12-14T22:26:52.000",
    "date_modified": "2022-12-14T22:26:53.000",
    "request_status": "Pending",
    "responsible_agency": "Department of Sanitation",
    "final_address": "2226 Constance St",
    "address_councildis": "B",
    "status": "Assigned to Contractor",
    "contractor": "Richards Disposal",
    "rowid": "953331",
    "final_x": "3678908.8964",
    "final_y": "521617.609593",
    "longitude": "-90.07659503878438",
    "latitude": "29.92834581290346",
    "geocoded_column": {
      "latitude": "29.92834581290346",
      "longitude": "-90.07659503878438"
    }
  },
  {
    "service_request": "2022-953330",
    "request_type": "Trash/Recycling",
    "request_reason": "Order Recycling Cart",
    "date_created": "2022-12-14T22:00:28.000",
    "date_modified": "2022-12-14T22:00:28.000",
    "request_status": "Pending",
    "responsible_agency": "Department of Sanitation",
    "final_address": "7141 Beauvoir Ct",
    "address_councildis": "E",
    "status": "Pending",
    "rowid": "953330",
    "final_x": "3716448.68568",
    "final_y": "567630.547556",
    "longitude": "-89.9563460039373",
    "latitude": "30.053678222282418",
    "geocoded_column": {
      "latitude": "30.053678222282418",
      "longitude": "-89.9563460039373"
    }
  },
  {
    "service_request": "2022-953329",
    "request_type": "Trash/Recycling",
    "request_reason": "Order Recycling Cart",
    "date_created": "2022-12-14T21:13:04.000",
    "date_modified": "2022-12-14T21:13:04.000",
    "request_status": "Pending",
    "responsible_agency": "Department of Sanitation",
    "final_address": "3126 Rabbits Street. New Orleans. LA 70122",
    "address_councildis": "D",
    "status": "Pending",
    "rowid": "953329",
    "final_x": "3688319.34441",
    "final_y": "544593.954319",
    "longitude": "-90.04607356931486",
    "latitude": "29.991235644026155",
    "geocoded_column": {
      "latitude": "29.991235644026155",
      "longitude": "-90.04607356931486"
    }
  },
  {
    "service_request": "2022-953328",
    "request_type": "Trash/Recycling",
    "request_reason": "Missed Trash Pick-Up",
    "date_created": "2022-12-14T21:10:38.000",
    "date_modified": "2022-12-14T21:10:39.000",
    "request_status": "Pending",
    "responsible_agency": "Department of Sanitation",
    "final_address": "7616 Hurst St",
    "address_councildis": "A",
    "status": "Assigned to Contractor",
    "contractor": "Richards Disposal",
    "rowid": "953328",
    "final_x": "3660793.83546",
    "final_y": "524642.908284",
    "longitude": "-90.1336806460374",
    "latitude": "29.93719831889418",
    "geocoded_column": {
      "latitude": "29.93719831889418",
      "longitude": "-90.1336806460374"
    }
  },
  {
    "service_request": "2022-953327",
    "request_type": "Traffic Signals/Signs/Striping/Streetlights",
    "request_reason": "Street Light Outage/Malfunction",
    "date_created": "2022-12-14T21:09:06.000",
    "date_modified": "2022-12-14T21:09:07.000",
    "request_status": "Pending",
    "responsible_agency": "Department of Public Works",
    "final_address": "1010 Port St",
    "address_councildis": "C",
    "status": "Pending",
    "contractor": "Legacy Professional Services",
    "rowid": "953327",
    "final_x": "3687304.71433",
    "final_y": "536053.416519",
    "longitude": "-90.04958079145497",
    "latitude": "29.967783486682986",
    "geocoded_column": {
      "latitude": "29.967783486682986",
      "longitude": "-90.04958079145497"
    }
  },
  {
    "service_request": "2022-953326",
    "request_type": "Trash/Recycling",
    "request_reason": "Order Recycling Cart",
    "date_created": "2022-12-14T21:03:43.000",
    "date_modified": "2022-12-14T21:03:43.000",
    "request_status": "Pending",
    "responsible_agency": "Department of Sanitation",
    "final_address": "5611 Charlotte Dr",
    "address_councildis": "D",
    "status": "Pending",
    "rowid": "953326",
    "final_x": "3680102.30159",
    "final_y": "553132.978391",
    "longitude": "-90.07173234164472",
    "latitude": "30.01496617632019",
    "geocoded_column": {
      "latitude": "30.01496617632019",
      "longitude": "-90.07173234164472"
    }
  },
  {
    "service_request": "2022-953325",
    "request_type": "Trash/Recycling",
    "request_reason": "MIssed Recycling Pick-Up",
    "date_created": "2022-12-14T21:01:39.000",
    "date_modified": "2022-12-14T21:01:40.000",
    "request_status": "Pending",
    "responsible_agency": "Department of Sanitation",
    "final_address": "1237 Washington Ave",
    "address_councildis": "B",
    "status": "Assigned to Contractor",
    "contractor": "Richards Disposal",
    "rowid": "953325",
    "final_x": "3676728.83227",
    "final_y": "521443.049977",
    "longitude": "-90.08348303979818",
    "latitude": "29.92793139692747",
    "geocoded_column": {
      "latitude": "29.92793139692747",
      "longitude": "-90.08348303979818"
    }
  },
  {
    "service_request": "2022-953324",
    "request_type": "Roads/Drainage",
    "request_reason": "Pothole",
    "date_created": "2022-12-14T20:59:37.000",
    "date_modified": "2022-12-14T20:59:37.000",
    "request_status": "Pending",
    "responsible_agency": "Department of Public Works",
    "final_address": "2901 Holiday Dr",
    "address_councildis": "C",
    "status": "Pending",
    "rowid": "953324",
    "final_x": "3698698.07722",
    "final_y": "520724.586425",
    "longitude": "-90.01415775625266",
    "latitude": "29.925278672230792",
    "geocoded_column": {
      "latitude": "29.925278672230792",
      "longitude": "-90.01415775625266"
    }
  },
  {
    "service_request": "2022-953323",
    "request_type": "Roads/Drainage",
    "request_reason": "Catch Basin - Clogged",
    "date_created": "2022-12-14T20:52:41.000",
    "date_modified": "2022-12-14T20:52:41.000",
    "request_status": "Pending",
    "responsible_agency": "Department of Public Works",
    "final_address": "4037 Vincennes Pl",
    "address_councildis": "B",
    "status": "Pending",
    "rowid": "953323",
    "final_x": "3668600.58778",
    "final_y": "530404.712258",
    "longitude": "-90.10883978438432",
    "latitude": "29.95281436043083",
    "geocoded_column": {
      "latitude": "29.95281436043083",
      "longitude": "-90.10883978438432"
    }
  },
  {
    "service_request": "2022-953322",
    "request_type": "Trash/Recycling",
    "request_reason": "Replace Trash Cart",
    "date_created": "2022-12-14T20:41:08.000",
    "date_modified": "2022-12-14T20:41:09.000",
    "request_status": "Pending",
    "responsible_agency": "Department of Sanitation",
    "final_address": "1413 Hero Blvd",
    "address_councildis": "C",
    "status": "Assigned to Contractor",
    "contractor": "Richards Disposal",
    "rowid": "953322",
    "final_x": "3689434.53359",
    "final_y": "523368.435323",
    "longitude": "-90.0433057856831",
    "latitude": "29.932838366889104",
    "geocoded_column": {
      "latitude": "29.932838366889104",
      "longitude": "-90.0433057856831"
    }
  },
  {
    "service_request": "2022-953321",
    "request_type": "Trash/Recycling",
    "request_reason": "Order Recycling Cart",
    "date_created": "2022-12-14T20:40:54.000",
    "date_modified": "2022-12-14T20:40:54.000",
    "request_status": "Pending",
    "responsible_agency": "Department of Sanitation",
    "final_address": "7461 Lake Barrington Dr",
    "address_councildis": "E",
    "status": "Pending",
    "rowid": "953321",
    "final_x": "3712801.7621",
    "final_y": "565200.106914",
    "longitude": "-89.96796443149506",
    "latitude": "30.04711549883253",
    "geocoded_column": {
      "latitude": "30.04711549883253",
      "longitude": "-89.96796443149506"
    }
  },
  {
    "service_request": "2022-953320",
    "request_type": "Trash/Recycling",
    "request_reason": "Repair Trash Cart",
    "date_created": "2022-12-14T20:39:51.000",
    "date_modified": "2022-12-14T20:39:52.000",
    "request_status": "Pending",
    "responsible_agency": "Department of Sanitation",
    "final_address": "1813 Dumaine St",
    "address_councildis": "D",
    "status": "Assigned to Contractor",
    "contractor": "Richards Disposal",
    "rowid": "953320",
    "final_x": "3679838.45",
    "final_y": "535524.338246",
    "longitude": "-90.07317783990325",
    "latitude": "29.966556596182905",
    "geocoded_column": {
      "latitude": "29.966556596182905",
      "longitude": "-90.07317783990325"
    }
  },
  {
    "service_request": "2022-953319",
    "request_type": "Trash/Recycling",
    "request_reason": "Missed Trash Pick-Up",
    "date_created": "2022-12-14T20:12:08.000",
    "date_modified": "2022-12-14T20:12:08.000",
    "request_status": "Pending",
    "responsible_agency": "Department of Sanitation",
    "final_address": "7026 Louis Xiv St",
    "address_councildis": "A",
    "status": "Assigned to Contractor",
    "contractor": "IV Waste",
    "rowid": "953319",
    "final_x": "3668608.87681",
    "final_y": "554243.246424",
    "longitude": "-90.10800868155803",
    "latitude": "30.018361968180347",
    "geocoded_column": {
      "latitude": "30.018361968180347",
      "longitude": "-90.10800868155803"
    }
  },
  {
    "service_request": "2022-953318",
    "request_type": "Roads/Drainage",
    "request_reason": "Street Flooding / Drainage",
    "date_created": "2022-12-14T20:09:02.000",
    "date_modified": "2022-12-14T20:09:03.000",
    "request_status": "Pending",
    "responsible_agency": "Department of Public Works",
    "final_address": "96 E Park Pl",
    "address_councildis": "A",
    "status": "Pending",
    "rowid": "953318",
    "final_x": "3670200.17863",
    "final_y": "544590.170255",
    "longitude": "-90.1033081526033",
    "latitude": "29.99177249907861",
    "geocoded_column": {
      "latitude": "29.99177249907861",
      "longitude": "-90.1033081526033"
    }
  },
  {
    "service_request": "2022-953317",
    "request_type": "Abandoned Vehicles",
    "request_reason": "Abandoned/Junk Vehicles",
    "date_created": "2022-12-14T19:52:29.000",
    "date_modified": "2022-12-14T19:52:29.000",
    "request_status": "Pending",
    "responsible_agency": "Department of Public Works",
    "final_address": "1634 Second St",
    "address_councildis": "B",
    "status": "Pending",
    "rowid": "953317",
    "final_x": "3676494.31669",
    "final_y": "523293.989115",
    "longitude": "-90.08415965253086",
    "latitude": "29.933027908555882",
    "geocoded_column": {
      "latitude": "29.933027908555882",
      "longitude": "-90.08415965253086"
    }
  },
  {
    "service_request": "2022-953316",
    "request_type": "Abandoned Vehicles",
    "request_reason": "Abandoned/Junk Vehicles",
    "date_created": "2022-12-14T19:47:45.000",
    "date_modified": "2022-12-14T19:47:45.000",
    "request_status": "Pending",
    "responsible_agency": "Department of Public Works",
    "final_address": "1634 Second St",
    "address_councildis": "B",
    "status": "Pending",
    "rowid": "953316",
    "final_x": "3676494.31669",
    "final_y": "523293.989115",
    "longitude": "-90.08415965253086",
    "latitude": "29.933027908555882",
    "geocoded_column": {
      "latitude": "29.933027908555882",
      "longitude": "-90.08415965253086"
    }
  },
  {
    "service_request": "2022-953315",
    "request_type": "Roads/Drainage",
    "request_reason": "Pothole",
    "date_created": "2022-12-14T19:20:07.000",
    "date_modified": "2022-12-14T19:20:07.000",
    "request_status": "Pending",
    "responsible_agency": "Department of Public Works",
    "final_address": "6534 Pontchartrain Blvd",
    "address_councildis": "A",
    "status": "Pending",
    "rowid": "953315",
    "final_x": "3666215.71969",
    "final_y": "551624.632917",
    "longitude": "-90.11565812834723",
    "latitude": "30.011231850205",
    "geocoded_column": {
      "latitude": "30.011231850205",
      "longitude": "-90.11565812834723"
    }
  },
  {
    "service_request": "2022-953314",
    "request_type": "Roads/Drainage",
    "request_reason": "Man hole cover issue",
    "date_created": "2022-12-14T19:13:52.000",
    "date_modified": "2022-12-14T19:13:52.000",
    "request_status": "Pending",
    "responsible_agency": "Department of Public Works",
    "final_address": "4100 BLK Palmyra St",
    "address_councildis": "A",
    "status": "Pending",
    "rowid": "953314",
    "final_x": "3670332.19703",
    "final_y": "537922.69822",
    "longitude": "-90.10311725352021",
    "latitude": "29.97343532432443",
    "geocoded_column": {
      "latitude": "29.97343532432443",
      "longitude": "-90.10311725352021"
    }
  },
  {
    "service_request": "2022-953313",
    "request_type": "Trash/Recycling",
    "request_reason": "Replace Trash Cart",
    "date_created": "2022-12-14T18:56:59.000",
    "date_modified": "2022-12-14T18:57:00.000",
    "request_status": "Pending",
    "responsible_agency": "Department of Sanitation",
    "final_address": "6038 Stratford Pl",
    "address_councildis": "C",
    "status": "Assigned to Contractor",
    "contractor": "Richards Disposal",
    "rowid": "953313",
    "final_x": "3706226.3274",
    "final_y": "516245.19378",
    "longitude": "-89.9905593508636",
    "latitude": "29.912721434248297",
    "geocoded_column": {
      "latitude": "29.912721434248297",
      "longitude": "-89.9905593508636"
    }
  },
  {
    "service_request": "2022-953312",
    "request_type": "Trash/Recycling",
    "request_reason": "Request a Large Item Pick Up",
    "date_created": "2022-12-14T18:39:18.000",
    "date_modified": "2022-12-14T18:39:19.000",
    "request_status": "Pending",
    "responsible_agency": "Department of Sanitation",
    "final_address": "725 Lizardi St",
    "address_councildis": "E",
    "status": "Assigned to Contractor",
    "contractor": "Waste Pro",
    "rowid": "953312",
    "final_x": "3696188.99517",
    "final_y": "532817.144708",
    "longitude": "-90.02164111903595",
    "latitude": "29.958608206623005",
    "geocoded_column": {
      "latitude": "29.958608206623005",
      "longitude": "-90.02164111903595"
    }
  },
  {
    "service_request": "2022-953310",
    "request_type": "Parks & Parkways",
    "request_reason": "Request Tree Service (Right of Way/Public Property)",
    "date_created": "2022-12-14T18:32:23.000",
    "date_modified": "2022-12-14T18:32:23.000",
    "request_status": "Pending",
    "responsible_agency": "Department of Parks & Parkway",
    "final_address": "4810 Prentiss Ave",
    "address_councildis": "D",
    "status": "Pending",
    "rowid": "953310",
    "final_x": "3691164.27177",
    "final_y": "554448.321496",
    "longitude": "-90.0367348970303",
    "latitude": "30.01824334877005",
    "geocoded_column": {
      "latitude": "30.01824334877005",
      "longitude": "-90.0367348970303"
    }
  },
  {
    "service_request": "2022-953309",
    "request_type": "Trash/Recycling",
    "request_reason": "MIssed Recycling Pick-Up",
    "date_created": "2022-12-14T18:27:36.000",
    "date_modified": "2022-12-14T18:27:37.000",
    "request_status": "Pending",
    "responsible_agency": "Department of Sanitation",
    "final_address": "3315 Chestnut St",
    "address_councildis": "B",
    "status": "Assigned to Contractor",
    "contractor": "Richards Disposal",
    "rowid": "953309",
    "final_x": "3674957.27086",
    "final_y": "520448.399736",
    "longitude": "-90.08910955005064",
    "latitude": "29.92524944494753",
    "geocoded_column": {
      "latitude": "29.92524944494753",
      "longitude": "-90.08910955005064"
    }
  },
  {
    "service_request": "2022-953308",
    "request_type": "Trash/Recycling",
    "request_reason": "MIssed Recycling Pick-Up",
    "date_created": "2022-12-14T18:25:42.000",
    "date_modified": "2022-12-14T18:25:43.000",
    "request_status": "Pending",
    "responsible_agency": "Department of Sanitation",
    "final_address": "2420 Pine St",
    "address_councildis": "A",
    "status": "Assigned to Contractor",
    "contractor": "Richards Disposal",
    "rowid": "953308",
    "final_x": "3666432.46957",
    "final_y": "530549.881794",
    "longitude": "-90.11568089195933",
    "latitude": "29.953277059479298",
    "geocoded_column": {
      "latitude": "29.953277059479298",
      "longitude": "-90.11568089195933"
    }
  },
  {
    "service_request": "2022-953307",
    "request_type": "Trash/Recycling",
    "request_reason": "Missed Trash Pick-Up",
    "date_created": "2022-12-14T18:24:43.000",
    "date_modified": "2022-12-14T18:24:44.000",
    "request_status": "Pending",
    "responsible_agency": "Department of Sanitation",
    "final_address": "2420 Pine St",
    "address_councildis": "A",
    "status": "Assigned to Contractor",
    "contractor": "Richards Disposal",
    "rowid": "953307",
    "final_x": "3666432.46957",
    "final_y": "530549.881794",
    "longitude": "-90.11568089195933",
    "latitude": "29.953277059479298",
    "geocoded_column": {
      "latitude": "29.953277059479298",
      "longitude": "-90.11568089195933"
    }
  },
  {
    "service_request": "2022-953306",
    "request_type": "Roads/Drainage",
    "request_reason": "Man hole cover issue",
    "date_created": "2022-12-14T18:20:48.000",
    "date_modified": "2022-12-14T18:20:49.000",
    "request_status": "Pending",
    "responsible_agency": "Department of Public Works",
    "final_address": "4718 Lurline St",
    "address_councildis": "E",
    "status": "Pending",
    "rowid": "953306",
    "final_x": "3711915.11486",
    "final_y": "555937.896089",
    "longitude": "-89.9711147026227",
    "latitude": "30.02167712972963",
    "geocoded_column": {
      "latitude": "30.02167712972963",
      "longitude": "-89.9711147026227"
    }
  },
  {
    "service_request": "2022-953305",
    "request_type": "Trash/Recycling",
    "request_reason": "Missed Trash Pick-Up",
    "date_created": "2022-12-14T18:01:21.000",
    "date_modified": "2022-12-14T18:01:22.000",
    "request_status": "Pending",
    "responsible_agency": "Department of Sanitation",
    "final_address": "11437 Melvin Pl",
    "address_councildis": "E",
    "status": "Assigned to Contractor",
    "contractor": "Waste Pro",
    "rowid": "953305",
    "final_x": "3718149.04965",
    "final_y": "561831.998495",
    "longitude": "-89.95119271866753",
    "latitude": "30.037678290627007",
    "geocoded_column": {
      "latitude": "30.037678290627007",
      "longitude": "-89.95119271866753"
    }
  },
  {
    "service_request": "2022-953304",
    "request_type": "Parks & Parkways",
    "request_reason": "Request Tree Service (Right of Way/Public Property)",
    "date_created": "2022-12-14T17:52:22.000",
    "date_modified": "2022-12-14T17:52:23.000",
    "request_status": "Pending",
    "responsible_agency": "Department of Parks & Parkway",
    "final_address": "4933 Laurel St",
    "address_councildis": "B",
    "status": "Pending",
    "rowid": "953304",
    "final_x": "3668687.965",
    "final_y": "517932.321718",
    "longitude": "-90.10898469123639",
    "latitude": "29.918516724071257",
    "geocoded_column": {
      "latitude": "29.918516724071257",
      "longitude": "-90.10898469123639"
    }
  },
  {
    "service_request": "2022-953303",
    "request_type": "Roads/Drainage",
    "request_reason": "Catch Basin - Clogged",
    "date_created": "2022-12-14T17:50:25.000",
    "date_modified": "2022-12-14T17:50:25.000",
    "request_status": "Pending",
    "responsible_agency": "Department of Public Works",
    "final_address": "2104 General Pershing St",
    "address_councildis": "B",
    "status": "Pending",
    "rowid": "953303",
    "final_x": "3670980.12129",
    "final_y": "522736.48121",
    "longitude": "-90.10158653938517",
    "latitude": "29.931659085264403",
    "geocoded_column": {
      "latitude": "29.931659085264403",
      "longitude": "-90.10158653938517"
    }
  },
  {
    "service_request": "2022-953302",
    "request_type": "Trash/Recycling",
    "request_reason": "Replace Trash Cart",
    "date_created": "2022-12-14T17:43:38.000",
    "date_modified": "2022-12-14T17:43:38.000",
    "request_status": "Pending",
    "responsible_agency": "Department of Sanitation",
    "final_address": "3639 Clermont Dr",
    "address_councildis": "D",
    "status": "Assigned to Contractor",
    "contractor": "IV Waste",
    "rowid": "953302",
    "final_x": "3685817.08482",
    "final_y": "545917.491984",
    "longitude": "-90.05393093807857",
    "latitude": "29.99495195679782",
    "geocoded_column": {
      "latitude": "29.99495195679782",
      "longitude": "-90.05393093807857"
    }
  },
  {
    "service_request": "2022-953301",
    "request_type": "Trash/Recycling",
    "request_reason": "Replace Trash Cart",
    "date_created": "2022-12-14T17:39:16.000",
    "date_modified": "2022-12-14T17:39:17.000",
    "request_status": "Pending",
    "responsible_agency": "Department of Sanitation",
    "final_address": "3639 Clermont Dr, New Orleans, Louisiana, 70122",
    "address_councildis": "D",
    "status": "Assigned to Contractor",
    "contractor": "IV Waste",
    "rowid": "953301",
    "final_x": "3685817.08482",
    "final_y": "545917.491984",
    "longitude": "-90.05393093807857",
    "latitude": "29.99495195679782",
    "geocoded_column": {
      "latitude": "29.99495195679782",
      "longitude": "-90.05393093807857"
    }
  },
  {
    "service_request": "2022-953300",
    "request_type": "Trash/Recycling",
    "request_reason": "MIssed Recycling Pick-Up",
    "date_created": "2022-12-14T17:38:58.000",
    "date_modified": "2022-12-14T17:38:58.000",
    "request_status": "Pending",
    "responsible_agency": "Department of Sanitation",
    "final_address": "3212 St Charles Ave",
    "address_councildis": "B",
    "status": "Assigned to Contractor",
    "contractor": "Richards Disposal",
    "rowid": "953300",
    "final_x": "3674753.54094",
    "final_y": "521705.572025",
    "longitude": "-90.08970959013618",
    "latitude": "29.928712344124584",
    "geocoded_column": {
      "latitude": "29.928712344124584",
      "longitude": "-90.08970959013618"
    }
  },
  {
    "service_request": "2022-953299",
    "request_type": "Trash/Recycling",
    "request_reason": "Dead Animal Pick Up",
    "date_created": "2022-12-14T17:27:23.000",
    "date_modified": "2022-12-14T17:27:23.000",
    "request_status": "Pending",
    "responsible_agency": "Department of Sanitation",
    "final_address": "4317 St Anthony Ave",
    "address_councildis": "D",
    "status": "Assigned to Contractor",
    "contractor": "IV Waste",
    "rowid": "953299",
    "final_x": "3682602.85256",
    "final_y": "548537.992786",
    "longitude": "-90.06399262924249",
    "latitude": "30.00225568783018",
    "geocoded_column": {
      "latitude": "30.00225568783018",
      "longitude": "-90.06399262924249"
    }
  },
  {
    "service_request": "2022-953298",
    "request_type": "Trash/Recycling",
    "request_reason": "MIssed Recycling Pick-Up",
    "date_created": "2022-12-14T17:25:55.000",
    "date_modified": "2022-12-14T17:25:56.000",
    "request_status": "Pending",
    "responsible_agency": "Department of Sanitation",
    "final_address": "4743 Charlmark Dr",
    "address_councildis": "E",
    "status": "Assigned to Contractor",
    "contractor": "Waste Pro",
    "rowid": "953298",
    "final_x": "3711512.81662",
    "final_y": "556041.107417",
    "longitude": "-89.97238197222306",
    "latitude": "30.021974064808084",
    "geocoded_column": {
      "latitude": "30.021974064808084",
      "longitude": "-89.97238197222306"
    }
  },
  {
    "service_request": "2022-953297",
    "request_type": "Trash/Recycling",
    "request_reason": "MIssed Recycling Pick-Up",
    "date_created": "2022-12-14T17:23:29.000",
    "date_modified": "2022-12-14T17:23:30.000",
    "request_status": "Pending",
    "responsible_agency": "Department of Sanitation",
    "final_address": "622 N Bernadotte St",
    "address_councildis": "A",
    "status": "Assigned to Contractor",
    "contractor": "Richards Disposal",
    "rowid": "953297",
    "final_x": "3670052.83226",
    "final_y": "541624.307212",
    "longitude": "-90.10387411204971",
    "latitude": "29.983621739614833",
    "geocoded_column": {
      "latitude": "29.983621739614833",
      "longitude": "-90.10387411204971"
    }
  },
  {
    "service_request": "2022-953296",
    "request_type": "Roads/Drainage",
    "request_reason": "Catch Basin - Clogged",
    "date_created": "2022-12-14T17:11:42.000",
    "date_modified": "2022-12-14T17:11:43.000",
    "request_status": "Pending",
    "responsible_agency": "Department of Public Works",
    "final_address": "2237 S Salcedo St",
    "address_councildis": "A",
    "status": "Pending",
    "rowid": "953296",
    "final_x": "3669088.92634",
    "final_y": "528834.030144",
    "longitude": "-90.10735088779701",
    "latitude": "29.94848113981855",
    "geocoded_column": {
      "latitude": "29.94848113981855",
      "longitude": "-90.10735088779701"
    }
  },
  {
    "service_request": "2022-953295",
    "request_type": "Trash/Recycling",
    "request_reason": "Order Recycling Cart",
    "date_created": "2022-12-14T17:04:29.000",
    "date_modified": "2022-12-14T17:04:29.000",
    "request_status": "Pending",
    "responsible_agency": "Department of Sanitation",
    "final_address": "2519 Octavia St",
    "address_councildis": "A",
    "status": "Pending",
    "rowid": "953295",
    "final_x": "3667821.0441",
    "final_y": "524889.68806",
    "longitude": "-90.11148693606985",
    "latitude": "29.937672713703446",
    "geocoded_column": {
      "latitude": "29.937672713703446",
      "longitude": "-90.11148693606985"
    }
  },
  {
    "service_request": "2022-953294",
    "request_type": "Roads/Drainage",
    "request_reason": "Catch Basin - Clogged",
    "date_created": "2022-12-14T16:49:07.000",
    "date_modified": "2022-12-14T16:49:07.000",
    "request_status": "Pending",
    "responsible_agency": "Department of Public Works",
    "final_address": "5830 Clara St",
    "address_councildis": "A",
    "status": "Pending",
    "rowid": "953294",
    "final_x": "3666865.15943",
    "final_y": "525242.333181",
    "longitude": "-90.1144929051928",
    "latitude": "29.93867036728341",
    "geocoded_column": {
      "latitude": "29.93867036728341",
      "longitude": "-90.1144929051928"
    }
  },
  {
    "service_request": "2022-953293",
    "request_type": "Roads/Drainage",
    "request_reason": "Catch Basin - Clogged",
    "date_created": "2022-12-14T16:43:40.000",
    "date_modified": "2022-12-14T16:43:40.000",
    "request_status": "Pending",
    "responsible_agency": "Department of Public Works",
    "final_address": "521 Tchoupitoulas St",
    "address_councildis": "B",
    "status": "Pending",
    "rowid": "953293",
    "final_x": "3681783.79919",
    "final_y": "528855.437952",
    "longitude": "-90.06726715182776",
    "latitude": "29.94816041769943",
    "geocoded_column": {
      "latitude": "29.94816041769943",
      "longitude": "-90.06726715182776"
    }
  },
  {
    "service_request": "2022-953292",
    "request_type": "Trash/Recycling",
    "request_reason": "Request a Large Item Pick Up",
    "date_created": "2022-12-14T16:42:43.000",
    "date_modified": "2022-12-14T16:42:43.000",
    "request_status": "Pending",
    "responsible_agency": "Department of Sanitation",
    "final_address": "4929 Desire Dr",
    "address_councildis": "D",
    "status": "Assigned to Contractor",
    "contractor": "IV Waste",
    "rowid": "953292",
    "final_x": "3691675.87465",
    "final_y": "552152.384086",
    "longitude": "-90.03520061372417",
    "latitude": "30.011914447128856",
    "geocoded_column": {
      "latitude": "30.011914447128856",
      "longitude": "-90.03520061372417"
    }
  },
  {
    "service_request": "2022-953291",
    "request_type": "Traffic Signals/Signs/Striping/Streetlights",
    "request_reason": "Street Name Sign Damaged or Missing",
    "date_created": "2022-12-14T16:36:50.000",
    "date_modified": "2022-12-14T16:36:51.000",
    "request_status": "Pending",
    "responsible_agency": "Department of Public Works",
    "final_address": "MARY JANE LN & ANNE MARIE CT",
    "address_councildis": "E",
    "status": "Pending",
    "rowid": "953291",
    "final_x": "3718004.47",
    "final_y": "571107.54",
    "longitude": "-89.9512960675897",
    "latitude": "30.063187009330786",
    "geocoded_column": {
      "latitude": "30.063187009330786",
      "longitude": "-89.9512960675897"
    }
  },
  {
    "service_request": "2022-953290",
    "request_type": "Roads/Drainage",
    "request_reason": "Catch Basin - Broken/Damage",
    "date_created": "2022-12-14T16:29:15.000",
    "date_modified": "2022-12-14T16:29:15.000",
    "request_status": "Pending",
    "responsible_agency": "Department of Public Works",
    "final_address": "521 Tchoupitoulas St",
    "address_councildis": "B",
    "status": "Pending",
    "rowid": "953290",
    "final_x": "3681783.79919",
    "final_y": "528855.437952",
    "longitude": "-90.06726715182776",
    "latitude": "29.94816041769943",
    "geocoded_column": {
      "latitude": "29.94816041769943",
      "longitude": "-90.06726715182776"
    }
  },
  {
    "service_request": "2022-953289",
    "request_type": "Roads/Drainage",
    "request_reason": "Catch Basin - Clogged",
    "date_created": "2022-12-14T16:28:44.000",
    "date_modified": "2022-12-14T16:28:44.000",
    "request_status": "Pending",
    "responsible_agency": "Department of Public Works",
    "final_address": "1950 Moss St",
    "address_councildis": "D",
    "status": "Pending",
    "rowid": "953289",
    "final_x": "3675511.27771",
    "final_y": "544112.467406",
    "longitude": "-90.0865479159185",
    "latitude": "29.99030114756687",
    "geocoded_column": {
      "latitude": "29.99030114756687",
      "longitude": "-90.0865479159185"
    }
  },
  {
    "service_request": "2022-953288",
    "request_type": "Trash/Recycling",
    "request_reason": "Order Trash Cart",
    "date_created": "2022-12-14T16:21:32.000",
    "date_modified": "2022-12-14T16:21:33.000",
    "request_status": "Pending",
    "responsible_agency": "Department of Sanitation",
    "final_address": "2429 Felicity St",
    "address_councildis": "B",
    "status": "Assigned to Contractor",
    "contractor": "Richards Disposal",
    "rowid": "953288",
    "final_x": "3675998.05345",
    "final_y": "527112.458495",
    "longitude": "-90.08559505550309",
    "latitude": "29.94354231357682",
    "geocoded_column": {
      "latitude": "29.94354231357682",
      "longitude": "-90.08559505550309"
    }
  },
  {
    "service_request": "2022-953287",
    "request_type": "Roads/Drainage",
    "request_reason": "Catch Basin - Clogged",
    "date_created": "2022-12-14T16:18:46.000",
    "date_modified": "2022-12-14T16:24:55.000",
    "request_status": "Pending",
    "responsible_agency": "Department of Public Works",
    "final_address": "1000 Magazine St",
    "address_councildis": "B",
    "status": "Pending",
    "rowid": "953287",
    "final_x": "3680973.22095",
    "final_y": "526830.277182",
    "longitude": "-90.06989698145186",
    "latitude": "29.94261650549003",
    "geocoded_column": {
      "latitude": "29.94261650549003",
      "longitude": "-90.06989698145186"
    }
  },
  {
    "service_request": "2022-953286",
    "request_type": "Roads/Drainage",
    "request_reason": "Catch Basin - Clogged",
    "date_created": "2022-12-14T16:16:01.000",
    "date_modified": "2022-12-14T16:16:01.000",
    "request_status": "Closed",
    "responsible_agency": "Department of Public Works",
    "final_address": "1000 Magazine St",
    "address_councildis": "B",
    "status": "Resolved",
    "rowid": "953286",
    "final_x": "3680973.22095",
    "final_y": "526830.277182",
    "longitude": "-90.06989698145186",
    "latitude": "29.94261650549003",
    "geocoded_column": {
      "latitude": "29.94261650549003",
      "longitude": "-90.06989698145186"
    }
  },
  {
    "service_request": "2022-953285",
    "request_type": "Trash/Recycling",
    "request_reason": "Missed Trash Pick-Up",
    "date_created": "2022-12-14T16:02:07.000",
    "date_modified": "2022-12-14T16:02:08.000",
    "request_status": "Pending",
    "responsible_agency": "Department of Sanitation",
    "final_address": "935 Jackson Ave",
    "address_councildis": "B",
    "status": "Assigned to Contractor",
    "contractor": "Richards Disposal",
    "rowid": "953285",
    "final_x": "3679163.96111",
    "final_y": "521756.026746",
    "longitude": "-90.07578505981203",
    "latitude": "29.928718720106005",
    "geocoded_column": {
      "latitude": "29.928718720106005",
      "longitude": "-90.07578505981203"
    }
  },
  {
    "service_request": "2022-953284",
    "request_type": "Trash/Recycling",
    "request_reason": "Missed Trash Pick-Up",
    "date_created": "2022-12-14T15:51:45.000",
    "date_modified": "2022-12-14T15:51:46.000",
    "request_status": "Pending",
    "responsible_agency": "Department of Sanitation",
    "final_address": "4901 Wright Rd",
    "address_councildis": "E",
    "status": "Assigned to Contractor",
    "contractor": "Waste Pro",
    "rowid": "953284",
    "final_x": "3716726.41964",
    "final_y": "557591.592347",
    "longitude": "-89.95584961828072",
    "latitude": "30.02606598384097",
    "geocoded_column": {
      "latitude": "30.02606598384097",
      "longitude": "-89.95584961828072"
    }
  },
  {
    "service_request": "2022-953283",
    "request_type": "Trash/Recycling",
    "request_reason": "MIssed Recycling Pick-Up",
    "date_created": "2022-12-14T15:48:44.000",
    "date_modified": "2022-12-14T15:48:44.000",
    "request_status": "Pending",
    "responsible_agency": "Department of Sanitation",
    "final_address": "1213 N Robertson St",
    "address_councildis": "D",
    "status": "Assigned to Contractor",
    "contractor": "Richards Disposal",
    "rowid": "953283",
    "final_x": "3681289.44981",
    "final_y": "536031.065031",
    "longitude": "-90.06857793693486",
    "latitude": "29.967905963108247",
    "geocoded_column": {
      "latitude": "29.967905963108247",
      "longitude": "-90.06857793693486"
    }
  },
  {
    "service_request": "2022-953282",
    "request_type": "Trash/Recycling",
    "request_reason": "Return Recycling Cart",
    "date_created": "2022-12-14T15:30:06.000",
    "date_modified": "2022-12-14T15:30:06.000",
    "request_status": "Pending",
    "responsible_agency": "Department of Sanitation",
    "final_address": "4334 Canal St",
    "address_councildis": "A",
    "status": "Pending",
    "rowid": "953282",
    "final_x": "3669995.23066",
    "final_y": "539039.98369",
    "longitude": "-90.10414361323797",
    "latitude": "29.976517425993556",
    "geocoded_column": {
      "latitude": "29.976517425993556",
      "longitude": "-90.10414361323797"
    }
  },
  {
    "service_request": "2022-953281",
    "request_type": "Roads/Drainage",
    "request_reason": "Damaged Sidewalk",
    "date_created": "2022-12-14T15:24:58.000",
    "date_modified": "2022-12-14T15:25:01.000",
    "request_status": "Pending",
    "responsible_agency": "Department of Public Works",
    "final_address": "3537 Elysian Fields Ave",
    "address_councildis": "D",
    "status": "Pending",
    "rowid": "953281",
    "final_x": "3684395.66242",
    "final_y": "545856.656016",
    "longitude": "-90.05842318454025",
    "latitude": "29.994828242854215",
    "geocoded_column": {
      "latitude": "29.994828242854215",
      "longitude": "-90.05842318454025"
    }
  },
  {
    "service_request": "2022-953280",
    "request_type": "Trash/Recycling",
    "request_reason": "Missed Trash Pick-Up",
    "date_created": "2022-12-14T15:01:41.000",
    "date_modified": "2022-12-14T15:01:42.000",
    "request_status": "Pending",
    "responsible_agency": "Department of Sanitation",
    "final_address": "3214 St Charles Ave",
    "address_councildis": "B",
    "status": "Assigned to Contractor",
    "contractor": "Richards Disposal",
    "rowid": "953280",
    "final_x": "3674726.98261",
    "final_y": "521691.860985",
    "longitude": "-90.08979389912477",
    "latitude": "29.928675435760073",
    "geocoded_column": {
      "latitude": "29.928675435760073",
      "longitude": "-90.08979389912477"
    }
  },
  {
    "service_request": "2022-953279",
    "request_type": "Trash/Recycling",
    "request_reason": "Replace Trash Cart",
    "date_created": "2022-12-14T15:01:33.000",
    "date_modified": "2022-12-14T15:01:34.000",
    "request_status": "Pending",
    "responsible_agency": "Department of Sanitation",
    "final_address": "1328 Harmony St",
    "address_councildis": "B",
    "status": "Assigned to Contractor",
    "contractor": "Richards Disposal",
    "rowid": "953279",
    "final_x": "3675300.72942",
    "final_y": "520847.875257",
    "longitude": "-90.08801165393297",
    "latitude": "29.926337614294535",
    "geocoded_column": {
      "latitude": "29.926337614294535",
      "longitude": "-90.08801165393297"
    }
  },
  {
    "service_request": "2022-953278",
    "request_type": "Trash/Recycling",
    "request_reason": "Missed Trash Pick-Up",
    "date_created": "2022-12-14T14:58:19.000",
    "date_modified": "2022-12-14T14:59:06.000",
    "request_status": "Pending",
    "responsible_agency": "Department of Sanitation",
    "final_address": "7832 Berg Rd",
    "address_councildis": "E",
    "status": "Assigned to Contractor",
    "contractor": "Waste Pro",
    "rowid": "953278",
    "final_x": "3711430.44722",
    "final_y": "567442.437796",
    "longitude": "-89.97221430063018",
    "latitude": "30.05332585869509",
    "geocoded_column": {
      "latitude": "30.05332585869509",
      "longitude": "-89.97221430063018"
    }
  },
  {
    "service_request": "2022-953277",
    "request_type": "Trash/Recycling",
    "request_reason": "Missed Trash Pick-Up",
    "date_created": "2022-12-14T14:56:43.000",
    "date_modified": "2022-12-14T14:56:44.000",
    "request_status": "Pending",
    "responsible_agency": "Department of Sanitation",
    "final_address": "6110 E Muirfield Cir",
    "address_councildis": "E",
    "status": "Assigned to Contractor",
    "contractor": "Waste Pro",
    "rowid": "953277",
    "final_x": "3718728.67813",
    "final_y": "566486.388003",
    "longitude": "-89.949183294494",
    "latitude": "30.05045672117778",
    "geocoded_column": {
      "latitude": "30.05045672117778",
      "longitude": "-89.949183294494"
    }
  },
  {
    "service_request": "2022-953276",
    "request_type": "Trash/Recycling",
    "request_reason": "Request a Large Item Pick Up",
    "date_created": "2022-12-14T14:56:01.000",
    "date_modified": "2022-12-14T14:56:02.000",
    "request_status": "Pending",
    "responsible_agency": "Department of Sanitation",
    "final_address": "2005 Painters St",
    "address_councildis": "D",
    "status": "Assigned to Contractor",
    "contractor": "IV Waste",
    "rowid": "953276",
    "final_x": "3687323.48252",
    "final_y": "539894.85249",
    "longitude": "-90.04938558573679",
    "latitude": "29.97834550961758",
    "geocoded_column": {
      "latitude": "29.97834550961758",
      "longitude": "-90.04938558573679"
    }
  },
  {
    "service_request": "2022-953275",
    "request_type": "Property Maintenance",
    "request_reason": "Property Maintenance",
    "date_created": "2022-12-14T14:55:57.000",
    "date_modified": "2022-12-14T14:55:57.000",
    "request_status": "Pending",
    "responsible_agency": "Department of Code Enforcement",
    "final_address": "5863 Marcia Ave",
    "address_councildis": "A",
    "status": "Pending",
    "rowid": "953275",
    "final_x": "3664879.04589",
    "final_y": "546819.179089",
    "longitude": "-90.12004200074693",
    "latitude": "29.99805750177402",
    "geocoded_column": {
      "latitude": "29.99805750177402",
      "longitude": "-90.12004200074693"
    }
  },
  {
    "service_request": "2022-953274",
    "request_type": "Trash/Recycling",
    "request_reason": "Replace Trash Cart",
    "date_created": "2022-12-14T14:55:41.000",
    "date_modified": "2022-12-14T14:55:42.000",
    "request_status": "Pending",
    "responsible_agency": "Department of Sanitation",
    "final_address": "2500 BLK S Robertson St",
    "address_councildis": "B",
    "status": "Assigned to Contractor",
    "contractor": "Richards Disposal",
    "rowid": "953274",
    "final_x": "3674571.51696",
    "final_y": "525980.048877",
    "longitude": "-90.09013780174051",
    "latitude": "29.94047119499393",
    "geocoded_column": {
      "latitude": "29.94047119499393",
      "longitude": "-90.09013780174051"
    }
  },
  {
    "service_request": "2022-953273",
    "request_type": "Trash/Recycling",
    "request_reason": "Repair Recycling Cart",
    "date_created": "2022-12-14T14:54:24.000",
    "date_modified": "2022-12-14T14:54:24.000",
    "request_status": "Pending",
    "responsible_agency": "Department of Sanitation",
    "final_address": "6000 Music St",
    "address_councildis": "D",
    "status": "Pending",
    "rowid": "953273",
    "final_x": "3685302.68879",
    "final_y": "555149.120281",
    "longitude": "-90.0552305773943",
    "latitude": "30.020351362168416",
    "geocoded_column": {
      "latitude": "30.020351362168416",
      "longitude": "-90.0552305773943"
    }
  },
  {
    "service_request": "2022-953272",
    "request_type": "Trash/Recycling",
    "request_reason": "Replace Trash Cart",
    "date_created": "2022-12-14T14:49:26.000",
    "date_modified": "2022-12-14T14:51:28.000",
    "request_status": "Pending",
    "responsible_agency": "Department of Sanitation",
    "final_address": "4400 Mithra St",
    "address_councildis": "D",
    "status": "Assigned to Contractor",
    "contractor": "IV Waste",
    "rowid": "953272",
    "final_x": "3690080.43004",
    "final_y": "553163.419223",
    "longitude": "-90.0402052373244",
    "latitude": "30.014744022748314",
    "geocoded_column": {
      "latitude": "30.014744022748314",
      "longitude": "-90.0402052373244"
    }
  },
  {
    "service_request": "2022-953271",
    "request_type": "Trash/Recycling",
    "request_reason": "MIssed Recycling Pick-Up",
    "date_created": "2022-12-14T14:48:06.000",
    "date_modified": "2022-12-14T14:48:06.000",
    "request_status": "Pending",
    "responsible_agency": "Department of Sanitation",
    "final_address": "2018 Dumaine St",
    "address_councildis": "D",
    "status": "Assigned to Contractor",
    "contractor": "Richards Disposal",
    "rowid": "953271",
    "final_x": "3679203.31925",
    "final_y": "535909.282183",
    "longitude": "-90.07517022826022",
    "latitude": "29.96763425141972",
    "geocoded_column": {
      "latitude": "29.96763425141972",
      "longitude": "-90.07517022826022"
    }
  },
  {
    "service_request": "2022-953270",
    "request_type": "Trash/Recycling",
    "request_reason": "Illegal Dumping",
    "date_created": "2022-12-14T14:46:57.000",
    "date_modified": "2022-12-14T14:46:57.000",
    "request_status": "Pending",
    "responsible_agency": "Department of Sanitation",
    "final_address": "8TH ST & BARONNE ST",
    "address_councildis": "B",
    "status": "Pending",
    "rowid": "953270",
    "final_x": "3674582.3",
    "final_y": "522532.48",
    "longitude": "-90.09022184328512",
    "latitude": "29.93099118258138",
    "geocoded_column": {
      "latitude": "29.93099118258138",
      "longitude": "-90.09022184328512"
    }
  },
  {
    "service_request": "2022-953269",
    "request_type": "Trash/Recycling",
    "request_reason": "Replace Trash Cart",
    "date_created": "2022-12-14T14:45:26.000",
    "date_modified": "2022-12-14T14:45:27.000",
    "request_status": "Pending",
    "responsible_agency": "Department of Sanitation",
    "final_address": "2459 N Galvez St",
    "address_councildis": "D",
    "status": "Assigned to Contractor",
    "contractor": "IV Waste",
    "rowid": "953269",
    "final_x": "3686706.19215",
    "final_y": "540186.216139",
    "longitude": "-90.05132491248128",
    "latitude": "29.979165661592",
    "geocoded_column": {
      "latitude": "29.979165661592",
      "longitude": "-90.05132491248128"
    }
  },
  {
    "service_request": "2022-953268",
    "request_type": "Trash/Recycling",
    "request_reason": "Order Recycling Cart",
    "date_created": "2022-12-14T14:44:57.000",
    "date_modified": "2022-12-14T14:44:57.000",
    "request_status": "Pending",
    "responsible_agency": "Department of Sanitation",
    "final_address": "7511 Spring Lake Dr",
    "address_councildis": "E",
    "status": "Pending",
    "rowid": "953268",
    "final_x": "3701068.40055",
    "final_y": "559370.093533",
    "longitude": "-90.00526152071215",
    "latitude": "30.031464454009935",
    "geocoded_column": {
      "latitude": "30.031464454009935",
      "longitude": "-90.00526152071215"
    }
  },
  {
    "service_request": "2022-953267",
    "request_type": "Trash/Recycling",
    "request_reason": "Illegal Dumping",
    "date_created": "2022-12-14T14:44:55.000",
    "date_modified": "2022-12-14T14:44:55.000",
    "request_status": "Pending",
    "responsible_agency": "Department of Sanitation",
    "final_address": "925 Louisiana Ave",
    "address_councildis": "B",
    "status": "Pending",
    "rowid": "953267",
    "final_x": "3675359.5236",
    "final_y": "519187.725623",
    "longitude": "-90.08788301911407",
    "latitude": "29.921770980818113",
    "geocoded_column": {
      "latitude": "29.921770980818113",
      "longitude": "-90.08788301911407"
    }
  },
  {
    "service_request": "2022-953266",
    "request_type": "Trash/Recycling",
    "request_reason": "Replace Trash Cart",
    "date_created": "2022-12-14T14:43:01.000",
    "date_modified": "2022-12-14T14:43:02.000",
    "request_status": "Pending",
    "responsible_agency": "Department of Sanitation",
    "final_address": "7260 Voyageur Dr",
    "address_councildis": "E",
    "status": "Assigned to Contractor",
    "contractor": "Waste Pro",
    "rowid": "953266",
    "final_x": "3726404.52569",
    "final_y": "569052.781734",
    "longitude": "-89.92482330551087",
    "latitude": "30.057256039490074",
    "geocoded_column": {
      "latitude": "30.057256039490074",
      "longitude": "-89.92482330551087"
    }
  },
  {
    "service_request": "2022-953265",
    "request_type": "Trash/Recycling",
    "request_reason": "Missed Trash Pick-Up",
    "date_created": "2022-12-14T14:41:01.000",
    "date_modified": "2022-12-14T14:41:02.000",
    "request_status": "Pending",
    "responsible_agency": "Department of Sanitation",
    "final_address": "5032 Papania Dr",
    "address_councildis": "E",
    "status": "Assigned to Contractor",
    "contractor": "Waste Pro",
    "rowid": "953265",
    "final_x": "3715361.51954",
    "final_y": "558293.226076",
    "longitude": "-89.96013591203086",
    "latitude": "30.028040243143813",
    "geocoded_column": {
      "latitude": "30.028040243143813",
      "longitude": "-89.96013591203086"
    }
  },
  {
    "service_request": "2022-953264",
    "request_type": "Trash/Recycling",
    "request_reason": "Order Recycling Cart",
    "date_created": "2022-12-14T14:19:46.000",
    "date_modified": "2022-12-14T14:19:46.000",
    "request_status": "Pending",
    "responsible_agency": "Department of Sanitation",
    "final_address": "919 Port St",
    "address_councildis": "C",
    "status": "Pending",
    "rowid": "953264",
    "final_x": "3687290.90505",
    "final_y": "535752.644103",
    "longitude": "-90.04963504269774",
    "latitude": "29.966956892781894",
    "geocoded_column": {
      "latitude": "29.966956892781894",
      "longitude": "-90.04963504269774"
    }
  },
  {
    "service_request": "2022-953263",
    "request_type": "Traffic Signals/Signs/Striping/Streetlights",
    "request_reason": "Street Light Outage/Malfunction",
    "date_created": "2022-12-14T14:15:15.000",
    "date_modified": "2022-12-14T14:15:16.000",
    "request_status": "Pending",
    "responsible_agency": "Department of Public Works",
    "final_address": "2422 Jackson Ave",
    "address_councildis": "B",
    "status": "Pending",
    "contractor": "Legacy Professional Services",
    "rowid": "953263",
    "final_x": "3675466.32341",
    "final_y": "526436.895486",
    "longitude": "-90.0872970627016",
    "latitude": "29.941700648012176",
    "geocoded_column": {
      "latitude": "29.941700648012176",
      "longitude": "-90.0872970627016"
    }
  },
  {
    "service_request": "2022-953262",
    "request_type": "Trash/Recycling",
    "request_reason": "Missed Trash Pick-Up",
    "date_created": "2022-12-14T14:11:31.000",
    "date_modified": "2022-12-14T14:11:31.000",
    "request_status": "Pending",
    "responsible_agency": "Department of Sanitation",
    "final_address": "11211 N Idlewood Ct",
    "address_councildis": "E",
    "status": "Assigned to Contractor",
    "contractor": "Waste Pro",
    "rowid": "953262",
    "final_x": "3716025.86207",
    "final_y": "560277.469149",
    "longitude": "-89.9579613954362",
    "latitude": "30.03347420878148",
    "geocoded_column": {
      "latitude": "30.03347420878148",
      "longitude": "-89.9579613954362"
    }
  },
  {
    "service_request": "2022-953261",
    "request_type": "Trash/Recycling",
    "request_reason": "Order Trash Cart",
    "date_created": "2022-12-14T14:11:13.000",
    "date_modified": "2022-12-14T14:11:13.000",
    "request_status": "Pending",
    "responsible_agency": "Department of Sanitation",
    "final_address": "6811 Fleur-De-Lis Dr",
    "address_councildis": "A",
    "status": "Assigned to Contractor",
    "contractor": "IV Waste",
    "rowid": "953261",
    "final_x": "3665558.64845",
    "final_y": "553467.085527",
    "longitude": "-90.11767233295781",
    "latitude": "30.016317133875827",
    "geocoded_column": {
      "latitude": "30.016317133875827",
      "longitude": "-90.11767233295781"
    }
  },
  {
    "service_request": "2022-953260",
    "request_type": "Trash/Recycling",
    "request_reason": "MIssed Recycling Pick-Up",
    "date_created": "2022-12-14T14:08:57.000",
    "date_modified": "2022-12-14T14:08:58.000",
    "request_status": "Pending",
    "responsible_agency": "Department of Sanitation",
    "final_address": "2922 Third St",
    "address_councildis": "B",
    "status": "Assigned to Contractor",
    "contractor": "Richards Disposal",
    "rowid": "953260",
    "final_x": "3673772.63739",
    "final_y": "526842.638142",
    "longitude": "-90.09263051214735",
    "latitude": "29.942866841742514",
    "geocoded_column": {
      "latitude": "29.942866841742514",
      "longitude": "-90.09263051214735"
    }
  },
  {
    "service_request": "2022-953259",
    "request_type": "Roads/Drainage",
    "request_reason": "Catch Basin - Clogged",
    "date_created": "2022-12-14T14:07:26.000",
    "date_modified": "2022-12-14T14:07:26.000",
    "request_status": "Pending",
    "responsible_agency": "Department of Public Works",
    "final_address": "2210 Orleans Ave",
    "address_councildis": "D",
    "status": "Pending",
    "rowid": "953259",
    "final_x": "3678255.75426",
    "final_y": "535823.555591",
    "longitude": "-90.0781656276981",
    "latitude": "29.96742710736512",
    "geocoded_column": {
      "latitude": "29.96742710736512",
      "longitude": "-90.0781656276981"
    }
  },
  {
    "service_request": "2022-953258",
    "request_type": "Abandoned Vehicles",
    "request_reason": "Abandoned/Junk Vehicles",
    "date_created": "2022-12-14T14:07:07.000",
    "date_modified": "2022-12-14T14:07:07.000",
    "request_status": "Pending",
    "responsible_agency": "Department of Public Works",
    "final_address": "218 S Salcedo St",
    "address_councildis": "B",
    "status": "Pending",
    "rowid": "953258",
    "final_x": "3673789.96347",
    "final_y": "535557.49479",
    "longitude": "-90.09227779648101",
    "latitude": "29.966829284286664",
    "geocoded_column": {
      "latitude": "29.966829284286664",
      "longitude": "-90.09227779648101"
    }
  },
  {
    "service_request": "2022-953257",
    "request_type": "Roads/Drainage",
    "request_reason": "Debris in Roadway",
    "date_created": "2022-12-14T14:06:09.000",
    "date_modified": "2022-12-14T14:06:09.000",
    "request_status": "Pending",
    "responsible_agency": "Department of Public Works",
    "final_address": "8531 Spruce St",
    "address_councildis": "A",
    "status": "Pending",
    "rowid": "953257",
    "final_x": "3662628.39258",
    "final_y": "531619.115203",
    "longitude": "-90.12765706429461",
    "latitude": "29.956327712212946",
    "geocoded_column": {
      "latitude": "29.956327712212946",
      "longitude": "-90.12765706429461"
    }
  },
  {
    "service_request": "2022-953256",
    "request_type": "Trash/Recycling",
    "request_reason": "Repair Trash Cart",
    "date_created": "2022-12-14T14:05:09.000",
    "date_modified": "2022-12-14T14:05:10.000",
    "request_status": "Pending",
    "responsible_agency": "Department of Sanitation",
    "final_address": "5706 W Louis Prima Dr",
    "address_councildis": "E",
    "status": "Assigned to Contractor",
    "contractor": "Waste Pro",
    "rowid": "953256",
    "final_x": "3715856.08504",
    "final_y": "561620.272351",
    "longitude": "-89.95844698701346",
    "latitude": "30.037171979515666",
    "geocoded_column": {
      "latitude": "30.037171979515666",
      "longitude": "-89.95844698701346"
    }
  },
  {
    "service_request": "2022-953255",
    "request_type": "Traffic Signals/Signs/Striping/Streetlights",
    "request_reason": "Request for Stop Sign",
    "date_created": "2022-12-14T14:00:46.000",
    "date_modified": "2022-12-14T14:00:46.000",
    "request_status": "Pending",
    "responsible_agency": "Department of Public Works",
    "final_address": "8100 Pritchard Pl",
    "address_councildis": "A",
    "status": "Pending",
    "rowid": "953255",
    "final_x": "3665950.92896",
    "final_y": "532850.594052",
    "longitude": "-90.11712428790484",
    "latitude": "29.959617328368168",
    "geocoded_column": {
      "latitude": "29.959617328368168",
      "longitude": "-90.11712428790484"
    }
  },
  {
    "service_request": "2022-953253",
    "request_type": "Trash/Recycling",
    "request_reason": "MIssed Recycling Pick-Up",
    "date_created": "2022-12-14T13:58:34.000",
    "date_modified": "2022-12-14T13:58:35.000",
    "request_status": "Pending",
    "responsible_agency": "Department of Sanitation",
    "final_address": "2362 Chippewa St",
    "address_councildis": "B",
    "status": "Assigned to Contractor",
    "contractor": "Richards Disposal",
    "rowid": "953253",
    "final_x": "3679016.45608",
    "final_y": "520335.637944",
    "longitude": "-90.07629989257582",
    "latitude": "29.924817564935147",
    "geocoded_column": {
      "latitude": "29.924817564935147",
      "longitude": "-90.07629989257582"
    }
  },
  {
    "service_request": "2022-953252",
    "request_type": "Traffic Signals/Signs/Striping/Streetlights",
    "request_reason": "Street Light Outage/Malfunction",
    "date_created": "2022-12-14T13:57:23.000",
    "date_modified": "2022-12-14T13:57:24.000",
    "request_status": "Pending",
    "responsible_agency": "Department of Public Works",
    "final_address": "2400 Jackson Ave",
    "address_councildis": "B",
    "status": "Pending",
    "contractor": "Legacy Professional Services",
    "rowid": "953252",
    "final_x": "3675569.19349",
    "final_y": "526308.323262",
    "longitude": "-90.08697669595185",
    "latitude": "29.941344040353535",
    "geocoded_column": {
      "latitude": "29.941344040353535",
      "longitude": "-90.08697669595185"
    }
  },
  {
    "service_request": "2022-953251",
    "request_type": "Trash/Recycling",
    "request_reason": "Order Recycling Cart",
    "date_created": "2022-12-14T13:54:11.000",
    "date_modified": "2022-12-14T13:54:12.000",
    "request_status": "Pending",
    "responsible_agency": "Department of Sanitation",
    "final_address": "11024 S Hardy St",
    "address_councildis": "E",
    "status": "Pending",
    "rowid": "953251",
    "final_x": "3713467.22911",
    "final_y": "561892.303519",
    "longitude": "-89.96598597208859",
    "latitude": "30.037998554002233",
    "geocoded_column": {
      "latitude": "30.037998554002233",
      "longitude": "-89.96598597208859"
    }
  },
  {
    "service_request": "2022-953250",
    "request_type": "Traffic Signals/Signs/Striping/Streetlights",
    "request_reason": "Additional signage",
    "date_created": "2022-12-14T13:54:02.000",
    "date_modified": "2022-12-14T13:54:02.000",
    "request_status": "Pending",
    "responsible_agency": "Department of Public Works",
    "final_address": "CLEVELAND AVE & S GAYOSO ST",
    "address_councildis": "B",
    "status": "Pending",
    "rowid": "953250",
    "final_x": "3674091.3",
    "final_y": "535535.68",
    "longitude": "-90.09132692142146",
    "latitude": "29.9667603232891",
    "geocoded_column": {
      "latitude": "29.9667603232891",
      "longitude": "-90.09132692142146"
    }
  },
  {
    "service_request": "2022-953249",
    "request_type": "Trash/Recycling",
    "request_reason": "Request a Large Item Pick Up",
    "date_created": "2022-12-14T13:51:56.000",
    "date_modified": "2022-12-14T14:14:16.000",
    "request_status": "Pending",
    "responsible_agency": "Department of Sanitation",
    "final_address": "5145 Marigny Street, New Orleans, La 70122",
    "address_councildis": "D",
    "status": "Assigned to Contractor",
    "contractor": "IV Waste",
    "rowid": "953249",
    "final_x": "3684395.78876",
    "final_y": "551643.390293",
    "longitude": "-90.05821936623308",
    "latitude": "30.010739671622527",
    "geocoded_column": {
      "latitude": "30.010739671622527",
      "longitude": "-90.05821936623308"
    }
  },
  {
    "service_request": "2022-953248",
    "request_type": "Trash/Recycling",
    "request_reason": "Repair Trash Cart",
    "date_created": "2022-12-14T13:51:28.000",
    "date_modified": "2022-12-14T13:51:28.000",
    "request_status": "Pending",
    "responsible_agency": "Department of Sanitation",
    "final_address": "2446 Royal St",
    "address_councildis": "C",
    "status": "Assigned to Contractor",
    "contractor": "IV Waste",
    "rowid": "953248",
    "final_x": "3686297.0767",
    "final_y": "534925.501638",
    "longitude": "-90.05280274003914",
    "latitude": "29.964713115307987",
    "geocoded_column": {
      "latitude": "29.964713115307987",
      "longitude": "-90.05280274003914"
    }
  },
  {
    "service_request": "2022-953247",
    "request_type": "Trash/Recycling",
    "request_reason": "Missed Trash Pick-Up",
    "date_created": "2022-12-14T13:49:12.000",
    "date_modified": "2022-12-14T13:49:13.000",
    "request_status": "Pending",
    "responsible_agency": "Department of Sanitation",
    "final_address": "732 Pacific Ave",
    "address_councildis": "C",
    "status": "Assigned to Contractor",
    "contractor": "Richards Disposal",
    "rowid": "953247",
    "final_x": "3688510.70217",
    "final_y": "528792.5456",
    "longitude": "-90.04602986702261",
    "latitude": "29.94778139629566",
    "geocoded_column": {
      "latitude": "29.94778139629566",
      "longitude": "-90.04602986702261"
    }
  },
  {
    "service_request": "2022-953246",
    "request_type": "Traffic Signals/Signs/Striping/Streetlights",
    "request_reason": "Traffic Signal Malfunctioning/Damaged",
    "date_created": "2022-12-14T13:49:02.000",
    "date_modified": "2022-12-14T13:49:02.000",
    "request_status": "Pending",
    "responsible_agency": "Department of Public Works",
    "final_address": "CARONDELET ST & ST CHARLES EXIT & CALLIOPE ST",
    "address_councildis": "B",
    "status": "Pending",
    "rowid": "953246",
    "final_x": "3679435.33",
    "final_y": "526777.12",
    "longitude": "-90.07475430373874",
    "latitude": "29.94251687804364",
    "geocoded_column": {
      "latitude": "29.94251687804364",
      "longitude": "-90.07475430373874"
    }
  },
  {
    "service_request": "2022-953245",
    "request_type": "Trash/Recycling",
    "request_reason": "Order Trash Cart",
    "date_created": "2022-12-14T13:48:41.000",
    "date_modified": "2022-12-14T13:48:42.000",
    "request_status": "Pending",
    "responsible_agency": "Department of Sanitation",
    "final_address": "1325 Senate St",
    "address_councildis": "D",
    "status": "Assigned to Contractor",
    "contractor": "IV Waste",
    "rowid": "953245",
    "final_x": "3677683.25909",
    "final_y": "547290.534801",
    "longitude": "-90.07957734353118",
    "latitude": "29.998974553716586",
    "geocoded_column": {
      "latitude": "29.998974553716586",
      "longitude": "-90.07957734353118"
    }
  },
  {
    "service_request": "2022-953244",
    "request_type": "Trash/Recycling",
    "request_reason": "Missed Trash Pick-Up",
    "date_created": "2022-12-14T13:44:14.000",
    "date_modified": "2022-12-14T13:44:15.000",
    "request_status": "Pending",
    "responsible_agency": "Department of Sanitation",
    "final_address": "1717 Lizardi St",
    "address_councildis": "E",
    "status": "Assigned to Contractor",
    "contractor": "Waste Pro",
    "rowid": "953244",
    "final_x": "3697235.11421",
    "final_y": "536501.180295",
    "longitude": "-90.01820424816353",
    "latitude": "29.968705024601757",
    "geocoded_column": {
      "latitude": "29.968705024601757",
      "longitude": "-90.01820424816353"
    }
  },
  {
    "service_request": "2022-953243",
    "request_type": "Trash/Recycling",
    "request_reason": "Missed Trash Pick-Up",
    "date_created": "2022-12-14T13:35:41.000",
    "date_modified": "2022-12-14T14:19:38.000",
    "case_close_date": "2022-12-14T08:19:38.000",
    "request_status": "Closed",
    "responsible_agency": "Department of Sanitation",
    "final_address": "3730 Clermont Dr",
    "address_councildis": "D",
    "status": "Assigned to Contractor",
    "contractor": "IV Waste",
    "contractor_action": "Completed",
    "rowid": "953243",
    "final_x": "3685484.19375",
    "final_y": "546247.210512",
    "longitude": "-90.05497088191703",
    "latitude": "29.99586878063454",
    "geocoded_column": {
      "latitude": "29.99586878063454",
      "longitude": "-90.05497088191703"
    }
  },
  {
    "service_request": "2022-953242",
    "request_type": "Trash/Recycling",
    "request_reason": "Missed Trash Pick-Up",
    "date_created": "2022-12-14T13:32:47.000",
    "date_modified": "2022-12-14T13:32:47.000",
    "request_status": "Pending",
    "responsible_agency": "Department of Sanitation",
    "final_address": "271 Oakmont Dr",
    "address_councildis": "E",
    "status": "Assigned to Contractor",
    "contractor": "Waste Pro",
    "rowid": "953242",
    "final_x": "3719768.70028",
    "final_y": "562743.557536",
    "longitude": "-89.94603941851706",
    "latitude": "30.040130888776066",
    "geocoded_column": {
      "latitude": "30.040130888776066",
      "longitude": "-89.94603941851706"
    }
  },
  {
    "service_request": "2022-953241",
    "request_type": "Roads/Drainage",
    "request_reason": "Catch Basin - Broken/Damage",
    "date_created": "2022-12-14T13:27:16.000",
    "date_modified": "2022-12-14T13:27:16.000",
    "request_status": "Pending",
    "responsible_agency": "Department of Public Works",
    "final_address": "2439 Decatur St",
    "address_councildis": "C",
    "status": "Pending",
    "rowid": "953241",
    "final_x": "3686261.73807",
    "final_y": "534268.555909",
    "longitude": "-90.05293751883266",
    "latitude": "29.9629078279209",
    "geocoded_column": {
      "latitude": "29.9629078279209",
      "longitude": "-90.05293751883266"
    }
  },
  {
    "service_request": "2022-953240",
    "request_type": "Trash/Recycling",
    "request_reason": "Repair Trash Cart",
    "date_created": "2022-12-14T13:24:48.000",
    "date_modified": "2022-12-14T13:24:49.000",
    "request_status": "Pending",
    "responsible_agency": "Department of Sanitation",
    "final_address": "4643 Cardenas Dr",
    "address_councildis": "E",
    "status": "Assigned to Contractor",
    "contractor": "Waste Pro",
    "rowid": "953240",
    "final_x": "3713799.80843",
    "final_y": "555868.332633",
    "longitude": "-89.9651622593385",
    "latitude": "30.021424115006845",
    "geocoded_column": {
      "latitude": "30.021424115006845",
      "longitude": "-89.9651622593385"
    }
  },
  {
    "service_request": "2022-953239",
    "request_type": "Roads/Drainage",
    "request_reason": "Culvert Issue",
    "date_created": "2022-12-14T13:20:57.000",
    "date_modified": "2022-12-14T13:20:58.000",
    "request_status": "Pending",
    "responsible_agency": "Department of Public Works",
    "final_address": "3512 N Derbigny St",
    "address_councildis": "D",
    "status": "Pending",
    "rowid": "953239",
    "final_x": "3691117.31318",
    "final_y": "537776.85716",
    "longitude": "-90.0374789865351",
    "latitude": "29.972404338530247",
    "geocoded_column": {
      "latitude": "29.972404338530247",
      "longitude": "-90.0374789865351"
    }
  },
  {
    "service_request": "2022-953238",
    "request_type": "Abandoned Vehicles",
    "request_reason": "Abandoned/Junk Vehicles",
    "date_created": "2022-12-14T13:19:39.000",
    "date_modified": "2022-12-14T13:19:39.000",
    "request_status": "Pending",
    "responsible_agency": "Department of Public Works",
    "final_address": "816 N Dorgenois St",
    "address_councildis": "D",
    "status": "Pending",
    "rowid": "953238",
    "final_x": "3677488.00027",
    "final_y": "536979.51668",
    "longitude": "-90.08055029690476",
    "latitude": "29.97062870865787",
    "geocoded_column": {
      "latitude": "29.97062870865787",
      "longitude": "-90.08055029690476"
    }
  },
  {
    "service_request": "2022-953237",
    "request_type": "Trash/Recycling",
    "request_reason": "Request a Large Item Pick Up",
    "date_created": "2022-12-14T13:16:59.000",
    "date_modified": "2022-12-14T14:21:19.000",
    "request_status": "Pending",
    "responsible_agency": "Department of Sanitation",
    "final_address": "13118 Dwyer Blvd",
    "address_councildis": "E",
    "status": "Assigned to Contractor",
    "contractor": "Waste Pro",
    "rowid": "953237",
    "final_x": "3724198.54828",
    "final_y": "561238.55683",
    "longitude": "-89.93209804600616",
    "latitude": "30.035844541176957",
    "geocoded_column": {
      "latitude": "30.035844541176957",
      "longitude": "-89.93209804600616"
    }
  },
  {
    "service_request": "2022-953236",
    "request_type": "Trash/Recycling",
    "request_reason": "Return Trash Cart",
    "date_created": "2022-12-14T13:14:13.000",
    "date_modified": "2022-12-14T13:14:14.000",
    "request_status": "Pending",
    "responsible_agency": "Department of Sanitation",
    "final_address": "13118 Dwyer Blvd",
    "address_councildis": "E",
    "status": "Assigned to Contractor",
    "contractor": "Waste Pro",
    "rowid": "953236",
    "final_x": "3724198.54828",
    "final_y": "561238.55683",
    "longitude": "-89.93209804600616",
    "latitude": "30.035844541176957",
    "geocoded_column": {
      "latitude": "30.035844541176957",
      "longitude": "-89.93209804600616"
    }
  },
  {
    "service_request": "2022-953235",
    "request_type": "Trash/Recycling",
    "request_reason": "MIssed Recycling Pick-Up",
    "date_created": "2022-12-14T13:13:36.000",
    "date_modified": "2022-12-14T13:13:36.000",
    "request_status": "Pending",
    "responsible_agency": "Department of Sanitation",
    "final_address": "4312 Coliseum St, New Orleans, Louisiana, 70115",
    "address_councildis": "B",
    "status": "Assigned to Contractor",
    "contractor": "Richards Disposal",
    "rowid": "953235",
    "final_x": "3671244.94766",
    "final_y": "519766.51916",
    "longitude": "-90.10085135858562",
    "latitude": "29.92348481027771",
    "geocoded_column": {
      "latitude": "29.92348481027771",
      "longitude": "-90.10085135858562"
    }
  },
  {
    "service_request": "2022-953234",
    "request_type": "Trash/Recycling",
    "request_reason": "Order Recycling Cart",
    "date_created": "2022-12-14T13:07:55.000",
    "date_modified": "2022-12-14T13:07:55.000",
    "request_status": "Pending",
    "responsible_agency": "Department of Sanitation",
    "final_address": "1711 Second St",
    "address_councildis": "B",
    "status": "Pending",
    "rowid": "953234",
    "final_x": "3676457.57998",
    "final_y": "523470.685755",
    "longitude": "-90.08426954711605",
    "latitude": "29.933514867793466",
    "geocoded_column": {
      "latitude": "29.933514867793466",
      "longitude": "-90.08426954711605"
    }
  },
  {
    "service_request": "2022-953233",
    "request_type": "Trash/Recycling",
    "request_reason": "Request a Large Item Pick Up",
    "date_created": "2022-12-14T13:06:08.000",
    "date_modified": "2022-12-14T14:20:20.000",
    "request_status": "Pending",
    "responsible_agency": "Department of Sanitation",
    "final_address": "6345 Marshal Foch St",
    "address_councildis": "A",
    "status": "Assigned to Contractor",
    "contractor": "IV Waste",
    "rowid": "953233",
    "final_x": "3670106.81799",
    "final_y": "549573.619539",
    "longitude": "-90.10343409505279",
    "latitude": "30.005478010746582",
    "geocoded_column": {
      "latitude": "30.005478010746582",
      "longitude": "-90.10343409505279"
    }
  },
  {
    "service_request": "2022-953232",
    "request_type": "Trash/Recycling",
    "request_reason": "Request a Large Item Pick Up",
    "date_created": "2022-12-14T13:05:12.000",
    "date_modified": "2022-12-14T13:05:13.000",
    "request_status": "Pending",
    "responsible_agency": "Department of Sanitation",
    "final_address": "7 Glacier Ct",
    "address_councildis": "C",
    "status": "Assigned to Contractor",
    "contractor": "Richards Disposal",
    "rowid": "953232",
    "final_x": "3700154.94109",
    "final_y": "516306.348084",
    "longitude": "-90.00972003476546",
    "latitude": "29.913083827249537",
    "geocoded_column": {
      "latitude": "29.913083827249537",
      "longitude": "-90.00972003476546"
    }
  },
  {
    "service_request": "2022-953231",
    "request_type": "Trash/Recycling",
    "request_reason": "Illegal Dumping",
    "date_created": "2022-12-14T13:04:24.000",
    "date_modified": "2022-12-14T13:04:25.000",
    "request_status": "Pending",
    "responsible_agency": "Department of Sanitation",
    "final_address": "5418 Story St",
    "address_councildis": "A",
    "status": "Pending",
    "rowid": "953231",
    "final_x": "3668162.72167",
    "final_y": "525970.042685",
    "longitude": "-90.11037182716561",
    "latitude": "29.94063331846636",
    "geocoded_column": {
      "latitude": "29.94063331846636",
      "longitude": "-90.11037182716561"
    }
  },
  {
    "service_request": "2022-953230",
    "request_type": "Property Maintenance",
    "request_reason": "Property Maintenance",
    "date_created": "2022-12-14T12:56:13.000",
    "date_modified": "2022-12-14T12:56:13.000",
    "request_status": "Pending",
    "responsible_agency": "Department of Code Enforcement",
    "final_address": "4025 Baudin St",
    "address_councildis": "A",
    "status": "Pending",
    "rowid": "953230",
    "final_x": "3670391.15047",
    "final_y": "536917.054408",
    "longitude": "-90.10296516910648",
    "latitude": "29.970668401595805",
    "geocoded_column": {
      "latitude": "29.970668401595805",
      "longitude": "-90.10296516910648"
    }
  },
  {
    "service_request": "2022-953229",
    "request_type": "Trash/Recycling",
    "request_reason": "Missed Trash Pick-Up",
    "date_created": "2022-12-14T12:55:14.000",
    "date_modified": "2022-12-14T12:55:15.000",
    "request_status": "Pending",
    "responsible_agency": "Department of Sanitation",
    "final_address": "1100 BLK Robert St",
    "address_councildis": "B",
    "status": "Assigned to Contractor",
    "contractor": "Richards Disposal",
    "rowid": "953229",
    "final_x": "3668671.7745",
    "final_y": "519486.575972",
    "longitude": "-90.1089833751899",
    "latitude": "29.922790908294584",
    "geocoded_column": {
      "latitude": "29.922790908294584",
      "longitude": "-90.1089833751899"
    }
  },
  {
    "service_request": "2022-953228",
    "request_type": "Trash/Recycling",
    "request_reason": "MIssed Recycling Pick-Up",
    "date_created": "2022-12-14T12:54:19.000",
    "date_modified": "2022-12-14T12:54:20.000",
    "request_status": "Pending",
    "responsible_agency": "Department of Sanitation",
    "final_address": "1528 St Philip St",
    "address_councildis": "C",
    "status": "Assigned to Contractor",
    "contractor": "Richards Disposal",
    "rowid": "953228",
    "final_x": "3680772.24552",
    "final_y": "535182.214022",
    "longitude": "-90.07024083428946",
    "latitude": "29.96558760095176",
    "geocoded_column": {
      "latitude": "29.96558760095176",
      "longitude": "-90.07024083428946"
    }
  },
  {
    "service_request": "2022-953227",
    "request_type": "Trash/Recycling",
    "request_reason": "Missed Trash Pick-Up",
    "date_created": "2022-12-14T12:50:39.000",
    "date_modified": "2022-12-14T12:50:40.000",
    "request_status": "Pending",
    "responsible_agency": "Department of Sanitation",
    "final_address": "5005 Coliseum St",
    "address_councildis": "B",
    "status": "Assigned to Contractor",
    "contractor": "Richards Disposal",
    "rowid": "953227",
    "final_x": "3668636.66676",
    "final_y": "519683.681976",
    "longitude": "-90.10908754921915",
    "latitude": "29.923333918865346",
    "geocoded_column": {
      "latitude": "29.923333918865346",
      "longitude": "-90.10908754921915"
    }
  },
  {
    "service_request": "2022-953226",
    "request_type": "Trash/Recycling",
    "request_reason": "Missed Trash Pick-Up",
    "date_created": "2022-12-14T12:43:46.000",
    "date_modified": "2022-12-14T12:43:47.000",
    "request_status": "Pending",
    "responsible_agency": "Department of Sanitation",
    "final_address": "815 Leontine St",
    "address_councildis": "B",
    "status": "Assigned to Contractor",
    "contractor": "Richards Disposal",
    "rowid": "953226",
    "final_x": "3667173.42644",
    "final_y": "518443.944438",
    "longitude": "-90.11374811573283",
    "latitude": "29.919967937328273",
    "geocoded_column": {
      "latitude": "29.919967937328273",
      "longitude": "-90.11374811573283"
    }
  },
  {
    "service_request": "2022-953225",
    "request_type": "Trash/Recycling",
    "request_reason": "Missed Trash Pick-Up",
    "date_created": "2022-12-14T12:40:32.000",
    "date_modified": "2022-12-14T12:40:33.000",
    "request_status": "Pending",
    "responsible_agency": "Department of Sanitation",
    "final_address": "10241 Deer Park Blvd",
    "address_councildis": "E",
    "status": "Assigned to Contractor",
    "contractor": "Waste Pro",
    "rowid": "953225",
    "final_x": "3712401.59934",
    "final_y": "560891.587678",
    "longitude": "-89.96939124063088",
    "latitude": "30.035281907524798",
    "geocoded_column": {
      "latitude": "30.035281907524798",
      "longitude": "-89.96939124063088"
    }
  },
  {
    "service_request": "2022-953222",
    "request_type": "Roads/Drainage",
    "request_reason": "Damaged Sidewalk",
    "date_created": "2022-12-14T12:32:36.000",
    "date_modified": "2022-12-14T12:32:36.000",
    "request_status": "Pending",
    "responsible_agency": "Department of Public Works",
    "final_address": "7149 Westhaven Rd",
    "address_councildis": "E",
    "status": "Pending",
    "rowid": "953222",
    "final_x": "3703754.26257",
    "final_y": "560122.723677",
    "longitude": "-89.99674639708648",
    "latitude": "30.033448023492415",
    "geocoded_column": {
      "latitude": "30.033448023492415",
      "longitude": "-89.99674639708648"
    }
  },
  {
    "service_request": "2022-953219",
    "request_type": "Trash/Recycling",
    "request_reason": "Missed Trash Pick-Up",
    "date_created": "2022-12-14T12:31:46.000",
    "date_modified": "2022-12-14T12:31:47.000",
    "request_status": "Pending",
    "responsible_agency": "Department of Sanitation",
    "final_address": "826 Elmira Ave",
    "address_councildis": "C",
    "status": "Assigned to Contractor",
    "contractor": "Richards Disposal",
    "rowid": "953219",
    "final_x": "3688190.71676",
    "final_y": "528476.538048",
    "longitude": "-90.04705138536406",
    "latitude": "29.946922364375258",
    "geocoded_column": {
      "latitude": "29.946922364375258",
      "longitude": "-90.04705138536406"
    }
  },
  {
    "service_request": "2022-953217",
    "request_type": "Trash/Recycling",
    "request_reason": "Order Recycling Cart",
    "date_created": "2022-12-14T12:28:56.000",
    "date_modified": "2022-12-14T12:28:56.000",
    "request_status": "Pending",
    "responsible_agency": "Department of Sanitation",
    "final_address": "1844 Burgundy St",
    "address_councildis": "C",
    "status": "Pending",
    "rowid": "953217",
    "final_x": "3683745.031",
    "final_y": "535448.554054",
    "longitude": "-90.06084357128333",
    "latitude": "29.966229503392896",
    "geocoded_column": {
      "latitude": "29.966229503392896",
      "longitude": "-90.06084357128333"
    }
  },
  {
    "service_request": "2022-953216",
    "request_type": "Trash/Recycling",
    "request_reason": "Missed Trash Pick-Up",
    "date_created": "2022-12-14T12:28:53.000",
    "date_modified": "2022-12-14T12:28:54.000",
    "request_status": "Pending",
    "responsible_agency": "Department of Sanitation",
    "final_address": "1200 BLK Burdette St",
    "address_councildis": "A",
    "status": "Assigned to Contractor",
    "contractor": "Richards Disposal",
    "rowid": "953216",
    "final_x": "3662913.08719",
    "final_y": "527745.069298",
    "longitude": "-90.1268868893026",
    "latitude": "29.945667094093377",
    "geocoded_column": {
      "latitude": "29.945667094093377",
      "longitude": "-90.1268868893026"
    }
  },
  {
    "service_request": "2022-953215",
    "request_type": "Trash/Recycling",
    "request_reason": "Order Recycling Cart",
    "date_created": "2022-12-14T12:27:27.000",
    "date_modified": "2022-12-14T12:27:27.000",
    "request_status": "Pending",
    "responsible_agency": "Department of Sanitation",
    "final_address": "2307 Mexico St",
    "address_councildis": "D",
    "status": "Pending",
    "rowid": "953215",
    "final_x": "3684272.91868",
    "final_y": "556302.502106",
    "longitude": "-90.05844378242276",
    "latitude": "30.023554279934952",
    "geocoded_column": {
      "latitude": "30.023554279934952",
      "longitude": "-90.05844378242276"
    }
  },
  {
    "service_request": "2022-953214",
    "request_type": "Trash/Recycling",
    "request_reason": "Request a Large Item Pick Up",
    "date_created": "2022-12-14T12:26:58.000",
    "date_modified": "2022-12-14T12:27:00.000",
    "request_status": "Pending",
    "responsible_agency": "Department of Sanitation",
    "final_address": "4623 Dart St",
    "address_councildis": "B",
    "status": "Assigned to Contractor",
    "contractor": "Richards Disposal",
    "rowid": "953214",
    "final_x": "3669207.88385",
    "final_y": "531658.224579",
    "longitude": "-90.106879842914",
    "latitude": "29.956243248612864",
    "geocoded_column": {
      "latitude": "29.956243248612864",
      "longitude": "-90.106879842914"
    }
  },
  {
    "service_request": "2022-953213",
    "request_type": "Trash/Recycling",
    "request_reason": "Request a Large Item Pick Up",
    "date_created": "2022-12-14T12:25:17.000",
    "date_modified": "2022-12-14T12:25:18.000",
    "request_status": "Pending",
    "responsible_agency": "Department of Sanitation",
    "final_address": "4743 Charlmark Dr",
    "address_councildis": "E",
    "status": "Assigned to Contractor",
    "contractor": "Waste Pro",
    "rowid": "953213",
    "final_x": "3711512.81662",
    "final_y": "556041.107417",
    "longitude": "-89.97238197222306",
    "latitude": "30.021974064808084",
    "geocoded_column": {
      "latitude": "30.021974064808084",
      "longitude": "-89.97238197222306"
    }
  },
  {
    "service_request": "2022-953212",
    "request_type": "Roads/Drainage",
    "request_reason": "Pothole",
    "date_created": "2022-12-14T12:17:44.000",
    "date_modified": "2022-12-14T12:17:44.000",
    "request_status": "Closed",
    "responsible_agency": "Department of Public Works",
    "final_address": "4074 Fairmont Dr",
    "address_councildis": "D",
    "status": "Duplicate Request",
    "rowid": "953212",
    "final_x": "3684471.6285",
    "final_y": "547365.762641",
    "longitude": "-90.05813016396982",
    "latitude": "29.998975421254247",
    "geocoded_column": {
      "latitude": "29.998975421254247",
      "longitude": "-90.05813016396982"
    }
  },
  {
    "service_request": "2022-953211",
    "request_type": "Trash/Recycling",
    "request_reason": "Request a Large Item Pick Up",
    "date_created": "2022-12-14T12:17:39.000",
    "date_modified": "2022-12-14T12:17:40.000",
    "request_status": "Pending",
    "responsible_agency": "Department of Sanitation",
    "final_address": "606 Aurora Oaks Dr",
    "address_councildis": "C",
    "status": "Assigned to Contractor",
    "contractor": "Richards Disposal",
    "rowid": "953211",
    "final_x": "3701314.48074",
    "final_y": "520763.253945",
    "longitude": "-90.00589723957113",
    "latitude": "29.92530190991894",
    "geocoded_column": {
      "latitude": "29.92530190991894",
      "longitude": "-90.00589723957113"
    }
  },
  {
    "service_request": "2022-953210",
    "request_type": "Trash/Recycling",
    "request_reason": "MIssed Recycling Pick-Up",
    "date_created": "2022-12-14T12:17:29.000",
    "date_modified": "2022-12-14T12:17:30.000",
    "request_status": "Pending",
    "responsible_agency": "Department of Sanitation",
    "final_address": "1404 Prytania St",
    "address_councildis": "B",
    "status": "Assigned to Contractor",
    "contractor": "Richards Disposal",
    "rowid": "953210",
    "final_x": "3679810.86639",
    "final_y": "525432.897661",
    "longitude": "-90.07361530748928",
    "latitude": "29.93880936568376",
    "geocoded_column": {
      "latitude": "29.93880936568376",
      "longitude": "-90.07361530748928"
    }
  },
  {
    "service_request": "2022-953209",
    "request_type": "Traffic Signals/Signs/Striping/Streetlights",
    "request_reason": "Street Light Outage/Malfunction",
    "date_created": "2022-12-14T12:15:17.000",
    "date_modified": "2022-12-14T12:15:18.000",
    "request_status": "Pending",
    "responsible_agency": "Department of Public Works",
    "final_address": "7149 Westhaven Rd",
    "address_councildis": "E",
    "status": "Pending",
    "contractor": "Legacy Professional Services",
    "rowid": "953209",
    "final_x": "3703754.26257",
    "final_y": "560122.723677",
    "longitude": "-89.99674639708648",
    "latitude": "30.033448023492415",
    "geocoded_column": {
      "latitude": "30.033448023492415",
      "longitude": "-89.99674639708648"
    }
  },
  {
    "service_request": "2022-953208",
    "request_type": "Trash/Recycling",
    "request_reason": "Order Recycling Cart",
    "date_created": "2022-12-14T12:14:32.000",
    "date_modified": "2022-12-14T12:14:32.000",
    "request_status": "Pending",
    "responsible_agency": "Department of Sanitation",
    "final_address": "10814 Curran Rd",
    "address_councildis": "E",
    "status": "Pending",
    "rowid": "953208",
    "final_x": "3709990.74533",
    "final_y": "565717.537506",
    "longitude": "-89.9768293204672",
    "latitude": "30.04863002521211",
    "geocoded_column": {
      "latitude": "30.04863002521211",
      "longitude": "-89.9768293204672"
    }
  },
  {
    "service_request": "2022-953207",
    "request_type": "Trash/Recycling",
    "request_reason": "MIssed Recycling Pick-Up",
    "date_created": "2022-12-14T12:11:35.000",
    "date_modified": "2022-12-14T12:11:36.000",
    "request_status": "Pending",
    "responsible_agency": "Department of Sanitation",
    "final_address": "1214 N Tonti St",
    "address_councildis": "D",
    "status": "Assigned to Contractor",
    "contractor": "Richards Disposal",
    "rowid": "953207",
    "final_x": "3679025.3037",
    "final_y": "537662.883848",
    "longitude": "-90.07567162211993",
    "latitude": "29.97246142850661",
    "geocoded_column": {
      "latitude": "29.97246142850661",
      "longitude": "-90.07567162211993"
    }
  },
  {
    "service_request": "2022-953206",
    "request_type": "Trash/Recycling",
    "request_reason": "Missed Trash Pick-Up",
    "date_created": "2022-12-14T12:10:43.000",
    "date_modified": "2022-12-14T12:10:44.000",
    "request_status": "Pending",
    "responsible_agency": "Department of Sanitation",
    "final_address": "1214 N Tonti St",
    "address_councildis": "D",
    "status": "Assigned to Contractor",
    "contractor": "Richards Disposal",
    "rowid": "953206",
    "final_x": "3679025.3037",
    "final_y": "537662.883848",
    "longitude": "-90.07567162211993",
    "latitude": "29.97246142850661",
    "geocoded_column": {
      "latitude": "29.97246142850661",
      "longitude": "-90.07567162211993"
    }
  },
  {
    "service_request": "2022-953204",
    "request_type": "Parks & Parkways",
    "request_reason": "Request Tree Service (Right of Way/Public Property)",
    "date_created": "2022-12-14T12:10:41.000",
    "date_modified": "2022-12-14T12:32:02.000",
    "case_close_date": "2022-12-14T06:32:02.000",
    "request_status": "Closed",
    "responsible_agency": "Department of Parks & Parkway",
    "final_address": "7149 Westhaven Rd",
    "address_councildis": "E",
    "status": "Duplicate Request",
    "rowid": "953204",
    "final_x": "3703754.26257",
    "final_y": "560122.723677",
    "longitude": "-89.99674639708648",
    "latitude": "30.033448023492415",
    "geocoded_column": {
      "latitude": "30.033448023492415",
      "longitude": "-89.99674639708648"
    }
  },
  {
    "service_request": "2022-953203",
    "request_type": "Traffic Signals/Signs/Striping/Streetlights",
    "request_reason": "Street Light Outage/Malfunction",
    "date_created": "2022-12-14T12:09:39.000",
    "date_modified": "2022-12-14T12:21:08.000",
    "request_status": "Pending",
    "responsible_agency": "Department of Public Works",
    "final_address": "New Orleans,LA",
    "address_councildis": "D",
    "status": "Pending",
    "contractor": "Legacy Professional Services",
    "rowid": "953203",
    "final_x": "3675600.6308",
    "final_y": "555515.702105",
    "longitude": "-90.08587352906808",
    "latitude": "30.02165332542377",
    "geocoded_column": {
      "latitude": "30.02165332542377",
      "longitude": "-90.08587352906808"
    }
  },
  {
    "service_request": "2022-953202",
    "request_type": "Trash/Recycling",
    "request_reason": "Replace Trash Cart",
    "date_created": "2022-12-14T12:05:26.000",
    "date_modified": "2022-12-14T12:05:27.000",
    "request_status": "Pending",
    "responsible_agency": "Department of Sanitation",
    "final_address": "1920 Touro St",
    "address_councildis": "D",
    "status": "Assigned to Contractor",
    "contractor": "IV Waste",
    "rowid": "953202",
    "final_x": "3683947.67945",
    "final_y": "539406.71489",
    "longitude": "-90.06006471377347",
    "latitude": "29.977106880859083",
    "geocoded_column": {
      "latitude": "29.977106880859083",
      "longitude": "-90.06006471377347"
    }
  },
  {
    "service_request": "2022-953200",
    "request_type": "Traffic Signals/Signs/Striping/Streetlights",
    "request_reason": "Street Light Outage/Malfunction",
    "date_created": "2022-12-14T12:01:16.000",
    "date_modified": "2022-12-14T12:01:17.000",
    "request_status": "Pending",
    "responsible_agency": "Department of Public Works",
    "final_address": "DWYER RD & FOCH RD",
    "address_councildis": "D",
    "status": "Pending",
    "contractor": "Legacy Professional Services",
    "rowid": "953200",
    "final_x": "3697095.5",
    "final_y": "554958.78",
    "longitude": "-90.01797601992021",
    "latitude": "30.019461038544044",
    "geocoded_column": {
      "latitude": "30.019461038544044",
      "longitude": "-90.01797601992021"
    }
  },
  {
    "service_request": "2022-953198",
    "request_type": "Trash/Recycling",
    "request_reason": "Order Recycling Cart",
    "date_created": "2022-12-14T11:59:16.000",
    "date_modified": "2022-12-14T11:59:16.000",
    "request_status": "Pending",
    "responsible_agency": "Department of Sanitation",
    "final_address": "5960 Eastover Dr",
    "address_councildis": "E",
    "status": "Pending",
    "rowid": "953198",
    "final_x": "3719298.09919",
    "final_y": "564932.825634",
    "longitude": "-89.9474429674571",
    "latitude": "30.046166138441485",
    "geocoded_column": {
      "latitude": "30.046166138441485",
      "longitude": "-89.9474429674571"
    }
  },
  {
    "service_request": "2022-953197",
    "request_type": "Trash/Recycling",
    "request_reason": "Order Trash Cart",
    "date_created": "2022-12-14T11:56:59.000",
    "date_modified": "2022-12-14T11:57:00.000",
    "request_status": "Pending",
    "responsible_agency": "Department of Sanitation",
    "final_address": "5855 E Louis Prima Dr",
    "address_councildis": "E",
    "status": "Assigned to Contractor",
    "contractor": "Waste Pro",
    "rowid": "953197",
    "final_x": "3715618.9116",
    "final_y": "563121.20976",
    "longitude": "-89.95913961443961",
    "latitude": "30.041306773903518",
    "geocoded_column": {
      "latitude": "30.041306773903518",
      "longitude": "-89.95913961443961"
    }
  },
  {
    "service_request": "2022-953196",
    "request_type": "Trash/Recycling",
    "request_reason": "Missed Trash Pick-Up",
    "date_created": "2022-12-14T11:56:42.000",
    "date_modified": "2022-12-14T11:56:43.000",
    "request_status": "Pending",
    "responsible_agency": "Department of Sanitation",
    "final_address": "7451 Benjamin St",
    "address_councildis": "A",
    "status": "Assigned to Contractor",
    "contractor": "Richards Disposal",
    "rowid": "953196",
    "final_x": "3661576.44422",
    "final_y": "524507.525052",
    "longitude": "-90.13121437357768",
    "latitude": "29.936803504768722",
    "geocoded_column": {
      "latitude": "29.936803504768722",
      "longitude": "-90.13121437357768"
    }
  },
  {
    "service_request": "2022-953195",
    "request_type": "Roads/Drainage",
    "request_reason": "Street Subsidence (Sinking)",
    "date_created": "2022-12-14T11:55:41.000",
    "date_modified": "2022-12-14T11:55:41.000",
    "request_status": "Pending",
    "responsible_agency": "Department of Public Works",
    "final_address": "1824 Sophie Wright Pl",
    "address_councildis": "B",
    "status": "Pending",
    "rowid": "953195",
    "final_x": "3679653.70095",
    "final_y": "523149.326139",
    "longitude": "-90.07419072006655",
    "latitude": "29.9325350479122",
    "geocoded_column": {
      "latitude": "29.9325350479122",
      "longitude": "-90.07419072006655"
    }
  },
  {
    "service_request": "2022-953194",
    "request_type": "Traffic Signals/Signs/Striping/Streetlights",
    "request_reason": "Street Light Outage/Malfunction",
    "date_created": "2022-12-14T11:55:03.000",
    "date_modified": "2022-12-14T11:55:04.000",
    "request_status": "Pending",
    "responsible_agency": "Department of Public Works",
    "final_address": "BERKLEY DR & BLAIR ST",
    "address_councildis": "C",
    "status": "Pending",
    "contractor": "Legacy Professional Services",
    "rowid": "953194",
    "final_x": "3709373.7",
    "final_y": "517952.18",
    "longitude": "-89.98056182646465",
    "latitude": "29.917313260327532",
    "geocoded_column": {
      "latitude": "29.917313260327532",
      "longitude": "-89.98056182646465"
    }
  },