[
  {
    "service_request": "2022-924923",
    "request_type": "Abandoned Vehicles",
    "request_reason": "Abandoned/Junk Vehicles",
    "date_created": "2022-09-29T23:37:48.000",
    "date_modified": "2022-09-29T23:37:48.000",
    "request_status": "Pending",
    "responsible_agency": "Department of Public Works",
    "final_address": "2536 Soniat St",
    "address_councildis": "B",
    "status": "Pending",
    "rowid": "924923",
    "final_x": "3668503.70273",
    "final_y": "524880.733244",
    "longitude": "-90.10933202596162",
    "latitude": "29.937628057199838",
    "geocoded_column": {
      "latitude": "29.937628057199838",
      "longitude": "-90.10933202596162"
    }
  },
  {
    "service_request": "2022-924922",
    "request_type": "Traffic Signals/Signs/Striping/Streetlights",
    "request_reason": "Street Light Outage/Malfunction",
    "date_created": "2022-09-29T22:34:03.000",
    "date_modified": "2022-09-29T22:34:03.000",
    "request_status": "Pending",
    "responsible_agency": "Department of Public Works",
    "final_address": "2927 Bell St",
    "address_councildis": "A",
    "status": "Pending",
    "contractor": "Legacy Professional Services",
    "rowid": "924922",
    "final_x": "3676763.06862",
    "final_y": "539319.477898",
    "longitude": "-90.0827590654686",
    "latitude": "29.977084574588986",
    "geocoded_column": {
      "latitude": "29.977084574588986",
      "longitude": "-90.0827590654686"
    }
  },
  {
    "service_request": "2022-924921",
    "request_type": "Trash/Recycling",
    "request_reason": "Missed Trash Pick-Up",
    "date_created": "2022-09-29T22:22:00.000",
    "date_modified": "2022-09-29T22:22:00.000",
    "request_status": "Pending",
    "responsible_agency": "Department of Sanitation",
    "final_address": "2215 Felicity St",
    "address_councildis": "B",
    "status": "Assigned to Contractor",
    "contractor": "Richards Disposal",
    "rowid": "924921",
    "final_x": "3676546.78088",
    "final_y": "526559.270078",
    "longitude": "-90.08388162291433",
    "latitude": "29.942004786708335",
    "geocoded_column": {
      "latitude": "29.942004786708335",
      "longitude": "-90.08388162291433"
    }
  },
  {
    "service_request": "2022-924920",
    "request_type": "Trash/Recycling",
    "request_reason": "Missed Trash Pick-Up",
    "date_created": "2022-09-29T22:14:58.000",
    "date_modified": "2022-09-29T22:14:59.000",
    "request_status": "Pending",
    "responsible_agency": "Department of Sanitation",
    "final_address": "2721 Baronne St",
    "address_councildis": "B",
    "status": "Assigned to Contractor",
    "contractor": "Richards Disposal",
    "rowid": "924920",
    "final_x": "3675597.2187",
    "final_y": "523240.372667",
    "longitude": "-90.08699357150044",
    "latitude": "29.93290734208012",
    "geocoded_column": {
      "latitude": "29.93290734208012",
      "longitude": "-90.08699357150044"
    }
  },
  {
    "service_request": "2022-924919",
    "request_type": "Traffic Signals/Signs/Striping/Streetlights",
    "request_reason": "Traffic Signal Malfunctioning/Damaged",
    "date_created": "2022-09-29T22:04:15.000",
    "date_modified": "2022-09-29T22:04:15.000",
    "request_status": "Pending",
    "responsible_agency": "Department of Public Works",
    "final_address": "CANAL BLVD & I 610 W",
    "address_councildis": "A",
    "status": "Pending",
    "rowid": "924919",
    "final_x": "3668412.5",
    "final_y": "545867.28",
    "longitude": "-90.10891196106962",
    "latitude": "29.99533675738892",
    "geocoded_column": {
      "latitude": "29.99533675738892",
      "longitude": "-90.10891196106962"
    }
  },
  {
    "service_request": "2022-924918",
    "request_type": "Trash/Recycling",
    "request_reason": "Order Recycling Cart",
    "date_created": "2022-09-29T21:57:37.000",
    "date_modified": "2022-09-29T21:57:37.000",
    "request_status": "Pending",
    "responsible_agency": "Department of Sanitation",
    "final_address": "2503 Jefferson Ave",
    "address_councildis": "B",
    "status": "Pending",
    "rowid": "924918",
    "final_x": "3668179.06349",
    "final_y": "524710.1559",
    "longitude": "-90.11036268740745",
    "latitude": "29.937168555740143",
    "geocoded_column": {
      "latitude": "29.937168555740143",
      "longitude": "-90.11036268740745"
    }
  },
  {
    "service_request": "2022-924917",
    "request_type": "Trash/Recycling",
    "request_reason": "Request a Large Item Pick Up",
    "date_created": "2022-09-29T21:48:16.000",
    "date_modified": "2022-09-29T21:50:05.000",
    "request_status": "Pending",
    "responsible_agency": "Department of Sanitation",
    "final_address": "210 S Murat St",
    "address_councildis": "A",
    "status": "Assigned to Contractor",
    "contractor": "Richards Disposal",
    "rowid": "924917",
    "final_x": "3669410.65018",
    "final_y": "538958.885194",
    "longitude": "-90.10599264573241",
    "latitude": "29.976311662726314",
    "geocoded_column": {
      "latitude": "29.976311662726314",
      "longitude": "-90.10599264573241"
    }
  },
  {
    "service_request": "2022-924916",
    "request_type": "Traffic Signals/Signs/Striping/Streetlights",
    "request_reason": "Street Light Outage/Malfunction",
    "date_created": "2022-09-29T21:38:16.000",
    "date_modified": "2022-09-29T21:38:16.000",
    "request_status": "Pending",
    "responsible_agency": "Department of Public Works",
    "final_address": "4343 Werner Dr",
    "address_councildis": "E",
    "status": "Pending",
    "contractor": "Legacy Professional Services",
    "rowid": "924916",
    "final_x": "3705059.60196",
    "final_y": "553244.637079",
    "longitude": "-89.99287568779077",
    "latitude": "30.014494020046566",
    "geocoded_column": {
      "latitude": "30.014494020046566",
      "longitude": "-89.99287568779077"
    }
  },
  {
    "service_request": "2022-924915",
    "request_type": "Trash/Recycling",
    "request_reason": "Request a Large Item Pick Up",
    "date_created": "2022-09-29T21:33:35.000",
    "date_modified": "2022-09-29T21:33:35.000",
    "request_status": "Pending",
    "responsible_agency": "Department of Sanitation",
    "final_address": "2911 Banks St",
    "address_councildis": "B",
    "status": "Assigned to Contractor",
    "contractor": "Richards Disposal",
    "rowid": "924915",
    "final_x": "3673838.71393",
    "final_y": "534817.901702",
    "longitude": "-90.09214914215015",
    "latitude": "29.964794200386756",
    "geocoded_column": {
      "latitude": "29.964794200386756",
      "longitude": "-90.09214914215015"
    }
  },
  {
    "service_request": "2022-924914",
    "request_type": "Property Maintenance",
    "request_reason": "Property Maintenance",
    "date_created": "2022-09-29T21:22:44.000",
    "date_modified": "2022-09-29T21:22:44.000",
    "request_status": "Pending",
    "responsible_agency": "Department of Code Enforcement",
    "final_address": "937 Caffin Ave",
    "address_councildis": "E",
    "status": "Pending",
    "rowid": "924914",
    "final_x": "3697942.42627",
    "final_y": "533287.40378",
    "longitude": "-90.01608720362415",
    "latitude": "29.959845944005593",
    "geocoded_column": {
      "latitude": "29.959845944005593",
      "longitude": "-90.01608720362415"
    }
  },
  {
    "service_request": "2022-924913",
    "request_type": "Trash/Recycling",
    "request_reason": "Missed Trash Pick-Up",
    "date_created": "2022-09-29T20:58:09.000",
    "date_modified": "2022-09-29T20:58:10.000",
    "request_status": "Pending",
    "responsible_agency": "Department of Sanitation",
    "final_address": "3408 Dauphine St",
    "address_councildis": "C",
    "status": "Assigned to Contractor",
    "contractor": "Metro Disposal",
    "rowid": "924913",
    "final_x": "3689992.93705",
    "final_y": "534511.483717",
    "longitude": "-90.04114624875932",
    "latitude": "29.96346062418514",
    "geocoded_column": {
      "latitude": "29.96346062418514",
      "longitude": "-90.04114624875932"
    }
  },
  {
    "service_request": "2022-924912",
    "request_type": "Trash/Recycling",
    "request_reason": "Start Trash Service",
    "date_created": "2022-09-29T20:33:52.000",
    "date_modified": "2022-09-29T20:33:53.000",
    "request_status": "Pending",
    "responsible_agency": "Department of Sanitation",
    "final_address": "930 Vallette St",
    "address_councildis": "C",
    "status": "Assigned to Contractor",
    "contractor": "Richards Disposal",
    "rowid": "924912",
    "final_x": "3687510.67382",
    "final_y": "528086.961023",
    "longitude": "-90.04921231096588",
    "latitude": "29.945872133514236",
    "geocoded_column": {
      "latitude": "29.945872133514236",
      "longitude": "-90.04921231096588"
    }
  },
  {
    "service_request": "2022-924911",
    "request_type": "Trash/Recycling",
    "request_reason": "Order Recycling Cart",
    "date_created": "2022-09-29T20:23:39.000",
    "date_modified": "2022-09-29T20:23:39.000",
    "request_status": "Pending",
    "responsible_agency": "Department of Sanitation",
    "final_address": "5232 Camp St",
    "address_councildis": "B",
    "status": "Pending",
    "rowid": "924911",
    "final_x": "3667798.20052",
    "final_y": "518905.088759",
    "longitude": "-90.11176048137456",
    "latitude": "29.921217639271212",
    "geocoded_column": {
      "latitude": "29.921217639271212",
      "longitude": "-90.11176048137456"
    }
  },
  {
    "service_request": "2022-924910",
    "request_type": "Traffic Signals/Signs/Striping/Streetlights",
    "request_reason": "Street Light Knocked Down/Leaning",
    "date_created": "2022-09-29T20:18:38.000",
    "date_modified": "2022-09-29T20:18:39.000",
    "request_status": "Pending",
    "responsible_agency": "Department of Public Works",
    "final_address": "7821 Shamrock Dr",
    "address_councildis": "E",
    "status": "Pending",
    "contractor": "Legacy Professional Services",
    "rowid": "924910",
    "final_x": "3718768.05228",
    "final_y": "572643.155881",
    "longitude": "-89.9488237232281",
    "latitude": "30.067383964182056",
    "geocoded_column": {
      "latitude": "30.067383964182056",
      "longitude": "-89.9488237232281"
    }
  },
  {
    "service_request": "2022-924909",
    "request_type": "Abandoned Vehicles",
    "request_reason": "Abandoned/Junk Vehicles",
    "date_created": "2022-09-29T20:16:37.000",
    "date_modified": "2022-09-29T20:16:37.000",
    "request_status": "Pending",
    "responsible_agency": "Department of Public Works",
    "final_address": "2225 St Philip St",
    "address_councildis": "D",
    "status": "Pending",
    "rowid": "924909",
    "final_x": "3678899.54427",
    "final_y": "536749.298631",
    "longitude": "-90.07610045020826",
    "latitude": "29.96995317736456",
    "geocoded_column": {
      "latitude": "29.96995317736456",
      "longitude": "-90.07610045020826"
    }
  },
  {
    "service_request": "2022-924908",
    "request_type": "Abandoned Vehicles",
    "request_reason": "Abandoned/Junk Vehicles",
    "date_created": "2022-09-29T20:12:43.000",
    "date_modified": "2022-09-29T20:12:43.000",
    "request_status": "Pending",
    "responsible_agency": "Department of Public Works",
    "final_address": "2225 St Philip St",
    "address_councildis": "D",
    "status": "Pending",
    "rowid": "924908",
    "final_x": "3678899.54427",
    "final_y": "536749.298631",
    "longitude": "-90.07610045020826",
    "latitude": "29.96995317736456",
    "geocoded_column": {
      "latitude": "29.96995317736456",
      "longitude": "-90.07610045020826"
    }
  },
  {
    "service_request": "2022-924907",
    "request_type": "Trash/Recycling",
    "request_reason": "Missed Trash Pick-Up",
    "date_created": "2022-09-29T20:02:43.000",
    "date_modified": "2022-09-29T20:02:44.000",
    "request_status": "Pending",
    "responsible_agency": "Department of Sanitation",
    "final_address": "3212 St Charles Ave",
    "address_councildis": "B",
    "status": "Assigned to Contractor",
    "contractor": "Richards Disposal",
    "rowid": "924907",
    "final_x": "3674753.54094",
    "final_y": "521705.572025",
    "longitude": "-90.08970959013618",
    "latitude": "29.928712344124584",
    "geocoded_column": {
      "latitude": "29.928712344124584",
      "longitude": "-90.08970959013618"
    }
  },
  {
    "service_request": "2022-924906",
    "request_type": "Abandoned Vehicles",
    "request_reason": "Abandoned/Junk Vehicles",
    "date_created": "2022-09-29T20:01:42.000",
    "date_modified": "2022-09-29T20:01:42.000",
    "request_status": "Pending",
    "responsible_agency": "Department of Public Works",
    "final_address": "1800 Pauline St",
    "address_councildis": "D",
    "status": "Pending",
    "rowid": "924906",
    "final_x": "3691846.07766",
    "final_y": "538141.706825",
    "longitude": "-90.03516437532909",
    "latitude": "29.973384863651994",
    "geocoded_column": {
      "latitude": "29.973384863651994",
      "longitude": "-90.03516437532909"
    }
  },
  {
    "service_request": "2022-924905",
    "request_type": "Traffic Signals/Signs/Striping/Streetlights",
    "request_reason": "Street Light Outage/Malfunction",
    "date_created": "2022-09-29T19:57:51.000",
    "date_modified": "2022-09-29T19:57:51.000",
    "request_status": "Pending",
    "responsible_agency": "Department of Public Works",
    "final_address": "3320 Clara St",
    "address_councildis": "B",
    "status": "Pending",
    "contractor": "Legacy Professional Services",
    "rowid": "924905",
    "final_x": "3672649.03816",
    "final_y": "525562.157565",
    "longitude": "-90.09622164011266",
    "latitude": "29.93937934324095",
    "geocoded_column": {
      "latitude": "29.93937934324095",
      "longitude": "-90.09622164011266"
    }
  },
  {
    "service_request": "2022-924904",
    "request_type": "Trash/Recycling",
    "request_reason": "Illegal Dumping",
    "date_created": "2022-09-29T19:56:20.000",
    "date_modified": "2022-09-29T19:56:20.000",
    "request_status": "Pending",
    "responsible_agency": "Department of Sanitation",
    "final_address": "2521 Dryades St",
    "address_councildis": "B",
    "status": "Pending",
    "rowid": "924904",
    "final_x": "3675923.48942",
    "final_y": "523880.847356",
    "longitude": "-90.08594154690756",
    "latitude": "29.934658676203817",
    "geocoded_column": {
      "latitude": "29.934658676203817",
      "longitude": "-90.08594154690756"
    }
  },
  {
    "service_request": "2022-924903",
    "request_type": "Trash/Recycling",
    "request_reason": "Request a Large Item Pick Up",
    "date_created": "2022-09-29T19:53:51.000",
    "date_modified": "2022-09-29T19:53:52.000",
    "request_status": "Pending",
    "responsible_agency": "Department of Sanitation",
    "final_address": "3517 Inwood Ave",
    "address_councildis": "C",
    "status": "Assigned to Contractor",
    "contractor": "Richards Disposal",
    "rowid": "924903",
    "final_x": "3703278.90551",
    "final_y": "515213.829747",
    "longitude": "-89.99990007286864",
    "latitude": "29.90998017994654",
    "geocoded_column": {
      "latitude": "29.90998017994654",
      "longitude": "-89.99990007286864"
    }
  },
  {
    "service_request": "2022-924901",
    "request_type": "Trash/Recycling",
    "request_reason": "Missed Trash Pick-Up",
    "date_created": "2022-09-29T19:43:00.000",
    "date_modified": "2022-09-29T19:43:01.000",
    "request_status": "Pending",
    "responsible_agency": "Department of Sanitation",
    "final_address": "906 Louisa St",
    "address_councildis": "C",
    "status": "Assigned to Contractor",
    "contractor": "Metro Disposal",
    "rowid": "924901",
    "final_x": "3689351.21814",
    "final_y": "535152.67815",
    "longitude": "-90.04314992252978",
    "latitude": "29.965243568095104",
    "geocoded_column": {
      "latitude": "29.965243568095104",
      "longitude": "-90.04314992252978"
    }
  },
  {
    "service_request": "2022-924900",
    "request_type": "Trash/Recycling",
    "request_reason": "Request a Large Item Pick Up",
    "date_created": "2022-09-29T19:42:43.000",
    "date_modified": "2022-09-29T19:42:44.000",
    "request_status": "Pending",
    "responsible_agency": "Department of Sanitation",
    "final_address": "920 Jena St",
    "address_councildis": "B",
    "status": "Assigned to Contractor",
    "contractor": "Richards Disposal",
    "rowid": "924900",
    "final_x": "3670575.67124",
    "final_y": "518927.914359",
    "longitude": "-90.10299244412109",
    "latitude": "29.92119869110157",
    "geocoded_column": {
      "latitude": "29.92119869110157",
      "longitude": "-90.10299244412109"
    }
  },
  {
    "service_request": "2022-924899",
    "request_type": "Trash/Recycling",
    "request_reason": "Missed Trash Pick-Up",
    "date_created": "2022-09-29T19:28:53.000",
    "date_modified": "2022-09-29T19:28:54.000",
    "request_status": "Pending",
    "responsible_agency": "Department of Sanitation",
    "final_address": "2306 Baronne St",
    "address_councildis": "B",
    "status": "Assigned to Contractor",
    "contractor": "Richards Disposal",
    "rowid": "924899",
    "final_x": "3676696.50299",
    "final_y": "523891.042556",
    "longitude": "-90.08350080504277",
    "latitude": "29.934663547923275",
    "geocoded_column": {
      "latitude": "29.934663547923275",
      "longitude": "-90.08350080504277"
    }
  },
  {
    "service_request": "2022-924898",
    "request_type": "Trash/Recycling",
    "request_reason": "Missed Trash Pick-Up",
    "date_created": "2022-09-29T19:26:34.000",
    "date_modified": "2022-09-29T19:26:35.000",
    "request_status": "Pending",
    "responsible_agency": "Department of Sanitation",
    "final_address": "1729 Washington Ave",
    "address_councildis": "B",
    "status": "Assigned to Contractor",
    "contractor": "Richards Disposal",
    "rowid": "924898",
    "final_x": "3675612.44878",
    "final_y": "523074.251643",
    "longitude": "-90.08695119570362",
    "latitude": "29.932450107848233",
    "geocoded_column": {
      "latitude": "29.932450107848233",
      "longitude": "-90.08695119570362"
    }
  },
  {
    "service_request": "2022-924897",
    "request_type": "Trash/Recycling",
    "request_reason": "Missed Trash Pick-Up",
    "date_created": "2022-09-29T19:21:07.000",
    "date_modified": "2022-09-29T19:21:07.000",
    "request_status": "Pending",
    "responsible_agency": "Department of Sanitation",
    "final_address": "7900 Lafourche St",
    "address_councildis": "E",
    "status": "Assigned to Contractor",
    "contractor": "Metro Disposal",
    "rowid": "924897",
    "final_x": "3709624.07614",
    "final_y": "566390.268195",
    "longitude": "-89.9779630499595",
    "latitude": "30.050491693792274",
    "geocoded_column": {
      "latitude": "30.050491693792274",
      "longitude": "-89.9779630499595"
    }
  },
  {
    "service_request": "2022-924896",
    "request_type": "Trash/Recycling",
    "request_reason": "Missed Trash Pick-Up",
    "date_created": "2022-09-29T19:11:12.000",
    "date_modified": "2022-09-29T19:11:41.000",
    "request_status": "Pending",
    "responsible_agency": "Department of Sanitation",
    "final_address": "1800 BLK First St",
    "address_councildis": "B",
    "status": "Assigned to Contractor",
    "contractor": "Richards Disposal",
    "rowid": "924896",
    "final_x": "3676447.10081",
    "final_y": "523972.782223",
    "longitude": "-90.08428535067644",
    "latitude": "29.934895783034587",
    "geocoded_column": {
      "latitude": "29.934895783034587",
      "longitude": "-90.08428535067644"
    }
  },
  {
    "service_request": "2022-924895",
    "request_type": "Trash/Recycling",
    "request_reason": "Missed Trash Pick-Up",
    "date_created": "2022-09-29T18:46:41.000",
    "date_modified": "2022-09-29T18:46:42.000",
    "request_status": "Pending",
    "responsible_agency": "Department of Sanitation",
    "final_address": "4409 Magazine St",
    "address_councildis": "B",
    "status": "Assigned to Contractor",
    "contractor": "Richards Disposal",
    "rowid": "924895",
    "final_x": "3670793.07335",
    "final_y": "518799.885175",
    "longitude": "-90.10231054240693",
    "latitude": "29.920840231012463",
    "geocoded_column": {
      "latitude": "29.920840231012463",
      "longitude": "-90.10231054240693"
    }
  },
  {
    "service_request": "2022-924894",
    "request_type": "Trash/Recycling",
    "request_reason": "Missed Trash Pick-Up",
    "date_created": "2022-09-29T18:45:40.000",
    "date_modified": "2022-09-29T18:45:41.000",
    "request_status": "Pending",
    "responsible_agency": "Department of Sanitation",
    "final_address": "1620 Fourth St",
    "address_councildis": "B",
    "status": "Assigned to Contractor",
    "contractor": "Richards Disposal",
    "rowid": "924894",
    "final_x": "3676043.77665",
    "final_y": "522866.967739",
    "longitude": "-90.08559665644712",
    "latitude": "29.931867236838222",
    "geocoded_column": {
      "latitude": "29.931867236838222",
      "longitude": "-90.08559665644712"
    }
  },
  {
    "service_request": "2022-924893",
    "request_type": "Trash/Recycling",
    "request_reason": "Request a Large Item Pick Up",
    "date_created": "2022-09-29T18:34:39.000",
    "date_modified": "2022-09-29T18:34:39.000",
    "request_status": "Pending",
    "responsible_agency": "Department of Sanitation",
    "final_address": "5326 Wilton Dr",
    "address_councildis": "D",
    "status": "Assigned to Contractor",
    "contractor": "Metro Disposal",
    "rowid": "924893",
    "final_x": "3681814.9044",
    "final_y": "552838.598231",
    "longitude": "-90.06633162289396",
    "latitude": "30.01410477890981",
    "geocoded_column": {
      "latitude": "30.01410477890981",
      "longitude": "-90.06633162289396"
    }
  },
  {
    "service_request": "2022-924892",
    "request_type": "Trash/Recycling",
    "request_reason": "Request a Large Item Pick Up",
    "date_created": "2022-09-29T18:24:39.000",
    "date_modified": "2022-09-29T18:24:40.000",
    "request_status": "Pending",
    "responsible_agency": "Department of Sanitation",
    "final_address": "1616 Charlton Dr",
    "address_councildis": "D",
    "status": "Assigned to Contractor",
    "contractor": "Metro Disposal",
    "rowid": "924892",
    "final_x": "3679897.72072",
    "final_y": "550664.678292",
    "longitude": "-90.07246453481575",
    "latitude": "30.008185432966",
    "geocoded_column": {
      "latitude": "30.008185432966",
      "longitude": "-90.07246453481575"
    }
  },
  {
    "service_request": "2022-924891",
    "request_type": "Trash/Recycling",
    "request_reason": "Order Recycling Cart",
    "date_created": "2022-09-29T18:22:42.000",
    "date_modified": "2022-09-29T18:22:42.000",
    "request_status": "Pending",
    "responsible_agency": "Department of Sanitation",
    "final_address": "609 First St",
    "address_councildis": "B",
    "status": "Pending",
    "rowid": "924891",
    "final_x": "3679060.03541",
    "final_y": "520067.05004",
    "longitude": "-90.07617162916036",
    "latitude": "29.92407772099471",
    "geocoded_column": {
      "latitude": "29.92407772099471",
      "longitude": "-90.07617162916036"
    }
  },
  {
    "service_request": "2022-924890",
    "request_type": "Traffic Signals/Signs/Striping/Streetlights",
    "request_reason": "Street Light Outage/Malfunction",
    "date_created": "2022-09-29T18:18:35.000",
    "date_modified": "2022-09-29T18:18:36.000",
    "request_status": "Pending",
    "responsible_agency": "Department of Public Works",
    "final_address": "309 S Norman C Francis Prkwy",
    "address_councildis": "B",
    "status": "Pending",
    "contractor": "Legacy Professional Services",
    "rowid": "924890",
    "final_x": "3672499.70471",
    "final_y": "536120.175367",
    "longitude": "-90.09633325682628",
    "latitude": "29.96841482933361",
    "geocoded_column": {
      "latitude": "29.96841482933361",
      "longitude": "-90.09633325682628"
    }
  },
  {
    "service_request": "2022-924889",
    "request_type": "Property Maintenance",
    "request_reason": "Property Maintenance",
    "date_created": "2022-09-29T18:09:56.000",
    "date_modified": "2022-09-29T18:09:56.000",
    "request_status": "Pending",
    "responsible_agency": "Department of Code Enforcement",
    "final_address": "2548 Ursulines Ave",
    "address_councildis": "D",
    "status": "Pending",
    "rowid": "924889",
    "final_x": "3678084.33883",
    "final_y": "537713.094856",
    "longitude": "-90.07864162016224",
    "latitude": "29.97262785625664",
    "geocoded_column": {
      "latitude": "29.97262785625664",
      "longitude": "-90.07864162016224"
    }
  },
  {
    "service_request": "2022-924888",
    "request_type": "Roads/Drainage",
    "request_reason": "Man hole cover issue",
    "date_created": "2022-09-29T18:03:37.000",
    "date_modified": "2022-09-29T18:03:37.000",
    "request_status": "Pending",
    "responsible_agency": "Department of Public Works",
    "final_address": "1038 Jena St",
    "address_councildis": "B",
    "status": "Pending",
    "rowid": "924888",
    "final_x": "3670549.04737",
    "final_y": "519428.713079",
    "longitude": "-90.10305951120857",
    "latitude": "29.922576514536235",
    "geocoded_column": {
      "latitude": "29.922576514536235",
      "longitude": "-90.10305951120857"
    }
  },
  {
    "service_request": "2022-924887",
    "request_type": "Traffic Signals/Signs/Striping/Streetlights",
    "request_reason": "Street Light Outage/Malfunction",
    "date_created": "2022-09-29T18:02:59.000",
    "date_modified": "2022-09-29T18:03:00.000",
    "request_status": "Pending",
    "responsible_agency": "Department of Public Works",
    "final_address": "641 Leboeuf St",
    "address_councildis": "C",
    "status": "Pending",
    "contractor": "Legacy Professional Services",
    "rowid": "924887",
    "final_x": "3690022.87017",
    "final_y": "530445.635586",
    "longitude": "-90.0411965114193",
    "latitude": "29.95228002529844",
    "geocoded_column": {
      "latitude": "29.95228002529844",
      "longitude": "-90.0411965114193"
    }
  },
  {
    "service_request": "2022-924886",
    "request_type": "Traffic Signals/Signs/Striping/Streetlights",
    "request_reason": "Traffic Sign Missing/Damaged",
    "date_created": "2022-09-29T18:01:23.000",
    "date_modified": "2022-09-29T18:01:23.000",
    "request_status": "Pending",
    "responsible_agency": "Department of Public Works",
    "final_address": "9522 Palm St",
    "address_councildis": "A",
    "status": "Pending",
    "rowid": "924886",
    "final_x": "3663890.5673",
    "final_y": "538083.111433",
    "longitude": "-90.12345600097476",
    "latitude": "29.97406500060092",
    "geocoded_column": {
      "latitude": "29.97406500060092",
      "longitude": "-90.12345600097476"
    }
  },
  {
    "service_request": "2022-924885",
    "request_type": "Trash/Recycling",
    "request_reason": "Request a Large Item Pick Up",
    "date_created": "2022-09-29T17:57:04.000",
    "date_modified": "2022-09-29T17:57:05.000",
    "request_status": "Pending",
    "responsible_agency": "Department of Sanitation",
    "final_address": "3400 Touro St",
    "address_councildis": "D",
    "status": "Assigned to Contractor",
    "contractor": "Metro Disposal",
    "rowid": "924885",
    "final_x": "3683473.27362",
    "final_y": "545123.721295",
    "longitude": "-90.06136260194431",
    "latitude": "29.992841120388324",
    "geocoded_column": {
      "latitude": "29.992841120388324",
      "longitude": "-90.06136260194431"
    }
  },
  {
    "service_request": "2022-924884",
    "request_type": "Trash/Recycling",
    "request_reason": "Order Trash Cart",
    "date_created": "2022-09-29T17:48:48.000",
    "date_modified": "2022-09-29T17:48:49.000",
    "request_status": "Pending",
    "responsible_agency": "Department of Sanitation",
    "final_address": "3909 Iberville St",
    "address_councildis": "A",
    "status": "Assigned to Contractor",
    "contractor": "Richards Disposal",
    "rowid": "924884",
    "final_x": "3672010.46983",
    "final_y": "538278.133641",
    "longitude": "-90.09780480407676",
    "latitude": "29.97436299986857",
    "geocoded_column": {
      "latitude": "29.97436299986857",
      "longitude": "-90.09780480407676"
    }
  },
  {
    "service_request": "2022-924883",
    "request_type": "Abandoned Vehicles",
    "request_reason": "Abandoned/Junk Vehicles",
    "date_created": "2022-09-29T17:48:18.000",
    "date_modified": "2022-09-29T17:48:18.000",
    "request_status": "Pending",
    "responsible_agency": "Department of Public Works",
    "final_address": "1228 Louisa St",
    "address_councildis": "C",
    "status": "Pending",
    "rowid": "924883",
    "final_x": "3689676.33929",
    "final_y": "536477.632391",
    "longitude": "-90.0420760586837",
    "latitude": "29.968876658020545",
    "geocoded_column": {
      "latitude": "29.968876658020545",
      "longitude": "-90.0420760586837"
    }
  },
  {
    "service_request": "2022-924882",
    "request_type": "Trash/Recycling",
    "request_reason": "Missed Trash Pick-Up",
    "date_created": "2022-09-29T17:37:14.000",
    "date_modified": "2022-09-29T17:37:15.000",
    "request_status": "Pending",
    "responsible_agency": "Department of Sanitation",
    "final_address": "2131 Marengo St",
    "address_councildis": "B",
    "status": "Assigned to Contractor",
    "contractor": "Richards Disposal",
    "rowid": "924882",
    "final_x": "3671805.91463",
    "final_y": "523036.669371",
    "longitude": "-90.09896938955197",
    "latitude": "29.932460071129636",
    "geocoded_column": {
      "latitude": "29.932460071129636",
      "longitude": "-90.09896938955197"
    }
  },
  {
    "service_request": "2022-924881",
    "request_type": "Trash/Recycling",
    "request_reason": "Request a Large Item Pick Up",
    "date_created": "2022-09-29T17:36:50.000",
    "date_modified": "2022-09-29T17:36:51.000",
    "request_status": "Pending",
    "responsible_agency": "Department of Sanitation",
    "final_address": "431 S Scott St",
    "address_councildis": "B",
    "status": "Assigned to Contractor",
    "contractor": "Richards Disposal",
    "rowid": "924881",
    "final_x": "3670842.55815",
    "final_y": "536668.443271",
    "longitude": "-90.10154800623685",
    "latitude": "29.969971468984664",
    "geocoded_column": {
      "latitude": "29.969971468984664",
      "longitude": "-90.10154800623685"
    }
  },
  {
    "service_request": "2022-924880",
    "request_type": "Parks & Parkways",
    "request_reason": "Request Tree Service (Right of Way/Public Property)",
    "date_created": "2022-09-29T17:29:51.000",
    "date_modified": "2022-09-29T17:33:52.000",
    "request_status": "Pending",
    "responsible_agency": "Department of Parks & Parkway",
    "final_address": "1122 Jackson Ave",
    "address_councildis": "B",
    "status": "Pending",
    "rowid": "924880",
    "final_x": "3678686.91688",
    "final_y": "522193.302778",
    "longitude": "-90.07727585819373",
    "latitude": "29.929935473530463",
    "geocoded_column": {
      "latitude": "29.929935473530463",
      "longitude": "-90.07727585819373"
    }
  },
  {
    "service_request": "2022-924879",
    "request_type": "Trash/Recycling",
    "request_reason": "Missed Trash Pick-Up",
    "date_created": "2022-09-29T17:29:45.000",
    "date_modified": "2022-09-29T17:29:45.000",
    "request_status": "Pending",
    "responsible_agency": "Department of Sanitation",
    "final_address": "2300 BLK Laurel St",
    "address_councildis": "B",
    "status": "Assigned to Contractor",
    "contractor": "Richards Disposal",
    "rowid": "924879",
    "final_x": "3678742.93283",
    "final_y": "521066.548534",
    "longitude": "-90.0771380206814",
    "latitude": "29.926835578944182",
    "geocoded_column": {
      "latitude": "29.926835578944182",
      "longitude": "-90.0771380206814"
    }
  },
  {
    "service_request": "2022-924877",
    "request_type": "Trash/Recycling",
    "request_reason": "Missed Trash Pick-Up",
    "date_created": "2022-09-29T17:17:53.000",
    "date_modified": "2022-09-29T17:17:54.000",
    "request_status": "Pending",
    "responsible_agency": "Department of Sanitation",
    "final_address": "2053 Chippewa St, New Orleans, Louisiana, 70130",
    "address_councildis": "B",
    "status": "Assigned to Contractor",
    "contractor": "Richards Disposal",
    "rowid": "924877",
    "final_x": "3680131.4141",
    "final_y": "521261.502649",
    "longitude": "-90.07274818635328",
    "latitude": "29.927329710260626",
    "geocoded_column": {
      "latitude": "29.927329710260626",
      "longitude": "-90.07274818635328"
    }
  },
  {
    "service_request": "2022-924876",
    "request_type": "Trash/Recycling",
    "request_reason": "Request a Large Item Pick Up",
    "date_created": "2022-09-29T17:14:29.000",
    "date_modified": "2022-09-29T17:14:29.000",
    "request_status": "Pending",
    "responsible_agency": "Department of Sanitation",
    "final_address": "2427 Conti St",
    "address_councildis": "B",
    "status": "Assigned to Contractor",
    "contractor": "Richards Disposal",
    "rowid": "924876",
    "final_x": "3676979.05115",
    "final_y": "535384.991878",
    "longitude": "-90.08221260359726",
    "latitude": "29.96625959880874",
    "geocoded_column": {
      "latitude": "29.96625959880874",
      "longitude": "-90.08221260359726"
    }
  },
  {
    "service_request": "2022-924875",
    "request_type": "Trash/Recycling",
    "request_reason": "Missed Trash Pick-Up",
    "date_created": "2022-09-29T17:10:23.000",
    "date_modified": "2022-09-29T17:10:23.000",
    "request_status": "Pending",
    "responsible_agency": "Department of Sanitation",
    "final_address": "1515 S Carrollton Ave",
    "address_councildis": "A",
    "status": "Assigned to Contractor",
    "contractor": "Richards Disposal",
    "rowid": "924875",
    "final_x": "3662870.27117",
    "final_y": "529118.659648",
    "longitude": "-90.12697641489757",
    "latitude": "29.949445266350885",
    "geocoded_column": {
      "latitude": "29.949445266350885",
      "longitude": "-90.12697641489757"
    }
  },
  {
    "service_request": "2022-924874",
    "request_type": "Trash/Recycling",
    "request_reason": "Missed Trash Pick-Up",
    "date_created": "2022-09-29T17:07:38.000",
    "date_modified": "2022-09-29T17:07:39.000",
    "request_status": "Pending",
    "responsible_agency": "Department of Sanitation",
    "final_address": "542 Jackson Ave, New Orleans, Louisiana, 70130",
    "address_councildis": "B",
    "status": "Assigned to Contractor",
    "contractor": "Richards Disposal",
    "rowid": "924874",
    "final_x": "3679965.64053",
    "final_y": "520544.068856",
    "longitude": "-90.07329639645648",
    "latitude": "29.925362015574226",
    "geocoded_column": {
      "latitude": "29.925362015574226",
      "longitude": "-90.07329639645648"
    }
  },
  {
    "service_request": "2022-924873",
    "request_type": "Trash/Recycling",
    "request_reason": "Request a Large Item Pick Up",
    "date_created": "2022-09-29T17:03:50.000",
    "date_modified": "2022-09-29T17:03:51.000",
    "case_close_date": "2022-01-04T18:00:00.000",
    "request_status": "Pending",
    "responsible_agency": "Department of Sanitation",
    "final_address": "818 Alvar St",
    "address_councildis": "C",
    "status": "Assigned to Contractor",
    "contractor": "Metro Disposal",
    "rowid": "924873",
    "final_x": "3691218.38582",
    "final_y": "534413.590341",
    "longitude": "-90.03727992486557",
    "latitude": "29.963153395560923",
    "geocoded_column": {
      "latitude": "29.963153395560923",
      "longitude": "-90.03727992486557"
    }
  },
  {
    "service_request": "2022-924872",
    "request_type": "Roads/Drainage",
    "request_reason": "Debris in Roadway",
    "date_created": "2022-09-29T16:56:52.000",
    "date_modified": "2022-09-29T16:56:53.000",
    "request_status": "Pending",
    "responsible_agency": "Department of Public Works",
    "final_address": "S CARROLLTON AVE & I 10 E ONRAMP",
    "address_councildis": "A",
    "status": "Pending",
    "rowid": "924872",
    "final_x": "3668667.3",
    "final_y": "535670.48",
    "longitude": "-90.10845139704314",
    "latitude": "29.967291522114913",
    "geocoded_column": {
      "latitude": "29.967291522114913",
      "longitude": "-90.10845139704314"
    }
  },
  {
    "service_request": "2022-924871",
    "request_type": "Traffic Signals/Signs/Striping/Streetlights",
    "request_reason": "Street Light Outage/Malfunction",
    "date_created": "2022-09-29T16:53:56.000",
    "date_modified": "2022-09-29T16:53:56.000",
    "request_status": "Pending",
    "responsible_agency": "Department of Public Works",
    "final_address": "1630 Tita St",
    "address_councildis": "C",
    "status": "Pending",
    "contractor": "Legacy Professional Services",
    "rowid": "924871",
    "final_x": "3695678.76278",
    "final_y": "525262.771709",
    "longitude": "-90.02352497389577",
    "latitude": "29.937852363355358",
    "geocoded_column": {
      "latitude": "29.937852363355358",
      "longitude": "-90.02352497389577"
    }
  },
  {
    "service_request": "2022-924870",
    "request_type": "Traffic Signals/Signs/Striping/Streetlights",
    "request_reason": "Street Light Outage/Malfunction",
    "date_created": "2022-09-29T16:53:55.000",
    "date_modified": "2022-09-29T16:53:56.000",
    "request_status": "Pending",
    "responsible_agency": "Department of Public Works",
    "final_address": "1630 Tita St",
    "address_councildis": "C",
    "status": "Pending",
    "contractor": "Legacy Professional Services",
    "rowid": "924870",
    "final_x": "3695678.76278",
    "final_y": "525262.771709",
    "longitude": "-90.02352497389577",
    "latitude": "29.937852363355358",
    "geocoded_column": {
      "latitude": "29.937852363355358",
      "longitude": "-90.02352497389577"
    }
  },
  {
    "service_request": "2022-924869",
    "request_type": "Traffic Signals/Signs/Striping/Streetlights",
    "request_reason": "Street Light Outage/Malfunction",
    "date_created": "2022-09-29T16:50:16.000",
    "date_modified": "2022-09-29T16:50:17.000",
    "request_status": "Pending",
    "responsible_agency": "Department of Public Works",
    "final_address": "20045 Victory Rd",
    "address_councildis": "E",
    "status": "Pending",
    "contractor": "Legacy Professional Services",
    "rowid": "924869",
    "final_x": "3756819.34633",
    "final_y": "574167.009066",
    "longitude": "-89.8284763956319",
    "latitude": "30.07025476474385",
    "geocoded_column": {
      "latitude": "30.07025476474385",
      "longitude": "-89.8284763956319"
    }
  },
  {
    "service_request": "2022-924868",
    "request_type": "Roads/Drainage",
    "request_reason": "Pothole",
    "date_created": "2022-09-29T16:50:12.000",
    "date_modified": "2022-09-29T16:50:13.000",
    "request_status": "Pending",
    "responsible_agency": "Department of Public Works",
    "final_address": "1017 St Andrew St",
    "address_councildis": "B",
    "status": "Pending",
    "rowid": "924868",
    "final_x": "3679673.38715",
    "final_y": "522451.073338",
    "longitude": "-90.07415279607167",
    "latitude": "29.930614487331084",
    "geocoded_column": {
      "latitude": "29.930614487331084",
      "longitude": "-90.07415279607167"
    }
  },
  {
    "service_request": "2022-924867",
    "request_type": "Roads/Drainage",
    "request_reason": "Man hole cover issue",
    "date_created": "2022-09-29T16:49:00.000",
    "date_modified": "2022-09-29T16:49:00.000",
    "request_status": "Pending",
    "responsible_agency": "Department of Public Works",
    "final_address": "2611 Prancer St",
    "address_councildis": "C",
    "status": "Pending",
    "rowid": "924867",
    "final_x": "3699539.28125",
    "final_y": "521351.227257",
    "longitude": "-90.01147953801623",
    "latitude": "29.926975063076117",
    "geocoded_column": {
      "latitude": "29.926975063076117",
      "longitude": "-90.01147953801623"
    }
  },
  {
    "service_request": "2022-924866",
    "request_type": "Trash/Recycling",
    "request_reason": "Illegal Dumping",
    "date_created": "2022-09-29T16:45:54.000",
    "date_modified": "2022-09-29T16:45:54.000",
    "request_status": "Pending",
    "responsible_agency": "Department of Sanitation",
    "final_address": "1634 Third St",
    "address_councildis": "B",
    "status": "Pending",
    "rowid": "924866",
    "final_x": "3676246.54689",
    "final_y": "523113.923067",
    "longitude": "-90.08494803822249",
    "latitude": "29.932540210589515",
    "geocoded_column": {
      "latitude": "29.932540210589515",
      "longitude": "-90.08494803822249"
    }
  },
  {
    "service_request": "2022-924865",
    "request_type": "Trash/Recycling",
    "request_reason": "Illegal Dumping",
    "date_created": "2022-09-29T16:44:31.000",
    "date_modified": "2022-09-29T16:44:31.000",
    "request_status": "Pending",
    "responsible_agency": "Department of Sanitation",
    "final_address": "3100 Bringier St",
    "address_councildis": "C",
    "status": "Pending",
    "rowid": "924865",
    "final_x": "3695767.1665",
    "final_y": "525159.961021",
    "longitude": "-90.02324958861448",
    "latitude": "29.937566890439882",
    "geocoded_column": {
      "latitude": "29.937566890439882",
      "longitude": "-90.02324958861448"
    }
  },
  {
    "service_request": "2022-924864",
    "request_type": "Abandoned Vehicles",
    "request_reason": "Abandoned/Junk Vehicles",
    "date_created": "2022-09-29T16:43:40.000",
    "date_modified": "2022-09-29T16:44:47.000",
    "request_status": "Pending",
    "responsible_agency": "Department of Public Works",
    "final_address": "2522 Frankfort St",
    "address_councildis": "D",
    "status": "Pending",
    "rowid": "924864",
    "final_x": "3685756.5599",
    "final_y": "556979.889178",
    "longitude": "-90.05373188730361",
    "latitude": "30.02537137040636",
    "geocoded_column": {
      "latitude": "30.02537137040636",
      "longitude": "-90.05373188730361"
    }
  },
  {
    "service_request": "2022-924863",
    "request_type": "Trash/Recycling",
    "request_reason": "Request a Large Item Pick Up",
    "date_created": "2022-09-29T16:38:05.000",
    "date_modified": "2022-09-29T16:38:06.000",
    "request_status": "Pending",
    "responsible_agency": "Department of Sanitation",
    "final_address": "1208 Sumner St",
    "address_councildis": "C",
    "status": "Assigned to Contractor",
    "contractor": "Richards Disposal",
    "rowid": "924863",
    "final_x": "3691124.45065",
    "final_y": "526945.524222",
    "longitude": "-90.03784319275364",
    "latitude": "29.942621720712612",
    "geocoded_column": {
      "latitude": "29.942621720712612",
      "longitude": "-90.03784319275364"
    }
  },
  {
    "service_request": "2022-924862",
    "request_type": "Trash/Recycling",
    "request_reason": "MIssed Recycling Pick-Up",
    "date_created": "2022-09-29T16:36:45.000",
    "date_modified": "2022-09-29T16:36:46.000",
    "request_status": "Pending",
    "responsible_agency": "Department of Sanitation",
    "final_address": "2233 Laurel St",
    "address_councildis": "B",
    "status": "Assigned to Contractor",
    "contractor": "Richards Disposal",
    "rowid": "924862",
    "final_x": "3679051.6381",
    "final_y": "521352.572409",
    "longitude": "-90.07615361407984",
    "latitude": "29.92761274169696",
    "geocoded_column": {
      "latitude": "29.92761274169696",
      "longitude": "-90.07615361407984"
    }
  },
  {
    "service_request": "2022-924860",
    "request_type": "Trash/Recycling",
    "request_reason": "Replace Recycling Cart",
    "date_created": "2022-09-29T16:31:58.000",
    "date_modified": "2022-09-29T16:31:59.000",
    "request_status": "Pending",
    "responsible_agency": "Department of Sanitation",
    "final_address": "4909 Iberville St",
    "address_councildis": "A",
    "status": "Pending",
    "contractor": "Richards Disposal",
    "rowid": "924860",
    "final_x": "3668729.83828",
    "final_y": "540793.635467",
    "longitude": "-90.10808089683103",
    "latitude": "29.981376640230813",
    "geocoded_column": {
      "latitude": "29.981376640230813",
      "longitude": "-90.10808089683103"
    }
  },
  {
    "service_request": "2022-924859",
    "request_type": "Trash/Recycling",
    "request_reason": "Replace Trash Cart",
    "date_created": "2022-09-29T16:31:36.000",
    "date_modified": "2022-09-29T16:31:37.000",
    "request_status": "Pending",
    "responsible_agency": "Department of Sanitation",
    "final_address": "4909 Iberville St",
    "address_councildis": "A",
    "status": "Assigned to Contractor",
    "contractor": "Richards Disposal",
    "rowid": "924859",
    "final_x": "3668729.83828",
    "final_y": "540793.635467",
    "longitude": "-90.10808089683103",
    "latitude": "29.981376640230813",
    "geocoded_column": {
      "latitude": "29.981376640230813",
      "longitude": "-90.10808089683103"
    }
  },
  {
    "service_request": "2022-924858",
    "request_type": "Roads/Drainage",
    "request_reason": "Pothole",
    "date_created": "2022-09-29T16:26:38.000",
    "date_modified": "2022-09-29T16:26:38.000",
    "request_status": "Pending",
    "responsible_agency": "Department of Public Works",
    "final_address": "1030 Dufossat St",
    "address_councildis": "B",
    "status": "Pending",
    "rowid": "924858",
    "final_x": "3667962.55757",
    "final_y": "519205.329719",
    "longitude": "-90.11123156941346",
    "latitude": "29.9220383881904",
    "geocoded_column": {
      "latitude": "29.9220383881904",
      "longitude": "-90.11123156941346"
    }
  },
  {
    "service_request": "2022-924857",
    "request_type": "Trash/Recycling",
    "request_reason": "Missed Trash Pick-Up",
    "date_created": "2022-09-29T16:25:11.000",
    "date_modified": "2022-09-29T16:25:12.000",
    "request_status": "Pending",
    "responsible_agency": "Department of Sanitation",
    "final_address": "1729 Washington Ave",
    "address_councildis": "B",
    "status": "Assigned to Contractor",
    "contractor": "Richards Disposal",
    "rowid": "924857",
    "final_x": "3675612.44878",
    "final_y": "523074.251643",
    "longitude": "-90.08695119570362",
    "latitude": "29.932450107848233",
    "geocoded_column": {
      "latitude": "29.932450107848233",
      "longitude": "-90.08695119570362"
    }
  },
  {
    "service_request": "2022-924856",
    "request_type": "Abandoned Vehicles",
    "request_reason": "Abandoned/Junk Vehicles",
    "date_created": "2022-09-29T16:24:42.000",
    "date_modified": "2022-09-29T16:24:42.000",
    "request_status": "Pending",
    "responsible_agency": "Department of Public Works",
    "final_address": "906 Philip St",
    "address_councildis": "B",
    "status": "Pending",
    "rowid": "924856",
    "final_x": "3678907.17934",
    "final_y": "521311.117433",
    "longitude": "-90.07661107072144",
    "latitude": "29.927503111369177",
    "geocoded_column": {
      "latitude": "29.927503111369177",
      "longitude": "-90.07661107072144"
    }
  },
  {
    "service_request": "2022-924855",
    "request_type": "Trash/Recycling",
    "request_reason": "Replace Trash Cart",
    "date_created": "2022-09-29T16:19:29.000",
    "date_modified": "2022-09-29T16:21:00.000",
    "request_status": "Pending",
    "responsible_agency": "Department of Sanitation",
    "final_address": "New Orleans,LA",
    "address_councildis": "D",
    "status": "Assigned to Contractor",
    "contractor": "Metro Disposal",
    "rowid": "924855",
    "final_x": "3684432.22812",
    "final_y": "538634.633481",
    "longitude": "-90.05856148321296",
    "latitude": "29.97496911290661",
    "geocoded_column": {
      "latitude": "29.97496911290661",
      "longitude": "-90.05856148321296"
    }
  },
  {
    "service_request": "2022-924854",
    "request_type": "Mosquito, Termite & Rodent Control",
    "request_reason": "Rodent Complaint (Rats)",
    "date_created": "2022-09-29T16:18:59.000",
    "date_modified": "2022-09-29T16:19:00.000",
    "request_status": "Pending",
    "responsible_agency": "Mosquito, Termite & Rodent Control Board",
    "final_address": "2404 New Orleans St",
    "address_councildis": "D",
    "status": "Pending",
    "rowid": "924854",
    "final_x": "3681987.29941",
    "final_y": "540954.311051",
    "longitude": "-90.06620217157287",
    "latitude": "29.981421983035652",
    "geocoded_column": {
      "latitude": "29.981421983035652",
      "longitude": "-90.06620217157287"
    }
  },
  {
    "service_request": "2022-924852",
    "request_type": "Trash/Recycling",
    "request_reason": "Order Recycling Cart",
    "date_created": "2022-09-29T16:17:16.000",
    "date_modified": "2022-09-29T16:17:16.000",
    "request_status": "Pending",
    "responsible_agency": "Department of Sanitation",
    "final_address": "2811 Halsey Ave",
    "address_councildis": "C",
    "status": "Pending",
    "rowid": "924852",
    "final_x": "3697596.68138",
    "final_y": "521034.266361",
    "longitude": "-90.01762327037451",
    "latitude": "29.926165006274672",
    "geocoded_column": {
      "latitude": "29.926165006274672",
      "longitude": "-90.01762327037451"
    }
  },
  {
    "service_request": "2022-924851",
    "request_type": "Trash/Recycling",
    "request_reason": "Order Trash Cart",
    "date_created": "2022-09-29T16:16:18.000",
    "date_modified": "2022-09-29T16:16:18.000",
    "request_status": "Pending",
    "responsible_agency": "Department of Sanitation",
    "final_address": "2811 Halsey Ave",
    "address_councildis": "C",
    "status": "Assigned to Contractor",
    "contractor": "Richards Disposal",
    "rowid": "924851",
    "final_x": "3697596.68138",
    "final_y": "521034.266361",
    "longitude": "-90.01762327037451",
    "latitude": "29.926165006274672",
    "geocoded_column": {
      "latitude": "29.926165006274672",
      "longitude": "-90.01762327037451"
    }
  },
  {
    "service_request": "2022-924850",
    "request_type": "Trash/Recycling",
    "request_reason": "Illegal Dumping",
    "date_created": "2022-09-29T16:12:58.000",
    "date_modified": "2022-09-29T16:12:59.000",
    "request_status": "Pending",
    "responsible_agency": "Department of Sanitation",
    "final_address": "BIENVILLE ST & N TONTI ST",
    "address_councildis": "B",
    "status": "Pending",
    "rowid": "924850",
    "final_x": "3676873.37",
    "final_y": "534895.33",
    "longitude": "-90.0825632223304",
    "latitude": "29.9649163671505",
    "geocoded_column": {
      "latitude": "29.9649163671505",
      "longitude": "-90.0825632223304"
    }
  },
  {
    "service_request": "2022-924849",
    "request_type": "Mosquito, Termite & Rodent Control",
    "request_reason": "Rodent Complaint (Rats)",
    "date_created": "2022-09-29T16:12:28.000",
    "date_modified": "2022-09-29T16:12:29.000",
    "request_status": "Pending",
    "responsible_agency": "Mosquito, Termite & Rodent Control Board",
    "final_address": "2412 New Orleans St",
    "address_councildis": "D",
    "status": "Pending",
    "rowid": "924849",
    "final_x": "3681984.73845",
    "final_y": "541012.208587",
    "longitude": "-90.066208238026",
    "latitude": "29.981581258881793",
    "geocoded_column": {
      "latitude": "29.981581258881793",
      "longitude": "-90.066208238026"
    }
  },
  {
    "service_request": "2022-924848",
    "request_type": "Roads/Drainage",
    "request_reason": "Man hole cover issue",
    "date_created": "2022-09-29T16:12:03.000",
    "date_modified": "2022-09-29T16:12:04.000",
    "request_status": "Pending",
    "responsible_agency": "Department of Public Works",
    "final_address": "IBERVILLE ST & N TONTI ST",
    "address_councildis": "B",
    "status": "Pending",
    "rowid": "924848",
    "final_x": "3676681.9",
    "final_y": "534643.28",
    "longitude": "-90.08317655740049",
    "latitude": "29.96422906049463",
    "geocoded_column": {
      "latitude": "29.96422906049463",
      "longitude": "-90.08317655740049"
    }
  },
  {
    "service_request": "2022-924847",
    "request_type": "Roads/Drainage",
    "request_reason": "Pothole",
    "date_created": "2022-09-29T16:11:20.000",
    "date_modified": "2022-09-29T16:11:21.000",
    "request_status": "Pending",
    "responsible_agency": "Department of Public Works",
    "final_address": "2326 Iberville St",
    "address_councildis": "B",
    "status": "Pending",
    "rowid": "924847",
    "final_x": "3676762.97838",
    "final_y": "534535.793669",
    "longitude": "-90.08292422257064",
    "latitude": "29.963931076874495",
    "geocoded_column": {
      "latitude": "29.963931076874495",
      "longitude": "-90.08292422257064"
    }
  },
  {
    "service_request": "2022-924846",
    "request_type": "Trash/Recycling",
    "request_reason": "Repair Trash Cart",
    "date_created": "2022-09-29T16:07:06.000",
    "date_modified": "2022-09-29T16:07:06.000",
    "request_status": "Pending",
    "responsible_agency": "Department of Sanitation",
    "final_address": "4219 N Johnson St",
    "address_councildis": "D",
    "status": "Assigned to Contractor",
    "contractor": "Metro Disposal",
    "rowid": "924846",
    "final_x": "3693392.12688",
    "final_y": "538546.828937",
    "longitude": "-90.03026710452319",
    "latitude": "29.974450552107786",
    "geocoded_column": {
      "latitude": "29.974450552107786",
      "longitude": "-90.03026710452319"
    }
  },
  {
    "service_request": "2022-924845",
    "request_type": "Trash/Recycling",
    "request_reason": "Repair Trash Cart",
    "date_created": "2022-09-29T16:02:25.000",
    "date_modified": "2022-09-29T16:02:25.000",
    "request_status": "Pending",
    "responsible_agency": "Department of Sanitation",
    "final_address": "1127 Charbonnet St",
    "address_councildis": "E",
    "status": "Assigned to Contractor",
    "contractor": "Metro Disposal",
    "rowid": "924845",
    "final_x": "3698731.16797",
    "final_y": "533851.723525",
    "longitude": "-90.01357602321659",
    "latitude": "29.96137266703131",
    "geocoded_column": {
      "latitude": "29.96137266703131",
      "longitude": "-90.01357602321659"
    }
  },
  {
    "service_request": "2022-924844",
    "request_type": "Trash/Recycling",
    "request_reason": "Replace Trash Cart",
    "date_created": "2022-09-29T15:54:31.000",
    "date_modified": "2022-09-29T15:54:32.000",
    "request_status": "Pending",
    "responsible_agency": "Department of Sanitation",
    "final_address": "1022 Andry St",
    "address_councildis": "E",
    "status": "Assigned to Contractor",
    "contractor": "Metro Disposal",
    "rowid": "924844",
    "final_x": "3697061.83869",
    "final_y": "533740.517637",
    "longitude": "-90.01885147379784",
    "latitude": "29.961119652359248",
    "geocoded_column": {
      "latitude": "29.961119652359248",
      "longitude": "-90.01885147379784"
    }
  },
  {
    "service_request": "2022-924843",
    "request_type": "Traffic Signals/Signs/Striping/Streetlights",
    "request_reason": "Street Light Outage/Malfunction",
    "date_created": "2022-09-29T15:53:44.000",
    "date_modified": "2022-09-29T15:53:45.000",
    "request_status": "Pending",
    "responsible_agency": "Department of Public Works",
    "final_address": "734 Hidalgo St",
    "address_councildis": "A",
    "status": "Pending",
    "contractor": "Legacy Professional Services",
    "rowid": "924843",
    "final_x": "3668610.10702",
    "final_y": "544081.395278",
    "longitude": "-90.10834804908575",
    "latitude": "29.99042038002538",
    "geocoded_column": {
      "latitude": "29.99042038002538",
      "longitude": "-90.10834804908575"
    }
  },
  {
    "service_request": "2022-924842",
    "request_type": "Trash/Recycling",
    "request_reason": "Request a Large Item Pick Up",
    "date_created": "2022-09-29T15:44:21.000",
    "date_modified": "2022-09-29T15:44:21.000",
    "request_status": "Pending",
    "responsible_agency": "Department of Sanitation",
    "final_address": "1722 Joliet St",
    "address_councildis": "A",
    "status": "Assigned to Contractor",
    "contractor": "Richards Disposal",
    "rowid": "924842",
    "final_x": "3662217.42227",
    "final_y": "530829.572418",
    "longitude": "-90.12898098216222",
    "latitude": "29.954168608786446",
    "geocoded_column": {
      "latitude": "29.954168608786446",
      "longitude": "-90.12898098216222"
    }
  },
  {
    "service_request": "2022-924841",
    "request_type": "Trash/Recycling",
    "request_reason": "Replace Trash Cart",
    "date_created": "2022-09-29T15:43:00.000",
    "date_modified": "2022-09-29T15:43:01.000",
    "request_status": "Pending",
    "responsible_agency": "Department of Sanitation",
    "final_address": "6627 Marshal Foch St",
    "address_councildis": "A",
    "status": "Assigned to Contractor",
    "contractor": "Metro Disposal",
    "rowid": "924841",
    "final_x": "3670310.0939",
    "final_y": "551460.756501",
    "longitude": "-90.1027278702904",
    "latitude": "30.01066097375537",
    "geocoded_column": {
      "latitude": "30.01066097375537",
      "longitude": "-90.1027278702904"
    }
  },
  {
    "service_request": "2022-924840",
    "request_type": "Trash/Recycling",
    "request_reason": "Request a Large Item Pick Up",
    "date_created": "2022-09-29T15:41:22.000",
    "date_modified": "2022-09-29T15:41:23.000",
    "request_status": "Pending",
    "responsible_agency": "Department of Sanitation",
    "final_address": "4814 Nottingham Dr",
    "address_councildis": "E",
    "status": "Assigned to Contractor",
    "contractor": "Metro Disposal",
    "rowid": "924840",
    "final_x": "3716286.26751",
    "final_y": "557214.636891",
    "longitude": "-89.95725473203404",
    "latitude": "30.025044048348413",
    "geocoded_column": {
      "latitude": "30.025044048348413",
      "longitude": "-89.95725473203404"
    }
  },
  {
    "service_request": "2022-924839",
    "request_type": "Abandoned Vehicles",
    "request_reason": "Abandoned/Junk Vehicles",
    "date_created": "2022-09-29T15:37:55.000",
    "date_modified": "2022-09-29T15:42:50.000",
    "request_status": "Pending",
    "responsible_agency": "Department of Public Works",
    "final_address": "CANAL ST & TREME ST",
    "address_councildis": "C",
    "status": "Pending",
    "rowid": "924839",
    "final_x": "3679475.9",
    "final_y": "532037.68",
    "longitude": "-90.074443740717",
    "latitude": "29.956980429288485",
    "geocoded_column": {
      "latitude": "29.956980429288485",
      "longitude": "-90.074443740717"
    }
  },
  {
    "service_request": "2022-924838",
    "request_type": "Trash/Recycling",
    "request_reason": "Order Recycling Cart",
    "date_created": "2022-09-29T15:30:23.000",
    "date_modified": "2022-09-29T15:31:43.000",
    "request_status": "Pending",
    "responsible_agency": "Department of Sanitation",
    "final_address": "1742 Frenchmen St",
    "address_councildis": "D",
    "status": "Pending",
    "rowid": "924838",
    "final_x": "3684360.41519",
    "final_y": "538814.061449",
    "longitude": "-90.0587819831509",
    "latitude": "29.975464673757937",
    "geocoded_column": {
      "latitude": "29.975464673757937",
      "longitude": "-90.0587819831509"
    }
  },
  {
    "service_request": "2022-924837",
    "request_type": "Traffic Signals/Signs/Striping/Streetlights",
    "request_reason": "Street Light Knocked Down/Leaning",
    "date_created": "2022-09-29T15:26:54.000",
    "date_modified": "2022-09-29T15:26:55.000",
    "request_status": "Pending",
    "responsible_agency": "Department of Public Works",
    "final_address": "841 Royal St",
    "address_councildis": "C",
    "status": "Pending",
    "contractor": "Legacy Professional Services",
    "rowid": "924837",
    "final_x": "3682951.23874",
    "final_y": "533038.001156",
    "longitude": "-90.06343471481973",
    "latitude": "29.959625525342126",
    "geocoded_column": {
      "latitude": "29.959625525342126",
      "longitude": "-90.06343471481973"
    }
  },
  {
    "service_request": "2022-924835",
    "request_type": "Trash/Recycling",
    "request_reason": "Order Trash Cart",
    "date_created": "2022-09-29T15:23:38.000",
    "date_modified": "2022-09-29T15:23:56.000",
    "request_status": "Pending",
    "responsible_agency": "Department of Sanitation",
    "final_address": "3711 Benefit St",
    "address_councildis": "D",
    "status": "Assigned to Contractor",
    "contractor": "Metro Disposal",
    "rowid": "924835",
    "final_x": "3693245.2424",
    "final_y": "543860.936206",
    "longitude": "-90.03054017794258",
    "latitude": "29.989067029264316",
    "geocoded_column": {
      "latitude": "29.989067029264316",
      "longitude": "-90.03054017794258"
    }
  },
  {
    "service_request": "2022-924834",
    "request_type": "Abandoned Vehicles",
    "request_reason": "Abandoned/Junk Vehicles",
    "date_created": "2022-09-29T15:22:07.000",
    "date_modified": "2022-09-29T15:22:07.000",
    "request_status": "Pending",
    "responsible_agency": "Department of Public Works",
    "final_address": "830 Union St",
    "address_councildis": "B",
    "status": "Pending",
    "rowid": "924834",
    "final_x": "3680196.45371",
    "final_y": "530082.433537",
    "longitude": "-90.07223640922949",
    "latitude": "29.951582374256713",
    "geocoded_column": {
      "latitude": "29.951582374256713",
      "longitude": "-90.07223640922949"
    }
  },
  {
    "service_request": "2022-924833",
    "request_type": "Trash/Recycling",
    "request_reason": "Missed Trash Pick-Up",
    "date_created": "2022-09-29T15:20:25.000",
    "date_modified": "2022-09-29T15:20:26.000",
    "request_status": "Pending",
    "responsible_agency": "Department of Sanitation",
    "final_address": "2618 St Charles Ave",
    "address_councildis": "B",
    "status": "Assigned to Contractor",
    "contractor": "Richards Disposal",
    "rowid": "924833",
    "final_x": "3676369.97845",
    "final_y": "522667.828538",
    "longitude": "-90.08457372284147",
    "latitude": "29.93130989779299",
    "geocoded_column": {
      "latitude": "29.93130989779299",
      "longitude": "-90.08457372284147"
    }
  },
  {
    "service_request": "2022-924832",
    "request_type": "Trash/Recycling",
    "request_reason": "Missed Trash Pick-Up",
    "date_created": "2022-09-29T15:17:41.000",
    "date_modified": "2022-09-29T15:17:41.000",
    "request_status": "Pending",
    "responsible_agency": "Department of Sanitation",
    "final_address": "4316 Baronne St",
    "address_councildis": "B",
    "status": "Assigned to Contractor",
    "contractor": "Richards Disposal",
    "rowid": "924832",
    "final_x": "3671020.40827",
    "final_y": "521587.044281",
    "longitude": "-90.10149836738734",
    "latitude": "29.92849731176201",
    "geocoded_column": {
      "latitude": "29.92849731176201",
      "longitude": "-90.10149836738734"
    }
  },
  {
    "service_request": "2022-924831",
    "request_type": "Abandoned Vehicles",
    "request_reason": "Abandoned/Junk Vehicles",
    "date_created": "2022-09-29T15:17:23.000",
    "date_modified": "2022-09-29T15:17:23.000",
    "request_status": "Pending",
    "responsible_agency": "Department of Public Works",
    "final_address": "820 Union St",
    "address_councildis": "B",
    "status": "Pending",
    "rowid": "924831",
    "final_x": "3680282.95989",
    "final_y": "530054.491521",
    "longitude": "-90.07196423589207",
    "latitude": "29.951502924945164",
    "geocoded_column": {
      "latitude": "29.951502924945164",
      "longitude": "-90.07196423589207"
    }
  },
  {
    "service_request": "2022-924830",
    "request_type": "Traffic Signals/Signs/Striping/Streetlights",
    "request_reason": "Street Name Sign Damaged or Missing",
    "date_created": "2022-09-29T15:15:46.000",
    "date_modified": "2022-09-29T15:15:46.000",
    "request_status": "Pending",
    "responsible_agency": "Department of Public Works",
    "final_address": "POYDRAS ST & LOYOLA AVE",
    "address_councildis": "B",
    "status": "Pending",
    "rowid": "924830",
    "final_x": "3679043.7",
    "final_y": "529761.78",
    "longitude": "-90.07588735863006",
    "latitude": "29.950735519370852",
    "geocoded_column": {
      "latitude": "29.950735519370852",
      "longitude": "-90.07588735863006"
    }
  },
  {
    "service_request": "2022-924829",
    "request_type": "Trash/Recycling",
    "request_reason": "Missed Trash Pick-Up",
    "date_created": "2022-09-29T15:14:36.000",
    "date_modified": "2022-09-29T15:15:01.000",
    "request_status": "Pending",
    "responsible_agency": "Department of Sanitation",
    "final_address": "1106 St Andrew St",
    "address_councildis": "B",
    "status": "Assigned to Contractor",
    "contractor": "Richards Disposal",
    "rowid": "924829",
    "final_x": "3679417.30011",
    "final_y": "522654.825786",
    "longitude": "-90.07495416121662",
    "latitude": "29.931182475277158",
    "geocoded_column": {
      "latitude": "29.931182475277158",
      "longitude": "-90.07495416121662"
    }
  },
  {
    "service_request": "2022-924828",
    "request_type": "Trash/Recycling",
    "request_reason": "Request a Large Item Pick Up",
    "date_created": "2022-09-29T15:14:27.000",
    "date_modified": "2022-09-29T15:14:28.000",
    "request_status": "Pending",
    "responsible_agency": "Department of Sanitation",
    "final_address": "3017 Wabash St",
    "address_councildis": "C",
    "status": "Assigned to Contractor",
    "contractor": "Richards Disposal",
    "rowid": "924828",
    "final_x": "3694734.51933",
    "final_y": "520584.214392",
    "longitude": "-90.02667444952127",
    "latitude": "29.925017572933786",
    "geocoded_column": {
      "latitude": "29.925017572933786",
      "longitude": "-90.02667444952127"
    }
  },
  {
    "service_request": "2022-924827",
    "request_type": "Traffic Signals/Signs/Striping/Streetlights",
    "request_reason": "Street Name Sign Damaged or Missing",
    "date_created": "2022-09-29T15:14:18.000",
    "date_modified": "2022-09-29T15:14:18.000",
    "request_status": "Pending",
    "responsible_agency": "Department of Public Works",
    "final_address": "GIROD ST & LOYOLA AVE",
    "address_councildis": "B",
    "status": "Pending",
    "rowid": "924827",
    "final_x": "3678857.8",
    "final_y": "528954.68",
    "longitude": "-90.07650228853845",
    "latitude": "29.948521872655697",
    "geocoded_column": {
      "latitude": "29.948521872655697",
      "longitude": "-90.07650228853845"
    }
  },
  {
    "service_request": "2022-924826",
    "request_type": "Mosquito, Termite & Rodent Control",
    "request_reason": "Non-Rodent Complaint (Mice, Possums, Snakes)",
    "date_created": "2022-09-29T15:11:24.000",
    "date_modified": "2022-09-29T15:11:24.000",
    "request_status": "Pending",
    "responsible_agency": "Mosquito, Termite & Rodent Control Board",
    "final_address": "6403 Baccich St",
    "address_councildis": "D",
    "status": "Pending",
    "rowid": "924826",
    "final_x": "3687407.26793",
    "final_y": "556874.04585",
    "longitude": "-90.04851965678182",
    "latitude": "30.025029550544552",
    "geocoded_column": {
      "latitude": "30.025029550544552",
      "longitude": "-90.04851965678182"
    }
  },
  {
    "service_request": "2022-924825",
    "request_type": "Trash/Recycling",
    "request_reason": "Replace Recycling Cart",
    "date_created": "2022-09-29T15:11:12.000",
    "date_modified": "2022-09-29T15:11:12.000",
    "request_status": "Pending",
    "responsible_agency": "Department of Sanitation",
    "final_address": "3035 Nashville Ave",
    "address_councildis": "A",
    "status": "Pending",
    "rowid": "924825",
    "final_x": "3667820.0073",
    "final_y": "527103.888895",
    "longitude": "-90.111415664027",
    "latitude": "29.943761082845786",
    "geocoded_column": {
      "latitude": "29.943761082845786",
      "longitude": "-90.111415664027"
    }
  },
  {
    "service_request": "2022-924824",
    "request_type": "Safety & Permits",
    "request_reason": "Licenses & Permits",
    "date_created": "2022-09-29T15:07:46.000",
    "date_modified": "2022-09-29T15:07:46.000",
    "request_status": "Pending",
    "responsible_agency": "Safety and Permits",
    "final_address": "4220 Orleans Ave",
    "address_councildis": "A",
    "status": "Pending",
    "rowid": "924824",
    "final_x": "3671809.8075",
    "final_y": "540656.886667",
    "longitude": "-90.09835757382683",
    "latitude": "29.980909710354215",
    "geocoded_column": {
      "latitude": "29.980909710354215",
      "longitude": "-90.09835757382683"
    }
  },
  {
    "service_request": "2022-924823",
    "request_type": "Abandoned Vehicles",
    "request_reason": "Abandoned/Junk Vehicles",
    "date_created": "2022-09-29T15:06:55.000",
    "date_modified": "2022-09-29T15:06:55.000",
    "request_status": "Pending",
    "responsible_agency": "Department of Public Works",
    "final_address": "1800 BLK N Gayoso St",
    "address_councildis": "D",
    "status": "Pending",
    "rowid": "924823",
    "final_x": "3679238.63263",
    "final_y": "542147.472907",
    "longitude": "-90.07484233627216",
    "latitude": "29.98478605549265",
    "geocoded_column": {
      "latitude": "29.98478605549265",
      "longitude": "-90.07484233627216"
    }
  },
  {
    "service_request": "2022-924822",
    "request_type": "Trash/Recycling",
    "request_reason": "Missed Trash Pick-Up",
    "date_created": "2022-09-29T15:06:14.000",
    "date_modified": "2022-09-29T15:06:14.000",
    "request_status": "Pending",
    "responsible_agency": "Department of Sanitation",
    "final_address": "915 Sixth St",
    "address_councildis": "B",
    "status": "Assigned to Contractor",
    "contractor": "Richards Disposal",
    "rowid": "924822",
    "final_x": "3676994.15125",
    "final_y": "520069.34828",
    "longitude": "-90.0826928195403",
    "latitude": "29.924146202614033",
    "geocoded_column": {
      "latitude": "29.924146202614033",
      "longitude": "-90.0826928195403"
    }
  },
  {
    "service_request": "2022-924821",
    "request_type": "Traffic Signals/Signs/Striping/Streetlights",
    "request_reason": "Street Light Outage/Malfunction",
    "date_created": "2022-09-29T15:01:21.000",
    "date_modified": "2022-09-29T15:01:22.000",
    "request_status": "Pending",
    "responsible_agency": "Department of Public Works",
    "final_address": "7500 Canal Blvd",
    "address_councildis": "D",
    "status": "Pending",
    "contractor": "Legacy Professional Services",
    "rowid": "924821",
    "final_x": "3669155.09582",
    "final_y": "556387.647514",
    "longitude": "-90.10621026465695",
    "latitude": "30.02424223570285",
    "geocoded_column": {
      "latitude": "30.02424223570285",
      "longitude": "-90.10621026465695"
    }
  },
  {
    "service_request": "2022-924820",
    "request_type": "Trash/Recycling",
    "request_reason": "Order Recycling Cart",
    "date_created": "2022-09-29T14:59:57.000",
    "date_modified": "2022-09-29T14:59:57.000",
    "request_status": "Pending",
    "responsible_agency": "Department of Sanitation",
    "final_address": "2119 Coliseum St",
    "address_councildis": "B",
    "status": "Pending",
    "rowid": "924820",
    "final_x": "3678372.82754",
    "final_y": "523057.927035",
    "longitude": "-90.07823748824568",
    "latitude": "29.93232237058741",
    "geocoded_column": {
      "latitude": "29.93232237058741",
      "longitude": "-90.07823748824568"
    }
  },
  {
    "service_request": "2022-924819",
    "request_type": "Roads/Drainage",
    "request_reason": "Pothole",
    "date_created": "2022-09-29T14:58:50.000",
    "date_modified": "2022-09-29T14:58:50.000",
    "request_status": "Pending",
    "responsible_agency": "Department of Public Works",
    "final_address": "2300 BLK S Roman St",
    "address_councildis": "B",
    "status": "Pending",
    "rowid": "924819",
    "final_x": "3673963.45683",
    "final_y": "528114.87302",
    "longitude": "-90.09198453277689",
    "latitude": "29.946359386790053",
    "geocoded_column": {
      "latitude": "29.946359386790053",
      "longitude": "-90.09198453277689"
    }
  },
  {
    "service_request": "2022-924818",
    "request_type": "Trash/Recycling",
    "request_reason": "Order Recycling Cart",
    "date_created": "2022-09-29T14:58:41.000",
    "date_modified": "2022-09-29T14:58:41.000",
    "request_status": "Pending",
    "responsible_agency": "Department of Sanitation",
    "final_address": "1305 Jackson Ave",
    "address_councildis": "B",
    "status": "Pending",
    "rowid": "924818",
    "final_x": "3678418.5636",
    "final_y": "522746.000954",
    "longitude": "-90.07810389102258",
    "latitude": "29.931463298502134",
    "geocoded_column": {
      "latitude": "29.931463298502134",
      "longitude": "-90.07810389102258"
    }
  },
  {
    "service_request": "2022-924817",
    "request_type": "Trash/Recycling",
    "request_reason": "Illegal Dumping",
    "date_created": "2022-09-29T14:57:21.000",
    "date_modified": "2022-09-29T14:57:22.000",
    "request_status": "Pending",
    "responsible_agency": "Department of Sanitation",
    "final_address": "SULLEN PL & STRATFORD PL",
    "address_councildis": "C",
    "status": "Pending",
    "rowid": "924817",
    "final_x": "3707506.4",
    "final_y": "516189.08",
    "longitude": "-89.98652119182015",
    "latitude": "29.912525831551587",
    "geocoded_column": {
      "latitude": "29.912525831551587",
      "longitude": "-89.98652119182015"
    }
  },
  {
    "service_request": "2022-924816",
    "request_type": "Roads/Drainage",
    "request_reason": "Street Subsidence (Sinking)",
    "date_created": "2022-09-29T14:54:11.000",
    "date_modified": "2022-09-29T14:54:12.000",
    "request_status": "Pending",
    "responsible_agency": "Department of Public Works",
    "final_address": "5609 Canal Blvd",
    "address_councildis": "A",
    "status": "Pending",
    "rowid": "924816",
    "final_x": "3668409.06055",
    "final_y": "544722.813583",
    "longitude": "-90.1089614563456",
    "latitude": "29.99218996901636",
    "geocoded_column": {
      "latitude": "29.99218996901636",
      "longitude": "-90.1089614563456"
    }
  },
  {
    "service_request": "2022-924815",
    "request_type": "Roads/Drainage",
    "request_reason": "Catch Basin - Clogged",
    "date_created": "2022-09-29T14:53:34.000",
    "date_modified": "2022-09-29T14:55:08.000",
    "request_status": "Pending",
    "responsible_agency": "Department of Public Works",
    "final_address": "2517 Delachaise St",
    "address_councildis": "B",
    "status": "Pending",
    "rowid": "924815",
    "final_x": "3672559.9266",
    "final_y": "524488.27686",
    "longitude": "-90.09653957247225",
    "latitude": "29.93642916554352",
    "geocoded_column": {
      "latitude": "29.93642916554352",
      "longitude": "-90.09653957247225"
    }
  },
  {
    "service_request": "2022-924814",
    "request_type": "Property Maintenance",
    "request_reason": "Property Maintenance",
    "date_created": "2022-09-29T14:46:05.000",
    "date_modified": "2022-09-29T16:27:36.000",
    "request_status": "Pending",
    "responsible_agency": "Department of Code Enforcement",
    "final_address": "New Orleans,LA",
    "address_councildis": "E",
    "rowid": "924814",
    "final_x": "3706913.63166",
    "final_y": "564769.47709",
    "longitude": "-89.98658994719733",
    "latitude": "30.046123043258014",
    "geocoded_column": {
      "latitude": "30.046123043258014",
      "longitude": "-89.98658994719733"
    }
  },
  {
    "service_request": "2022-924813",
    "request_type": "Trash/Recycling",
    "request_reason": "MIssed Recycling Pick-Up",
    "date_created": "2022-09-29T14:39:13.000",
    "date_modified": "2022-09-29T14:39:14.000",
    "request_status": "Pending",
    "responsible_agency": "Department of Sanitation",
    "final_address": "3213 Chippewa St",
    "address_councildis": "B",
    "status": "Assigned to Contractor",
    "contractor": "Richards Disposal",
    "rowid": "924813",
    "final_x": "3676364.32021",
    "final_y": "518616.406647",
    "longitude": "-90.08473095381645",
    "latitude": "29.920169968947743",
    "geocoded_column": {
      "latitude": "29.920169968947743",
      "longitude": "-90.08473095381645"
    }
  },
  {
    "service_request": "2022-924812",
    "request_type": "Abandoned Vehicles",
    "request_reason": "Abandoned/Junk Vehicles",
    "date_created": "2022-09-29T14:38:03.000",
    "date_modified": "2022-09-29T14:43:41.000",
    "request_status": "Pending",
    "responsible_agency": "Department of Public Works",
    "final_address": "TOLEDANO ST & CHESTNUT ST",
    "address_councildis": "B",
    "status": "Pending",
    "rowid": "924812",
    "final_x": "3675104.2",
    "final_y": "520474.68",
    "longitude": "-90.0886448395846",
    "latitude": "29.92531731941849",
    "geocoded_column": {
      "latitude": "29.92531731941849",
      "longitude": "-90.0886448395846"
    }
  },
  {
    "service_request": "2022-924811",
    "request_type": "Trash/Recycling",
    "request_reason": "Request a Large Item Pick Up",
    "date_created": "2022-09-29T14:31:29.000",
    "date_modified": "2022-09-29T14:31:30.000",
    "request_status": "Pending",
    "responsible_agency": "Department of Sanitation",
    "final_address": "5560 Bullard Ave",
    "address_councildis": "E",
    "status": "Assigned to Contractor",
    "contractor": "Metro Disposal",
    "rowid": "924811",
    "final_x": "3717199.41164",
    "final_y": "561656.874207",
    "longitude": "-89.95420042989312",
    "latitude": "30.037228231713048",
    "geocoded_column": {
      "latitude": "30.037228231713048",
      "longitude": "-89.95420042989312"
    }
  },
  {
    "service_request": "2022-924810",
    "request_type": "Trash/Recycling",
    "request_reason": "Return Trash Cart",
    "date_created": "2022-09-29T14:31:05.000",
    "date_modified": "2022-09-29T14:31:06.000",
    "request_status": "Pending",
    "responsible_agency": "Department of Sanitation",
    "final_address": "3122 Cleveland Ave",
    "address_councildis": "B",
    "status": "Assigned to Contractor",
    "contractor": "Richards Disposal",
    "rowid": "924810",
    "final_x": "3673625.51828",
    "final_y": "535843.662599",
    "longitude": "-90.09278733090525",
    "latitude": "29.96762104568549",
    "geocoded_column": {
      "latitude": "29.96762104568549",
      "longitude": "-90.09278733090525"
    }
  },
  {
    "service_request": "2022-924809",
    "request_type": "Roads/Drainage",
    "request_reason": "Pothole",
    "date_created": "2022-09-29T14:30:45.000",
    "date_modified": "2022-09-29T14:30:45.000",
    "request_status": "Pending",
    "responsible_agency": "Department of Public Works",
    "final_address": "5861 Louisville St",
    "address_councildis": "A",
    "status": "Pending",
    "rowid": "924809",
    "final_x": "3667713.43668",
    "final_y": "546426.759313",
    "longitude": "-90.11110138879833",
    "latitude": "29.996895654527673",
    "geocoded_column": {
      "latitude": "29.996895654527673",
      "longitude": "-90.11110138879833"
    }
  },
  {
    "service_request": "2022-924808",
    "request_type": "Trash/Recycling",
    "request_reason": "Order Recycling Cart",
    "date_created": "2022-09-29T14:30:31.000",
    "date_modified": "2022-09-29T14:30:32.000",
    "request_status": "Pending",
    "responsible_agency": "Department of Sanitation",
    "final_address": "3122 Cleveland Ave",
    "address_councildis": "B",
    "status": "Pending",
    "rowid": "924808",
    "final_x": "3673625.51828",
    "final_y": "535843.662599",
    "longitude": "-90.09278733090525",
    "latitude": "29.96762104568549",
    "geocoded_column": {
      "latitude": "29.96762104568549",
      "longitude": "-90.09278733090525"
    }
  },
  {
    "service_request": "2022-924807",
    "request_type": "Trash/Recycling",
    "request_reason": "Request a Large Item Pick Up",
    "date_created": "2022-09-29T14:28:39.000",
    "date_modified": "2022-09-29T14:28:40.000",
    "case_close_date": "2021-07-19T19:00:00.000",
    "request_status": "Pending",
    "responsible_agency": "Department of Sanitation",
    "final_address": "1938 Robert St",
    "address_councildis": "B",
    "status": "Assigned to Contractor",
    "contractor": "Richards Disposal",
    "rowid": "924807",
    "final_x": "3668708.51617",
    "final_y": "522810.551803",
    "longitude": "-90.10875526094252",
    "latitude": "29.931929704898003",
    "geocoded_column": {
      "latitude": "29.931929704898003",
      "longitude": "-90.10875526094252"
    }
  },
  {
    "service_request": "2022-924806",
    "request_type": "Traffic Signals/Signs/Striping/Streetlights",
    "request_reason": "Street Light Outage/Malfunction",
    "date_created": "2022-09-29T14:27:59.000",
    "date_modified": "2022-09-29T14:28:00.000",
    "request_status": "Pending",
    "responsible_agency": "Department of Public Works",
    "final_address": "1804 Octavia St",
    "address_councildis": "A",
    "status": "Pending",
    "contractor": "Legacy Professional Services",
    "rowid": "924806",
    "final_x": "3667160.25031",
    "final_y": "522396.686522",
    "longitude": "-90.11365689755807",
    "latitude": "29.93083711398716",
    "geocoded_column": {
      "latitude": "29.93083711398716",
      "longitude": "-90.11365689755807"
    }
  },
  {
    "service_request": "2022-924803",
    "request_type": "Parks & Parkways",
    "request_reason": "Request Tree Service (Right of Way/Public Property)",
    "date_created": "2022-09-29T14:26:40.000",
    "date_modified": "2022-09-29T14:26:41.000",
    "request_status": "Pending",
    "responsible_agency": "Department of Parks & Parkway",
    "final_address": "10218 Hillwood St",
    "address_councildis": "E",
    "status": "Pending",
    "rowid": "924803",
    "final_x": "3713269.34072",
    "final_y": "556618.073178",
    "longitude": "-89.96681012244365",
    "latitude": "30.02350301122172",
    "geocoded_column": {
      "latitude": "30.02350301122172",
      "longitude": "-89.96681012244365"
    }
  },
  {
    "service_request": "2022-924802",
    "request_type": "Safety & Permits",
    "request_reason": "Licenses & Permits",
    "date_created": "2022-09-29T14:23:22.000",
    "date_modified": "2022-09-29T14:23:22.000",
    "request_status": "Pending",
    "responsible_agency": "Safety and Permits",
    "final_address": "5919 West End Blvd",
    "address_councildis": "A",
    "status": "Pending",
    "rowid": "924802",
    "final_x": "3666518.69415",
    "final_y": "547315.600017",
    "longitude": "-90.11484567719323",
    "latitude": "29.99937464808035",
    "geocoded_column": {
      "latitude": "29.99937464808035",
      "longitude": "-90.11484567719323"
    }
  },
  {
    "service_request": "2022-924801",
    "request_type": "Roads/Drainage",
    "request_reason": "Pothole",
    "date_created": "2022-09-29T14:21:16.000",
    "date_modified": "2022-09-29T14:21:35.000",
    "request_status": "Pending",
    "responsible_agency": "Department of Public Works",
    "final_address": "3702 Pauger St",
    "address_councildis": "D",
    "status": "Pending",
    "rowid": "924801",
    "final_x": "3683201.9997",
    "final_y": "543618.689294",
    "longitude": "-90.06227224363757",
    "latitude": "29.98871109336009",
    "geocoded_column": {
      "latitude": "29.98871109336009",
      "longitude": "-90.06227224363757"
    }
  },
  {
    "service_request": "2022-924800",
    "request_type": "Traffic Signals/Signs/Striping/Streetlights",
    "request_reason": "Street Name Sign Damaged or Missing",
    "date_created": "2022-09-29T14:19:27.000",
    "date_modified": "2022-09-29T14:35:07.000",
    "request_status": "Pending",
    "responsible_agency": "Department of Public Works",
    "final_address": "CINDY PL & WENDY LN",
    "address_councildis": "E",
    "status": "Pending",
    "rowid": "924800",
    "final_x": "3707076.2",
    "final_y": "559057.08",
    "longitude": "-89.98628839525898",
    "latitude": "30.030410957565966",
    "geocoded_column": {
      "latitude": "30.030410957565966",
      "longitude": "-89.98628839525898"
    }
  },
  {
    "service_request": "2022-924799",
    "request_type": "Abandoned Vehicles",
    "request_reason": "Abandoned/Junk Vehicles",
    "date_created": "2022-09-29T14:18:50.000",
    "date_modified": "2022-09-29T14:18:50.000",
    "request_status": "Pending",
    "responsible_agency": "Department of Public Works",
    "final_address": "8015 Lacombe St",
    "address_councildis": "E",
    "status": "Pending",
    "rowid": "924799",
    "final_x": "3709000.89329",
    "final_y": "566443.245539",
    "longitude": "-89.97993071574949",
    "latitude": "30.05065761387577",
    "geocoded_column": {
      "latitude": "30.05065761387577",
      "longitude": "-89.97993071574949"
    }
  },
  {
    "service_request": "2022-924798",
    "request_type": "Roads/Drainage",
    "request_reason": "Pothole",
    "date_created": "2022-09-29T14:17:48.000",
    "date_modified": "2022-09-29T14:17:49.000",
    "request_status": "Pending",
    "responsible_agency": "Department of Public Works",
    "final_address": "1415 Franklin Ave",
    "address_councildis": "C",
    "status": "Pending",
    "rowid": "924798",
    "final_x": "3687468.12098",
    "final_y": "537699.087624",
    "longitude": "-90.04900649795452",
    "latitude": "29.972303471683006",
    "geocoded_column": {
      "latitude": "29.972303471683006",
      "longitude": "-90.04900649795452"
    }
  },
  {
    "service_request": "2022-924797",
    "request_type": "Roads/Drainage",
    "request_reason": "Service Cut",
    "date_created": "2022-09-29T14:16:25.000",
    "date_modified": "2022-09-29T14:16:28.000",
    "request_status": "Pending",
    "responsible_agency": "Department of Public Works",
    "final_address": "2227 Marais St",
    "address_councildis": "C",
    "status": "Pending",
    "rowid": "924797",
    "final_x": "3685284.17365",
    "final_y": "536725.512391",
    "longitude": "-90.05593804334777",
    "latitude": "29.969693606942364",
    "geocoded_column": {
      "latitude": "29.969693606942364",
      "longitude": "-90.05593804334777"
    }
  },
  {
    "service_request": "2022-924796",
    "request_type": "Roads/Drainage",
    "request_reason": "Debris in Roadway",
    "date_created": "2022-09-29T14:15:30.000",
    "date_modified": "2022-09-29T14:15:30.000",
    "request_status": "Pending",
    "responsible_agency": "Department of Public Works",
    "final_address": "LEAKE AVE & CHEROKEE ST",
    "address_councildis": "A",
    "status": "Pending",
    "rowid": "924796",
    "final_x": "3660793.3",
    "final_y": "523925.98",
    "longitude": "-90.13370603288769",
    "latitude": "29.935227007342693",
    "geocoded_column": {
      "latitude": "29.935227007342693",
      "longitude": "-90.13370603288769"
    }
  },
  {
    "service_request": "2022-924795",
    "request_type": "Roads/Drainage",
    "request_reason": "Pothole",
    "date_created": "2022-09-29T14:14:59.000",
    "date_modified": "2022-09-29T15:15:11.000",
    "request_status": "Pending",
    "responsible_agency": "Department of Public Works",
    "final_address": "4423 Painters St",
    "address_councildis": "D",
    "status": "Inspected",
    "rowid": "924795",
    "final_x": "3686407.28284",
    "final_y": "549075.892947",
    "longitude": "-90.05195500044279",
    "latitude": "30.003618286712513",
    "geocoded_column": {
      "latitude": "30.003618286712513",
      "longitude": "-90.05195500044279"
    }
  },
  {
    "service_request": "2022-924794",
    "request_type": "Abandoned Vehicles",
    "request_reason": "Abandoned/Junk Vehicles",
    "date_created": "2022-09-29T14:14:52.000",
    "date_modified": "2022-09-29T14:14:52.000",
    "request_status": "Pending",
    "responsible_agency": "Department of Public Works",
    "final_address": "ST ROCH AVE & ROBERT E LEE BLVD",
    "address_councildis": "D",
    "status": "Pending",
    "rowid": "924794",
    "final_x": "3684862.6",
    "final_y": "555871.68",
    "longitude": "-90.0565956818528",
    "latitude": "30.022351625056242",
    "geocoded_column": {
      "latitude": "30.022351625056242",
      "longitude": "-90.0565956818528"
    }
  },
  {
    "service_request": "2022-924793",
    "request_type": "Trash/Recycling",
    "request_reason": "Repair Trash Cart",
    "date_created": "2022-09-29T14:13:54.000",
    "date_modified": "2022-09-29T14:13:54.000",
    "request_status": "Pending",
    "responsible_agency": "Department of Sanitation",
    "final_address": "7322 Onyx St",
    "address_councildis": "D",
    "status": "Assigned to Contractor",
    "contractor": "Metro Disposal",
    "rowid": "924793",
    "final_x": "3668821.58394",
    "final_y": "555765.820121",
    "longitude": "-90.10728512832769",
    "latitude": "30.02254224877879",
    "geocoded_column": {
      "latitude": "30.02254224877879",
      "longitude": "-90.10728512832769"
    }
  },
  {
    "service_request": "2022-924792",
    "request_type": "Property Maintenance",
    "request_reason": "Property Maintenance",
    "date_created": "2022-09-29T14:12:09.000",
    "date_modified": "2022-09-29T14:12:33.000",
    "request_status": "Pending",
    "responsible_agency": "Department of Code Enforcement",
    "final_address": "6700 Cindy Pl",
    "address_councildis": "E",
    "status": "Pending",
    "rowid": "924792",
    "final_x": "3707199.446",
    "final_y": "558627.075036",
    "longitude": "-89.98591491844806",
    "latitude": "30.02922462809095",
    "geocoded_column": {
      "latitude": "30.02922462809095",
      "longitude": "-89.98591491844806"
    }
  },
  {
    "service_request": "2022-924791",
    "request_type": "Roads/Drainage",
    "request_reason": "Pothole",
    "date_created": "2022-09-29T14:12:01.000",
    "date_modified": "2022-09-29T15:09:05.000",
    "request_status": "Pending",
    "responsible_agency": "Department of Public Works",
    "final_address": "4624 Painters St",
    "address_councildis": "D",
    "status": "Pending",
    "rowid": "924791",
    "final_x": "3686194.45039",
    "final_y": "549858.077844",
    "longitude": "-90.05259975196674",
    "latitude": "30.005775553956905",
    "geocoded_column": {
      "latitude": "30.005775553956905",
      "longitude": "-90.05259975196674"
    }
  },
  {
    "service_request": "2022-924790",
    "request_type": "Roads/Drainage",
    "request_reason": "Pothole",
    "date_created": "2022-09-29T14:11:37.000",
    "date_modified": "2022-09-29T14:52:15.000",
    "request_status": "Pending",
    "responsible_agency": "Department of Public Works",
    "final_address": "4962 Painters St",
    "address_councildis": "D",
    "status": "Inspected",
    "rowid": "924790",
    "final_x": "3686052.7359",
    "final_y": "551488.036629",
    "longitude": "-90.05298992121591",
    "latitude": "30.01026170157804",
    "geocoded_column": {
      "latitude": "30.01026170157804",
      "longitude": "-90.05298992121591"
    }
  },
  {
    "service_request": "2022-924789",
    "request_type": "Roads/Drainage",
    "request_reason": "Pothole",
    "date_created": "2022-09-29T14:09:16.000",
    "date_modified": "2022-09-29T14:38:24.000",
    "request_status": "Pending",
    "responsible_agency": "Department of Public Works",
    "final_address": "1561 Foy St",
    "address_councildis": "D",
    "status": "Inspected",
    "rowid": "924789",
    "final_x": "3679338.87547",
    "final_y": "546703.691729",
    "longitude": "-90.07436759343713",
    "latitude": "29.997311028330696",
    "geocoded_column": {
      "latitude": "29.997311028330696",
      "longitude": "-90.07436759343713"
    }
  },
  {
    "service_request": "2022-924788",
    "request_type": "Trash/Recycling",
    "request_reason": "Request a Large Item Pick Up",
    "date_created": "2022-09-29T14:06:15.000",
    "date_modified": "2022-09-29T14:06:16.000",
    "request_status": "Pending",
    "responsible_agency": "Department of Sanitation",
    "final_address": "2728 St Philip St",
    "address_councildis": "A",
    "status": "Assigned to Contractor",
    "contractor": "Richards Disposal",
    "rowid": "924788",
    "final_x": "3677150.22376",
    "final_y": "538001.213257",
    "longitude": "-90.08158178709824",
    "latitude": "29.97344817511372",
    "geocoded_column": {
      "latitude": "29.97344817511372",
      "longitude": "-90.08158178709824"
    }
  },
  {
    "service_request": "2022-924787",
    "request_type": "Trash/Recycling",
    "request_reason": "Request a Large Item Pick Up",
    "date_created": "2022-09-29T14:05:30.000",
    "date_modified": "2022-09-29T14:05:31.000",
    "request_status": "Pending",
    "responsible_agency": "Department of Sanitation",
    "final_address": "623 Royal St",
    "address_councildis": "C",
    "status": "Assigned to Contractor",
    "contractor": "Empire Services",
    "rowid": "924787",
    "final_x": "3682417.57058",
    "final_y": "532326.460291",
    "longitude": "-90.06514478274211",
    "latitude": "29.9576852826533",
    "geocoded_column": {
      "latitude": "29.9576852826533",
      "longitude": "-90.06514478274211"
    }
  },
  {
    "service_request": "2022-924786",
    "request_type": "Trash/Recycling",
    "request_reason": "Missed Trash Pick-Up",
    "date_created": "2022-09-29T14:03:53.000",
    "date_modified": "2022-09-29T14:03:54.000",
    "request_status": "Pending",
    "responsible_agency": "Department of Sanitation",
    "final_address": "1347 Coliseum St",
    "address_councildis": "B",
    "status": "Assigned to Contractor",
    "contractor": "Richards Disposal",
    "rowid": "924786",
    "final_x": "3679935.75829",
    "final_y": "524906.077052",
    "longitude": "-90.07323930060726",
    "latitude": "29.93735700750877",
    "geocoded_column": {
      "latitude": "29.93735700750877",
      "longitude": "-90.07323930060726"
    }
  },
  {
    "service_request": "2022-924785",
    "request_type": "Property Maintenance",
    "request_reason": "Property Maintenance",
    "date_created": "2022-09-29T14:02:58.000",
    "date_modified": "2022-09-29T14:02:59.000",
    "request_status": "Pending",
    "responsible_agency": "Department of Code Enforcement",
    "final_address": "6831 Tara Ln",
    "address_councildis": "E",
    "status": "Pending",
    "rowid": "924785",
    "final_x": "3707303.00344",
    "final_y": "559468.724829",
    "longitude": "-89.98555639951988",
    "latitude": "30.03153548593506",
    "geocoded_column": {
      "latitude": "30.03153548593506",
      "longitude": "-89.98555639951988"
    }
  },
  {
    "service_request": "2022-924783",
    "request_type": "Trash/Recycling",
    "request_reason": "Missed Trash Pick-Up",
    "date_created": "2022-09-29T13:57:44.000",
    "date_modified": "2022-09-29T13:57:45.000",
    "request_status": "Pending",
    "responsible_agency": "Department of Sanitation",
    "final_address": "46 Neron Pl",
    "address_councildis": "A",
    "status": "Assigned to Contractor",
    "contractor": "Richards Disposal",
    "rowid": "924783",
    "final_x": "3665444.3929",
    "final_y": "530365.291394",
    "longitude": "-90.1188070036492",
    "latitude": "29.952798330421736",
    "geocoded_column": {
      "latitude": "29.952798330421736",
      "longitude": "-90.1188070036492"
    }
  },
  {
    "service_request": "2022-924782",
    "request_type": "Trash/Recycling",
    "request_reason": "Illegal Dumping",
    "date_created": "2022-09-29T13:56:43.000",
    "date_modified": "2022-09-29T13:56:43.000",
    "request_status": "Pending",
    "responsible_agency": "Department of Sanitation",
    "final_address": "6501 Florida Ave",
    "address_councildis": "E",
    "status": "Pending",
    "rowid": "924782",
    "final_x": "3703272.98903",
    "final_y": "538555.922121",
    "longitude": "-89.99906087212624",
    "latitude": "29.974162886657158",
    "geocoded_column": {
      "latitude": "29.974162886657158",
      "longitude": "-89.99906087212624"
    }
  },
  {
    "service_request": "2022-924780",
    "request_type": "Trash/Recycling",
    "request_reason": "Missed Trash Pick-Up",
    "date_created": "2022-09-29T13:54:09.000",
    "date_modified": "2022-09-29T13:54:10.000",
    "request_status": "Pending",
    "responsible_agency": "Department of Sanitation",
    "final_address": "4411 Magazine St",
    "address_councildis": "B",
    "status": "Assigned to Contractor",
    "contractor": "Richards Disposal",
    "rowid": "924780",
    "final_x": "3670776.74241",
    "final_y": "518796.872695",
    "longitude": "-90.10236219401855",
    "latitude": "29.920832430069403",
    "geocoded_column": {
      "latitude": "29.920832430069403",
      "longitude": "-90.10236219401855"
    }
  },
  {
    "service_request": "2022-924779",
    "request_type": "Property Maintenance",
    "request_reason": "Property Maintenance",
    "date_created": "2022-09-29T13:53:35.000",
    "date_modified": "2022-09-29T13:53:36.000",
    "request_status": "Pending",
    "responsible_agency": "Department of Code Enforcement",
    "final_address": "6801 Cindy Pl",
    "address_councildis": "E",
    "status": "Pending",
    "rowid": "924779",
    "final_x": "3707084.85835",
    "final_y": "559238.987804",
    "longitude": "-89.9862542771697",
    "latitude": "30.03091085276869",
    "geocoded_column": {
      "latitude": "30.03091085276869",
      "longitude": "-89.9862542771697"
    }
  },
  {
    "service_request": "2022-924778",
    "request_type": "Trash/Recycling",
    "request_reason": "Request a Large Item Pick Up",
    "date_created": "2022-09-29T13:53:17.000",
    "date_modified": "2022-09-29T13:53:18.000",
    "request_status": "Pending",
    "responsible_agency": "Department of Sanitation",
    "final_address": "623 LeeS Ln",
    "address_councildis": "C",
    "status": "Assigned to Contractor",
    "contractor": "Richards Disposal",
    "rowid": "924778",
    "final_x": "3697398.01341",
    "final_y": "525396.207677",
    "longitude": "-90.01809235419033",
    "latitude": "29.93816511572142",
    "geocoded_column": {
      "latitude": "29.93816511572142",
      "longitude": "-90.01809235419033"
    }
  },
  {
    "service_request": "2022-924777",
    "request_type": "Mosquito, Termite & Rodent Control",
    "request_reason": "Mosquito Complaint",
    "date_created": "2022-09-29T13:53:02.000",
    "date_modified": "2022-09-29T13:53:02.000",
    "request_status": "Pending",
    "responsible_agency": "Mosquito, Termite & Rodent Control Board",
    "final_address": "6501 Florida Ave",
    "address_councildis": "E",
    "status": "Pending",
    "rowid": "924777",
    "final_x": "3703272.98903",
    "final_y": "538555.922121",
    "longitude": "-89.99906087212624",
    "latitude": "29.974162886657158",
    "geocoded_column": {
      "latitude": "29.974162886657158",
      "longitude": "-89.99906087212624"
    }
  },