[
  {
    "service_request": "2024-1096930",
    "request_type": "Roads/Drainage",
    "request_reason": "Pothole",
    "date_created": "2024-05-26T23:10:32.000",
    "date_modified": "2024-05-26T23:10:32.000",
    "request_status": "Pending",
    "responsible_agency": "Department of Public Works",
    "final_address": "3636 Prytania St",
    "address_councildis": "B",
    "status": "Pending",
    "rowid": "1096930",
    "final_x": "3673359.5883",
    "final_y": "520522.643768",
    "longitude": "-90.09415040197753",
    "latitude": "29.92550119857034",
    "geocoded_column": {
      "latitude": "29.92550119857034",
      "longitude": "-90.09415040197753"
    }
  },
  {
    "service_request": "2024-1096929",
    "request_type": "Roads/Drainage",
    "request_reason": "Pothole",
    "date_created": "2024-05-26T23:09:09.000",
    "date_modified": "2024-05-26T23:09:09.000",
    "request_status": "Pending",
    "responsible_agency": "Department of Public Works",
    "final_address": "2015 Chartres St",
    "address_councildis": "C",
    "status": "Pending",
    "rowid": "1096929",
    "final_x": "3684650.51797",
    "final_y": "534499.563013",
    "longitude": "-90.05801742196488",
    "latitude": "29.963592424983997",
    "geocoded_column": {
      "latitude": "29.963592424983997",
      "longitude": "-90.05801742196488"
    }
  },
  {
    "service_request": "2024-1096928",
    "request_type": "Roads/Drainage",
    "request_reason": "Pothole",
    "date_created": "2024-05-26T23:00:02.000",
    "date_modified": "2024-05-26T23:00:02.000",
    "request_status": "Pending",
    "responsible_agency": "Department of Public Works",
    "final_address": "1312 Milan St",
    "address_councildis": "B",
    "status": "Pending",
    "rowid": "1096928",
    "final_x": "3671625.82823",
    "final_y": "520286.919608",
    "longitude": "-90.09963137110304",
    "latitude": "29.92490447494246",
    "geocoded_column": {
      "latitude": "29.92490447494246",
      "longitude": "-90.09963137110304"
    }
  },
  {
    "service_request": "2024-1096927",
    "request_type": "Traffic Signals/Signs/Striping/Streetlights",
    "request_reason": "Street Light Outage/Malfunction",
    "date_created": "2024-05-26T21:57:49.000",
    "date_modified": "2024-05-26T21:57:49.000",
    "request_status": "Pending",
    "responsible_agency": "Department of Public Works",
    "final_address": "1610 Allen Toussaint Blvd",
    "address_councildis": "D",
    "status": "Assigned to Contractor",
    "contractor": "Legacy Professional Services",
    "rowid": "1096927",
    "final_x": "3679122.13621",
    "final_y": "555269.311065",
    "longitude": "-90.07475505755605",
    "latitude": "30.020869953757085",
    "geocoded_column": {
      "latitude": "30.020869953757085",
      "longitude": "-90.07475505755605"
    }
  },
  {
    "service_request": "2024-1096926",
    "request_type": "Traffic Signals/Signs/Striping/Streetlights",
    "request_reason": "Street Light Outage/Malfunction",
    "date_created": "2024-05-26T21:50:50.000",
    "date_modified": "2024-05-26T21:50:50.000",
    "request_status": "Pending",
    "responsible_agency": "Department of Public Works",
    "final_address": "OPAL ST & MILNE BLVD & ROBERT E LEE BLVD",
    "address_councildis": "D",
    "status": "Assigned to Contractor",
    "contractor": "Legacy Professional Services",
    "rowid": "1096926",
    "final_x": "3667796.9",
    "final_y": "554827.68",
    "longitude": "-90.11055453097109",
    "latitude": "30.019992803852624",
    "geocoded_column": {
      "latitude": "30.019992803852624",
      "longitude": "-90.11055453097109"
    }
  },
  {
    "service_request": "2024-1096925",
    "request_type": "Traffic Signals/Signs/Striping/Streetlights",
    "request_reason": "Street Light Outage/Malfunction",
    "date_created": "2024-05-26T21:43:44.000",
    "date_modified": "2024-05-26T21:43:45.000",
    "request_status": "Pending",
    "responsible_agency": "Department of Public Works",
    "final_address": "CANAL BLVD & AMETHYST ST",
    "address_councildis": "D",
    "status": "Assigned to Contractor",
    "contractor": "Legacy Professional Services",
    "rowid": "1096925",
    "final_x": "3669283.6",
    "final_y": "556761.88",
    "longitude": "-90.10579154557688",
    "latitude": "30.025267456553983",
    "geocoded_column": {
      "latitude": "30.025267456553983",
      "longitude": "-90.10579154557688"
    }
  },
  {
    "service_request": "2024-1096924",
    "request_type": "Traffic Signals/Signs/Striping/Streetlights",
    "request_reason": "Street Light Outage/Malfunction",
    "date_created": "2024-05-26T21:39:52.000",
    "date_modified": "2024-05-26T21:39:53.000",
    "request_status": "Pending",
    "responsible_agency": "Department of Public Works",
    "final_address": "WEST END BLVD & SAPPHIRE ST",
    "address_councildis": "D",
    "status": "Assigned to Contractor",
    "contractor": "Legacy Professional Services",
    "rowid": "1096924",
    "final_x": "3667020.1",
    "final_y": "555417.48",
    "longitude": "-90.11298913331144",
    "latitude": "30.021637315567204",
    "geocoded_column": {
      "latitude": "30.021637315567204",
      "longitude": "-90.11298913331144"
    }
  },
  {
    "service_request": "2024-1096923",
    "request_type": "Traffic Signals/Signs/Striping/Streetlights",
    "request_reason": "Street Light Outage/Malfunction",
    "date_created": "2024-05-26T21:32:52.000",
    "date_modified": "2024-05-26T21:32:52.000",
    "request_status": "Pending",
    "responsible_agency": "Department of Public Works",
    "final_address": "CANAL BLVD & ROBERT E LEE BLVD",
    "address_councildis": "D",
    "status": "Assigned to Contractor",
    "contractor": "Legacy Professional Services",
    "rowid": "1096923",
    "final_x": "3669225.5",
    "final_y": "554695.08",
    "longitude": "-90.10604508335264",
    "latitude": "30.019586204670787",
    "geocoded_column": {
      "latitude": "30.019586204670787",
      "longitude": "-90.10604508335264"
    }
  },
  {
    "service_request": "2024-1096922",
    "request_type": "Trash/Recycling",
    "request_reason": "Request a Large Item Pick Up",
    "date_created": "2024-05-26T21:22:17.000",
    "date_modified": "2024-05-26T21:22:18.000",
    "request_status": "Pending",
    "responsible_agency": "Department of Sanitation",
    "final_address": "1515 Allen Toussaint Blvd",
    "address_councildis": "D",
    "status": "Assigned to Contractor",
    "contractor": "IV Waste",
    "rowid": "1096922",
    "final_x": "3678491.00686",
    "final_y": "555452.476313",
    "longitude": "-90.07674289669221",
    "latitude": "30.021392637676072",
    "geocoded_column": {
      "latitude": "30.021392637676072",
      "longitude": "-90.07674289669221"
    }
  },
  {
    "service_request": "2024-1096921",
    "request_type": "Roads/Drainage",
    "request_reason": "Street Subsidence (Sinking)",
    "date_created": "2024-05-26T20:55:40.000",
    "date_modified": "2024-05-26T20:55:40.000",
    "request_status": "Pending",
    "responsible_agency": "Department of Public Works",
    "final_address": "2622 Constance St",
    "address_councildis": "B",
    "status": "Pending",
    "rowid": "1096921",
    "final_x": "3677628.65538",
    "final_y": "520713.924153",
    "longitude": "-90.08066766829985",
    "latitude": "29.925899519299865",
    "geocoded_column": {
      "latitude": "29.925899519299865",
      "longitude": "-90.08066766829985"
    }
  },
  {
    "service_request": "2024-1096920",
    "request_type": "Roads/Drainage",
    "request_reason": "Street Subsidence (Sinking)",
    "date_created": "2024-05-26T20:48:54.000",
    "date_modified": "2024-05-26T20:48:54.000",
    "request_status": "Pending",
    "responsible_agency": "Department of Public Works",
    "final_address": "2600 BLK Constance St",
    "address_councildis": "B",
    "status": "Pending",
    "rowid": "1096920",
    "final_x": "3677649.7444",
    "final_y": "520773.598004",
    "longitude": "-90.0805990370235",
    "latitude": "29.926062969042608",
    "geocoded_column": {
      "latitude": "29.926062969042608",
      "longitude": "-90.0805990370235"
    }
  },
  {
    "service_request": "2024-1096918",
    "request_type": "Property Maintenance",
    "request_reason": "Property Maintenance",
    "date_created": "2024-05-26T19:39:11.000",
    "date_modified": "2024-05-26T19:39:11.000",
    "request_status": "Pending",
    "responsible_agency": "Department of Code Enforcement",
    "final_address": "530 S Scott St",
    "address_councildis": "B",
    "status": "Pending",
    "rowid": "1096918",
    "final_x": "3670673.27425",
    "final_y": "536316.298247",
    "longitude": "-90.10209457268702",
    "latitude": "29.96900819112195",
    "geocoded_column": {
      "latitude": "29.96900819112195",
      "longitude": "-90.10209457268702"
    }
  },
  {
    "service_request": "2024-1096917",
    "request_type": "Property Maintenance",
    "request_reason": "Property Maintenance",
    "date_created": "2024-05-26T19:37:48.000",
    "date_modified": "2024-05-26T19:37:48.000",
    "request_status": "Pending",
    "responsible_agency": "Department of Code Enforcement",
    "final_address": "532 S Scott St",
    "address_councildis": "B",
    "status": "Pending",
    "rowid": "1096917",
    "final_x": "3670658.34932",
    "final_y": "536296.773191",
    "longitude": "-90.10214236928911",
    "latitude": "29.9689549447281",
    "geocoded_column": {
      "latitude": "29.9689549447281",
      "longitude": "-90.10214236928911"
    }
  },
  {
    "service_request": "2024-1096916",
    "request_type": "Traffic Signals/Signs/Striping/Streetlights",
    "request_reason": "Street Light Outage/Malfunction",
    "date_created": "2024-05-26T19:37:03.000",
    "date_modified": "2024-05-26T19:37:03.000",
    "request_status": "Pending",
    "responsible_agency": "Department of Public Works",
    "final_address": "7449 Cameo St",
    "address_councildis": "D",
    "status": "Assigned to Contractor",
    "contractor": "Legacy Professional Services",
    "rowid": "1096916",
    "final_x": "3667804.63508",
    "final_y": "556253.857562",
    "longitude": "-90.11048199914225",
    "latitude": "30.023914058698303",
    "geocoded_column": {
      "latitude": "30.023914058698303",
      "longitude": "-90.11048199914225"
    }
  },
  {
    "service_request": "2024-1096914",
    "request_type": "Trash/Recycling",
    "request_reason": "Request a Large Item Pick Up",
    "date_created": "2024-05-26T19:34:07.000",
    "date_modified": "2024-05-26T19:34:08.000",
    "request_status": "Pending",
    "responsible_agency": "Department of Sanitation",
    "final_address": "5708 Eads St",
    "address_councildis": "D",
    "status": "Assigned to Contractor",
    "contractor": "IV Waste",
    "rowid": "1096914",
    "final_x": "3686814.51631",
    "final_y": "554222.637464",
    "longitude": "-90.05048645137377",
    "latitude": "30.01775742216201",
    "geocoded_column": {
      "latitude": "30.01775742216201",
      "longitude": "-90.05048645137377"
    }
  },
  {
    "service_request": "2024-1096913",
    "request_type": "Traffic Signals/Signs/Striping/Streetlights",
    "request_reason": "Street Light Outage/Malfunction",
    "date_created": "2024-05-26T19:27:21.000",
    "date_modified": "2024-05-26T19:27:22.000",
    "request_status": "Pending",
    "responsible_agency": "Department of Public Works",
    "final_address": "542 Amethyst St",
    "address_councildis": "D",
    "status": "Assigned to Contractor",
    "contractor": "Legacy Professional Services",
    "rowid": "1096913",
    "final_x": "3668678.74094",
    "final_y": "556735.69225",
    "longitude": "-90.1077037000731",
    "latitude": "30.025213253018766",
    "geocoded_column": {
      "latitude": "30.025213253018766",
      "longitude": "-90.1077037000731"
    }
  },
  {
    "service_request": "2024-1096912",
    "request_type": "Traffic Signals/Signs/Striping/Streetlights",
    "request_reason": "Street Light Outage/Malfunction",
    "date_created": "2024-05-26T19:22:07.000",
    "date_modified": "2024-05-26T19:22:08.000",
    "request_status": "Pending",
    "responsible_agency": "Department of Public Works",
    "final_address": "517 Amethyst St",
    "address_councildis": "D",
    "status": "Assigned to Contractor",
    "contractor": "Legacy Professional Services",
    "rowid": "1096912",
    "final_x": "3668463.13281",
    "final_y": "556908.867738",
    "longitude": "-90.10837914114494",
    "latitude": "30.025695763249566",
    "geocoded_column": {
      "latitude": "30.025695763249566",
      "longitude": "-90.10837914114494"
    }
  },
  {
    "service_request": "2024-1096911",
    "request_type": "Traffic Signals/Signs/Striping/Streetlights",
    "request_reason": "Street Light Outage/Malfunction",
    "date_created": "2024-05-26T19:19:00.000",
    "date_modified": "2024-05-26T19:19:00.000",
    "request_status": "Pending",
    "responsible_agency": "Department of Public Works",
    "final_address": "LAKESHORE DR & TOPAZ ST",
    "address_councildis": "D",
    "status": "Assigned to Contractor",
    "contractor": "Legacy Professional Services",
    "rowid": "1096911",
    "final_x": "3666891.7",
    "final_y": "556430.78",
    "longitude": "-90.11336075559657",
    "latitude": "30.024427290450582",
    "geocoded_column": {
      "latitude": "30.024427290450582",
      "longitude": "-90.11336075559657"
    }
  },
  {
    "service_request": "2024-1096910",
    "request_type": "Trash/Recycling",
    "request_reason": "Request a Large Item Pick Up",
    "date_created": "2024-05-26T19:18:45.000",
    "date_modified": "2024-05-26T19:18:46.000",
    "request_status": "Pending",
    "responsible_agency": "Department of Sanitation",
    "final_address": "2396 St Thomas St",
    "address_councildis": "B",
    "status": "Assigned to Contractor",
    "contractor": "IV Waste",
    "rowid": "1096910",
    "final_x": "3679137.83471",
    "final_y": "519970.731384",
    "longitude": "-90.07592938076506",
    "latitude": "29.923810528748575",
    "geocoded_column": {
      "latitude": "29.923810528748575",
      "longitude": "-90.07592938076506"
    }
  },
  {
    "service_request": "2024-1096909",
    "request_type": "Traffic Signals/Signs/Striping/Streetlights",
    "request_reason": "Street Light Outage/Malfunction",
    "date_created": "2024-05-26T19:15:46.000",
    "date_modified": "2024-05-26T19:15:46.000",
    "request_status": "Pending",
    "responsible_agency": "Department of Public Works",
    "final_address": "TOPAZ ST & GARNET ST",
    "address_councildis": "D",
    "status": "Assigned to Contractor",
    "contractor": "Legacy Professional Services",
    "rowid": "1096909",
    "final_x": "3667394.3",
    "final_y": "556384.58",
    "longitude": "-90.1117741795203",
    "latitude": "30.02428553354619",
    "geocoded_column": {
      "latitude": "30.02428553354619",
      "longitude": "-90.1117741795203"
    }
  },
  {
    "service_request": "2024-1096908",
    "request_type": "Traffic Signals/Signs/Striping/Streetlights",
    "request_reason": "Street Light Outage/Malfunction",
    "date_created": "2024-05-26T19:11:35.000",
    "date_modified": "2024-05-26T19:11:36.000",
    "request_status": "Pending",
    "responsible_agency": "Department of Public Works",
    "final_address": "347 Opal St",
    "address_councildis": "D",
    "status": "Assigned to Contractor",
    "contractor": "Legacy Professional Services",
    "rowid": "1096908",
    "final_x": "3667759.92186",
    "final_y": "555292.679641",
    "longitude": "-90.11065569276207",
    "latitude": "30.02127247300107",
    "geocoded_column": {
      "latitude": "30.02127247300107",
      "longitude": "-90.11065569276207"
    }
  },
  {
    "service_request": "2024-1096907",
    "request_type": "Trash/Recycling",
    "request_reason": "Replace Trash Cart",
    "date_created": "2024-05-26T19:10:28.000",
    "date_modified": "2024-05-26T19:10:29.000",
    "request_status": "Pending",
    "responsible_agency": "Department of Sanitation",
    "final_address": "121 28Th St",
    "address_councildis": "A",
    "status": "Assigned to Contractor",
    "contractor": "IV Waste",
    "rowid": "1096907",
    "final_x": "3665981.46362",
    "final_y": "550241.418068",
    "longitude": "-90.1164446520665",
    "latitude": "30.00743533392742",
    "geocoded_column": {
      "latitude": "30.00743533392742",
      "longitude": "-90.1164446520665"
    }
  },
  {
    "service_request": "2024-1096906",
    "request_type": "Traffic Signals/Signs/Striping/Streetlights",
    "request_reason": "Street Light Knocked Down/Leaning",
    "date_created": "2024-05-26T19:07:22.000",
    "date_modified": "2024-05-26T19:07:23.000",
    "request_status": "Pending",
    "responsible_agency": "Department of Public Works",
    "final_address": "321 Crystal St",
    "address_councildis": "D",
    "status": "Pending",
    "contractor": "Legacy Professional Services",
    "rowid": "1096906",
    "final_x": "3667591.61716",
    "final_y": "556173.541978",
    "longitude": "-90.11115780371493",
    "latitude": "30.02369946857611",
    "geocoded_column": {
      "latitude": "30.02369946857611",
      "longitude": "-90.11115780371493"
    }
  },
  {
    "service_request": "2024-1096905",
    "request_type": "Traffic Signals/Signs/Striping/Streetlights",
    "request_reason": "Street Light Knocked Down/Leaning",
    "date_created": "2024-05-26T19:05:27.000",
    "date_modified": "2024-05-26T19:05:28.000",
    "request_status": "Pending",
    "responsible_agency": "Department of Public Works",
    "final_address": "321 Crystal St",
    "address_councildis": "D",
    "status": "Pending",
    "contractor": "Legacy Professional Services",
    "rowid": "1096905",
    "final_x": "3667591.61716",
    "final_y": "556173.541978",
    "longitude": "-90.11115780371493",
    "latitude": "30.02369946857611",
    "geocoded_column": {
      "latitude": "30.02369946857611",
      "longitude": "-90.11115780371493"
    }
  },
  {
    "service_request": "2024-1096904",
    "request_type": "Trash/Recycling",
    "request_reason": "Request a Large Item Pick Up",
    "date_created": "2024-05-26T18:25:07.000",
    "date_modified": "2024-05-26T18:25:08.000",
    "request_status": "Pending",
    "responsible_agency": "Department of Sanitation",
    "final_address": "752 Pontalba St",
    "address_councildis": "A",
    "status": "Assigned to Contractor",
    "contractor": "IV Waste",
    "rowid": "1096904",
    "final_x": "3668691.72046",
    "final_y": "544358.889807",
    "longitude": "-90.10808087936815",
    "latitude": "29.991180995575448",
    "geocoded_column": {
      "latitude": "29.991180995575448",
      "longitude": "-90.10808087936815"
    }
  },
  {
    "service_request": "2024-1096902",
    "request_type": "Abandoned Vehicles",
    "request_reason": "Vehicle Blocking Your Driveway",
    "date_created": "2024-05-26T18:12:49.000",
    "date_modified": "2024-05-26T18:12:49.000",
    "request_status": "Pending",
    "responsible_agency": "Department of Public Works",
    "final_address": "1341 St Bernard Ave",
    "address_councildis": "C",
    "status": "Pending",
    "rowid": "1096902",
    "final_x": "3682787.40648",
    "final_y": "536802.919752",
    "longitude": "-90.06382033976618",
    "latitude": "29.96998274876215",
    "geocoded_column": {
      "latitude": "29.96998274876215",
      "longitude": "-90.06382033976618"
    }
  },
  {
    "service_request": "2024-1096901",
    "request_type": "Trash/Recycling",
    "request_reason": "Return Recycling Cart",
    "date_created": "2024-05-26T17:52:10.000",
    "date_modified": "2024-05-26T17:52:10.000",
    "request_status": "Pending",
    "responsible_agency": "Department of Sanitation",
    "final_address": "7005 Wuerpel St",
    "address_councildis": "A",
    "status": "Pending",
    "rowid": "1096901",
    "final_x": "3667397.43373",
    "final_y": "554172.625304",
    "longitude": "-90.11183878603525",
    "latitude": "30.01820335039037",
    "geocoded_column": {
      "latitude": "30.01820335039037",
      "longitude": "-90.11183878603525"
    }
  },
  {
    "service_request": "2024-1096900",
    "request_type": "Property Maintenance",
    "request_reason": "Property Maintenance",
    "date_created": "2024-05-26T17:32:33.000",
    "date_modified": "2024-05-26T17:32:33.000",
    "request_status": "Pending",
    "responsible_agency": "Department of Code Enforcement",
    "final_address": "7161 Whitmore Pl",
    "address_councildis": "E",
    "status": "Pending",
    "rowid": "1096900",
    "final_x": "3718653.46789",
    "final_y": "569825.545446",
    "longitude": "-89.9492935264582",
    "latitude": "30.059640519591408",
    "geocoded_column": {
      "latitude": "30.059640519591408",
      "longitude": "-89.9492935264582"
    }
  },
  {
    "service_request": "2024-1096899",
    "request_type": "Property Maintenance",
    "request_reason": "Property Maintenance",
    "date_created": "2024-05-26T17:31:17.000",
    "date_modified": "2024-05-26T17:31:17.000",
    "request_status": "Pending",
    "responsible_agency": "Department of Code Enforcement",
    "final_address": "7161 Whitmore Pl",
    "address_councildis": "E",
    "status": "Pending",
    "rowid": "1096899",
    "final_x": "3718653.46789",
    "final_y": "569825.545446",
    "longitude": "-89.9492935264582",
    "latitude": "30.059640519591408",
    "geocoded_column": {
      "latitude": "30.059640519591408",
      "longitude": "-89.9492935264582"
    }
  },
  {
    "service_request": "2024-1096898",
    "request_type": "Traffic Signals/Signs/Striping/Streetlights",
    "request_reason": "Street Light Outage/Malfunction",
    "date_created": "2024-05-26T16:44:42.000",
    "date_modified": "2024-05-26T16:44:43.000",
    "request_status": "Pending",
    "responsible_agency": "Department of Public Works",
    "final_address": "2334 Magazine St",
    "address_councildis": "B",
    "status": "Assigned to Contractor",
    "contractor": "Legacy Professional Services",
    "rowid": "1096898",
    "final_x": "3678351.71291",
    "final_y": "521647.046457",
    "longitude": "-90.07835292777139",
    "latitude": "29.928443546421835",
    "geocoded_column": {
      "latitude": "29.928443546421835",
      "longitude": "-90.07835292777139"
    }
  },
  {
    "service_request": "2024-1096897",
    "request_type": "Trash/Recycling",
    "request_reason": "Replace Trash Cart",
    "date_created": "2024-05-26T16:18:32.000",
    "date_modified": "2024-05-26T16:18:33.000",
    "request_status": "Pending",
    "responsible_agency": "Department of Sanitation",
    "final_address": "838 Weiblen Pl",
    "address_councildis": "A",
    "status": "Assigned to Contractor",
    "contractor": "IV Waste",
    "rowid": "1096897",
    "final_x": "3668760.17902",
    "final_y": "542482.172557",
    "longitude": "-90.10792803148787",
    "latitude": "29.986018651465926",
    "geocoded_column": {
      "latitude": "29.986018651465926",
      "longitude": "-90.10792803148787"
    }
  },
  {
    "service_request": "2024-1096896",
    "request_type": "Roads/Drainage",
    "request_reason": "Damaged Sidewalk",
    "date_created": "2024-05-26T16:12:54.000",
    "date_modified": "2024-05-26T16:12:54.000",
    "request_status": "Pending",
    "responsible_agency": "Department of Public Works",
    "final_address": "5200 BLK Danneel St",
    "address_councildis": "B",
    "status": "Pending",
    "rowid": "1096896",
    "final_x": "3668060.05328",
    "final_y": "522163.577836",
    "longitude": "-90.11082418753892",
    "latitude": "29.93016977275902",
    "geocoded_column": {
      "latitude": "29.93016977275902",
      "longitude": "-90.11082418753892"
    }
  },
  {
    "service_request": "2024-1096895",
    "request_type": "Trash/Recycling",
    "request_reason": "Order Trash Cart",
    "date_created": "2024-05-26T16:04:14.000",
    "date_modified": "2024-05-26T16:04:15.000",
    "request_status": "Pending",
    "responsible_agency": "Department of Sanitation",
    "final_address": "1136 Touro St",
    "address_councildis": "C",
    "status": "Assigned to Contractor",
    "contractor": "IV Waste",
    "rowid": "1096895",
    "final_x": "3684176.90421",
    "final_y": "536541.628295",
    "longitude": "-90.05944134991715",
    "latitude": "29.969221884624332",
    "geocoded_column": {
      "latitude": "29.969221884624332",
      "longitude": "-90.05944134991715"
    }
  },
  {
    "service_request": "2024-1096894",
    "request_type": "Trash/Recycling",
    "request_reason": "Replace Recycling Cart",
    "date_created": "2024-05-26T16:02:33.000",
    "date_modified": "2024-05-26T16:02:33.000",
    "request_status": "Pending",
    "responsible_agency": "Department of Sanitation",
    "final_address": "1136 Touro St",
    "address_councildis": "C",
    "status": "Pending",
    "rowid": "1096894",
    "final_x": "3684176.90421",
    "final_y": "536541.628295",
    "longitude": "-90.05944134991715",
    "latitude": "29.969221884624332",
    "geocoded_column": {
      "latitude": "29.969221884624332",
      "longitude": "-90.05944134991715"
    }
  },
  {
    "service_request": "2024-1096893",
    "request_type": "Trash/Recycling",
    "request_reason": "Repair Trash Cart",
    "date_created": "2024-05-26T16:02:27.000",
    "date_modified": "2024-05-26T16:02:28.000",
    "request_status": "Pending",
    "responsible_agency": "Department of Sanitation",
    "final_address": "8018 Panola St",
    "address_councildis": "A",
    "status": "Assigned to Contractor",
    "contractor": "IV Waste",
    "rowid": "1096893",
    "final_x": "3664276.65453",
    "final_y": "530491.00845",
    "longitude": "-90.12249002281837",
    "latitude": "29.953177993579686",
    "geocoded_column": {
      "latitude": "29.953177993579686",
      "longitude": "-90.12249002281837"
    }
  },
  {
    "service_request": "2024-1096892",
    "request_type": "Trash/Recycling",
    "request_reason": "Order Recycling Cart",
    "date_created": "2024-05-26T15:59:38.000",
    "date_modified": "2024-05-26T15:59:38.000",
    "request_status": "Pending",
    "responsible_agency": "Department of Sanitation",
    "final_address": "8018 Panola St",
    "address_councildis": "A",
    "status": "Pending",
    "rowid": "1096892",
    "final_x": "3664276.65453",
    "final_y": "530491.00845",
    "longitude": "-90.12249002281837",
    "latitude": "29.953177993579686",
    "geocoded_column": {
      "latitude": "29.953177993579686",
      "longitude": "-90.12249002281837"
    }
  },
  {
    "service_request": "2024-1096891",
    "request_type": "Roads/Drainage",
    "request_reason": "Pothole",
    "date_created": "2024-05-26T15:55:42.000",
    "date_modified": "2024-05-26T15:55:42.000",
    "request_status": "Pending",
    "responsible_agency": "Department of Public Works",
    "final_address": "4216 Chestnut St",
    "address_councildis": "B",
    "status": "Pending",
    "rowid": "1096891",
    "final_x": "3671574.31393",
    "final_y": "519539.203703",
    "longitude": "-90.09981939416457",
    "latitude": "29.922850019854593",
    "geocoded_column": {
      "latitude": "29.922850019854593",
      "longitude": "-90.09981939416457"
    }
  },
  {
    "service_request": "2024-1096889",
    "request_type": "Trash/Recycling",
    "request_reason": "Request a Large Item Pick Up",
    "date_created": "2024-05-26T15:42:59.000",
    "date_modified": "2024-05-26T15:43:00.000",
    "request_status": "Pending",
    "responsible_agency": "Department of Sanitation",
    "final_address": "3517 S Saratoga St",
    "address_councildis": "B",
    "status": "Assigned to Contractor",
    "contractor": "IV Waste",
    "rowid": "1096889",
    "final_x": "3672988.54945",
    "final_y": "523021.006907",
    "longitude": "-90.09523644374032",
    "latitude": "29.93238192057968",
    "geocoded_column": {
      "latitude": "29.93238192057968",
      "longitude": "-90.09523644374032"
    }
  },
  {
    "service_request": "2024-1096888",
    "request_type": "Roads/Drainage",
    "request_reason": "Pothole",
    "date_created": "2024-05-26T15:37:13.000",
    "date_modified": "2024-05-26T15:37:13.000",
    "request_status": "Pending",
    "responsible_agency": "Department of Public Works",
    "final_address": "1400 BLK Valence St",
    "address_councildis": "B",
    "status": "Pending",
    "rowid": "1096888",
    "final_x": "3669784.65285",
    "final_y": "520336.257015",
    "longitude": "-90.1054417057675",
    "latitude": "29.925094517046503",
    "geocoded_column": {
      "latitude": "29.925094517046503",
      "longitude": "-90.1054417057675"
    }
  },
  {
    "service_request": "2024-1096887",
    "request_type": "Roads/Drainage",
    "request_reason": "Pothole",
    "date_created": "2024-05-26T15:30:48.000",
    "date_modified": "2024-05-26T15:30:48.000",
    "request_status": "Pending",
    "responsible_agency": "Department of Public Works",
    "final_address": "1120 Aline St Apt 2A",
    "address_councildis": "B",
    "status": "Pending",
    "rowid": "1096887",
    "final_x": "3674344.461",
    "final_y": "519521.432503",
    "longitude": "-90.09107572309848",
    "latitude": "29.922718865916426",
    "geocoded_column": {
      "latitude": "29.922718865916426",
      "longitude": "-90.09107572309848"
    }
  },
  {
    "service_request": "2024-1096886",
    "request_type": "Roads/Drainage",
    "request_reason": "Pothole",
    "date_created": "2024-05-26T14:56:01.000",
    "date_modified": "2024-05-26T14:56:01.000",
    "request_status": "Pending",
    "responsible_agency": "Department of Public Works",
    "final_address": "5924 Coliseum St",
    "address_councildis": "A",
    "status": "Pending",
    "rowid": "1096886",
    "final_x": "3665169.45293",
    "final_y": "520029.276984",
    "longitude": "-90.12002072885706",
    "latitude": "29.924385602060447",
    "geocoded_column": {
      "latitude": "29.924385602060447",
      "longitude": "-90.12002072885706"
    }
  },
  {
    "service_request": "2024-1096885",
    "request_type": "Roads/Drainage",
    "request_reason": "Pothole",
    "date_created": "2024-05-26T14:51:52.000",
    "date_modified": "2024-05-26T14:51:52.000",
    "request_status": "Pending",
    "responsible_agency": "Department of Public Works",
    "final_address": "6215 Hurst St",
    "address_councildis": "A",
    "status": "Pending",
    "rowid": "1096885",
    "final_x": "3664668.32039",
    "final_y": "522243.373626",
    "longitude": "-90.12152872358996",
    "latitude": "29.93048825206563",
    "geocoded_column": {
      "latitude": "29.93048825206563",
      "longitude": "-90.12152872358996"
    }
  },
  {
    "service_request": "2024-1096884",
    "request_type": "Traffic Signals/Signs/Striping/Streetlights",
    "request_reason": "Street Light Outage/Malfunction",
    "date_created": "2024-05-26T14:50:23.000",
    "date_modified": "2024-05-26T14:50:23.000",
    "request_status": "Pending",
    "responsible_agency": "Department of Public Works",
    "final_address": "4900 BLK Perrier St",
    "address_councildis": "B",
    "status": "Assigned to Contractor",
    "contractor": "Legacy Professional Services",
    "rowid": "1096884",
    "final_x": "3668859.33219",
    "final_y": "519883.695913",
    "longitude": "-90.10837792669895",
    "latitude": "29.92387735040818",
    "geocoded_column": {
      "latitude": "29.92387735040818",
      "longitude": "-90.10837792669895"
    }
  },
  {
    "service_request": "2024-1096883",
    "request_type": "Roads/Drainage",
    "request_reason": "Pothole",
    "date_created": "2024-05-26T14:49:59.000",
    "date_modified": "2024-05-26T14:49:59.000",
    "request_status": "Pending",
    "responsible_agency": "Department of Public Works",
    "final_address": "6070 Chestnut St",
    "address_councildis": "A",
    "status": "Pending",
    "rowid": "1096883",
    "final_x": "3664412.78983",
    "final_y": "519991.592952",
    "longitude": "-90.12241052146828",
    "latitude": "29.92430399204139",
    "geocoded_column": {
      "latitude": "29.92430399204139",
      "longitude": "-90.12241052146828"
    }
  },
  {
    "service_request": "2024-1096882",
    "request_type": "Traffic Signals/Signs/Striping/Streetlights",
    "request_reason": "Street Light Outage/Malfunction",
    "date_created": "2024-05-26T14:49:32.000",
    "date_modified": "2024-05-26T14:49:33.000",
    "request_status": "Pending",
    "responsible_agency": "Department of Public Works",
    "final_address": "4900 BLK Perrier St",
    "address_councildis": "B",
    "status": "Assigned to Contractor",
    "contractor": "Legacy Professional Services",
    "rowid": "1096882",
    "final_x": "3668859.33219",
    "final_y": "519883.695913",
    "longitude": "-90.10837792669895",
    "latitude": "29.92387735040818",
    "geocoded_column": {
      "latitude": "29.92387735040818",
      "longitude": "-90.10837792669895"
    }
  },
  {
    "service_request": "2024-1096881",
    "request_type": "Trash/Recycling",
    "request_reason": "Request a Large Item Pick Up",
    "date_created": "2024-05-26T14:30:28.000",
    "date_modified": "2024-05-26T14:30:28.000",
    "request_status": "Pending",
    "responsible_agency": "Department of Sanitation",
    "final_address": "2880 Annette St",
    "address_councildis": "D",
    "status": "Assigned to Contractor",
    "contractor": "IV Waste",
    "rowid": "1096881",
    "final_x": "3682553.52495",
    "final_y": "542932.754893",
    "longitude": "-90.06434456819787",
    "latitude": "29.986844779177545",
    "geocoded_column": {
      "latitude": "29.986844779177545",
      "longitude": "-90.06434456819787"
    }
  },
  {
    "service_request": "2024-1096879",
    "request_type": "Health Related Request",
    "request_reason": "Noise Ordinance Complaint",
    "date_created": "2024-05-26T14:12:51.000",
    "date_modified": "2024-05-26T14:12:51.000",
    "request_status": "Pending",
    "responsible_agency": "Health Department",
    "final_address": "3819 Herschel St, New Orleans, Louisiana, 70114",
    "address_councildis": "C",
    "status": "Pending",
    "rowid": "1096879",
    "final_x": "3697822.90141",
    "final_y": "521008.288313",
    "longitude": "-90.01691010511081",
    "latitude": "29.92608643113844",
    "geocoded_column": {
      "latitude": "29.92608643113844",
      "longitude": "-90.01691010511081"
    }
  },
  {
    "service_request": "2024-1096878",
    "request_type": "Trash/Recycling",
    "request_reason": "Request a Large Item Pick Up",
    "date_created": "2024-05-26T13:56:39.000",
    "date_modified": "2024-05-26T13:56:39.000",
    "request_status": "Pending",
    "responsible_agency": "Department of Sanitation",
    "final_address": "729 Ninth St",
    "address_councildis": "B",
    "status": "Assigned to Contractor",
    "contractor": "IV Waste",
    "rowid": "1096878",
    "final_x": "3676595.10632",
    "final_y": "519021.726071",
    "longitude": "-90.08398852199231",
    "latitude": "29.921277549772597",
    "geocoded_column": {
      "latitude": "29.921277549772597",
      "longitude": "-90.08398852199231"
    }
  },
  {
    "service_request": "2024-1096877",
    "request_type": "Trash/Recycling",
    "request_reason": "Replace Trash Cart",
    "date_created": "2024-05-26T13:55:10.000",
    "date_modified": "2024-05-26T13:55:11.000",
    "request_status": "Pending",
    "responsible_agency": "Department of Sanitation",
    "final_address": "1411 St Bernard Ave",
    "address_councildis": "C",
    "status": "Assigned to Contractor",
    "contractor": "IV Waste",
    "rowid": "1096877",
    "final_x": "3682544.73519",
    "final_y": "537318.509128",
    "longitude": "-90.06456868917684",
    "latitude": "29.971407831796544",
    "geocoded_column": {
      "latitude": "29.971407831796544",
      "longitude": "-90.06456868917684"
    }
  },
  {
    "service_request": "2024-1096875",
    "request_type": "Trash/Recycling",
    "request_reason": "Illegal Dumping",
    "date_created": "2024-05-26T13:52:10.000",
    "date_modified": "2024-05-26T13:52:10.000",
    "request_status": "Pending",
    "responsible_agency": "Department of Sanitation",
    "final_address": "BENNETT ST & RANKIN ST",
    "address_councildis": "C",
    "status": "Pending",
    "rowid": "1096875",
    "final_x": "3710411.9",
    "final_y": "517963.28",
    "longitude": "-89.97728443601328",
    "latitude": "29.91731003816361",
    "geocoded_column": {
      "latitude": "29.91731003816361",
      "longitude": "-89.97728443601328"
    }
  },
  {
    "service_request": "2024-1096874",
    "request_type": "Traffic Signals/Signs/Striping/Streetlights",
    "request_reason": "Traffic Sign Missing/Damaged",
    "date_created": "2024-05-26T13:38:03.000",
    "date_modified": "2024-05-26T13:38:03.000",
    "request_status": "Pending",
    "responsible_agency": "Department of Public Works",
    "final_address": "1131 Montegut St",
    "address_councildis": "C",
    "status": "Pending",
    "rowid": "1096874",
    "final_x": "3688545.81731",
    "final_y": "536452.860487",
    "longitude": "-90.04564718765695",
    "latitude": "29.968843525990323",
    "geocoded_column": {
      "latitude": "29.968843525990323",
      "longitude": "-90.04564718765695"
    }
  },
  {
    "service_request": "2024-1096873",
    "request_type": "Traffic Signals/Signs/Striping/Streetlights",
    "request_reason": "Traffic Sign Missing/Damaged",
    "date_created": "2024-05-26T13:35:01.000",
    "date_modified": "2024-05-26T13:35:01.000",
    "request_status": "Pending",
    "responsible_agency": "Department of Public Works",
    "final_address": "1131 Montegut St",
    "address_councildis": "C",
    "status": "Pending",
    "rowid": "1096873",
    "final_x": "3688545.81731",
    "final_y": "536452.860487",
    "longitude": "-90.04564718765695",
    "latitude": "29.968843525990323",
    "geocoded_column": {
      "latitude": "29.968843525990323",
      "longitude": "-90.04564718765695"
    }
  },
  {
    "service_request": "2024-1096872",
    "request_type": "Traffic Signals/Signs/Striping/Streetlights",
    "request_reason": "Request for Stop Sign",
    "date_created": "2024-05-26T13:30:49.000",
    "date_modified": "2024-05-26T13:30:49.000",
    "request_status": "Pending",
    "responsible_agency": "Department of Public Works",
    "final_address": "2600 BLK Gravier St",
    "address_councildis": "B",
    "status": "Pending",
    "rowid": "1096872",
    "final_x": "3674298.35642",
    "final_y": "533191.795609",
    "longitude": "-90.09075330610133",
    "latitude": "29.960309256474655",
    "geocoded_column": {
      "latitude": "29.960309256474655",
      "longitude": "-90.09075330610133"
    }
  },
  {
    "service_request": "2024-1096871",
    "request_type": "Trash/Recycling",
    "request_reason": "Request a Large Item Pick Up",
    "date_created": "2024-05-26T13:30:07.000",
    "date_modified": "2024-05-26T13:30:07.000",
    "request_status": "Pending",
    "responsible_agency": "Department of Sanitation",
    "final_address": "3511 River Oaks Dr",
    "address_councildis": "C",
    "status": "Assigned to Contractor",
    "contractor": "Richards Disposal",
    "rowid": "1096871",
    "final_x": "3701316.83965",
    "final_y": "518134.013366",
    "longitude": "-90.00598593702196",
    "latitude": "29.918072326560722",
    "geocoded_column": {
      "latitude": "29.918072326560722",
      "longitude": "-90.00598593702196"
    }
  },
  {
    "service_request": "2024-1096870",
    "request_type": "Property Maintenance",
    "request_reason": "Property Maintenance",
    "date_created": "2024-05-26T13:25:03.000",
    "date_modified": "2024-05-26T13:25:03.000",
    "request_status": "Pending",
    "responsible_agency": "Department of Code Enforcement",
    "final_address": "RANSOM ST & RAY AVE",
    "address_councildis": "E",
    "status": "Pending",
    "rowid": "1096870",
    "final_x": "3698911.1",
    "final_y": "553011.78",
    "longitude": "-90.01231029080078",
    "latitude": "30.01405009368162",
    "geocoded_column": {
      "latitude": "30.01405009368162",
      "longitude": "-90.01231029080078"
    }
  },
  {
    "service_request": "2024-1096869",
    "request_type": "Property Maintenance",
    "request_reason": "Property Maintenance",
    "date_created": "2024-05-26T13:22:24.000",
    "date_modified": "2024-05-26T13:22:24.000",
    "request_status": "Pending",
    "responsible_agency": "Department of Code Enforcement",
    "final_address": "REYNES ST & RANSOM ST",
    "address_councildis": "E",
    "status": "Pending",
    "rowid": "1096869",
    "final_x": "3699331.0",
    "final_y": "553051.18",
    "longitude": "-90.01098219108034",
    "latitude": "30.01414511121033",
    "geocoded_column": {
      "latitude": "30.01414511121033",
      "longitude": "-90.01098219108034"
    }
  },
  {
    "service_request": "2024-1096868",
    "request_type": "Property Maintenance",
    "request_reason": "Property Maintenance",
    "date_created": "2024-05-26T13:00:24.000",
    "date_modified": "2024-05-26T13:00:24.000",
    "request_status": "Pending",
    "responsible_agency": "Department of Code Enforcement",
    "final_address": "2821 Eagle St",
    "address_councildis": "A",
    "status": "Pending",
    "rowid": "1096868",
    "final_x": "3664133.10042",
    "final_y": "534382.105093",
    "longitude": "-90.12281350702702",
    "latitude": "29.963881411121637",
    "geocoded_column": {
      "latitude": "29.963881411121637",
      "longitude": "-90.12281350702702"
    }
  },
  {
    "service_request": "2024-1096867",
    "request_type": "Trash/Recycling",
    "request_reason": "Request a Large Item Pick Up",
    "date_created": "2024-05-26T12:42:01.000",
    "date_modified": "2024-05-26T12:42:02.000",
    "request_status": "Pending",
    "responsible_agency": "Department of Sanitation",
    "final_address": "2050 Valentine Ct",
    "address_councildis": "C",
    "status": "Assigned to Contractor",
    "contractor": "Richards Disposal",
    "rowid": "1096867",
    "final_x": "3699795.65213",
    "final_y": "523664.264763",
    "longitude": "-90.01058595815529",
    "latitude": "29.933326982858944",
    "geocoded_column": {
      "latitude": "29.933326982858944",
      "longitude": "-90.01058595815529"
    }
  },
  {
    "service_request": "2024-1096866",
    "request_type": "Trash/Recycling",
    "request_reason": "Illegal Dumping",
    "date_created": "2024-05-26T12:07:50.000",
    "date_modified": "2024-05-26T12:07:50.000",
    "request_status": "Pending",
    "responsible_agency": "Department of Sanitation",
    "final_address": "5515 S Claiborne Ave",
    "address_councildis": "A",
    "status": "Pending",
    "rowid": "1096866",
    "final_x": "3668064.63623",
    "final_y": "526705.128958",
    "longitude": "-90.11065673638228",
    "latitude": "29.942657446615286",
    "geocoded_column": {
      "latitude": "29.942657446615286",
      "longitude": "-90.11065673638228"
    }
  },
  {
    "service_request": "2024-1096865",
    "request_type": "Trash/Recycling",
    "request_reason": "Request a Large Item Pick Up",
    "date_created": "2024-05-26T12:04:25.000",
    "date_modified": "2024-05-26T12:04:26.000",
    "request_status": "Pending",
    "responsible_agency": "Department of Sanitation",
    "final_address": "1531 Leda St",
    "address_councildis": "A",
    "status": "Assigned to Contractor",
    "contractor": "IV Waste",
    "rowid": "1096865",
    "final_x": "3675670.49941",
    "final_y": "541760.790284",
    "longitude": "-90.08612583010763",
    "latitude": "29.98383008624422",
    "geocoded_column": {
      "latitude": "29.98383008624422",
      "longitude": "-90.08612583010763"
    }
  },
  {
    "service_request": "2024-1096864",
    "request_type": "Trash/Recycling",
    "request_reason": "Request a Large Item Pick Up",
    "date_created": "2024-05-26T12:01:56.000",
    "date_modified": "2024-05-26T12:01:57.000",
    "request_status": "Pending",
    "responsible_agency": "Department of Sanitation",
    "final_address": "216 Warrington Dr",
    "address_councildis": "D",
    "status": "Assigned to Contractor",
    "contractor": "IV Waste",
    "rowid": "1096864",
    "final_x": "3682340.8806",
    "final_y": "547208.838353",
    "longitude": "-90.06486671258739",
    "latitude": "29.998608965863948",
    "geocoded_column": {
      "latitude": "29.998608965863948",
      "longitude": "-90.06486671258739"
    }
  },
  {
    "service_request": "2024-1096863",
    "request_type": "Trash/Recycling",
    "request_reason": "Request a Large Item Pick Up",
    "date_created": "2024-05-26T11:45:42.000",
    "date_modified": "2024-05-26T11:45:43.000",
    "request_status": "Pending",
    "responsible_agency": "Department of Sanitation",
    "final_address": "913 Saint Maurice Ave, New Orleans, Louisiana, 70117",
    "status": "Assigned to Contractor",
    "rowid": "1096863",
    "longitude": "0.0",
    "latitude": "0.0",
    "geocoded_column": {
      "latitude": "0.0",
      "longitude": "0.0"
    }
  },
  {
    "service_request": "2024-1096862",
    "request_type": "Trash/Recycling",
    "request_reason": "Request a Large Item Pick Up",
    "date_created": "2024-05-26T11:35:14.000",
    "date_modified": "2024-05-26T11:35:15.000",
    "request_status": "Pending",
    "responsible_agency": "Department of Sanitation",
    "final_address": "1622 New York St, New Orleans, Louisiana, 70122",
    "address_councildis": "D",
    "status": "Assigned to Contractor",
    "contractor": "IV Waste",
    "rowid": "1096862",
    "final_x": "3679269.82255",
    "final_y": "555862.121561",
    "longitude": "-90.0742678296075",
    "latitude": "30.022495505380874",
    "geocoded_column": {
      "latitude": "30.022495505380874",
      "longitude": "-90.0742678296075"
    }
  },
  {
    "service_request": "2024-1096861",
    "request_type": "Trash/Recycling",
    "request_reason": "Request a Large Item Pick Up",
    "date_created": "2024-05-26T11:21:04.000",
    "date_modified": "2024-05-26T11:21:04.000",
    "request_status": "Pending",
    "responsible_agency": "Department of Sanitation",
    "final_address": "618 Philip St",
    "address_councildis": "B",
    "status": "Assigned to Contractor",
    "contractor": "IV Waste",
    "rowid": "1096861",
    "final_x": "3679525.15707",
    "final_y": "520508.065784",
    "longitude": "-90.07468811300399",
    "latitude": "29.925276330470744",
    "geocoded_column": {
      "latitude": "29.925276330470744",
      "longitude": "-90.07468811300399"
    }
  },
  {
    "service_request": "2024-1096860",
    "request_type": "Trash/Recycling",
    "request_reason": "Request a Large Item Pick Up",
    "date_created": "2024-05-26T11:14:39.000",
    "date_modified": "2024-05-26T11:14:39.000",
    "request_status": "Pending",
    "responsible_agency": "Department of Sanitation",
    "final_address": "618 Philip St",
    "address_councildis": "B",
    "status": "Assigned to Contractor",
    "contractor": "IV Waste",
    "rowid": "1096860",
    "final_x": "3679525.15707",
    "final_y": "520508.065784",
    "longitude": "-90.07468811300399",
    "latitude": "29.925276330470744",
    "geocoded_column": {
      "latitude": "29.925276330470744",
      "longitude": "-90.07468811300399"
    }
  },
  {
    "service_request": "2024-1096859",
    "request_type": "Traffic Signals/Signs/Striping/Streetlights",
    "request_reason": "Street Light Knocked Down/Leaning",
    "date_created": "2024-05-26T11:12:31.000",
    "date_modified": "2024-05-26T11:12:32.000",
    "request_status": "Pending",
    "responsible_agency": "Department of Public Works",
    "final_address": "336 W Kenilworth St",
    "address_councildis": "A",
    "status": "Pending",
    "contractor": "Legacy Professional Services",
    "rowid": "1096859",
    "final_x": "3664743.08896",
    "final_y": "546303.84264",
    "longitude": "-90.12048872018607",
    "latitude": "29.99664446054553",
    "geocoded_column": {
      "latitude": "29.99664446054553",
      "longitude": "-90.12048872018607"
    }
  },
  {
    "service_request": "2024-1096858",
    "request_type": "Property Maintenance",
    "request_reason": "Property Maintenance",
    "date_created": "2024-05-26T11:11:17.000",
    "date_modified": "2024-05-26T11:11:17.000",
    "request_status": "Pending",
    "responsible_agency": "Department of Code Enforcement",
    "final_address": "8423 Hickory St",
    "address_councildis": "A",
    "status": "Pending",
    "rowid": "1096858",
    "final_x": "3662466.77792",
    "final_y": "530815.12973",
    "longitude": "-90.1281940930222",
    "latitude": "29.954121687129657",
    "geocoded_column": {
      "latitude": "29.954121687129657",
      "longitude": "-90.1281940930222"
    }
  },
  {
    "service_request": "2024-1096857",
    "request_type": "Trash/Recycling",
    "request_reason": "Request a Large Item Pick Up",
    "date_created": "2024-05-26T10:02:03.000",
    "date_modified": "2024-05-26T10:02:04.000",
    "request_status": "Pending",
    "responsible_agency": "Department of Sanitation",
    "final_address": "755 Jewel St",
    "address_councildis": "D",
    "status": "Assigned to Contractor",
    "contractor": "IV Waste",
    "rowid": "1096857",
    "final_x": "3669855.89735",
    "final_y": "555970.782361",
    "longitude": "-90.10400998600407",
    "latitude": "30.023075350535507",
    "geocoded_column": {
      "latitude": "30.023075350535507",
      "longitude": "-90.10400998600407"
    }
  },
  {
    "service_request": "2024-1096856",
    "request_type": "Trash/Recycling",
    "request_reason": "Request a Large Item Pick Up",
    "date_created": "2024-05-26T09:51:18.000",
    "date_modified": "2024-05-26T09:51:19.000",
    "request_status": "Pending",
    "responsible_agency": "Department of Sanitation",
    "final_address": "1223 Riviera Ave",
    "address_councildis": "D",
    "status": "Assigned to Contractor",
    "contractor": "IV Waste",
    "rowid": "1096856",
    "final_x": "3676942.95381",
    "final_y": "550872.805717",
    "longitude": "-90.08179237783992",
    "latitude": "30.008846779732632",
    "geocoded_column": {
      "latitude": "30.008846779732632",
      "longitude": "-90.08179237783992"
    }
  },
  {
    "service_request": "2024-1096855",
    "request_type": "Trash/Recycling",
    "request_reason": "Order Recycling Cart",
    "date_created": "2024-05-26T09:39:42.000",
    "date_modified": "2024-05-26T09:39:42.000",
    "request_status": "Pending",
    "responsible_agency": "Department of Sanitation",
    "final_address": "7344 Onyx St",
    "address_councildis": "D",
    "status": "Pending",
    "rowid": "1096855",
    "final_x": "3668834.7163",
    "final_y": "555909.939289",
    "longitude": "-90.10723876028018",
    "latitude": "30.022938138764566",
    "geocoded_column": {
      "latitude": "30.022938138764566",
      "longitude": "-90.10723876028018"
    }
  },
  {
    "service_request": "2024-1096854",
    "request_type": "Trash/Recycling",
    "request_reason": "Request a Large Item Pick Up",
    "date_created": "2024-05-26T09:34:47.000",
    "date_modified": "2024-05-26T09:34:47.000",
    "request_status": "Pending",
    "responsible_agency": "Department of Sanitation",
    "final_address": "2354 Prancer St",
    "address_councildis": "C",
    "status": "Assigned to Contractor",
    "contractor": "Richards Disposal",
    "rowid": "1096854",
    "final_x": "3700018.19268",
    "final_y": "522597.64825",
    "longitude": "-90.00992230638495",
    "latitude": "29.930387090876703",
    "geocoded_column": {
      "latitude": "29.930387090876703",
      "longitude": "-90.00992230638495"
    }
  },
  {
    "service_request": "2024-1096853",
    "request_type": "Trash/Recycling",
    "request_reason": "Order Trash Cart",
    "date_created": "2024-05-26T09:31:29.000",
    "date_modified": "2024-05-26T09:31:30.000",
    "request_status": "Pending",
    "responsible_agency": "Department of Sanitation",
    "final_address": "13600 N Lemans St",
    "address_councildis": "E",
    "status": "Assigned to Contractor",
    "contractor": "Waste Pro",
    "rowid": "1096853",
    "final_x": "3725866.179",
    "final_y": "563134.137952",
    "longitude": "-89.92675456979147",
    "latitude": "30.041000427309378",
    "geocoded_column": {
      "latitude": "30.041000427309378",
      "longitude": "-89.92675456979147"
    }
  },
  {
    "service_request": "2024-1096852",
    "request_type": "Trash/Recycling",
    "request_reason": "Order Trash Cart",
    "date_created": "2024-05-26T09:25:03.000",
    "date_modified": "2024-05-26T09:25:03.000",
    "request_status": "Pending",
    "responsible_agency": "Department of Sanitation",
    "final_address": "8423 Spruce St",
    "address_councildis": "A",
    "status": "Assigned to Contractor",
    "contractor": "IV Waste",
    "rowid": "1096852",
    "final_x": "3662959.08455",
    "final_y": "531318.208258",
    "longitude": "-90.12662285080428",
    "latitude": "29.95549074372891",
    "geocoded_column": {
      "latitude": "29.95549074372891",
      "longitude": "-90.12662285080428"
    }
  },
  {
    "service_request": "2024-1096851",
    "request_type": "Trash/Recycling",
    "request_reason": "Request a Large Item Pick Up",
    "date_created": "2024-05-26T09:14:13.000",
    "date_modified": "2024-05-26T09:14:13.000",
    "request_status": "Pending",
    "responsible_agency": "Department of Sanitation",
    "final_address": "7110 Wayside Dr",
    "address_councildis": "E",
    "status": "Assigned to Contractor",
    "contractor": "Waste Pro",
    "rowid": "1096851",
    "final_x": "3717477.73125",
    "final_y": "567903.957349",
    "longitude": "-89.95308307848211",
    "latitude": "30.054395943733727",
    "geocoded_column": {
      "latitude": "30.054395943733727",
      "longitude": "-89.95308307848211"
    }
  },
  {
    "service_request": "2024-1096850",
    "request_type": "Traffic Signals/Signs/Striping/Streetlights",
    "request_reason": "Street Light Outage/Malfunction",
    "date_created": "2024-05-26T08:26:33.000",
    "date_modified": "2024-05-26T08:26:33.000",
    "request_status": "Pending",
    "responsible_agency": "Department of Public Works",
    "final_address": "OREILLY ST & PAUL MORPHY ST",
    "address_councildis": "D",
    "status": "Assigned to Contractor",
    "contractor": "Legacy Professional Services",
    "rowid": "1096850",
    "final_x": "3679689.6",
    "final_y": "541564.48",
    "longitude": "-90.0734381729814",
    "latitude": "29.983169401543748",
    "geocoded_column": {
      "latitude": "29.983169401543748",
      "longitude": "-90.0734381729814"
    }
  },
  {
    "service_request": "2024-1096849",
    "request_type": "Graffiti Removal",
    "request_reason": "Graffiti Removal",
    "date_created": "2024-05-26T06:23:56.000",
    "date_modified": "2024-05-26T06:23:56.000",
    "request_status": "Pending",
    "responsible_agency": "Department of Code Enforcement",
    "final_address": "BORDEAUX ST & DRYADES ST",
    "address_councildis": "B",
    "status": "Pending",
    "rowid": "1096849",
    "final_x": "3669271.1",
    "final_y": "521796.08",
    "longitude": "-90.1070135131152",
    "latitude": "29.929123687571064",
    "geocoded_column": {
      "latitude": "29.929123687571064",
      "longitude": "-90.1070135131152"
    }
  },
  {
    "service_request": "2024-1096848",
    "request_type": "Roads/Drainage",
    "request_reason": "Damaged Sidewalk",
    "date_created": "2024-05-26T06:22:07.000",
    "date_modified": "2024-05-26T06:22:07.000",
    "request_status": "Pending",
    "responsible_agency": "Department of Public Works",
    "final_address": "DANNEEL ST & DUFOSSAT ST",
    "address_councildis": "B",
    "status": "Pending",
    "rowid": "1096848",
    "final_x": "3668157.4",
    "final_y": "522156.38",
    "longitude": "-90.11051712111585",
    "latitude": "29.930147124825734",
    "geocoded_column": {
      "latitude": "29.930147124825734",
      "longitude": "-90.11051712111585"
    }
  },
  {
    "service_request": "2024-1096847",
    "request_type": "Roads/Drainage",
    "request_reason": "Pothole",
    "date_created": "2024-05-26T06:20:44.000",
    "date_modified": "2024-05-26T06:20:44.000",
    "request_status": "Pending",
    "responsible_agency": "Department of Public Works",
    "final_address": "ROBERT ST & DANNEEL ST",
    "address_councildis": "B",
    "status": "Pending",
    "rowid": "1096847",
    "final_x": "3668756.8",
    "final_y": "522139.78",
    "longitude": "-90.10862546659267",
    "latitude": "29.930083877757287",
    "geocoded_column": {
      "latitude": "29.930083877757287",
      "longitude": "-90.10862546659267"
    }
  },
  {
    "service_request": "2024-1096846",
    "request_type": "Traffic Signals/Signs/Striping/Streetlights",
    "request_reason": "Traffic Sign Missing/Damaged",
    "date_created": "2024-05-26T04:49:22.000",
    "date_modified": "2024-05-26T04:49:22.000",
    "request_status": "Pending",
    "responsible_agency": "Department of Public Works",
    "final_address": "CHARTRES ST & ST FERDINAND ST",
    "address_councildis": "C",
    "status": "Pending",
    "rowid": "1096846",
    "final_x": "3687247.2",
    "final_y": "534478.88",
    "longitude": "-90.04981812165171",
    "latitude": "29.963455830620063",
    "geocoded_column": {
      "latitude": "29.963455830620063",
      "longitude": "-90.04981812165171"
    }
  },
  {
    "service_request": "2024-1096845",
    "request_type": "Traffic Signals/Signs/Striping/Streetlights",
    "request_reason": "Traffic Sign Missing/Damaged",
    "date_created": "2024-05-26T04:47:07.000",
    "date_modified": "2024-05-26T04:47:07.000",
    "request_status": "Pending",
    "responsible_agency": "Department of Public Works",
    "final_address": "ST CLAUDE AVE & MAZANT ST",
    "address_councildis": "C",
    "status": "Pending",
    "rowid": "1096845",
    "final_x": "3692105.4",
    "final_y": "535236.58",
    "longitude": "-90.034449389463",
    "latitude": "29.965388710853208",
    "geocoded_column": {
      "latitude": "29.965388710853208",
      "longitude": "-90.034449389463"
    }
  },
  {
    "service_request": "2024-1096844",
    "request_type": "Roads/Drainage",
    "request_reason": "Pothole",
    "date_created": "2024-05-26T02:48:12.000",
    "date_modified": "2024-05-26T02:48:12.000",
    "request_status": "Pending",
    "responsible_agency": "Department of Public Works",
    "final_address": "6215 Hurst St",
    "address_councildis": "A",
    "status": "Pending",
    "rowid": "1096844",
    "final_x": "3664668.32039",
    "final_y": "522243.373626",
    "longitude": "-90.12152872358996",
    "latitude": "29.93048825206563",
    "geocoded_column": {
      "latitude": "29.93048825206563",
      "longitude": "-90.12152872358996"
    }
  },
  {
    "service_request": "2024-1096843",
    "request_type": "Roads/Drainage",
    "request_reason": "Damaged Sidewalk",
    "date_created": "2024-05-26T02:45:42.000",
    "date_modified": "2024-05-26T02:45:42.000",
    "request_status": "Pending",
    "responsible_agency": "Department of Public Works",
    "final_address": "5915 Pitt St",
    "address_councildis": "A",
    "status": "Pending",
    "rowid": "1096843",
    "final_x": "3665542.56448",
    "final_y": "521174.406329",
    "longitude": "-90.11880462457182",
    "latitude": "29.927523478234637",
    "geocoded_column": {
      "latitude": "29.927523478234637",
      "longitude": "-90.11880462457182"
    }
  },
  {
    "service_request": "2024-1096842",
    "request_type": "Roads/Drainage",
    "request_reason": "Pothole",
    "date_created": "2024-05-26T02:41:53.000",
    "date_modified": "2024-05-26T02:41:53.000",
    "request_status": "Pending",
    "responsible_agency": "Department of Public Works",
    "final_address": "1234 Henry Clay Ave",
    "address_councildis": "A",
    "status": "Pending",
    "rowid": "1096842",
    "final_x": "3664327.06445",
    "final_y": "521120.367609",
    "longitude": "-90.12264347982506",
    "latitude": "29.92741025864685",
    "geocoded_column": {
      "latitude": "29.92741025864685",
      "longitude": "-90.12264347982506"
    }
  },
  {
    "service_request": "2024-1096841",
    "request_type": "Roads/Drainage",
    "request_reason": "Pothole",
    "date_created": "2024-05-26T01:14:12.000",
    "date_modified": "2024-05-26T01:14:12.000",
    "request_status": "Pending",
    "responsible_agency": "Department of Public Works",
    "final_address": "1422 General Pershing St",
    "address_councildis": "B",
    "status": "Pending",
    "rowid": "1096841",
    "final_x": "3671239.44116",
    "final_y": "520532.324984",
    "longitude": "-90.10084273889387",
    "latitude": "29.925590694745555",
    "geocoded_column": {
      "latitude": "29.925590694745555",
      "longitude": "-90.10084273889387"
    }
  },
  {
    "service_request": "2024-1096840",
    "request_type": "Trash/Recycling",
    "request_reason": "Order Trash Cart",
    "date_created": "2024-05-26T00:54:00.000",
    "date_modified": "2024-05-26T00:54:01.000",
    "request_status": "Pending",
    "responsible_agency": "Department of Sanitation",
    "final_address": "2721 Valence St",
    "address_councildis": "B",
    "status": "Assigned to Contractor",
    "contractor": "IV Waste",
    "rowid": "1096840",
    "final_x": "3669383.54721",
    "final_y": "524812.843516",
    "longitude": "-90.10655657783073",
    "latitude": "29.93741550990915",
    "geocoded_column": {
      "latitude": "29.93741550990915",
      "longitude": "-90.10655657783073"
    }
  },
  {
    "service_request": "2024-1096839",
    "request_type": "Roads/Drainage",
    "request_reason": "Pothole",
    "date_created": "2024-05-26T00:34:37.000",
    "date_modified": "2024-05-26T00:34:37.000",
    "request_status": "Pending",
    "responsible_agency": "Department of Public Works",
    "final_address": "820 Aline St",
    "address_councildis": "B",
    "status": "Pending",
    "rowid": "1096839",
    "final_x": "3674714.34273",
    "final_y": "518532.396471",
    "longitude": "-90.08994202954315",
    "latitude": "29.919988302633886",
    "geocoded_column": {
      "latitude": "29.919988302633886",
      "longitude": "-90.08994202954315"
    }
  },
  {
    "service_request": "2024-1096838",
    "request_type": "Roads/Drainage",
    "request_reason": "Pothole",
    "date_created": "2024-05-26T00:16:46.000",
    "date_modified": "2024-05-26T00:16:46.000",
    "request_status": "Pending",
    "responsible_agency": "Department of Public Works",
    "final_address": "1424 Peniston St",
    "address_councildis": "B",
    "status": "Pending",
    "rowid": "1096838",
    "final_x": "3672915.48936",
    "final_y": "520768.700537",
    "longitude": "-90.09554389725902",
    "latitude": "29.92619097426903",
    "geocoded_column": {
      "latitude": "29.92619097426903",
      "longitude": "-90.09554389725902"
    }
  },
  {
    "service_request": "2024-1096836",
    "request_type": "Abandoned Vehicles",
    "request_reason": "Abandoned/Junk Vehicles",
    "date_created": "2024-05-26T00:03:37.000",
    "date_modified": "2024-05-26T00:03:37.000",
    "request_status": "Pending",
    "responsible_agency": "Department of Public Works",
    "final_address": "7136 Grey Oaks Dr",
    "address_councildis": "E",
    "status": "Pending",
    "rowid": "1096836",
    "final_x": "3701922.42487",
    "final_y": "559728.504541",
    "longitude": "-90.00254963015517",
    "latitude": "30.03242270037272",
    "geocoded_column": {
      "latitude": "30.03242270037272",
      "longitude": "-90.00254963015517"
    }
  },
  {
    "service_request": "2024-1096835",
    "request_type": "Property Maintenance",
    "request_reason": "Property Maintenance",
    "date_created": "2024-05-25T23:52:43.000",
    "date_modified": "2024-05-25T23:52:43.000",
    "request_status": "Pending",
    "responsible_agency": "Department of Code Enforcement",
    "final_address": "7052 Lake Willow Dr",
    "address_councildis": "E",
    "status": "Pending",
    "rowid": "1096835",
    "final_x": "3702216.9297",
    "final_y": "559125.680924",
    "longitude": "-90.00164111866084",
    "latitude": "30.030755761537264",
    "geocoded_column": {
      "latitude": "30.030755761537264",
      "longitude": "-90.00164111866084"
    }
  },
  {
    "service_request": "2024-1096834",
    "request_type": "Abandoned Vehicles",
    "request_reason": "Abandoned/Junk Vehicles",
    "date_created": "2024-05-25T23:43:43.000",
    "date_modified": "2024-05-25T23:43:43.000",
    "request_status": "Pending",
    "responsible_agency": "Department of Public Works",
    "final_address": "7060 Lake Willow Dr",
    "address_councildis": "E",
    "status": "Pending",
    "rowid": "1096834",
    "final_x": "3702191.74276",
    "final_y": "559184.812572",
    "longitude": "-90.00171853788154",
    "latitude": "30.030919155469594",
    "geocoded_column": {
      "latitude": "30.030919155469594",
      "longitude": "-90.00171853788154"
    }
  },
  {
    "service_request": "2024-1096833",
    "request_type": "Trash/Recycling",
    "request_reason": "Order Recycling Cart",
    "date_created": "2024-05-25T23:35:41.000",
    "date_modified": "2024-05-25T23:35:41.000",
    "request_status": "Pending",
    "responsible_agency": "Department of Sanitation",
    "final_address": "1508 Owens Blvd",
    "address_councildis": "D",
    "status": "Pending",
    "rowid": "1096833",
    "final_x": "3678894.80322",
    "final_y": "548951.275027",
    "longitude": "-90.07569247371693",
    "latitude": "30.00350449300958",
    "geocoded_column": {
      "latitude": "30.00350449300958",
      "longitude": "-90.07569247371693"
    }
  },
  {
    "service_request": "2024-1096832",
    "request_type": "Property Maintenance",
    "request_reason": "Property Maintenance",
    "date_created": "2024-05-25T22:49:53.000",
    "date_modified": "2024-05-25T22:49:53.000",
    "request_status": "Pending",
    "responsible_agency": "Department of Code Enforcement",
    "final_address": "N CLAIBORNE AVE & ARTS ST",
    "address_councildis": "C",
    "status": "Pending",
    "rowid": "1096832",
    "final_x": "3687061.4",
    "final_y": "538322.48",
    "longitude": "-90.05026894403744",
    "latitude": "29.974030110889288",
    "geocoded_column": {
      "latitude": "29.974030110889288",
      "longitude": "-90.05026894403744"
    }
  },
  {
    "service_request": "2024-1096831",
    "request_type": "Trash/Recycling",
    "request_reason": "MIssed Recycling Pick-Up",
    "date_created": "2024-05-25T22:16:15.000",
    "date_modified": "2024-05-26T10:14:20.000",
    "case_close_date": "2024-05-26T05:14:20.000",
    "request_status": "Closed",
    "responsible_agency": "Department of Sanitation",
    "final_address": "7920 Forshey St",
    "address_councildis": "B",
    "status": "Invalid Request",
    "contractor": "IV Waste",
    "contractor_action": "Invalid Request",
    "rowid": "1096831",
    "final_x": "3667434.12033",
    "final_y": "533486.52986",
    "longitude": "-90.11241929667231",
    "latitude": "29.96132257164784",
    "geocoded_column": {
      "latitude": "29.96132257164784",
      "longitude": "-90.11241929667231"
    }
  },
  {
    "service_request": "2024-1096830",
    "request_type": "Trash/Recycling",
    "request_reason": "Change Size of Trash Cart",
    "date_created": "2024-05-25T21:54:31.000",
    "date_modified": "2024-05-25T21:54:32.000",
    "request_status": "Pending",
    "responsible_agency": "Department of Sanitation",
    "final_address": "822 St Roch Ave",
    "address_councildis": "C",
    "status": "Assigned to Contractor",
    "contractor": "IV Waste",
    "rowid": "1096830",
    "final_x": "3686526.50383",
    "final_y": "535539.89351",
    "longitude": "-90.05205653113187",
    "latitude": "29.96639542763774",
    "geocoded_column": {
      "latitude": "29.96639542763774",
      "longitude": "-90.05205653113187"
    }
  },
  {
    "service_request": "2024-1096829",
    "request_type": "Abandoned Vehicles",
    "request_reason": "Abandoned/Junk Vehicles",
    "date_created": "2024-05-25T21:48:29.000",
    "date_modified": "2024-05-25T21:48:29.000",
    "request_status": "Pending",
    "responsible_agency": "Department of Public Works",
    "final_address": "7515 Lacombe St",
    "address_councildis": "E",
    "status": "Pending",
    "rowid": "1096829",
    "final_x": "3710113.68312",
    "final_y": "564662.100257",
    "longitude": "-89.97648026932721",
    "latitude": "30.04572399533231",
    "geocoded_column": {
      "latitude": "30.04572399533231",
      "longitude": "-89.97648026932721"
    }
  },
  {
    "service_request": "2024-1096828",
    "request_type": "Trash/Recycling",
    "request_reason": "Order Trash Cart",
    "date_created": "2024-05-25T21:39:39.000",
    "date_modified": "2024-05-25T21:39:40.000",
    "request_status": "Pending",
    "responsible_agency": "Department of Sanitation",
    "final_address": "1136 Touro St",
    "address_councildis": "C",
    "status": "Assigned to Contractor",
    "contractor": "IV Waste",
    "rowid": "1096828",
    "final_x": "3684176.90421",
    "final_y": "536541.628295",
    "longitude": "-90.05944134991715",
    "latitude": "29.969221884624332",
    "geocoded_column": {
      "latitude": "29.969221884624332",
      "longitude": "-90.05944134991715"
    }
  },
  {
    "service_request": "2024-1096827",
    "request_type": "Trash/Recycling",
    "request_reason": "Order Recycling Cart",
    "date_created": "2024-05-25T21:37:35.000",
    "date_modified": "2024-05-25T21:37:35.000",
    "request_status": "Pending",
    "responsible_agency": "Department of Sanitation",
    "final_address": "1136 Touro St",
    "address_councildis": "C",
    "status": "Pending",
    "rowid": "1096827",
    "final_x": "3684176.90421",
    "final_y": "536541.628295",
    "longitude": "-90.05944134991715",
    "latitude": "29.969221884624332",
    "geocoded_column": {
      "latitude": "29.969221884624332",
      "longitude": "-90.05944134991715"
    }
  },
  {
    "service_request": "2024-1096826",
    "request_type": "Traffic Signals/Signs/Striping/Streetlights",
    "request_reason": "Street Light Outage/Malfunction",
    "date_created": "2024-05-25T21:34:24.000",
    "date_modified": "2024-05-25T21:34:24.000",
    "request_status": "Pending",
    "responsible_agency": "Department of Public Works",
    "final_address": "3221 Baronne St",
    "address_councildis": "B",
    "status": "Assigned to Contractor",
    "contractor": "Legacy Professional Services",
    "rowid": "1096826",
    "final_x": "3674337.44187",
    "final_y": "522443.00249",
    "longitude": "-90.09099789097529",
    "latitude": "29.93075245049475",
    "geocoded_column": {
      "latitude": "29.93075245049475",
      "longitude": "-90.09099789097529"
    }
  },
  {
    "service_request": "2024-1096825",
    "request_type": "Traffic Signals/Signs/Striping/Streetlights",
    "request_reason": "Street Light Outage/Malfunction",
    "date_created": "2024-05-25T21:31:18.000",
    "date_modified": "2024-05-25T21:31:19.000",
    "request_status": "Pending",
    "responsible_agency": "Department of Public Works",
    "final_address": "1719 Toledano St",
    "address_councildis": "B",
    "status": "Assigned to Contractor",
    "contractor": "Legacy Professional Services",
    "rowid": "1096825",
    "final_x": "3674403.64788",
    "final_y": "522246.697082",
    "longitude": "-90.09079560780958",
    "latitude": "29.930210700280217",
    "geocoded_column": {
      "latitude": "29.930210700280217",
      "longitude": "-90.09079560780958"
    }
  },
  {
    "service_request": "2024-1096824",
    "request_type": "Traffic Signals/Signs/Striping/Streetlights",
    "request_reason": "Street Light Outage/Malfunction",
    "date_created": "2024-05-25T21:27:16.000",
    "date_modified": "2024-05-25T21:27:17.000",
    "request_status": "Pending",
    "responsible_agency": "Department of Public Works",
    "final_address": "2473 Royal St",
    "address_councildis": "C",
    "status": "Assigned to Contractor",
    "contractor": "Legacy Professional Services",
    "rowid": "1096824",
    "final_x": "3686510.63567",
    "final_y": "535006.36103",
    "longitude": "-90.05212548178295",
    "latitude": "29.964928886464726",
    "geocoded_column": {
      "latitude": "29.964928886464726",
      "longitude": "-90.05212548178295"
    }
  },
  {
    "service_request": "2024-1096823",
    "request_type": "Trash/Recycling",
    "request_reason": "Request a Large Item Pick Up",
    "date_created": "2024-05-25T20:47:07.000",
    "date_modified": "2024-05-25T20:47:08.000",
    "request_status": "Pending",
    "responsible_agency": "Department of Sanitation",
    "final_address": "416 N Miro St",
    "address_councildis": "B",
    "status": "Assigned to Contractor",
    "contractor": "IV Waste",
    "rowid": "1096823",
    "final_x": "3677540.27291",
    "final_y": "535123.379974",
    "longitude": "-90.08044930877058",
    "latitude": "29.965523393481497",
    "geocoded_column": {
      "latitude": "29.965523393481497",
      "longitude": "-90.08044930877058"
    }
  },
  {
    "service_request": "2024-1096822",
    "request_type": "Trash/Recycling",
    "request_reason": "Missed Trash Pick-Up",
    "date_created": "2024-05-25T20:22:39.000",
    "date_modified": "2024-05-26T09:31:09.000",
    "case_close_date": "2024-05-26T04:31:09.000",
    "request_status": "Closed",
    "responsible_agency": "Department of Sanitation",
    "final_address": "7722 Spruce St",
    "address_councildis": "A",
    "status": "Invalid Request",
    "contractor": "IV Waste",
    "contractor_action": "Invalid Request",
    "rowid": "1096822",
    "final_x": "3664765.09146",
    "final_y": "529569.455553",
    "longitude": "-90.12097853189991",
    "latitude": "29.950629820364885",
    "geocoded_column": {
      "latitude": "29.950629820364885",
      "longitude": "-90.12097853189991"
    }
  },
  {
    "service_request": "2024-1096821",
    "request_type": "Trash/Recycling",
    "request_reason": "Replace Recycling Cart",
    "date_created": "2024-05-25T20:13:48.000",
    "date_modified": "2024-05-25T20:13:48.000",
    "request_status": "Pending",
    "responsible_agency": "Department of Sanitation",
    "final_address": "17 Muirfield Pl",
    "address_councildis": "C",
    "status": "Pending",
    "rowid": "1096821",
    "final_x": "3720170.58226",
    "final_y": "513855.77189",
    "longitude": "-89.94663912040136",
    "latitude": "29.9056946926179",
    "geocoded_column": {
      "latitude": "29.9056946926179",
      "longitude": "-89.94663912040136"
    }
  },
  {
    "service_request": "2024-1096820",
    "request_type": "Trash/Recycling",
    "request_reason": "Order Recycling Cart",
    "date_created": "2024-05-25T20:01:52.000",
    "date_modified": "2024-05-25T20:01:52.000",
    "request_status": "Pending",
    "responsible_agency": "Department of Sanitation",
    "final_address": "448 Abalon Ct",
    "address_councildis": "C",
    "status": "Pending",
    "rowid": "1096820",
    "final_x": "3689184.30115",
    "final_y": "529975.958657",
    "longitude": "-90.04386100619777",
    "latitude": "29.951014550458062",
    "geocoded_column": {
      "latitude": "29.951014550458062",
      "longitude": "-90.04386100619777"
    }
  },
  {
    "service_request": "2024-1096819",
    "request_type": "Trash/Recycling",
    "request_reason": "Request a Large Item Pick Up",
    "date_created": "2024-05-25T19:56:48.000",
    "date_modified": "2024-05-25T19:56:48.000",
    "request_status": "Pending",
    "responsible_agency": "Department of Sanitation",
    "final_address": "4211 Tchoupitoulas St",
    "address_councildis": "B",
    "status": "Assigned to Contractor",
    "contractor": "IV Waste",
    "rowid": "1096819",
    "final_x": "3671831.70337",
    "final_y": "517561.264374",
    "longitude": "-90.09907416865757",
    "latitude": "29.917403694404722",
    "geocoded_column": {
      "latitude": "29.917403694404722",
      "longitude": "-90.09907416865757"
    }
  },
  {
    "service_request": "2024-1096818",
    "request_type": "Roads/Drainage",
    "request_reason": "Catch Basin - Clogged",
    "date_created": "2024-05-25T19:39:07.000",
    "date_modified": "2024-05-25T19:39:07.000",
    "request_status": "Pending",
    "responsible_agency": "Department of Public Works",
    "final_address": "4218 General Ogden St",
    "address_councildis": "A",
    "status": "Pending",
    "rowid": "1096818",
    "final_x": "538293.122953",
    "final_y": "538293.122953",
    "longitude": "-99.97950871700323",
    "latitude": "29.695545697809628",
    "geocoded_column": {
      "latitude": "29.695545697809628",
      "longitude": "-99.97950871700323"
    }
  },
  {
    "service_request": "2024-1096817",
    "request_type": "Trash/Recycling",
    "request_reason": "Order Recycling Cart",
    "date_created": "2024-05-25T19:24:11.000",
    "date_modified": "2024-05-25T19:24:11.000",
    "request_status": "Pending",
    "responsible_agency": "Department of Sanitation",
    "final_address": "10151 River Rd",
    "address_councildis": "C",
    "status": "Pending",
    "rowid": "1096817",
    "final_x": "3723327.60313",
    "final_y": "518314.739318",
    "longitude": "-89.93650394532473",
    "latitude": "29.917849816378087",
    "geocoded_column": {
      "latitude": "29.917849816378087",
      "longitude": "-89.93650394532473"
    }
  },
  {
    "service_request": "2024-1096816",
    "request_type": "Parks & Parkways",
    "request_reason": "Request Tree Service (Right of Way/Public Property)",
    "date_created": "2024-05-25T19:14:43.000",
    "date_modified": "2024-05-25T19:14:43.000",
    "request_status": "Pending",
    "responsible_agency": "Department of Parks & Parkway",
    "final_address": "S CLAIBORNE AVE & AUDUBON ST",
    "address_councildis": "A",
    "status": "Pending",
    "rowid": "1096816",
    "final_x": "3666399.1",
    "final_y": "529440.68",
    "longitude": "-90.11582347362199",
    "latitude": "29.9502280903352",
    "geocoded_column": {
      "latitude": "29.9502280903352",
      "longitude": "-90.11582347362199"
    }
  },
  {
    "service_request": "2024-1096815",
    "request_type": "Trash/Recycling",
    "request_reason": "Missed Trash Pick-Up",
    "date_created": "2024-05-25T19:11:07.000",
    "date_modified": "2024-05-26T09:39:11.000",
    "case_close_date": "2024-05-26T04:39:11.000",
    "request_status": "Closed",
    "responsible_agency": "Department of Sanitation",
    "final_address": "1400 BLK Arts St",
    "address_councildis": "C",
    "status": "Invalid Request",
    "contractor": "IV Waste",
    "contractor_action": "Invalid Request",
    "rowid": "1096815",
    "final_x": "3687103.92037",
    "final_y": "537769.981662",
    "longitude": "-90.05015419596504",
    "latitude": "29.97250962500004",
    "geocoded_column": {
      "latitude": "29.97250962500004",
      "longitude": "-90.05015419596504"
    }
  },
  {
    "service_request": "2024-1096814",
    "request_type": "Trash/Recycling",
    "request_reason": "Request a Large Item Pick Up",
    "date_created": "2024-05-25T18:22:59.000",
    "date_modified": "2024-05-25T18:23:00.000",
    "request_status": "Pending",
    "responsible_agency": "Department of Sanitation",
    "final_address": "6 Marlborough Gate Pl",
    "address_councildis": "B",
    "status": "Assigned to Contractor",
    "contractor": "IV Waste",
    "rowid": "1096814",
    "final_x": "3669012.18842",
    "final_y": "523686.250043",
    "longitude": "-90.10776702840855",
    "latitude": "29.93432866718246",
    "geocoded_column": {
      "latitude": "29.93432866718246",
      "longitude": "-90.10776702840855"
    }
  },
  {
    "service_request": "2024-1096813",
    "request_type": "Trash/Recycling",
    "request_reason": "Request a Large Item Pick Up",
    "date_created": "2024-05-25T18:18:02.000",
    "date_modified": "2024-05-25T18:18:03.000",
    "request_status": "Pending",
    "responsible_agency": "Department of Sanitation",
    "final_address": "7525 Sandy Cove Dr",
    "address_councildis": "E",
    "status": "Assigned to Contractor",
    "contractor": "Waste Pro",
    "rowid": "1096813",
    "final_x": "3716007.59192",
    "final_y": "568955.403686",
    "longitude": "-89.95768990110459",
    "latitude": "30.057335598660284",
    "geocoded_column": {
      "latitude": "30.057335598660284",
      "longitude": "-89.95768990110459"
    }
  },
  {
    "service_request": "2024-1096812",
    "request_type": "Traffic Signals/Signs/Striping/Streetlights",
    "request_reason": "Street Light Outage/Malfunction",
    "date_created": "2024-05-25T18:12:25.000",
    "date_modified": "2024-05-25T18:12:26.000",
    "request_status": "Pending",
    "responsible_agency": "Department of Public Works",
    "final_address": "1925 Milan St",
    "address_councildis": "B",
    "status": "Assigned to Contractor",
    "contractor": "Legacy Professional Services",
    "rowid": "1096812",
    "final_x": "3671517.645",
    "final_y": "522216.824314",
    "longitude": "-90.0999072934215",
    "latitude": "29.930214296765996",
    "geocoded_column": {
      "latitude": "29.930214296765996",
      "longitude": "-90.0999072934215"
    }
  },
  {
    "service_request": "2024-1096811",
    "request_type": "Traffic Signals/Signs/Striping/Streetlights",
    "request_reason": "Street Light Outage/Malfunction",
    "date_created": "2024-05-25T18:10:26.000",
    "date_modified": "2024-05-25T18:10:26.000",
    "request_status": "Pending",
    "responsible_agency": "Department of Public Works",
    "final_address": "1927 Milan St",
    "address_councildis": "B",
    "status": "Assigned to Contractor",
    "contractor": "Legacy Professional Services",
    "rowid": "1096811",
    "final_x": "3671518.6978",
    "final_y": "522242.092346",
    "longitude": "-90.09990311124528",
    "latitude": "29.930283744570684",
    "geocoded_column": {
      "latitude": "29.930283744570684",
      "longitude": "-90.09990311124528"
    }
  },
  {
    "service_request": "2024-1096810",
    "request_type": "Trash/Recycling",
    "request_reason": "Replace Trash Cart",
    "date_created": "2024-05-25T18:04:01.000",
    "date_modified": "2024-05-25T18:04:02.000",
    "request_status": "Pending",
    "responsible_agency": "Department of Sanitation",
    "final_address": "1216 Congress St",
    "address_councildis": "C",
    "status": "Assigned to Contractor",
    "contractor": "IV Waste",
    "rowid": "1096810",
    "final_x": "3690804.41398",
    "final_y": "536071.464007",
    "longitude": "-90.03852803465213",
    "latitude": "29.967724835065372",
    "geocoded_column": {
      "latitude": "29.967724835065372",
      "longitude": "-90.03852803465213"
    }
  },
  {
    "service_request": "2024-1096809",
    "request_type": "Trash/Recycling",
    "request_reason": "Request a Large Item Pick Up",
    "date_created": "2024-05-25T18:01:29.000",
    "date_modified": "2024-05-25T18:01:30.000",
    "request_status": "Pending",
    "responsible_agency": "Department of Sanitation",
    "final_address": "862 Polk St",
    "address_councildis": "A",
    "status": "Assigned to Contractor",
    "contractor": "IV Waste",
    "rowid": "1096809",
    "final_x": "3669623.61934",
    "final_y": "547083.008977",
    "longitude": "-90.10504497697622",
    "latitude": "29.998643950621393",
    "geocoded_column": {
      "latitude": "29.998643950621393",
      "longitude": "-90.10504497697622"
    }
  },
  {
    "service_request": "2024-1096808",
    "request_type": "Trash/Recycling",
    "request_reason": "Request a Large Item Pick Up",
    "date_created": "2024-05-25T17:59:45.000",
    "date_modified": "2024-05-25T17:59:45.000",
    "request_status": "Pending",
    "responsible_agency": "Department of Sanitation",
    "final_address": "1631 Second St",
    "address_councildis": "B",
    "status": "Assigned to Contractor",
    "contractor": "IV Waste",
    "rowid": "1096808",
    "final_x": "3676552.69006",
    "final_y": "523322.062011",
    "longitude": "-90.08397440548256",
    "latitude": "29.93310334989885",
    "geocoded_column": {
      "latitude": "29.93310334989885",
      "longitude": "-90.08397440548256"
    }
  },
  {
    "service_request": "2024-1096807",
    "request_type": "Trash/Recycling",
    "request_reason": "Request a Large Item Pick Up",
    "date_created": "2024-05-25T17:55:03.000",
    "date_modified": "2024-05-26T07:17:02.000",
    "case_close_date": "2024-05-26T02:17:02.000",
    "request_status": "Closed",
    "responsible_agency": "Department of Sanitation",
    "final_address": "1313 Mandeville St",
    "address_councildis": "C",
    "status": "Invalid Request",
    "contractor": "IV Waste",
    "contractor_action": "Duplicate",
    "rowid": "1096807",
    "final_x": "3685740.67324",
    "final_y": "537225.275656",
    "longitude": "-90.0544787646852",
    "latitude": "29.971053780595987",
    "geocoded_column": {
      "latitude": "29.971053780595987",
      "longitude": "-90.0544787646852"
    }
  },
  {
    "service_request": "2024-1096806",
    "request_type": "Trash/Recycling",
    "request_reason": "Request a Large Item Pick Up",
    "date_created": "2024-05-25T17:54:29.000",
    "date_modified": "2024-05-25T17:54:30.000",
    "request_status": "Pending",
    "responsible_agency": "Department of Sanitation",
    "final_address": "1313 Mandeville St",
    "address_councildis": "C",
    "status": "Assigned to Contractor",
    "contractor": "IV Waste",
    "rowid": "1096806",
    "final_x": "3685740.67324",
    "final_y": "537225.275656",
    "longitude": "-90.0544787646852",
    "latitude": "29.971053780595987",
    "geocoded_column": {
      "latitude": "29.971053780595987",
      "longitude": "-90.0544787646852"
    }
  },
  {
    "service_request": "2024-1096805",
    "request_type": "Property Maintenance",
    "request_reason": "Property Maintenance",
    "date_created": "2024-05-25T17:54:04.000",
    "date_modified": "2024-05-25T17:54:04.000",
    "request_status": "Pending",
    "responsible_agency": "Department of Code Enforcement",
    "final_address": "4219 Clio St",
    "address_councildis": "B",
    "status": "Pending",
    "rowid": "1096805",
    "final_x": "3671468.16065",
    "final_y": "531591.879683",
    "longitude": "-90.09974488806519",
    "latitude": "29.955994106084443",
    "geocoded_column": {
      "latitude": "29.955994106084443",
      "longitude": "-90.09974488806519"
    }
  },
  {
    "service_request": "2024-1096804",
    "request_type": "Trash/Recycling",
    "request_reason": "Request a Large Item Pick Up",
    "date_created": "2024-05-25T17:52:58.000",
    "date_modified": "2024-05-26T07:15:11.000",
    "case_close_date": "2024-05-26T02:15:11.000",
    "request_status": "Closed",
    "responsible_agency": "Department of Sanitation",
    "final_address": "1313 Mandeville St",
    "address_councildis": "C",
    "status": "Invalid Request",
    "contractor": "IV Waste",
    "contractor_action": "Duplicate",
    "rowid": "1096804",
    "final_x": "3685740.67324",
    "final_y": "537225.275656",
    "longitude": "-90.0544787646852",
    "latitude": "29.971053780595987",
    "geocoded_column": {
      "latitude": "29.971053780595987",
      "longitude": "-90.0544787646852"
    }
  },
  {
    "service_request": "2024-1096803",
    "request_type": "Trash/Recycling",
    "request_reason": "Replace Trash Cart",
    "date_created": "2024-05-25T17:18:56.000",
    "date_modified": "2024-05-25T17:18:57.000",
    "request_status": "Pending",
    "responsible_agency": "Department of Sanitation",
    "final_address": "6161 Loyola Ave",
    "address_councildis": "A",
    "status": "Assigned to Contractor",
    "contractor": "IV Waste",
    "rowid": "1096803",
    "final_x": "3665774.19661",
    "final_y": "523606.087419",
    "longitude": "-90.11799199742569",
    "latitude": "29.934203077413734",
    "geocoded_column": {
      "latitude": "29.934203077413734",
      "longitude": "-90.11799199742569"
    }
  },
  {
    "service_request": "2024-1096802",
    "request_type": "Trash/Recycling",
    "request_reason": "Replace Trash Cart",
    "date_created": "2024-05-25T17:15:42.000",
    "date_modified": "2024-05-25T17:15:42.000",
    "request_status": "Pending",
    "responsible_agency": "Department of Sanitation",
    "final_address": "6161 Loyola Ave",
    "address_councildis": "A",
    "status": "Assigned to Contractor",
    "contractor": "IV Waste",
    "rowid": "1096802",
    "final_x": "3665774.19661",
    "final_y": "523606.087419",
    "longitude": "-90.11799199742569",
    "latitude": "29.934203077413734",
    "geocoded_column": {
      "latitude": "29.934203077413734",
      "longitude": "-90.11799199742569"
    }
  },
  {
    "service_request": "2024-1096801",
    "request_type": "Roads/Drainage",
    "request_reason": "Pothole",
    "date_created": "2024-05-25T17:03:57.000",
    "date_modified": "2024-05-25T17:03:57.000",
    "request_status": "Pending",
    "responsible_agency": "Department of Public Works",
    "final_address": "1240 Magazine St",
    "address_councildis": "B",
    "status": "Pending",
    "rowid": "1096801",
    "final_x": "3680610.52194",
    "final_y": "525298.000061",
    "longitude": "-90.07109539791152",
    "latitude": "29.938414244734798",
    "geocoded_column": {
      "latitude": "29.938414244734798",
      "longitude": "-90.07109539791152"
    }
  },
  {
    "service_request": "2024-1096800",
    "request_type": "Trash/Recycling",
    "request_reason": "Request a Large Item Pick Up",
    "date_created": "2024-05-25T16:57:22.000",
    "date_modified": "2024-05-25T16:57:23.000",
    "request_status": "Pending",
    "responsible_agency": "Department of Sanitation",
    "final_address": "3532 Silver Maple Ct",
    "address_councildis": "C",
    "status": "Assigned to Contractor",
    "contractor": "Richards Disposal",
    "rowid": "1096800",
    "final_x": "3703302.57182",
    "final_y": "512548.420913",
    "longitude": "-89.99992327424533",
    "latitude": "29.902650454519577",
    "geocoded_column": {
      "latitude": "29.902650454519577",
      "longitude": "-89.99992327424533"
    }
  },
  {
    "service_request": "2024-1096799",
    "request_type": "Trash/Recycling",
    "request_reason": "Request a Large Item Pick Up",
    "date_created": "2024-05-25T16:49:18.000",
    "date_modified": "2024-05-25T16:49:19.000",
    "request_status": "Pending",
    "responsible_agency": "Department of Sanitation",
    "final_address": "1806 Audubon St",
    "address_councildis": "A",
    "status": "Assigned to Contractor",
    "contractor": "IV Waste",
    "rowid": "1096799",
    "final_x": "3665617.16928",
    "final_y": "528184.363904",
    "longitude": "-90.11833447102542",
    "latitude": "29.946796449510195",
    "geocoded_column": {
      "latitude": "29.946796449510195",
      "longitude": "-90.11833447102542"
    }
  },
  {
    "service_request": "2024-1096798",
    "request_type": "Roads/Drainage",
    "request_reason": "Pothole",
    "date_created": "2024-05-25T16:47:14.000",
    "date_modified": "2024-05-25T16:47:14.000",
    "request_status": "Pending",
    "responsible_agency": "Department of Public Works",
    "final_address": "1829 Baronne St",
    "address_councildis": "B",
    "status": "Pending",
    "rowid": "1096798",
    "final_x": "3677678.96898",
    "final_y": "525025.889789",
    "longitude": "-90.0803600006406",
    "latitude": "29.937754501949104",
    "geocoded_column": {
      "latitude": "29.937754501949104",
      "longitude": "-90.0803600006406"
    }
  },
  {
    "service_request": "2024-1096797",
    "request_type": "Roads/Drainage",
    "request_reason": "Pothole",
    "date_created": "2024-05-25T16:27:40.000",
    "date_modified": "2024-05-25T16:27:40.000",
    "request_status": "Pending",
    "responsible_agency": "Department of Public Works",
    "final_address": "1514 Valmont St",
    "address_councildis": "B",
    "status": "Pending",
    "rowid": "1096797",
    "final_x": "3667671.62394",
    "final_y": "520568.4446",
    "longitude": "-90.11210406948392",
    "latitude": "29.92579505227427",
    "geocoded_column": {
      "latitude": "29.92579505227427",
      "longitude": "-90.11210406948392"
    }
  },
  {
    "service_request": "2024-1096796",
    "request_type": "Property Maintenance",
    "request_reason": "Property Maintenance",
    "date_created": "2024-05-25T16:18:44.000",
    "date_modified": "2024-05-25T16:18:44.000",
    "request_status": "Pending",
    "responsible_agency": "Department of Code Enforcement",
    "final_address": "5718 Painters St",
    "address_councildis": "D",
    "status": "Pending",
    "rowid": "1096796",
    "final_x": "3686089.10447",
    "final_y": "554208.899672",
    "longitude": "-90.05277895099788",
    "latitude": "30.017741959462285",
    "geocoded_column": {
      "latitude": "30.017741959462285",
      "longitude": "-90.05277895099788"
    }
  },
  {
    "service_request": "2024-1096795",
    "request_type": "Trash/Recycling",
    "request_reason": "Request a Large Item Pick Up",
    "date_created": "2024-05-25T16:13:11.000",
    "date_modified": "2024-05-25T16:13:12.000",
    "request_status": "Pending",
    "responsible_agency": "Department of Sanitation",
    "final_address": "2231 Constance St",
    "address_councildis": "B",
    "status": "Assigned to Contractor",
    "contractor": "IV Waste",
    "rowid": "1096795",
    "final_x": "3678842.43906",
    "final_y": "521638.939961",
    "longitude": "-90.07680409168192",
    "latitude": "29.92840646849455",
    "geocoded_column": {
      "latitude": "29.92840646849455",
      "longitude": "-90.07680409168192"
    }
  },
  {
    "service_request": "2024-1096794",
    "request_type": "Roads/Drainage",
    "request_reason": "Accessibility Ramps, Curbs and Sidewalk Repair",
    "date_created": "2024-05-25T16:13:08.000",
    "date_modified": "2024-05-25T16:13:08.000",
    "request_status": "Pending",
    "responsible_agency": "Department of Public Works",
    "final_address": "4900 Baronne St",
    "address_councildis": "B",
    "status": "Pending",
    "rowid": "1096794",
    "final_x": "3669045.36097",
    "final_y": "521386.857657",
    "longitude": "-90.10773994704329",
    "latitude": "29.928005097714955",
    "geocoded_column": {
      "latitude": "29.928005097714955",
      "longitude": "-90.10773994704329"
    }
  },
  {
    "service_request": "2024-1096793",
    "request_type": "Trash/Recycling",
    "request_reason": "Request a Large Item Pick Up",
    "date_created": "2024-05-25T16:03:06.000",
    "date_modified": "2024-05-25T16:03:07.000",
    "request_status": "Pending",
    "responsible_agency": "Department of Sanitation",
    "final_address": "927 Dublin St",
    "address_councildis": "A",
    "status": "Assigned to Contractor",
    "contractor": "IV Waste",
    "rowid": "1096793",
    "final_x": "3661166.78624",
    "final_y": "527966.860735",
    "longitude": "-90.13239322580853",
    "latitude": "29.94632739157086",
    "geocoded_column": {
      "latitude": "29.94632739157086",
      "longitude": "-90.13239322580853"
    }
  },
  {
    "service_request": "2024-1096792",
    "request_type": "Trash/Recycling",
    "request_reason": "Replace Recycling Cart",
    "date_created": "2024-05-25T15:28:52.000",
    "date_modified": "2024-05-25T15:28:52.000",
    "request_status": "Pending",
    "responsible_agency": "Department of Sanitation",
    "final_address": "4705 Marjorie Ln",
    "address_councildis": "D",
    "status": "Pending",
    "rowid": "1096792",
    "final_x": "3678510.14229",
    "final_y": "549851.494228",
    "longitude": "-90.07687649444797",
    "latitude": "30.005991378079525",
    "geocoded_column": {
      "latitude": "30.005991378079525",
      "longitude": "-90.07687649444797"
    }
  },
  {
    "service_request": "2024-1096791",
    "request_type": "Abandoned Vehicles",
    "request_reason": "Vehicle Blocking Your Driveway",
    "date_created": "2024-05-25T15:23:30.000",
    "date_modified": "2024-05-25T15:23:30.000",
    "request_status": "Pending",
    "responsible_agency": "Department of Public Works",
    "final_address": "2214 Philip st New Orleans ",
    "address_councildis": "B",
    "status": "Pending",
    "rowid": "1096791",
    "final_x": "3675865.88411",
    "final_y": "525221.469245",
    "longitude": "-90.0860773368339",
    "latitude": "29.93834667185693",
    "geocoded_column": {
      "latitude": "29.93834667185693",
      "longitude": "-90.0860773368339"
    }
  },
  {
    "service_request": "2024-1096790",
    "request_type": "Roads/Drainage",
    "request_reason": "Man hole cover issue",
    "date_created": "2024-05-25T15:17:17.000",
    "date_modified": "2024-05-25T15:17:17.000",
    "request_status": "Pending",
    "responsible_agency": "Department of Public Works",
    "final_address": "ESPLANADE AVE & N CLAIBORNE AVE",
    "address_councildis": "D",
    "status": "Pending",
    "rowid": "1096790",
    "final_x": "3681314.4",
    "final_y": "536499.88",
    "longitude": "-90.06848280042382",
    "latitude": "29.969194285734545",
    "geocoded_column": {
      "latitude": "29.969194285734545",
      "longitude": "-90.06848280042382"
    }
  },
  {
    "service_request": "2024-1096789",
    "request_type": "Trash/Recycling",
    "request_reason": "Replace Trash Cart",
    "date_created": "2024-05-25T14:53:19.000",
    "date_modified": "2024-05-25T14:53:19.000",
    "request_status": "Pending",
    "responsible_agency": "Department of Sanitation",
    "final_address": "7432 Morrison Rd",
    "address_councildis": "E",
    "status": "Assigned to Contractor",
    "contractor": "Waste Pro",
    "rowid": "1096789",
    "final_x": "3700871.26801",
    "final_y": "559417.816157",
    "longitude": "-90.00588271723079",
    "latitude": "30.031601953723044",
    "geocoded_column": {
      "latitude": "30.031601953723044",
      "longitude": "-90.00588271723079"
    }
  },
  {
    "service_request": "2024-1096788",
    "request_type": "Parks & Parkways",
    "request_reason": "Request Tree Service (Right of Way/Public Property)",
    "date_created": "2024-05-25T14:15:14.000",
    "date_modified": "2024-05-25T14:15:14.000",
    "request_status": "Pending",
    "responsible_agency": "Department of Parks & Parkway",
    "final_address": "5130 Perrier St",
    "address_councildis": "B",
    "status": "Pending",
    "rowid": "1096788",
    "final_x": "3668126.78503",
    "final_y": "519868.891",
    "longitude": "-90.11069082050695",
    "latitude": "29.92385815469864",
    "geocoded_column": {
      "latitude": "29.92385815469864",
      "longitude": "-90.11069082050695"
    }
  },
  {
    "service_request": "2024-1096787",
    "request_type": "Roads/Drainage",
    "request_reason": "Street Subsidence (Sinking)",
    "date_created": "2024-05-25T14:02:06.000",
    "date_modified": "2024-05-25T14:02:06.000",
    "request_status": "Pending",
    "responsible_agency": "Department of Public Works",
    "final_address": "1241 Eleonore St",
    "address_councildis": "A",
    "status": "Pending",
    "rowid": "1096787",
    "final_x": "3665601.32096",
    "final_y": "520595.412792",
    "longitude": "-90.11863851974041",
    "latitude": "29.925929716012785",
    "geocoded_column": {
      "latitude": "29.925929716012785",
      "longitude": "-90.11863851974041"
    }
  },