[
  {
    "service_request": "2022-893660",
    "request_type": "Trash/Recycling",
    "request_reason": "Missed Trash Pick-Up",
    "date_created": "2022-06-22T01:58:50.000",
    "date_modified": "2022-06-22T01:58:51.000",
    "request_status": "Pending",
    "responsible_agency": "Department of Sanitation",
    "final_address": "246 26Th St",
    "address_councildis": "A",
    "status": "Assigned to Contractor",
    "contractor": "Metro Disposal",
    "rowid": "893660",
    "final_x": "3665385.99354",
    "final_y": "549872.542484",
    "longitude": "-90.1183382762026",
    "latitude": "30.006438429064335",
    "geocoded_column": {
      "latitude": "30.006438429064335",
      "longitude": "-90.1183382762026"
    }
  },
  {
    "service_request": "2022-893658",
    "request_type": "Trash/Recycling",
    "request_reason": "Request a Large Item Pick Up",
    "date_created": "2022-06-22T00:46:48.000",
    "date_modified": "2022-06-22T00:46:48.000",
    "request_status": "Pending",
    "responsible_agency": "Department of Sanitation",
    "final_address": "3540 Rue Mignon",
    "address_councildis": "C",
    "status": "Assigned to Contractor",
    "contractor": "Richards Disposal",
    "rowid": "893658",
    "final_x": "3703382.64382",
    "final_y": "517580.789046",
    "longitude": "-89.99948569307968",
    "latitude": "29.91648518763026",
    "geocoded_column": {
      "latitude": "29.91648518763026",
      "longitude": "-89.99948569307968"
    }
  },
  {
    "service_request": "2022-893657",
    "request_type": "Trash/Recycling",
    "request_reason": "Repair Trash Cart",
    "date_created": "2022-06-22T00:22:19.000",
    "date_modified": "2022-06-22T00:22:19.000",
    "request_status": "Pending",
    "responsible_agency": "Department of Sanitation",
    "final_address": "2217 N Prieur St, New Orleans, Louisiana, 70117",
    "address_councildis": "D",
    "status": "Assigned to Contractor",
    "contractor": "Metro Disposal",
    "rowid": "893657",
    "final_x": "3684992.53993",
    "final_y": "539309.417226",
    "longitude": "-90.05676813537589",
    "latitude": "29.97680737992311",
    "geocoded_column": {
      "latitude": "29.97680737992311",
      "longitude": "-90.05676813537589"
    }
  },
  {
    "service_request": "2022-893656",
    "request_type": "Traffic Signals/Signs/Striping/Streetlights",
    "request_reason": "Street Light Outage/Malfunction",
    "date_created": "2022-06-21T23:15:14.000",
    "date_modified": "2022-06-22T01:20:05.000",
    "request_status": "Pending",
    "responsible_agency": "Department of Public Works",
    "final_address": "6121 Fleur de Lis Dr, New Orleans, Louisiana, 70124",
    "address_councildis": "A",
    "status": "Pending",
    "contractor": "Royal Engineering",
    "rowid": "893656",
    "final_x": "3665267.68672",
    "final_y": "548203.251666",
    "longitude": "-90.1187679391318",
    "latitude": "30.00185190470931",
    "geocoded_column": {
      "latitude": "30.00185190470931",
      "longitude": "-90.1187679391318"
    }
  },
  {
    "service_request": "2022-893654",
    "request_type": "Traffic Signals/Signs/Striping/Streetlights",
    "request_reason": "Street Light Outage/Malfunction",
    "date_created": "2022-06-21T23:08:08.000",
    "date_modified": "2022-06-21T23:08:09.000",
    "request_status": "Pending",
    "responsible_agency": "Department of Public Works",
    "final_address": "2439 Royal St",
    "address_councildis": "C",
    "status": "Pending",
    "contractor": "Royal Engineering",
    "rowid": "893654",
    "final_x": "3686216.91945",
    "final_y": "534987.481542",
    "longitude": "-90.0530536836827",
    "latitude": "29.96488600144405",
    "geocoded_column": {
      "latitude": "29.96488600144405",
      "longitude": "-90.0530536836827"
    }
  },
  {
    "service_request": "2022-893652",
    "request_type": "Traffic Signals/Signs/Striping/Streetlights",
    "request_reason": "Street Light Outage/Malfunction",
    "date_created": "2022-06-21T22:22:06.000",
    "date_modified": "2022-06-21T22:22:06.000",
    "request_status": "Pending",
    "responsible_agency": "Department of Public Works",
    "final_address": "5540 Rosemary Pl",
    "address_councildis": "A",
    "status": "Pending",
    "contractor": "Royal Engineering",
    "rowid": "893652",
    "final_x": "3667015.51597",
    "final_y": "544196.419278",
    "longitude": "-90.11338110613254",
    "latitude": "29.99078343460651",
    "geocoded_column": {
      "latitude": "29.99078343460651",
      "longitude": "-90.11338110613254"
    }
  },
  {
    "service_request": "2022-893651",
    "request_type": "Abandoned Vehicles",
    "request_reason": "Abandoned/Junk Vehicles",
    "date_created": "2022-06-21T22:17:44.000",
    "date_modified": "2022-06-21T22:17:44.000",
    "request_status": "Pending",
    "responsible_agency": "Department of Public Works",
    "final_address": "335 Lowerline St",
    "address_councildis": "A",
    "status": "Pending",
    "rowid": "893651",
    "final_x": "3661564.48794",
    "final_y": "523591.679867",
    "longitude": "-90.13128245245194",
    "latitude": "29.934285564215774",
    "geocoded_column": {
      "latitude": "29.934285564215774",
      "longitude": "-90.13128245245194"
    }
  },
  {
    "service_request": "2022-893650",
    "request_type": "Trash/Recycling",
    "request_reason": "Request a Large Item Pick Up",
    "date_created": "2022-06-21T21:55:50.000",
    "date_modified": "2022-06-21T21:55:51.000",
    "request_status": "Pending",
    "responsible_agency": "Department of Sanitation",
    "final_address": "825 Third St",
    "address_councildis": "B",
    "status": "Assigned to Contractor",
    "contractor": "Richards Disposal",
    "rowid": "893650",
    "final_x": "3678084.56846",
    "final_y": "520452.734136",
    "longitude": "-90.07923750925019",
    "latitude": "29.92516761895082",
    "geocoded_column": {
      "latitude": "29.92516761895082",
      "longitude": "-90.07923750925019"
    }
  },
  {
    "service_request": "2022-893649",
    "request_type": "Traffic Signals/Signs/Striping/Streetlights",
    "request_reason": "Street Name Sign Damaged or Missing",
    "date_created": "2022-06-21T21:40:22.000",
    "date_modified": "2022-06-21T21:40:22.000",
    "request_status": "Pending",
    "responsible_agency": "Department of Public Works",
    "final_address": "7454 Dartmoor Dr",
    "address_councildis": "E",
    "status": "Pending",
    "rowid": "893649",
    "final_x": "3704746.84465",
    "final_y": "562250.432671",
    "longitude": "-89.99353113587959",
    "latitude": "30.039266514391567",
    "geocoded_column": {
      "latitude": "30.039266514391567",
      "longitude": "-89.99353113587959"
    }
  },
  {
    "service_request": "2022-893648",
    "request_type": "Property Maintenance",
    "request_reason": "Property Maintenance",
    "date_created": "2022-06-21T21:38:49.000",
    "date_modified": "2022-06-21T21:38:49.000",
    "request_status": "Pending",
    "responsible_agency": "Department of Code Enforcement",
    "final_address": "7432 Dartmoor Dr",
    "address_councildis": "E",
    "status": "Pending",
    "rowid": "893648",
    "final_x": "3704833.43281",
    "final_y": "562091.487839",
    "longitude": "-89.99326336870699",
    "latitude": "30.038826694607152",
    "geocoded_column": {
      "latitude": "30.038826694607152",
      "longitude": "-89.99326336870699"
    }
  },
  {
    "service_request": "2022-893646",
    "request_type": "Traffic Signals/Signs/Striping/Streetlights",
    "request_reason": "Street Light Outage/Malfunction",
    "date_created": "2022-06-21T21:27:09.000",
    "date_modified": "2022-06-21T21:27:10.000",
    "request_status": "Pending",
    "responsible_agency": "Department of Public Works",
    "final_address": "635 Pine St",
    "address_councildis": "A",
    "status": "Pending",
    "contractor": "Royal Engineering",
    "rowid": "893646",
    "final_x": "3662972.71808",
    "final_y": "525095.164605",
    "longitude": "-90.12678671300979",
    "latitude": "29.938378974611016",
    "geocoded_column": {
      "latitude": "29.938378974611016",
      "longitude": "-90.12678671300979"
    }
  },
  {
    "service_request": "2022-893645",
    "request_type": "Traffic Signals/Signs/Striping/Streetlights",
    "request_reason": "Street Light Outage/Malfunction",
    "date_created": "2022-06-21T21:24:59.000",
    "date_modified": "2022-06-21T21:25:00.000",
    "request_status": "Pending",
    "responsible_agency": "Department of Public Works",
    "final_address": "635 Pine St Nola 70118",
    "status": "Pending",
    "contractor": "Royal Engineering",
    "rowid": "893645",
    "longitude": "0.0",
    "latitude": "0.0",
    "geocoded_column": {
      "latitude": "0.0",
      "longitude": "0.0"
    }
  },
  {
    "service_request": "2022-893644",
    "request_type": "Trash/Recycling",
    "request_reason": "Missed Trash Pick-Up",
    "date_created": "2022-06-21T21:09:38.000",
    "date_modified": "2022-06-21T21:09:39.000",
    "request_status": "Pending",
    "responsible_agency": "Department of Sanitation",
    "final_address": "608 French St",
    "address_councildis": "A",
    "status": "Assigned to Contractor",
    "contractor": "Metro Disposal",
    "rowid": "893644",
    "final_x": "3668314.18708",
    "final_y": "548557.964627",
    "longitude": "-90.10913171402845",
    "latitude": "30.002738098206525",
    "geocoded_column": {
      "latitude": "30.002738098206525",
      "longitude": "-90.10913171402845"
    }
  },
  {
    "service_request": "2022-893643",
    "request_type": "Trash/Recycling",
    "request_reason": "Missed Trash Pick-Up",
    "date_created": "2022-06-21T20:58:50.000",
    "date_modified": "2022-06-21T20:58:51.000",
    "request_status": "Pending",
    "responsible_agency": "Department of Sanitation",
    "final_address": "1541 N Roman St, New Orleans, Louisiana, 70116",
    "address_councildis": "D",
    "status": "Assigned to Contractor",
    "contractor": "Metro Disposal",
    "rowid": "893643",
    "final_x": "3681345.73871",
    "final_y": "537908.743945",
    "longitude": "-90.06833471068668",
    "latitude": "29.97306722421498",
    "geocoded_column": {
      "latitude": "29.97306722421498",
      "longitude": "-90.06833471068668"
    }
  },
  {
    "service_request": "2022-893642",
    "request_type": "Trash/Recycling",
    "request_reason": "Missed Trash Pick-Up",
    "date_created": "2022-06-21T20:54:18.000",
    "date_modified": "2022-06-21T20:54:18.000",
    "request_status": "Pending",
    "responsible_agency": "Department of Sanitation",
    "final_address": "4030 Constance St",
    "address_councildis": "B",
    "status": "Assigned to Contractor",
    "contractor": "Richards Disposal",
    "rowid": "893642",
    "final_x": "3672303.54574",
    "final_y": "518497.635639",
    "longitude": "-90.09755294987349",
    "latitude": "29.919964433943438",
    "geocoded_column": {
      "latitude": "29.919964433943438",
      "longitude": "-90.09755294987349"
    }
  },
  {
    "service_request": "2022-893641",
    "request_type": "Trash/Recycling",
    "request_reason": "Order Recycling Cart",
    "date_created": "2022-06-21T20:52:39.000",
    "date_modified": "2022-06-21T20:52:39.000",
    "request_status": "Pending",
    "responsible_agency": "Department of Sanitation",
    "final_address": "4300 Willow St",
    "address_councildis": "B",
    "status": "Pending",
    "rowid": "893641",
    "final_x": "3670744.53243",
    "final_y": "525434.628733",
    "longitude": "-90.10223875342358",
    "latitude": "29.93908508183742",
    "geocoded_column": {
      "latitude": "29.93908508183742",
      "longitude": "-90.10223875342358"
    }
  },
  {
    "service_request": "2022-893640",
    "request_type": "Trash/Recycling",
    "request_reason": "Replace Trash Cart",
    "date_created": "2022-06-21T20:39:51.000",
    "date_modified": "2022-06-21T20:39:52.000",
    "request_status": "Pending",
    "responsible_agency": "Department of Sanitation",
    "final_address": "5370 Pratt Dr",
    "address_councildis": "D",
    "status": "Assigned to Contractor",
    "contractor": "Metro Disposal",
    "rowid": "893640",
    "final_x": "3680299.66831",
    "final_y": "552196.512534",
    "longitude": "-90.07114134948336",
    "latitude": "30.01238525741769",
    "geocoded_column": {
      "latitude": "30.01238525741769",
      "longitude": "-90.07114134948336"
    }
  },
  {
    "service_request": "2022-893639",
    "request_type": "Mosquito, Termite & Rodent Control",
    "request_reason": "Mosquito Complaint",
    "date_created": "2022-06-21T20:37:04.000",
    "date_modified": "2022-06-21T20:37:04.000",
    "request_status": "Pending",
    "responsible_agency": "Mosquito, Termite & Rodent Control Board",
    "final_address": "5370 Charlotte Dr",
    "address_councildis": "D",
    "status": "Pending",
    "rowid": "893639",
    "final_x": "3680000.29474",
    "final_y": "552172.783894",
    "longitude": "-90.07208802758089",
    "latitude": "30.01232907638667",
    "geocoded_column": {
      "latitude": "30.01232907638667",
      "longitude": "-90.07208802758089"
    }
  },
  {
    "service_request": "2022-893638",
    "request_type": "Traffic Signals/Signs/Striping/Streetlights",
    "request_reason": "Street Light Knocked Down/Leaning",
    "date_created": "2022-06-21T20:30:43.000",
    "date_modified": "2022-06-21T20:30:44.000",
    "request_status": "Pending",
    "responsible_agency": "Department of Public Works",
    "final_address": "600 Josephine St",
    "address_councildis": "B",
    "status": "Pending",
    "contractor": "Royal Engineering",
    "rowid": "893638",
    "final_x": "3680192.27682",
    "final_y": "520875.777529",
    "longitude": "-90.07256945569856",
    "latitude": "29.92626725118973",
    "geocoded_column": {
      "latitude": "29.92626725118973",
      "longitude": "-90.07256945569856"
    }
  },
  {
    "service_request": "2022-893637",
    "request_type": "Traffic Signals/Signs/Striping/Streetlights",
    "request_reason": "Street Light Outage/Malfunction",
    "date_created": "2022-06-21T20:28:07.000",
    "date_modified": "2022-06-21T20:28:08.000",
    "request_status": "Pending",
    "responsible_agency": "Department of Public Works",
    "final_address": "600 Josephine St",
    "address_councildis": "B",
    "status": "Pending",
    "contractor": "Royal Engineering",
    "rowid": "893637",
    "final_x": "3680192.27682",
    "final_y": "520875.777529",
    "longitude": "-90.07256945569856",
    "latitude": "29.92626725118973",
    "geocoded_column": {
      "latitude": "29.92626725118973",
      "longitude": "-90.07256945569856"
    }
  },
  {
    "service_request": "2022-893636",
    "request_type": "Trash/Recycling",
    "request_reason": "Request a Large Item Pick Up",
    "date_created": "2022-06-21T20:21:01.000",
    "date_modified": "2022-06-21T20:21:02.000",
    "request_status": "Pending",
    "responsible_agency": "Department of Sanitation",
    "final_address": "1811 Camp St",
    "address_councildis": "B",
    "status": "Assigned to Contractor",
    "contractor": "Richards Disposal",
    "rowid": "893636",
    "final_x": "3679549.62351",
    "final_y": "523278.194811",
    "longitude": "-90.07451481411721",
    "latitude": "29.932892538724165",
    "geocoded_column": {
      "latitude": "29.932892538724165",
      "longitude": "-90.07451481411721"
    }
  },
  {
    "service_request": "2022-893635",
    "request_type": "Trash/Recycling",
    "request_reason": "Replace Trash Cart",
    "date_created": "2022-06-21T20:17:08.000",
    "date_modified": "2022-06-21T20:17:08.000",
    "request_status": "Pending",
    "responsible_agency": "Department of Sanitation",
    "final_address": "3100 Behrman Hwy",
    "address_councildis": "C",
    "status": "Assigned to Contractor",
    "contractor": "Richards Disposal",
    "rowid": "893635",
    "final_x": "3694623.90397",
    "final_y": "519141.873079",
    "longitude": "-90.02707552884621",
    "latitude": "29.921055090156532",
    "geocoded_column": {
      "latitude": "29.921055090156532",
      "longitude": "-90.02707552884621"
    }
  },
  {
    "service_request": "2022-893634",
    "request_type": "Property Maintenance",
    "request_reason": "Property Maintenance",
    "date_created": "2022-06-21T20:15:33.000",
    "date_modified": "2022-06-21T20:15:33.000",
    "request_status": "Pending",
    "responsible_agency": "Department of Code Enforcement",
    "final_address": "4400 Dauphine St",
    "address_councildis": "C",
    "status": "Pending",
    "rowid": "893634",
    "final_x": "3692898.98889",
    "final_y": "533780.806341",
    "longitude": "-90.03199549496702",
    "latitude": "29.961361086105534",
    "geocoded_column": {
      "latitude": "29.961361086105534",
      "longitude": "-90.03199549496702"
    }
  },
  {
    "service_request": "2022-893633",
    "request_type": "Roads/Drainage",
    "request_reason": "Debris in Roadway",
    "date_created": "2022-06-21T20:09:49.000",
    "date_modified": "2022-06-21T20:09:49.000",
    "request_status": "Pending",
    "responsible_agency": "Department of Public Works",
    "final_address": "7524 Willow St",
    "address_councildis": "A",
    "status": "Pending",
    "rowid": "893633",
    "final_x": "3663848.00832",
    "final_y": "527527.902079",
    "longitude": "-90.1239422592859",
    "latitude": "29.945042853827598",
    "geocoded_column": {
      "latitude": "29.945042853827598",
      "longitude": "-90.1239422592859"
    }
  },
  {
    "service_request": "2022-893632",
    "request_type": "Trash/Recycling",
    "request_reason": "Missed Trash Pick-Up",
    "date_created": "2022-06-21T20:07:41.000",
    "date_modified": "2022-06-21T20:07:42.000",
    "request_status": "Pending",
    "responsible_agency": "Department of Sanitation",
    "final_address": "6565 Louisville St",
    "address_councildis": "A",
    "status": "Assigned to Contractor",
    "contractor": "Metro Disposal",
    "rowid": "893632",
    "final_x": "3668194.91316",
    "final_y": "551267.323541",
    "longitude": "-90.10941709318291",
    "latitude": "30.010191393684945",
    "geocoded_column": {
      "latitude": "30.010191393684945",
      "longitude": "-90.10941709318291"
    }
  },
  {
    "service_request": "2022-893631",
    "request_type": "Roads/Drainage",
    "request_reason": "Street Flooding / Drainage",
    "date_created": "2022-06-21T19:44:42.000",
    "date_modified": "2022-06-21T19:44:42.000",
    "request_status": "Pending",
    "responsible_agency": "Department of Public Works",
    "final_address": "1510 Sumner St",
    "address_councildis": "C",
    "status": "Pending",
    "rowid": "893631",
    "final_x": "3691060.00483",
    "final_y": "525811.519741",
    "longitude": "-90.03808713392915",
    "latitude": "29.93950559923464",
    "geocoded_column": {
      "latitude": "29.93950559923464",
      "longitude": "-90.03808713392915"
    }
  },
  {
    "service_request": "2022-893630",
    "request_type": "Property Maintenance",
    "request_reason": "Property Maintenance",
    "date_created": "2022-06-21T19:44:29.000",
    "date_modified": "2022-06-21T19:44:29.000",
    "request_status": "Pending",
    "responsible_agency": "Department of Code Enforcement",
    "final_address": "6242 Cameron Blvd",
    "address_councildis": "D",
    "status": "Pending",
    "rowid": "893630",
    "final_x": "3682160.99957",
    "final_y": "556224.946906",
    "longitude": "-90.06511971981894",
    "latitude": "30.023405472671563",
    "geocoded_column": {
      "latitude": "30.023405472671563",
      "longitude": "-90.06511971981894"
    }
  },
  {
    "service_request": "2022-893629",
    "request_type": "Trash/Recycling",
    "request_reason": "Missed Trash Pick-Up",
    "date_created": "2022-06-21T19:42:37.000",
    "date_modified": "2022-06-21T21:33:12.000",
    "request_status": "Pending",
    "responsible_agency": "Department of Sanitation",
    "final_address": "New Orleans,LA",
    "address_councildis": "A",
    "status": "Assigned to Contractor",
    "contractor": "Metro Disposal",
    "rowid": "893629",
    "final_x": "3668386.10074",
    "final_y": "547733.412818",
    "longitude": "-90.10893236298014",
    "latitude": "30.000468753926047",
    "geocoded_column": {
      "latitude": "30.000468753926047",
      "longitude": "-90.10893236298014"
    }
  },
  {
    "service_request": "2022-893628",
    "request_type": "Roads/Drainage",
    "request_reason": "Street Flooding / Drainage",
    "date_created": "2022-06-21T19:40:38.000",
    "date_modified": "2022-06-21T19:40:38.000",
    "request_status": "Pending",
    "responsible_agency": "Department of Public Works",
    "final_address": "2115 Onzaga St",
    "address_councildis": "D",
    "status": "Pending",
    "rowid": "893628",
    "final_x": "3680920.9044",
    "final_y": "539261.186506",
    "longitude": "-90.06962931368798",
    "latitude": "29.97679886245136",
    "geocoded_column": {
      "latitude": "29.97679886245136",
      "longitude": "-90.06962931368798"
    }
  },
  {
    "service_request": "2022-893627",
    "request_type": "Property Maintenance",
    "request_reason": "Property Maintenance",
    "date_created": "2022-06-21T19:39:37.000",
    "date_modified": "2022-06-21T19:39:37.000",
    "request_status": "Pending",
    "responsible_agency": "Department of Code Enforcement",
    "final_address": "6245 Cameron Blvd",
    "address_councildis": "D",
    "status": "Pending",
    "rowid": "893627",
    "final_x": "3682260.76015",
    "final_y": "556257.181082",
    "longitude": "-90.06480337002706",
    "latitude": "30.023491068423045",
    "geocoded_column": {
      "latitude": "30.023491068423045",
      "longitude": "-90.06480337002706"
    }
  },
  {
    "service_request": "2022-893626",
    "request_type": "Traffic Signals/Signs/Striping/Streetlights",
    "request_reason": "Traffic Signal Malfunctioning/Damaged",
    "date_created": "2022-06-21T19:28:31.000",
    "date_modified": "2022-06-21T19:28:31.000",
    "request_status": "Pending",
    "responsible_agency": "Department of Public Works",
    "final_address": "7301 Chef Menteur Hwy Unit 1",
    "address_councildis": "E",
    "status": "Pending",
    "rowid": "893626",
    "final_x": "3701941.83607",
    "final_y": "552344.509462",
    "longitude": "-90.00275924824527",
    "latitude": "30.01211893040945",
    "geocoded_column": {
      "latitude": "30.01211893040945",
      "longitude": "-90.00275924824527"
    }
  },
  {
    "service_request": "2022-893625",
    "request_type": "Traffic Signals/Signs/Striping/Streetlights",
    "request_reason": "Traffic Signal Malfunctioning/Damaged",
    "date_created": "2022-06-21T19:26:58.000",
    "date_modified": "2022-06-21T19:26:58.000",
    "request_status": "Pending",
    "responsible_agency": "Department of Public Works",
    "final_address": "9601 Chef Menteur Hwy",
    "address_councildis": "E",
    "status": "Pending",
    "rowid": "893625",
    "final_x": "3711098.35019",
    "final_y": "554465.362136",
    "longitude": "-89.9737506441504",
    "latitude": "30.017654910913635",
    "geocoded_column": {
      "latitude": "30.017654910913635",
      "longitude": "-89.9737506441504"
    }
  },
  {
    "service_request": "2022-893624",
    "request_type": "Property Maintenance",
    "request_reason": "Property Maintenance",
    "date_created": "2022-06-21T19:18:27.000",
    "date_modified": "2022-06-21T19:18:27.000",
    "request_status": "Pending",
    "responsible_agency": "Department of Code Enforcement",
    "final_address": "2937 Dryades St",
    "address_councildis": "B",
    "status": "Pending",
    "rowid": "893624",
    "final_x": "3674654.0226",
    "final_y": "523037.677307",
    "longitude": "-90.08997811876495",
    "latitude": "29.932378171482668",
    "geocoded_column": {
      "latitude": "29.932378171482668",
      "longitude": "-90.08997811876495"
    }
  },
  {
    "service_request": "2022-893623",
    "request_type": "Trash/Recycling",
    "request_reason": "Illegal Dumping",
    "date_created": "2022-06-21T19:06:06.000",
    "date_modified": "2022-06-21T19:06:06.000",
    "request_status": "Pending",
    "responsible_agency": "Department of Sanitation",
    "final_address": "540 First St",
    "address_councildis": "B",
    "status": "Pending",
    "rowid": "893623",
    "final_x": "3679072.66165",
    "final_y": "519915.376312",
    "longitude": "-90.07613702568153",
    "latitude": "29.92366028667495",
    "geocoded_column": {
      "latitude": "29.92366028667495",
      "longitude": "-90.07613702568153"
    }
  },
  {
    "service_request": "2022-893622",
    "request_type": "Parks & Parkways",
    "request_reason": "Request Grass Cutting Service (City Owned Property)",
    "date_created": "2022-06-21T19:01:29.000",
    "date_modified": "2022-06-21T19:01:29.000",
    "request_status": "Pending",
    "responsible_agency": "Department of Parks & Parkway",
    "final_address": "1 Jahncke Rd",
    "address_councildis": "E",
    "status": "Pending",
    "rowid": "893622",
    "final_x": "3713930.30725",
    "final_y": "568816.337765",
    "longitude": "-89.96426109854228",
    "latitude": "30.057021633146345",
    "geocoded_column": {
      "latitude": "30.057021633146345",
      "longitude": "-89.96426109854228"
    }
  },
  {
    "service_request": "2022-893621",
    "request_type": "Trash/Recycling",
    "request_reason": "Missed Trash Pick-Up",
    "date_created": "2022-06-21T19:00:00.000",
    "date_modified": "2022-06-21T19:00:01.000",
    "request_status": "Pending",
    "responsible_agency": "Department of Sanitation",
    "final_address": "1729 Kerlerec St",
    "address_councildis": "D",
    "status": "Assigned to Contractor",
    "contractor": "Metro Disposal",
    "rowid": "893621",
    "final_x": "3681043.91432",
    "final_y": "537284.36916",
    "longitude": "-90.06930968354476",
    "latitude": "29.971359567828113",
    "geocoded_column": {
      "latitude": "29.971359567828113",
      "longitude": "-90.06930968354476"
    }
  },
  {
    "service_request": "2022-893620",
    "request_type": "Trash/Recycling",
    "request_reason": "Missed Trash Pick-Up",
    "date_created": "2022-06-21T18:59:07.000",
    "date_modified": "2022-06-21T18:59:08.000",
    "request_status": "Pending",
    "responsible_agency": "Department of Sanitation",
    "final_address": "1442 N Roman St",
    "address_councildis": "D",
    "status": "Assigned to Contractor",
    "contractor": "Metro Disposal",
    "rowid": "893620",
    "final_x": "3681006.51938",
    "final_y": "537328.75316",
    "longitude": "-90.06942623586762",
    "latitude": "29.97148274275327",
    "geocoded_column": {
      "latitude": "29.97148274275327",
      "longitude": "-90.06942623586762"
    }
  },
  {
    "service_request": "2022-893618",
    "request_type": "Trash/Recycling",
    "request_reason": "Request a Large Item Pick Up",
    "date_created": "2022-06-21T18:48:05.000",
    "date_modified": "2022-06-21T18:48:06.000",
    "request_status": "Pending",
    "responsible_agency": "Department of Sanitation",
    "final_address": "2019 Washington Ave",
    "address_councildis": "B",
    "status": "Assigned to Contractor",
    "contractor": "Richards Disposal",
    "rowid": "893618",
    "final_x": "3675069.71899",
    "final_y": "523892.492284",
    "longitude": "-90.08863648771484",
    "latitude": "29.934716224807005",
    "geocoded_column": {
      "latitude": "29.934716224807005",
      "longitude": "-90.08863648771484"
    }
  },
  {
    "service_request": "2022-893617",
    "request_type": "Trash/Recycling",
    "request_reason": "Illegal Dumping",
    "date_created": "2022-06-21T18:44:46.000",
    "date_modified": "2022-06-21T18:44:47.000",
    "request_status": "Pending",
    "responsible_agency": "Department of Code Enforcement",
    "final_address": "4326 Annunciation St",
    "address_councildis": "B",
    "status": "Pending",
    "rowid": "893617",
    "final_x": "3671351.61115",
    "final_y": "517734.693686",
    "longitude": "-90.10058366275821",
    "latitude": "29.91789478098822",
    "geocoded_column": {
      "latitude": "29.91789478098822",
      "longitude": "-90.10058366275821"
    }
  },
  {
    "service_request": "2022-893616",
    "request_type": "Mosquito, Termite & Rodent Control",
    "request_reason": "Rodent Complaint (Rats)",
    "date_created": "2022-06-21T18:41:20.000",
    "date_modified": "2022-06-21T18:41:21.000",
    "request_status": "Pending",
    "responsible_agency": "Mosquito, Termite & Rodent Control Board",
    "final_address": "2018 Arts St",
    "address_councildis": "D",
    "status": "Pending",
    "rowid": "893616",
    "final_x": "3686893.4175",
    "final_y": "539949.142602",
    "longitude": "-90.05074196470169",
    "latitude": "29.978508031855082",
    "geocoded_column": {
      "latitude": "29.978508031855082",
      "longitude": "-90.05074196470169"
    }
  },
  {
    "service_request": "2022-893614",
    "request_type": "Property Maintenance",
    "request_reason": "Property Maintenance",
    "date_created": "2022-06-21T18:04:33.000",
    "date_modified": "2022-06-21T18:04:34.000",
    "request_status": "Pending",
    "responsible_agency": "Department of Code Enforcement",
    "final_address": "4830 Feliciana Dr",
    "address_councildis": "D",
    "status": "Pending",
    "rowid": "893614",
    "final_x": "3690069.09801",
    "final_y": "550878.980693",
    "longitude": "-90.04032248839185",
    "latitude": "30.008463011763798",
    "geocoded_column": {
      "latitude": "30.008463011763798",
      "longitude": "-90.04032248839185"
    }
  },
  {
    "service_request": "2022-893611",
    "request_type": "Abandoned Vehicles",
    "request_reason": "Abandoned/Junk Vehicles",
    "date_created": "2022-06-21T17:55:15.000",
    "date_modified": "2022-06-21T17:55:15.000",
    "request_status": "Pending",
    "responsible_agency": "Department of Public Works",
    "final_address": "4401 Danneel St, New Orleans, Louisiana, 70115",
    "address_councildis": "B",
    "status": "Pending",
    "rowid": "893611",
    "final_x": "3670603.20148",
    "final_y": "522323.074042",
    "longitude": "-90.10279045080992",
    "latitude": "29.93053348395607",
    "geocoded_column": {
      "latitude": "29.93053348395607",
      "longitude": "-90.10279045080992"
    }
  },
  {
    "service_request": "2022-893610",
    "request_type": "Traffic Signals/Signs/Striping/Streetlights",
    "request_reason": "Street Light Outage/Malfunction",
    "date_created": "2022-06-21T17:54:32.000",
    "date_modified": "2022-06-21T17:54:32.000",
    "request_status": "Pending",
    "responsible_agency": "Department of Public Works",
    "final_address": "2900 Mansfield Ave",
    "address_councildis": "C",
    "status": "Pending",
    "contractor": "Royal Engineering",
    "rowid": "893610",
    "final_x": "3709228.97233",
    "final_y": "519214.212151",
    "longitude": "-89.98097163048246",
    "latitude": "29.920788104870823",
    "geocoded_column": {
      "latitude": "29.920788104870823",
      "longitude": "-89.98097163048246"
    }
  },
  {
    "service_request": "2022-893609",
    "request_type": "Trash/Recycling",
    "request_reason": "Missed Trash Pick-Up",
    "date_created": "2022-06-21T17:53:35.000",
    "date_modified": "2022-06-21T17:53:36.000",
    "request_status": "Pending",
    "responsible_agency": "Department of Sanitation",
    "final_address": "4222 Pitt St",
    "address_councildis": "B",
    "status": "Assigned to Contractor",
    "contractor": "Richards Disposal",
    "rowid": "893609",
    "final_x": "3671437.90497",
    "final_y": "520554.902584",
    "longitude": "-90.10021548093425",
    "latitude": "29.92564690464922",
    "geocoded_column": {
      "latitude": "29.92564690464922",
      "longitude": "-90.10021548093425"
    }
  },
  {
    "service_request": "2022-893608",
    "request_type": "Traffic Signals/Signs/Striping/Streetlights",
    "request_reason": "Street Light Outage/Malfunction",
    "date_created": "2022-06-21T17:52:46.000",
    "date_modified": "2022-06-21T17:52:47.000",
    "request_status": "Pending",
    "responsible_agency": "Department of Public Works",
    "final_address": "2900 Mansfield Ave",
    "address_councildis": "C",
    "status": "Pending",
    "contractor": "Royal Engineering",
    "rowid": "893608",
    "final_x": "3709228.97233",
    "final_y": "519214.212151",
    "longitude": "-89.98097163048246",
    "latitude": "29.920788104870823",
    "geocoded_column": {
      "latitude": "29.920788104870823",
      "longitude": "-89.98097163048246"
    }
  },
  {
    "service_request": "2022-893606",
    "request_type": "Trash/Recycling",
    "request_reason": "Request a Large Item Pick Up",
    "date_created": "2022-06-21T17:47:31.000",
    "date_modified": "2022-06-21T17:47:32.000",
    "request_status": "Pending",
    "responsible_agency": "Department of Sanitation",
    "final_address": "425 26Th St",
    "address_councildis": "A",
    "status": "Assigned to Contractor",
    "contractor": "Metro Disposal",
    "rowid": "893606",
    "final_x": "3664643.34221",
    "final_y": "550026.669012",
    "longitude": "-90.12067935633972",
    "latitude": "30.00688385548993",
    "geocoded_column": {
      "latitude": "30.00688385548993",
      "longitude": "-90.12067935633972"
    }
  },
  {
    "service_request": "2022-893605",
    "request_type": "Abandoned Vehicles",
    "request_reason": "Abandoned/Junk Vehicles",
    "date_created": "2022-06-21T17:46:44.000",
    "date_modified": "2022-06-21T17:46:44.000",
    "request_status": "Pending",
    "responsible_agency": "Department of Public Works",
    "final_address": "3300 Elysian Fields Ave",
    "address_councildis": "D",
    "status": "Pending",
    "rowid": "893605",
    "final_x": "3684184.66057",
    "final_y": "544817.221583",
    "longitude": "-90.05912622701356",
    "latitude": "29.99197662233376",
    "geocoded_column": {
      "latitude": "29.99197662233376",
      "longitude": "-90.05912622701356"
    }
  },
  {
    "service_request": "2022-893604",
    "request_type": "Trash/Recycling",
    "request_reason": "Request a Large Item Pick Up",
    "date_created": "2022-06-21T17:32:31.000",
    "date_modified": "2022-06-21T17:32:32.000",
    "request_status": "Pending",
    "responsible_agency": "Department of Sanitation",
    "final_address": "1105 First St",
    "address_councildis": "B",
    "status": "Assigned to Contractor",
    "contractor": "Richards Disposal",
    "rowid": "893604",
    "final_x": "3678053.0763",
    "final_y": "521598.855545",
    "longitude": "-90.07929732435387",
    "latitude": "29.9283200274214",
    "geocoded_column": {
      "latitude": "29.9283200274214",
      "longitude": "-90.07929732435387"
    }
  },
  {
    "service_request": "2022-893603",
    "request_type": "Property Maintenance",
    "request_reason": "Property Maintenance",
    "date_created": "2022-06-21T17:31:41.000",
    "date_modified": "2022-06-21T17:31:41.000",
    "request_status": "Pending",
    "responsible_agency": "Department of Code Enforcement",
    "final_address": "3823 Nashville Ave",
    "address_councildis": "A",
    "status": "Pending",
    "rowid": "893603",
    "final_x": "3668602.59034",
    "final_y": "529578.385153",
    "longitude": "-90.10886134343815",
    "latitude": "29.950542172263155",
    "geocoded_column": {
      "latitude": "29.950542172263155",
      "longitude": "-90.10886134343815"
    }
  },
  {
    "service_request": "2022-893602",
    "request_type": "Mayor's Request",
    "request_reason": "Requests to the Mayor",
    "date_created": "2022-06-21T17:28:22.000",
    "date_modified": "2022-06-21T17:28:22.000",
    "request_status": "Pending",
    "responsible_agency": "Executive Office of the Mayor",
    "final_address": "3821 Nashville Ave",
    "address_councildis": "A",
    "status": "Pending",
    "rowid": "893602",
    "final_x": "3668602.59034",
    "final_y": "529578.385153",
    "longitude": "-90.10886134343815",
    "latitude": "29.950542172263155",
    "geocoded_column": {
      "latitude": "29.950542172263155",
      "longitude": "-90.10886134343815"
    }
  },
  {
    "service_request": "2022-893601",
    "request_type": "Trash/Recycling",
    "request_reason": "Replace Trash Cart",
    "date_created": "2022-06-21T17:28:04.000",
    "date_modified": "2022-06-21T17:28:05.000",
    "request_status": "Pending",
    "responsible_agency": "Department of Sanitation",
    "final_address": "5878 Marshal Foch St",
    "address_councildis": "A",
    "status": "Assigned to Contractor",
    "contractor": "Metro Disposal",
    "rowid": "893601",
    "final_x": "3669663.36698",
    "final_y": "546456.063441",
    "longitude": "-90.10494064573182",
    "latitude": "29.996918895871307",
    "geocoded_column": {
      "latitude": "29.996918895871307",
      "longitude": "-90.10494064573182"
    }
  },
  {
    "service_request": "2022-893600",
    "request_type": "Trash/Recycling",
    "request_reason": "Illegal Dumping",
    "date_created": "2022-06-21T17:26:14.000",
    "date_modified": "2022-06-21T17:26:14.000",
    "request_status": "Pending",
    "responsible_agency": "Department of Sanitation",
    "final_address": "3821 Nashville Ave",
    "address_councildis": "A",
    "status": "Pending",
    "rowid": "893600",
    "final_x": "3668602.59034",
    "final_y": "529578.385153",
    "longitude": "-90.10886134343815",
    "latitude": "29.950542172263155",
    "geocoded_column": {
      "latitude": "29.950542172263155",
      "longitude": "-90.10886134343815"
    }
  },
  {
    "service_request": "2022-893599",
    "request_type": "Mosquito, Termite & Rodent Control",
    "request_reason": "Mosquito Complaint",
    "date_created": "2022-06-21T17:24:49.000",
    "date_modified": "2022-06-21T17:24:49.000",
    "request_status": "Pending",
    "responsible_agency": "Mosquito, Termite & Rodent Control Board",
    "final_address": "3821 Nashville Ave",
    "address_councildis": "A",
    "status": "Pending",
    "rowid": "893599",
    "final_x": "3668602.59034",
    "final_y": "529578.385153",
    "longitude": "-90.10886134343815",
    "latitude": "29.950542172263155",
    "geocoded_column": {
      "latitude": "29.950542172263155",
      "longitude": "-90.10886134343815"
    }
  },
  {
    "service_request": "2022-893598",
    "request_type": "Roads/Drainage",
    "request_reason": "Debris in Roadway",
    "date_created": "2022-06-21T17:23:08.000",
    "date_modified": "2022-06-21T17:23:08.000",
    "request_status": "Pending",
    "responsible_agency": "Department of Public Works",
    "final_address": "3823 Nashville Ave",
    "address_councildis": "A",
    "status": "Pending",
    "rowid": "893598",
    "final_x": "3668602.59034",
    "final_y": "529578.385153",
    "longitude": "-90.10886134343815",
    "latitude": "29.950542172263155",
    "geocoded_column": {
      "latitude": "29.950542172263155",
      "longitude": "-90.10886134343815"
    }
  },
  {
    "service_request": "2022-893597",
    "request_type": "Abandoned Vehicles",
    "request_reason": "Vehicle Blocking Your Driveway",
    "date_created": "2022-06-21T17:21:42.000",
    "date_modified": "2022-06-21T17:21:42.000",
    "request_status": "Pending",
    "responsible_agency": "Department of Public Works",
    "final_address": "3821 Nashville Ave",
    "address_councildis": "A",
    "status": "Pending",
    "rowid": "893597",
    "final_x": "3668602.59034",
    "final_y": "529578.385153",
    "longitude": "-90.10886134343815",
    "latitude": "29.950542172263155",
    "geocoded_column": {
      "latitude": "29.950542172263155",
      "longitude": "-90.10886134343815"
    }
  },
  {
    "service_request": "2022-893596",
    "request_type": "Trash/Recycling",
    "request_reason": "Missed Trash Pick-Up",
    "date_created": "2022-06-21T17:19:26.000",
    "date_modified": "2022-06-21T17:19:27.000",
    "request_status": "Pending",
    "responsible_agency": "Department of Sanitation",
    "final_address": "328 Polk St",
    "address_councildis": "A",
    "status": "Assigned to Contractor",
    "contractor": "Metro Disposal",
    "rowid": "893596",
    "final_x": "3667342.8578",
    "final_y": "547318.916049",
    "longitude": "-90.11224199955984",
    "latitude": "29.999359641910093",
    "geocoded_column": {
      "latitude": "29.999359641910093",
      "longitude": "-90.11224199955984"
    }
  },
  {
    "service_request": "2022-893595",
    "request_type": "Trash/Recycling",
    "request_reason": "Order Trash Cart",
    "date_created": "2022-06-21T17:17:12.000",
    "date_modified": "2022-06-21T17:17:13.000",
    "request_status": "Pending",
    "responsible_agency": "Department of Sanitation",
    "final_address": "2805 Orleans Ave",
    "address_councildis": "A",
    "status": "Assigned to Contractor",
    "contractor": "Richards Disposal",
    "rowid": "893595",
    "final_x": "3676307.27617",
    "final_y": "537446.10388",
    "longitude": "-90.08426310423053",
    "latitude": "29.971947107505034",
    "geocoded_column": {
      "latitude": "29.971947107505034",
      "longitude": "-90.08426310423053"
    }
  },
  {
    "service_request": "2022-893593",
    "request_type": "Trash/Recycling",
    "request_reason": "Missed Trash Pick-Up",
    "date_created": "2022-06-21T17:14:57.000",
    "date_modified": "2022-06-21T17:14:57.000",
    "request_status": "Pending",
    "responsible_agency": "Department of Sanitation",
    "final_address": "2205 Valmont St",
    "address_councildis": "B",
    "status": "Assigned to Contractor",
    "contractor": "Richards Disposal",
    "rowid": "893593",
    "final_x": "3668244.38061",
    "final_y": "523649.721275",
    "longitude": "-90.11019221378436",
    "latitude": "29.93425078360176",
    "geocoded_column": {
      "latitude": "29.93425078360176",
      "longitude": "-90.11019221378436"
    }
  },
  {
    "service_request": "2022-893592",
    "request_type": "Abandoned Vehicles",
    "request_reason": "Abandoned/Junk Vehicles",
    "date_created": "2022-06-21T17:10:48.000",
    "date_modified": "2022-06-21T17:12:16.000",
    "request_status": "Pending",
    "responsible_agency": "Department of Public Works",
    "final_address": "451 Andrew Higgins Dr",
    "address_councildis": "B",
    "status": "Pending",
    "rowid": "893592",
    "final_x": "3681348.75823",
    "final_y": "526842.316606",
    "longitude": "-90.06871090422254",
    "latitude": "29.942638218771787",
    "geocoded_column": {
      "latitude": "29.942638218771787",
      "longitude": "-90.06871090422254"
    }
  },
  {
    "service_request": "2022-893591",
    "request_type": "Abandoned Vehicles",
    "request_reason": "Abandoned/Junk Vehicles",
    "date_created": "2022-06-21T17:07:48.000",
    "date_modified": "2022-06-21T17:11:04.000",
    "request_status": "Pending",
    "responsible_agency": "Department of Public Works",
    "final_address": "2801 First St",
    "address_councildis": "B",
    "status": "Pending",
    "rowid": "893591",
    "final_x": "3674631.642",
    "final_y": "526808.798398",
    "longitude": "-90.08991958377224",
    "latitude": "29.94274819038469",
    "geocoded_column": {
      "latitude": "29.94274819038469",
      "longitude": "-90.08991958377224"
    }
  },
  {
    "service_request": "2022-893590",
    "request_type": "Trash/Recycling",
    "request_reason": "Replace Trash Cart",
    "date_created": "2022-06-21T17:07:31.000",
    "date_modified": "2022-06-21T17:07:32.000",
    "request_status": "Pending",
    "responsible_agency": "Department of Sanitation",
    "final_address": "8005 Nelson St",
    "address_councildis": "A",
    "status": "Assigned to Contractor",
    "contractor": "Richards Disposal",
    "rowid": "893590",
    "final_x": "3665438.55348",
    "final_y": "531608.758851",
    "longitude": "-90.11878382442032",
    "latitude": "29.956217631326385",
    "geocoded_column": {
      "latitude": "29.956217631326385",
      "longitude": "-90.11878382442032"
    }
  },
  {
    "service_request": "2022-893589",
    "request_type": "Abandoned Vehicles",
    "request_reason": "Abandoned/Junk Vehicles",
    "date_created": "2022-06-21T17:05:37.000",
    "date_modified": "2022-06-21T17:05:37.000",
    "request_status": "Pending",
    "responsible_agency": "Department of Public Works",
    "final_address": "4649 Dart St",
    "address_councildis": "B",
    "status": "Pending",
    "rowid": "893589",
    "final_x": "3668967.4338",
    "final_y": "531789.485571",
    "longitude": "-90.10763467194391",
    "latitude": "29.956611247663982",
    "geocoded_column": {
      "latitude": "29.956611247663982",
      "longitude": "-90.10763467194391"
    }
  },
  {
    "service_request": "2022-893588",
    "request_type": "Trash/Recycling",
    "request_reason": "Illegal Dumping",
    "date_created": "2022-06-21T17:04:29.000",
    "date_modified": "2022-06-21T17:04:29.000",
    "request_status": "Pending",
    "responsible_agency": "Department of Sanitation",
    "final_address": "2926 Dumaine St",
    "address_councildis": "A",
    "status": "Pending",
    "rowid": "893588",
    "final_x": "3676221.82017",
    "final_y": "538183.591945",
    "longitude": "-90.08450760383235",
    "latitude": "29.97397750898155",
    "geocoded_column": {
      "latitude": "29.97397750898155",
      "longitude": "-90.08450760383235"
    }
  },
  {
    "service_request": "2022-893587",
    "request_type": "Traffic Signals/Signs/Striping/Streetlights",
    "request_reason": "Disabled Parking Sign ",
    "date_created": "2022-06-21T16:59:08.000",
    "date_modified": "2022-06-21T16:59:09.000",
    "request_status": "Pending",
    "responsible_agency": "Department of Public Works",
    "final_address": "5800 Tall Timbers Dr",
    "address_councildis": "C",
    "status": "Pending",
    "rowid": "893587",
    "final_x": "3705216.84043",
    "final_y": "514082.02917",
    "longitude": "-89.99382537095208",
    "latitude": "29.90680596284354",
    "geocoded_column": {
      "latitude": "29.90680596284354",
      "longitude": "-89.99382537095208"
    }
  },
  {
    "service_request": "2022-893586",
    "request_type": "Trash/Recycling",
    "request_reason": "Damaged Caused By Contractor",
    "date_created": "2022-06-21T16:57:14.000",
    "date_modified": "2022-06-21T16:57:15.000",
    "request_status": "Pending",
    "responsible_agency": "Department of Sanitation",
    "final_address": "4516 Chantilly Dr",
    "address_councildis": "E",
    "status": "Assigned to Contractor",
    "contractor": "Metro Disposal",
    "rowid": "893586",
    "final_x": "3700914.16778",
    "final_y": "552986.853399",
    "longitude": "-90.00598256577835",
    "latitude": "30.013917905389018",
    "geocoded_column": {
      "latitude": "30.013917905389018",
      "longitude": "-90.00598256577835"
    }
  },
  {
    "service_request": "2022-893585",
    "request_type": "Trash/Recycling",
    "request_reason": "Repair Trash Cart",
    "date_created": "2022-06-21T16:49:40.000",
    "date_modified": "2022-06-21T16:49:40.000",
    "request_status": "Pending",
    "responsible_agency": "Department of Sanitation",
    "final_address": "6301 Bertha Dr",
    "address_councildis": "D",
    "status": "Assigned to Contractor",
    "contractor": "Metro Disposal",
    "rowid": "893585",
    "final_x": "3678498.4523",
    "final_y": "556262.941402",
    "longitude": "-90.07669128633881",
    "latitude": "30.02362089703048",
    "geocoded_column": {
      "latitude": "30.02362089703048",
      "longitude": "-90.07669128633881"
    }
  },
  {
    "service_request": "2022-893584",
    "request_type": "Trash/Recycling",
    "request_reason": "Replace Trash Cart",
    "date_created": "2022-06-21T16:48:21.000",
    "date_modified": "2022-06-21T16:48:23.000",
    "request_status": "Pending",
    "responsible_agency": "Department of Sanitation",
    "final_address": "2031 Elysian Fields Ave",
    "address_councildis": "D",
    "status": "Assigned to Contractor",
    "contractor": "Metro Disposal",
    "rowid": "893584",
    "final_x": "3684831.37506",
    "final_y": "539868.132746",
    "longitude": "-90.05725749221516",
    "latitude": "29.97834858780583",
    "geocoded_column": {
      "latitude": "29.97834858780583",
      "longitude": "-90.05725749221516"
    }
  },
  {
    "service_request": "2022-893583",
    "request_type": "Trash/Recycling",
    "request_reason": "Illegal Dumping",
    "date_created": "2022-06-21T16:46:50.000",
    "date_modified": "2022-06-21T16:46:50.000",
    "request_status": "Pending",
    "responsible_agency": "Department of Sanitation",
    "final_address": "1660 N Roman St",
    "address_councildis": "D",
    "status": "Pending",
    "rowid": "893583",
    "final_x": "3682014.38293",
    "final_y": "538619.932297",
    "longitude": "-90.0661981646744",
    "latitude": "29.97500243128566",
    "geocoded_column": {
      "latitude": "29.97500243128566",
      "longitude": "-90.0661981646744"
    }
  },
  {
    "service_request": "2022-893582",
    "request_type": "Trash/Recycling",
    "request_reason": "Request a Large Item Pick Up",
    "date_created": "2022-06-21T16:42:46.000",
    "date_modified": "2022-06-21T16:42:47.000",
    "request_status": "Pending",
    "responsible_agency": "Department of Sanitation",
    "final_address": "415 Socrates St, New Orleans, Louisiana, 70114",
    "address_councildis": "C",
    "status": "Assigned to Contractor",
    "contractor": "Richards Disposal",
    "rowid": "893582",
    "final_x": "3686807.14178",
    "final_y": "526355.438462",
    "longitude": "-90.05149475108507",
    "latitude": "29.941132694045432",
    "geocoded_column": {
      "latitude": "29.941132694045432",
      "longitude": "-90.05149475108507"
    }
  },
  {
    "service_request": "2022-893581",
    "request_type": "Traffic Signals/Signs/Striping/Streetlights",
    "request_reason": "Road Surface Marking Maintenance-Bike Lane",
    "date_created": "2022-06-21T16:41:59.000",
    "date_modified": "2022-06-21T16:42:00.000",
    "request_status": "Pending",
    "responsible_agency": "Department of Public Works",
    "final_address": "7049 Queensway Dr",
    "address_councildis": "E",
    "status": "Pending",
    "rowid": "893581",
    "final_x": "3719209.84479",
    "final_y": "569547.874662",
    "longitude": "-89.94754549055219",
    "latitude": "30.058858550449006",
    "geocoded_column": {
      "latitude": "30.058858550449006",
      "longitude": "-89.94754549055219"
    }
  },
  {
    "service_request": "2022-893580",
    "request_type": "Property Maintenance",
    "request_reason": "Property Maintenance",
    "date_created": "2022-06-21T16:41:11.000",
    "date_modified": "2022-06-21T16:41:11.000",
    "request_status": "Pending",
    "responsible_agency": "Department of Code Enforcement",
    "final_address": "2033 Harmony St",
    "address_councildis": "B",
    "status": "Pending",
    "rowid": "893580",
    "final_x": "3674124.95464",
    "final_y": "523337.202619",
    "longitude": "-90.09163809374925",
    "latitude": "29.93321754398358",
    "geocoded_column": {
      "latitude": "29.93321754398358",
      "longitude": "-90.09163809374925"
    }
  },
  {
    "service_request": "2022-893579",
    "request_type": "Trash/Recycling",
    "request_reason": "Missed Trash Pick-Up",
    "date_created": "2022-06-21T16:40:10.000",
    "date_modified": "2022-06-21T16:40:11.000",
    "request_status": "Pending",
    "responsible_agency": "Department of Sanitation",
    "final_address": "700 Block of Jefferson Ave, New Orleans, Louisiana, 70115",
    "status": "Assigned to Contractor",
    "rowid": "893579",
    "longitude": "0.0",
    "latitude": "0.0",
    "geocoded_column": {
      "latitude": "0.0",
      "longitude": "0.0"
    }
  },
  {
    "service_request": "2022-893577",
    "request_type": "Trash/Recycling",
    "request_reason": "Request a Large Item Pick Up",
    "date_created": "2022-06-21T16:33:32.000",
    "date_modified": "2022-06-21T16:33:33.000",
    "request_status": "Pending",
    "responsible_agency": "Department of Sanitation",
    "final_address": "417 Henry Clay Ave",
    "address_councildis": "A",
    "status": "Assigned to Contractor",
    "contractor": "Richards Disposal",
    "rowid": "893577",
    "final_x": "3663375.75616",
    "final_y": "518379.00959",
    "longitude": "-90.12573773977351",
    "latitude": "29.919899984815505",
    "geocoded_column": {
      "latitude": "29.919899984815505",
      "longitude": "-90.12573773977351"
    }
  },
  {
    "service_request": "2022-893576",
    "request_type": "Trash/Recycling",
    "request_reason": "Replace Trash Cart",
    "date_created": "2022-06-21T16:30:21.000",
    "date_modified": "2022-06-21T16:30:21.000",
    "request_status": "Pending",
    "responsible_agency": "Department of Sanitation",
    "final_address": "7542 Lehigh St",
    "address_councildis": "E",
    "status": "Assigned to Contractor",
    "contractor": "Metro Disposal",
    "rowid": "893576",
    "final_x": "3710772.62033",
    "final_y": "565227.646626",
    "longitude": "-89.97437652225898",
    "latitude": "30.047257548726996",
    "geocoded_column": {
      "latitude": "30.047257548726996",
      "longitude": "-89.97437652225898"
    }
  },
  {
    "service_request": "2022-893575",
    "request_type": "Roads/Drainage",
    "request_reason": "Catch Basin - Broken/Damage",
    "date_created": "2022-06-21T16:27:50.000",
    "date_modified": "2022-06-21T16:27:50.000",
    "request_status": "Pending",
    "responsible_agency": "Department of Public Works",
    "final_address": "500 Bragg St",
    "address_councildis": "A",
    "status": "Pending",
    "rowid": "893575",
    "final_x": "3668087.46996",
    "final_y": "550047.525652",
    "longitude": "-90.10979769840279",
    "latitude": "30.00684053102513",
    "geocoded_column": {
      "latitude": "30.00684053102513",
      "longitude": "-90.10979769840279"
    }
  },
  {
    "service_request": "2022-893574",
    "request_type": "Trash/Recycling",
    "request_reason": "Repair Trash Cart",
    "date_created": "2022-06-21T16:27:25.000",
    "date_modified": "2022-06-21T16:27:26.000",
    "request_status": "Pending",
    "responsible_agency": "Department of Sanitation",
    "final_address": "1222 Broadway St",
    "address_councildis": "A",
    "status": "Assigned to Contractor",
    "contractor": "Richards Disposal",
    "rowid": "893574",
    "final_x": "3664228.51284",
    "final_y": "526677.931646",
    "longitude": "-90.12276923561986",
    "latitude": "29.942694659203937",
    "geocoded_column": {
      "latitude": "29.942694659203937",
      "longitude": "-90.12276923561986"
    }
  },
  {
    "service_request": "2022-893573",
    "request_type": "Trash/Recycling",
    "request_reason": "Dead Animal Pick Up",
    "date_created": "2022-06-21T16:27:13.000",
    "date_modified": "2022-06-21T16:27:14.000",
    "request_status": "Pending",
    "responsible_agency": "Department of Sanitation",
    "final_address": "229 N Genois St",
    "address_councildis": "B",
    "status": "Assigned to Contractor",
    "contractor": "Richards Disposal",
    "rowid": "893573",
    "final_x": "3672983.94472",
    "final_y": "537767.878216",
    "longitude": "-90.09474775336463",
    "latitude": "29.972931072208723",
    "geocoded_column": {
      "latitude": "29.972931072208723",
      "longitude": "-90.09474775336463"
    }
  },
  {
    "service_request": "2022-893572",
    "request_type": "Traffic Signals/Signs/Striping/Streetlights",
    "request_reason": "Street Light Outage/Malfunction",
    "date_created": "2022-06-21T16:26:07.000",
    "date_modified": "2022-06-21T16:26:08.000",
    "request_status": "Pending",
    "responsible_agency": "Department of Public Works",
    "final_address": "6461 Vicksburg St",
    "address_councildis": "A",
    "status": "Pending",
    "contractor": "Royal Engineering",
    "rowid": "893572",
    "final_x": "3669252.83591",
    "final_y": "550462.483412",
    "longitude": "-90.10610194635039",
    "latitude": "30.00794725198003",
    "geocoded_column": {
      "latitude": "30.00794725198003",
      "longitude": "-90.10610194635039"
    }
  },
  {
    "service_request": "2022-893571",
    "request_type": "Property Maintenance",
    "request_reason": "Property Maintenance",
    "date_created": "2022-06-21T16:22:51.000",
    "date_modified": "2022-06-21T16:22:51.000",
    "request_status": "Pending",
    "responsible_agency": "Department of Code Enforcement",
    "final_address": "2609 Touro St",
    "address_councildis": "D",
    "status": "Pending",
    "rowid": "893571",
    "final_x": "3683807.07106",
    "final_y": "541904.53998",
    "longitude": "-90.06042116191672",
    "latitude": "29.98397931886562",
    "geocoded_column": {
      "latitude": "29.98397931886562",
      "longitude": "-90.06042116191672"
    }
  },
  {
    "service_request": "2022-893570",
    "request_type": "Trash/Recycling",
    "request_reason": "Illegal Dumping",
    "date_created": "2022-06-21T16:22:22.000",
    "date_modified": "2022-06-21T16:22:22.000",
    "request_status": "Pending",
    "responsible_agency": "Department of Sanitation",
    "final_address": "326 S Dupre St",
    "address_councildis": "B",
    "status": "Pending",
    "rowid": "893570",
    "final_x": "3674039.78708",
    "final_y": "534797.744006",
    "longitude": "-90.09151485528533",
    "latitude": "29.964732783098288",
    "geocoded_column": {
      "latitude": "29.964732783098288",
      "longitude": "-90.09151485528533"
    }
  },
  {
    "service_request": "2022-893569",
    "request_type": "Abandoned Vehicles",
    "request_reason": "Abandoned/Junk Vehicles",
    "date_created": "2022-06-21T16:21:05.000",
    "date_modified": "2022-06-21T16:21:06.000",
    "request_status": "Pending",
    "responsible_agency": "Department of Public Works",
    "final_address": "1611 N Roman St",
    "address_councildis": "D",
    "status": "Pending",
    "contractor": "Metro Disposal",
    "rowid": "893569",
    "final_x": "3681650.91144",
    "final_y": "538337.063369",
    "longitude": "-90.0673559706798",
    "latitude": "29.974235686958625",
    "geocoded_column": {
      "latitude": "29.974235686958625",
      "longitude": "-90.0673559706798"
    }
  },
  {
    "service_request": "2022-893568",
    "request_type": "Trash/Recycling",
    "request_reason": "Illegal Dumping",
    "date_created": "2022-06-21T16:19:35.000",
    "date_modified": "2022-06-21T16:19:35.000",
    "request_status": "Pending",
    "responsible_agency": "Department of Sanitation",
    "final_address": "2938 Palmyra St",
    "address_councildis": "B",
    "status": "Pending",
    "rowid": "893568",
    "final_x": "3673873.71368",
    "final_y": "535170.868422",
    "longitude": "-90.09202653993137",
    "latitude": "29.96576369757767",
    "geocoded_column": {
      "latitude": "29.96576369757767",
      "longitude": "-90.09202653993137"
    }
  },
  {
    "service_request": "2022-893567",
    "request_type": "Trash/Recycling",
    "request_reason": "Replace Trash Cart",
    "date_created": "2022-06-21T16:16:50.000",
    "date_modified": "2022-06-21T16:16:51.000",
    "request_status": "Pending",
    "responsible_agency": "Department of Sanitation",
    "final_address": "3937 Kathleen St",
    "address_councildis": "C",
    "status": "Assigned to Contractor",
    "contractor": "Richards Disposal",
    "rowid": "893567",
    "final_x": "3709777.97841",
    "final_y": "516185.656052",
    "longitude": "-89.97935164883043",
    "latitude": "29.912442805396235",
    "geocoded_column": {
      "latitude": "29.912442805396235",
      "longitude": "-89.97935164883043"
    }
  },
  {
    "service_request": "2022-893566",
    "request_type": "Trash/Recycling",
    "request_reason": "Missed Trash Pick-Up",
    "date_created": "2022-06-21T16:15:17.000",
    "date_modified": "2022-06-21T16:15:17.000",
    "request_status": "Pending",
    "responsible_agency": "Department of Sanitation",
    "final_address": "315 N White St",
    "address_councildis": "B",
    "status": "Assigned to Contractor",
    "contractor": "Richards Disposal",
    "rowid": "893566",
    "final_x": "3675385.16744",
    "final_y": "536283.318855",
    "longitude": "-90.08721521138247",
    "latitude": "29.968777450648243",
    "geocoded_column": {
      "latitude": "29.968777450648243",
      "longitude": "-90.08721521138247"
    }
  },
  {
    "service_request": "2022-893565",
    "request_type": "Trash/Recycling",
    "request_reason": "Missed Trash Pick-Up",
    "date_created": "2022-06-21T16:14:42.000",
    "date_modified": "2022-06-21T16:14:43.000",
    "request_status": "Pending",
    "responsible_agency": "Department of Sanitation",
    "final_address": "6010 Freret St",
    "address_councildis": "A",
    "status": "Assigned to Contractor",
    "contractor": "Richards Disposal",
    "rowid": "893565",
    "final_x": "3666255.89319",
    "final_y": "524406.470524",
    "longitude": "-90.1164444570858",
    "latitude": "29.936389818373097",
    "geocoded_column": {
      "latitude": "29.936389818373097",
      "longitude": "-90.1164444570858"
    }
  },
  {
    "service_request": "2022-893564",
    "request_type": "Trash/Recycling",
    "request_reason": "Request a Large Item Pick Up",
    "date_created": "2022-06-21T16:09:56.000",
    "date_modified": "2022-06-21T16:09:56.000",
    "request_status": "Pending",
    "responsible_agency": "Department of Sanitation",
    "final_address": "7613 Alabama St",
    "address_councildis": "D",
    "status": "Assigned to Contractor",
    "contractor": "Metro Disposal",
    "rowid": "893564",
    "final_x": "3694986.2415",
    "final_y": "558472.93942",
    "longitude": "-90.0245137092255",
    "latitude": "30.02919005351294",
    "geocoded_column": {
      "latitude": "30.02919005351294",
      "longitude": "-90.0245137092255"
    }
  },
  {
    "service_request": "2022-893563",
    "request_type": "Traffic Signals/Signs/Striping/Streetlights",
    "request_reason": "Traffic Signal Malfunctioning/Damaged",
    "date_created": "2022-06-21T16:09:14.000",
    "date_modified": "2022-06-21T16:09:14.000",
    "request_status": "Pending",
    "responsible_agency": "Department of Public Works",
    "final_address": "3035 Paris Ave Ste A",
    "address_councildis": "D",
    "status": "Pending",
    "rowid": "893563",
    "final_x": "3679911.7965",
    "final_y": "543594.471566",
    "longitude": "-90.07266581902851",
    "latitude": "29.98874444858038",
    "geocoded_column": {
      "latitude": "29.98874444858038",
      "longitude": "-90.07266581902851"
    }
  },
  {
    "service_request": "2022-893561",
    "request_type": "Trash/Recycling",
    "request_reason": "Order Trash Cart",
    "date_created": "2022-06-21T16:06:47.000",
    "date_modified": "2022-06-21T16:06:47.000",
    "request_status": "Pending",
    "responsible_agency": "Department of Sanitation",
    "final_address": "1541 N Robertson St",
    "address_councildis": "C",
    "status": "Assigned to Contractor",
    "contractor": "Metro Disposal",
    "rowid": "893561",
    "final_x": "3682213.69276",
    "final_y": "537235.386824",
    "longitude": "-90.06561707204524",
    "latitude": "29.97118934908894",
    "geocoded_column": {
      "latitude": "29.97118934908894",
      "longitude": "-90.06561707204524"
    }
  },
  {
    "service_request": "2022-893560",
    "request_type": "Trash/Recycling",
    "request_reason": "Request a Large Item Pick Up",
    "date_created": "2022-06-21T16:05:05.000",
    "date_modified": "2022-06-21T16:05:06.000",
    "request_status": "Pending",
    "responsible_agency": "Department of Sanitation",
    "final_address": "5902 Colbert St",
    "address_councildis": "A",
    "status": "Assigned to Contractor",
    "contractor": "Metro Disposal",
    "rowid": "893560",
    "final_x": "3667312.27457",
    "final_y": "546779.513553",
    "longitude": "-90.11235677045018",
    "latitude": "29.997877367110696",
    "geocoded_column": {
      "latitude": "29.997877367110696",
      "longitude": "-90.11235677045018"
    }
  },
  {
    "service_request": "2022-893559",
    "request_type": "Trash/Recycling",
    "request_reason": "Replace Trash Cart",
    "date_created": "2022-06-21T16:03:29.000",
    "date_modified": "2022-06-21T16:03:39.000",
    "request_status": "Pending",
    "responsible_agency": "Department of Sanitation",
    "final_address": "2223 Dauphine St",
    "address_councildis": "C",
    "status": "Assigned to Contractor",
    "contractor": "Metro Disposal",
    "rowid": "893559",
    "final_x": "3685336.01244",
    "final_y": "535278.66407",
    "longitude": "-90.05582527537715",
    "latitude": "29.965713687046797",
    "geocoded_column": {
      "latitude": "29.965713687046797",
      "longitude": "-90.05582527537715"
    }
  },
  {
    "service_request": "2022-893558",
    "request_type": "Trash/Recycling",
    "request_reason": "Request a Large Item Pick Up",
    "date_created": "2022-06-21T16:00:35.000",
    "date_modified": "2022-06-21T16:00:35.000",
    "request_status": "Pending",
    "responsible_agency": "Department of Sanitation",
    "final_address": "213 Chartres St",
    "address_councildis": "C",
    "status": "Assigned to Contractor",
    "contractor": "Empire Services",
    "rowid": "893558",
    "final_x": "3681773.10735",
    "final_y": "530896.572162",
    "longitude": "-90.06722969927763",
    "latitude": "29.953773172554495",
    "geocoded_column": {
      "latitude": "29.953773172554495",
      "longitude": "-90.06722969927763"
    }
  },
  {
    "service_request": "2022-893557",
    "request_type": "Trash/Recycling",
    "request_reason": "Start Trash Service",
    "date_created": "2022-06-21T15:59:58.000",
    "date_modified": "2022-06-21T15:59:59.000",
    "request_status": "Pending",
    "responsible_agency": "Department of Sanitation",
    "final_address": "2730 Mexico St",
    "address_councildis": "D",
    "status": "Assigned to Contractor",
    "contractor": "Metro Disposal",
    "rowid": "893557",
    "final_x": "3687349.71855",
    "final_y": "556414.91337",
    "longitude": "-90.04871776817535",
    "latitude": "30.023768881407925",
    "geocoded_column": {
      "latitude": "30.023768881407925",
      "longitude": "-90.04871776817535"
    }
  },
  {
    "service_request": "2022-893556",
    "request_type": "Trash/Recycling",
    "request_reason": "Order Recycling Cart",
    "date_created": "2022-06-21T15:59:49.000",
    "date_modified": "2022-06-21T15:59:50.000",
    "request_status": "Pending",
    "responsible_agency": "Department of Sanitation",
    "final_address": "2730 Mexico St",
    "address_councildis": "D",
    "status": "Pending",
    "rowid": "893556",
    "final_x": "3687349.71855",
    "final_y": "556414.91337",
    "longitude": "-90.04871776817535",
    "latitude": "30.023768881407925",
    "geocoded_column": {
      "latitude": "30.023768881407925",
      "longitude": "-90.04871776817535"
    }
  },
  {
    "service_request": "2022-893555",
    "request_type": "Trash/Recycling",
    "request_reason": "Illegal Dumping",
    "date_created": "2022-06-21T15:59:25.000",
    "date_modified": "2022-06-21T15:59:25.000",
    "request_status": "Pending",
    "responsible_agency": "Department of Sanitation",
    "final_address": "3300 BLK Leonidas St",
    "address_councildis": "A",
    "status": "Pending",
    "rowid": "893555",
    "final_x": "3665814.02365",
    "final_y": "535242.204566",
    "longitude": "-90.1174764687422",
    "latitude": "29.966197465168037",
    "geocoded_column": {
      "latitude": "29.966197465168037",
      "longitude": "-90.1174764687422"
    }
  },
  {
    "service_request": "2022-893554",
    "request_type": "Trash/Recycling",
    "request_reason": "Order Trash Cart",
    "date_created": "2022-06-21T15:59:15.000",
    "date_modified": "2022-06-21T15:59:15.000",
    "request_status": "Pending",
    "responsible_agency": "Department of Sanitation",
    "final_address": "2730 Mexico St",
    "address_councildis": "D",
    "status": "Assigned to Contractor",
    "contractor": "Metro Disposal",
    "rowid": "893554",
    "final_x": "3687349.71855",
    "final_y": "556414.91337",
    "longitude": "-90.04871776817535",
    "latitude": "30.023768881407925",
    "geocoded_column": {
      "latitude": "30.023768881407925",
      "longitude": "-90.04871776817535"
    }
  },
  {
    "service_request": "2022-893553",
    "request_type": "Trash/Recycling",
    "request_reason": "Request a Large Item Pick Up",
    "date_created": "2022-06-21T15:56:19.000",
    "date_modified": "2022-06-21T15:56:19.000",
    "request_status": "Pending",
    "responsible_agency": "Department of Sanitation",
    "final_address": "6018 Catina St",
    "address_councildis": "A",
    "status": "Assigned to Contractor",
    "contractor": "Metro Disposal",
    "rowid": "893553",
    "final_x": "3666706.56269",
    "final_y": "547779.563922",
    "longitude": "-90.11423659902215",
    "latitude": "30.000644894264685",
    "geocoded_column": {
      "latitude": "30.000644894264685",
      "longitude": "-90.11423659902215"
    }
  },
  {
    "service_request": "2022-893552",
    "request_type": "Trash/Recycling",
    "request_reason": "Request a Large Item Pick Up",
    "date_created": "2022-06-21T15:56:19.000",
    "date_modified": "2022-06-21T15:56:19.000",
    "request_status": "Pending",
    "responsible_agency": "Department of Sanitation",
    "final_address": "6018 Catina St",
    "address_councildis": "A",
    "status": "Assigned to Contractor",
    "contractor": "Metro Disposal",
    "rowid": "893552",
    "final_x": "3666706.56269",
    "final_y": "547779.563922",
    "longitude": "-90.11423659902215",
    "latitude": "30.000644894264685",
    "geocoded_column": {
      "latitude": "30.000644894264685",
      "longitude": "-90.11423659902215"
    }
  },
  {
    "service_request": "2022-893551",
    "request_type": "Trash/Recycling",
    "request_reason": "Illegal Dumping",
    "date_created": "2022-06-21T15:55:47.000",
    "date_modified": "2022-06-21T15:55:47.000",
    "request_status": "Pending",
    "responsible_agency": "Department of Sanitation",
    "final_address": "9000 BLK Hickory St",
    "address_councildis": "A",
    "status": "Pending",
    "rowid": "893551",
    "final_x": "3660898.46262",
    "final_y": "532189.554831",
    "longitude": "-90.13310076760577",
    "latitude": "29.957946174879837",
    "geocoded_column": {
      "latitude": "29.957946174879837",
      "longitude": "-90.13310076760577"
    }
  },
  {
    "service_request": "2022-893550",
    "request_type": "Trash/Recycling",
    "request_reason": "Request a Large Item Pick Up",
    "date_created": "2022-06-21T15:54:44.000",
    "date_modified": "2022-06-21T15:54:45.000",
    "request_status": "Pending",
    "responsible_agency": "Department of Sanitation",
    "final_address": "2108 Dumaine St",
    "address_councildis": "D",
    "status": "Assigned to Contractor",
    "contractor": "Richards Disposal",
    "rowid": "893550",
    "final_x": "3678969.6189",
    "final_y": "536084.310087",
    "longitude": "-90.07590219390661",
    "latitude": "29.968122572139624",
    "geocoded_column": {
      "latitude": "29.968122572139624",
      "longitude": "-90.07590219390661"
    }
  },
  {
    "service_request": "2022-893549",
    "request_type": "Roads/Drainage",
    "request_reason": "Accessibility Ramps, Curbs and Sidewalk Repair",
    "date_created": "2022-06-21T15:54:30.000",
    "date_modified": "2022-06-21T15:54:30.000",
    "request_status": "Pending",
    "responsible_agency": "Department of Public Works",
    "final_address": "511 Aurora Dr",
    "address_councildis": "C",
    "status": "Pending",
    "rowid": "893549",
    "final_x": "3706993.1324",
    "final_y": "519491.794871",
    "longitude": "-89.98801880465413",
    "latitude": "29.921623730010836",
    "geocoded_column": {
      "latitude": "29.921623730010836",
      "longitude": "-89.98801880465413"
    }
  },
  {
    "service_request": "2022-893548",
    "request_type": "Trash/Recycling",
    "request_reason": "Illegal Dumping",
    "date_created": "2022-06-21T15:53:35.000",
    "date_modified": "2022-06-21T15:53:35.000",
    "request_status": "Pending",
    "responsible_agency": "Department of Sanitation",
    "final_address": "7911 Bullard Ave",
    "address_councildis": "E",
    "status": "Pending",
    "rowid": "893548",
    "final_x": "3712727.83755",
    "final_y": "568643.966117",
    "longitude": "-89.96806838311304",
    "latitude": "30.056587131432813",
    "geocoded_column": {
      "latitude": "30.056587131432813",
      "longitude": "-89.96806838311304"
    }
  },
  {
    "service_request": "2022-893547",
    "request_type": "Trash/Recycling",
    "request_reason": "Illegal Dumping",
    "date_created": "2022-06-21T15:51:44.000",
    "date_modified": "2022-06-21T15:52:17.000",
    "request_status": "Pending",
    "responsible_agency": "Department of Sanitation",
    "final_address": "7715 Bullard Ave",
    "address_councildis": "E",
    "status": "Pending",
    "rowid": "893547",
    "final_x": "3712855.3123",
    "final_y": "567896.983909",
    "longitude": "-89.96769359983794",
    "latitude": "30.054529058965866",
    "geocoded_column": {
      "latitude": "30.054529058965866",
      "longitude": "-89.96769359983794"
    }
  },
  {
    "service_request": "2022-893546",
    "request_type": "Trash/Recycling",
    "request_reason": "Missed Trash Pick-Up",
    "date_created": "2022-06-21T15:50:58.000",
    "date_modified": "2022-06-21T15:50:59.000",
    "request_status": "Pending",
    "responsible_agency": "Department of Sanitation",
    "final_address": "12701 Patterson Rd",
    "address_councildis": "C",
    "status": "Assigned to Contractor",
    "contractor": "Richards Disposal",
    "rowid": "893546",
    "final_x": "3730664.64634",
    "final_y": "511012.28344",
    "longitude": "-89.91363091095134",
    "latitude": "29.897522757048815",
    "geocoded_column": {
      "latitude": "29.897522757048815",
      "longitude": "-89.91363091095134"
    }
  },
  {
    "service_request": "2022-893545",
    "request_type": "Abandoned Vehicles",
    "request_reason": "Abandoned/Junk Vehicles",
    "date_created": "2022-06-21T15:50:29.000",
    "date_modified": "2022-06-21T15:51:23.000",
    "request_status": "Pending",
    "responsible_agency": "Department of Public Works",
    "final_address": "4900 Freret St",
    "address_councildis": "B",
    "status": "Pending",
    "rowid": "893545",
    "final_x": "3669121.15393",
    "final_y": "523876.313276",
    "longitude": "-90.1074166069258",
    "latitude": "29.93484807493568",
    "geocoded_column": {
      "latitude": "29.93484807493568",
      "longitude": "-90.1074166069258"
    }
  },
  {
    "service_request": "2022-893544",
    "request_type": "Trash/Recycling",
    "request_reason": "Replace Trash Cart",
    "date_created": "2022-06-21T15:50:10.000",
    "date_modified": "2022-06-21T15:50:10.000",
    "request_status": "Pending",
    "responsible_agency": "Department of Sanitation",
    "final_address": "2038 Sumpter St",
    "address_councildis": "D",
    "status": "Assigned to Contractor",
    "contractor": "Metro Disposal",
    "rowid": "893544",
    "final_x": "3682861.52469",
    "final_y": "549390.548243",
    "longitude": "-90.06314559776571",
    "latitude": "30.00459202709674",
    "geocoded_column": {
      "latitude": "30.00459202709674",
      "longitude": "-90.06314559776571"
    }
  },
  {
    "service_request": "2022-893543",
    "request_type": "Trash/Recycling",
    "request_reason": "Illegal Dumping",
    "date_created": "2022-06-21T15:47:36.000",
    "date_modified": "2022-06-21T15:47:36.000",
    "request_status": "Pending",
    "responsible_agency": "Department of Sanitation",
    "final_address": "1800 Franklin Ave",
    "address_councildis": "D",
    "status": "Pending",
    "rowid": "893543",
    "final_x": "3687636.8847",
    "final_y": "539138.643722",
    "longitude": "-90.04842253298656",
    "latitude": "29.976256542458966",
    "geocoded_column": {
      "latitude": "29.976256542458966",
      "longitude": "-90.04842253298656"
    }
  },
  {
    "service_request": "2022-893541",
    "request_type": "Trash/Recycling",
    "request_reason": "Request a Large Item Pick Up",
    "date_created": "2022-06-21T15:43:40.000",
    "date_modified": "2022-06-21T15:43:41.000",
    "request_status": "Pending",
    "responsible_agency": "Department of Sanitation",
    "final_address": "1426 St Bernard Ave",
    "address_councildis": "C",
    "status": "Assigned to Contractor",
    "contractor": "Metro Disposal",
    "rowid": "893541",
    "final_x": "3682430.39996",
    "final_y": "537299.1426",
    "longitude": "-90.06493045292532",
    "latitude": "29.971358061141515",
    "geocoded_column": {
      "latitude": "29.971358061141515",
      "longitude": "-90.06493045292532"
    }
  },
  {
    "service_request": "2022-893540",
    "request_type": "Trash/Recycling",
    "request_reason": "Replace Trash Cart",
    "date_created": "2022-06-21T15:38:20.000",
    "date_modified": "2022-06-21T15:38:21.000",
    "request_status": "Pending",
    "responsible_agency": "Department of Sanitation",
    "final_address": "1401 L. B. Landry Ave",
    "address_councildis": "C",
    "status": "Assigned to Contractor",
    "contractor": "Richards Disposal",
    "rowid": "893540",
    "final_x": "3690003.42928",
    "final_y": "526299.789758",
    "longitude": "-90.04140549283709",
    "latitude": "29.940880973645317",
    "geocoded_column": {
      "latitude": "29.940880973645317",
      "longitude": "-90.04140549283709"
    }
  },
  {
    "service_request": "2022-893539",
    "request_type": "Property Maintenance",
    "request_reason": "Property Maintenance",
    "date_created": "2022-06-21T15:37:53.000",
    "date_modified": "2022-06-21T15:37:54.000",
    "request_status": "Pending",
    "responsible_agency": "Department of Code Enforcement",
    "final_address": "1247 Seville Dr",
    "address_councildis": "D",
    "status": "Pending",
    "rowid": "893539",
    "final_x": "3677156.68494",
    "final_y": "551192.452053",
    "longitude": "-90.08110609418276",
    "latitude": "30.009719272255428",
    "geocoded_column": {
      "latitude": "30.009719272255428",
      "longitude": "-90.08110609418276"
    }
  },
  {
    "service_request": "2022-893538",
    "request_type": "Trash/Recycling",
    "request_reason": "Replace Trash Cart",
    "date_created": "2022-06-21T15:37:21.000",
    "date_modified": "2022-06-21T15:37:22.000",
    "request_status": "Pending",
    "responsible_agency": "Department of Sanitation",
    "final_address": "2500 Cleveland Ave",
    "address_councildis": "B",
    "status": "Assigned to Contractor",
    "contractor": "Richards Disposal",
    "rowid": "893538",
    "final_x": "3675803.45973",
    "final_y": "534134.090885",
    "longitude": "-90.0859681055459",
    "latitude": "29.96285528611645",
    "geocoded_column": {
      "latitude": "29.96285528611645",
      "longitude": "-90.0859681055459"
    }
  },
  {
    "service_request": "2022-893535",
    "request_type": "Property Maintenance",
    "request_reason": "Property Maintenance",
    "date_created": "2022-06-21T15:33:13.000",
    "date_modified": "2022-06-21T15:33:14.000",
    "request_status": "Pending",
    "responsible_agency": "Department of Code Enforcement",
    "final_address": "4634 Haydel St",
    "address_councildis": "E",
    "status": "Pending",
    "rowid": "893535",
    "final_x": "3699013.40759",
    "final_y": "553863.646231",
    "longitude": "-90.01195601481618",
    "latitude": "30.016389159855887",
    "geocoded_column": {
      "latitude": "30.016389159855887",
      "longitude": "-90.01195601481618"
    }
  },
  {
    "service_request": "2022-893534",
    "request_type": "Trash/Recycling",
    "request_reason": "Request a Large Item Pick Up",
    "date_created": "2022-06-21T15:32:00.000",
    "date_modified": "2022-06-21T15:32:03.000",
    "request_status": "Pending",
    "responsible_agency": "Department of Sanitation",
    "final_address": "4223 Hollygrove St",
    "address_councildis": "A",
    "status": "Assigned to Contractor",
    "contractor": "Richards Disposal",
    "rowid": "893534",
    "final_x": "3666931.61229",
    "final_y": "538498.310345",
    "longitude": "-90.1138376978801",
    "latitude": "29.97511801675099",
    "geocoded_column": {
      "latitude": "29.97511801675099",
      "longitude": "-90.1138376978801"
    }
  },
  {
    "service_request": "2022-893533",
    "request_type": "Property Maintenance",
    "request_reason": "Property Maintenance",
    "date_created": "2022-06-21T15:31:10.000",
    "date_modified": "2022-06-21T15:31:11.000",
    "request_status": "Pending",
    "responsible_agency": "Department of Code Enforcement",
    "final_address": "4614 Haydel St",
    "address_councildis": "E",
    "status": "Pending",
    "rowid": "893533",
    "final_x": "3699018.33412",
    "final_y": "553813.789079",
    "longitude": "-90.01194226581538",
    "latitude": "30.016251915366677",
    "geocoded_column": {
      "latitude": "30.016251915366677",
      "longitude": "-90.01194226581538"
    }
  },
  {
    "service_request": "2022-893532",
    "request_type": "Trash/Recycling",
    "request_reason": "Missed Trash Pick-Up",
    "date_created": "2022-06-21T15:26:26.000",
    "date_modified": "2022-06-21T15:26:27.000",
    "request_status": "Pending",
    "responsible_agency": "Department of Sanitation",
    "final_address": "2041 Upperline St",
    "address_councildis": "B",
    "status": "Assigned to Contractor",
    "contractor": "Richards Disposal",
    "rowid": "893532",
    "final_x": "3669139.60647",
    "final_y": "522392.693754",
    "longitude": "-90.10740846359799",
    "latitude": "29.930768053782995",
    "geocoded_column": {
      "latitude": "29.930768053782995",
      "longitude": "-90.10740846359799"
    }
  },
  {
    "service_request": "2022-893531",
    "request_type": "Traffic Signals/Signs/Striping/Streetlights",
    "request_reason": "Street Light Outage/Malfunction",
    "date_created": "2022-06-21T15:12:29.000",
    "date_modified": "2022-06-21T15:12:31.000",
    "request_status": "Pending",
    "responsible_agency": "Department of Public Works",
    "final_address": "143 40Th St",
    "address_councildis": "A",
    "status": "Pending",
    "contractor": "Royal Engineering",
    "rowid": "893531",
    "final_x": "3666032.90157",
    "final_y": "553353.260567",
    "longitude": "-90.11617771347207",
    "latitude": "30.01599031182481",
    "geocoded_column": {
      "latitude": "30.01599031182481",
      "longitude": "-90.11617771347207"
    }
  },
  {
    "service_request": "2022-893530",
    "request_type": "Trash/Recycling",
    "request_reason": "Replace Trash Cart",
    "date_created": "2022-06-21T15:11:11.000",
    "date_modified": "2022-06-21T15:11:12.000",
    "request_status": "Pending",
    "responsible_agency": "Department of Sanitation",
    "final_address": "4700 Wright Rd",
    "address_councildis": "E",
    "status": "Assigned to Contractor",
    "contractor": "Metro Disposal",
    "rowid": "893530",
    "final_x": "3716592.25036",
    "final_y": "556772.371162",
    "longitude": "-89.95630468047777",
    "latitude": "30.023817886241787",
    "geocoded_column": {
      "latitude": "30.023817886241787",
      "longitude": "-89.95630468047777"
    }
  },
  {
    "service_request": "2022-893529",
    "request_type": "Roads/Drainage",
    "request_reason": "Catch Basin - Broken/Damage",
    "date_created": "2022-06-21T15:10:32.000",
    "date_modified": "2022-06-21T15:10:33.000",
    "request_status": "Pending",
    "responsible_agency": "Department of Public Works",
    "final_address": "4700 Wright Rd",
    "address_councildis": "E",
    "status": "Pending",
    "rowid": "893529",
    "final_x": "3716592.25036",
    "final_y": "556772.371162",
    "longitude": "-89.95630468047777",
    "latitude": "30.023817886241787",
    "geocoded_column": {
      "latitude": "30.023817886241787",
      "longitude": "-89.95630468047777"
    }
  },
  {
    "service_request": "2022-893528",
    "request_type": "Property Maintenance",
    "request_reason": "Property Maintenance",
    "date_created": "2022-06-21T15:10:30.000",
    "date_modified": "2022-06-21T15:10:30.000",
    "request_status": "Pending",
    "responsible_agency": "Department of Code Enforcement",
    "final_address": "1236 N Rampart St",
    "address_councildis": "C",
    "status": "Pending",
    "rowid": "893528",
    "final_x": "3682747.4893",
    "final_y": "534803.014726",
    "longitude": "-90.06401636700578",
    "latitude": "29.964484915266773",
    "geocoded_column": {
      "latitude": "29.964484915266773",
      "longitude": "-90.06401636700578"
    }
  },
  {
    "service_request": "2022-893527",
    "request_type": "Traffic Signals/Signs/Striping/Streetlights",
    "request_reason": "Street Light Outage/Malfunction",
    "date_created": "2022-06-21T15:09:51.000",
    "date_modified": "2022-06-21T15:09:51.000",
    "request_status": "Pending",
    "responsible_agency": "Department of Public Works",
    "final_address": "7236 Gem St",
    "address_councildis": "D",
    "status": "Pending",
    "contractor": "Royal Engineering",
    "rowid": "893527",
    "final_x": "3669728.18606",
    "final_y": "555216.223129",
    "longitude": "-90.10443909728616",
    "latitude": "30.021004348646404",
    "geocoded_column": {
      "latitude": "30.021004348646404",
      "longitude": "-90.10443909728616"
    }
  },
  {
    "service_request": "2022-893526",
    "request_type": "Parks & Parkways",
    "request_reason": "Request Tree Service (Right of Way/Public Property)",
    "date_created": "2022-06-21T15:09:37.000",
    "date_modified": "2022-06-21T15:24:29.000",
    "case_close_date": "2022-06-20T19:00:00.000",
    "request_status": "Closed",
    "responsible_agency": "Department of Parks & Parkway",
    "final_address": "4700 Wright Rd",
    "address_councildis": "E",
    "status": "Duplicate Request",
    "rowid": "893526",
    "final_x": "3716592.25036",
    "final_y": "556772.371162",
    "longitude": "-89.95630468047777",
    "latitude": "30.023817886241787",
    "geocoded_column": {
      "latitude": "30.023817886241787",
      "longitude": "-89.95630468047777"
    }
  },
  {
    "service_request": "2022-893525",
    "request_type": "Traffic Signals/Signs/Striping/Streetlights",
    "request_reason": "Street Light Outage/Malfunction",
    "date_created": "2022-06-21T15:09:36.000",
    "date_modified": "2022-06-21T15:09:36.000",
    "request_status": "Pending",
    "responsible_agency": "Department of Public Works",
    "final_address": "7236 Gem St",
    "address_councildis": "D",
    "status": "Pending",
    "contractor": "Royal Engineering",
    "rowid": "893525",
    "final_x": "3669728.18606",
    "final_y": "555216.223129",
    "longitude": "-90.10443909728616",
    "latitude": "30.021004348646404",
    "geocoded_column": {
      "latitude": "30.021004348646404",
      "longitude": "-90.10443909728616"
    }
  },
  {
    "service_request": "2022-893524",
    "request_type": "Abandoned Vehicles",
    "request_reason": "Abandoned/Junk Vehicles",
    "date_created": "2022-06-21T15:09:17.000",
    "date_modified": "2022-06-21T15:09:17.000",
    "request_status": "Pending",
    "responsible_agency": "Department of Public Works",
    "final_address": "Mouton St & General Haig St, New Orleans, Louisiana, 70124",
    "address_councildis": "A",
    "status": "Pending",
    "rowid": "893524",
    "final_x": "3671078.4",
    "final_y": "553142.68",
    "longitude": "-90.10024330385494",
    "latitude": "30.01526295734071",
    "geocoded_column": {
      "latitude": "30.01526295734071",
      "longitude": "-90.10024330385494"
    }
  },
  {
    "service_request": "2022-893523",
    "request_type": "Parks & Parkways",
    "request_reason": "Request Tree Service (Right of Way/Public Property)",
    "date_created": "2022-06-21T15:08:32.000",
    "date_modified": "2022-06-21T15:08:33.000",
    "request_status": "Pending",
    "responsible_agency": "Department of Parks & Parkway",
    "final_address": "4700 Wright Rd",
    "address_councildis": "E",
    "status": "Pending",
    "rowid": "893523",
    "final_x": "3716592.25036",
    "final_y": "556772.371162",
    "longitude": "-89.95630468047777",
    "latitude": "30.023817886241787",
    "geocoded_column": {
      "latitude": "30.023817886241787",
      "longitude": "-89.95630468047777"
    }
  },
  {
    "service_request": "2022-893522",
    "request_type": "Traffic Signals/Signs/Striping/Streetlights",
    "request_reason": "Street Light Outage/Malfunction",
    "date_created": "2022-06-21T15:08:08.000",
    "date_modified": "2022-06-21T15:08:09.000",
    "request_status": "Pending",
    "responsible_agency": "Department of Public Works",
    "final_address": "7236 Gem St",
    "address_councildis": "D",
    "status": "Pending",
    "contractor": "Royal Engineering",
    "rowid": "893522",
    "final_x": "3669728.18606",
    "final_y": "555216.223129",
    "longitude": "-90.10443909728616",
    "latitude": "30.021004348646404",
    "geocoded_column": {
      "latitude": "30.021004348646404",
      "longitude": "-90.10443909728616"
    }
  },
  {
    "service_request": "2022-893521",
    "request_type": "Traffic Signals/Signs/Striping/Streetlights",
    "request_reason": "Street Light Outage/Malfunction",
    "date_created": "2022-06-21T15:06:20.000",
    "date_modified": "2022-06-21T15:06:20.000",
    "request_status": "Pending",
    "responsible_agency": "Department of Public Works",
    "final_address": "7236 Gem St",
    "address_councildis": "D",
    "status": "Pending",
    "contractor": "Royal Engineering",
    "rowid": "893521",
    "final_x": "3669728.18606",
    "final_y": "555216.223129",
    "longitude": "-90.10443909728616",
    "latitude": "30.021004348646404",
    "geocoded_column": {
      "latitude": "30.021004348646404",
      "longitude": "-90.10443909728616"
    }
  },
  {
    "service_request": "2022-893520",
    "request_type": "Roads/Drainage",
    "request_reason": "Pothole",
    "date_created": "2022-06-21T15:01:54.000",
    "date_modified": "2022-06-21T15:01:54.000",
    "request_status": "Pending",
    "responsible_agency": "Department of Public Works",
    "final_address": "1155 Eagle St",
    "address_councildis": "A",
    "status": "Pending",
    "rowid": "893520",
    "final_x": "3660102.93216",
    "final_y": "529810.155969",
    "longitude": "-90.13569137375498",
    "latitude": "29.951426481453346",
    "geocoded_column": {
      "latitude": "29.951426481453346",
      "longitude": "-90.13569137375498"
    }
  },
  {
    "service_request": "2022-893519",
    "request_type": "Trash/Recycling",
    "request_reason": "Request a Large Item Pick Up",
    "date_created": "2022-06-21T14:56:30.000",
    "date_modified": "2022-06-21T14:56:31.000",
    "request_status": "Pending",
    "responsible_agency": "Department of Sanitation",
    "final_address": "5101 Chamberlain Dr",
    "address_councildis": "D",
    "status": "Assigned to Contractor",
    "contractor": "Metro Disposal",
    "rowid": "893519",
    "final_x": "3679769.37327",
    "final_y": "551011.612501",
    "longitude": "-90.07285796658691",
    "latitude": "30.00914326016941",
    "geocoded_column": {
      "latitude": "30.00914326016941",
      "longitude": "-90.07285796658691"
    }
  },
  {
    "service_request": "2022-893518",
    "request_type": "Trash/Recycling",
    "request_reason": "Missed Trash Pick-Up",
    "date_created": "2022-06-21T14:56:19.000",
    "date_modified": "2022-06-21T14:56:20.000",
    "request_status": "Pending",
    "responsible_agency": "Department of Sanitation",
    "final_address": "2106 Josephine St",
    "address_councildis": "B",
    "status": "Assigned to Contractor",
    "contractor": "Richards Disposal",
    "rowid": "893518",
    "final_x": "3676685.79521",
    "final_y": "525489.721405",
    "longitude": "-90.08347955792952",
    "latitude": "29.939059711402567",
    "geocoded_column": {
      "latitude": "29.939059711402567",
      "longitude": "-90.08347955792952"
    }
  },
  {
    "service_request": "2022-893516",
    "request_type": "Trash/Recycling",
    "request_reason": "Replace Trash Cart",
    "date_created": "2022-06-21T14:54:35.000",
    "date_modified": "2022-06-21T14:54:36.000",
    "request_status": "Pending",
    "responsible_agency": "Department of Sanitation",
    "final_address": "2422 Audubon St",
    "address_councildis": "A",
    "status": "Assigned to Contractor",
    "contractor": "Richards Disposal",
    "rowid": "893516",
    "final_x": "3666966.69095",
    "final_y": "530208.411841",
    "longitude": "-90.11400551823122",
    "latitude": "29.95232250773626",
    "geocoded_column": {
      "latitude": "29.95232250773626",
      "longitude": "-90.11400551823122"
    }
  },
  {
    "service_request": "2022-893515",
    "request_type": "Trash/Recycling",
    "request_reason": "Replace Trash Cart",
    "date_created": "2022-06-21T14:53:38.000",
    "date_modified": "2022-06-21T14:55:07.000",
    "request_status": "Pending",
    "responsible_agency": "Department of Sanitation",
    "final_address": "2422 Audubon St",
    "address_councildis": "A",
    "status": "Assigned to Contractor",
    "contractor": "Richards Disposal",
    "rowid": "893515",
    "final_x": "3666966.69095",
    "final_y": "530208.411841",
    "longitude": "-90.11400551823122",
    "latitude": "29.95232250773626",
    "geocoded_column": {
      "latitude": "29.95232250773626",
      "longitude": "-90.11400551823122"
    }
  },
  {
    "service_request": "2022-893514",
    "request_type": "Traffic Signals/Signs/Striping/Streetlights",
    "request_reason": "Street Light Outage/Malfunction",
    "date_created": "2022-06-21T14:50:18.000",
    "date_modified": "2022-06-21T14:50:18.000",
    "request_status": "Pending",
    "responsible_agency": "Department of Public Works",
    "final_address": "6719 Milne Blvd",
    "address_councildis": "A",
    "status": "Pending",
    "contractor": "Royal Engineering",
    "rowid": "893514",
    "final_x": "3667611.67079",
    "final_y": "552295.027734",
    "longitude": "-90.11122514868262",
    "latitude": "30.013034336956363",
    "geocoded_column": {
      "latitude": "30.013034336956363",
      "longitude": "-90.11122514868262"
    }
  },
  {
    "service_request": "2022-893513",
    "request_type": "Traffic Signals/Signs/Striping/Streetlights",
    "request_reason": "Street Light Outage/Malfunction",
    "date_created": "2022-06-21T14:49:09.000",
    "date_modified": "2022-06-21T14:49:10.000",
    "request_status": "Pending",
    "responsible_agency": "Department of Public Works",
    "final_address": "3310 River Oaks Dr",
    "address_councildis": "C",
    "status": "Pending",
    "contractor": "Royal Engineering",
    "rowid": "893513",
    "final_x": "3701489.45412",
    "final_y": "518980.871095",
    "longitude": "-90.00541011244668",
    "latitude": "29.920395395655234",
    "geocoded_column": {
      "latitude": "29.920395395655234",
      "longitude": "-90.00541011244668"
    }
  },
  {
    "service_request": "2022-893512",
    "request_type": "Trash/Recycling",
    "request_reason": "Missed Trash Pick-Up",
    "date_created": "2022-06-21T14:46:34.000",
    "date_modified": "2022-06-21T16:20:54.000",
    "request_status": "Pending",
    "responsible_agency": "Department of Sanitation",
    "final_address": "1611 N Roman St, New Orleans, Louisiana, 70116",
    "address_councildis": "D",
    "status": "Assigned to Contractor",
    "contractor": "Metro Disposal",
    "rowid": "893512",
    "final_x": "3681650.91144",
    "final_y": "538337.063369",
    "longitude": "-90.0673559706798",
    "latitude": "29.974235686958625",
    "geocoded_column": {
      "latitude": "29.974235686958625",
      "longitude": "-90.0673559706798"
    }
  },
  {
    "service_request": "2022-893511",
    "request_type": "Traffic Signals/Signs/Striping/Streetlights",
    "request_reason": "Additional signage",
    "date_created": "2022-06-21T14:46:18.000",
    "date_modified": "2022-06-21T14:46:18.000",
    "request_status": "Pending",
    "responsible_agency": "Department of Public Works",
    "final_address": "DWYER RD & CHANTILLY DR",
    "address_councildis": "E",
    "status": "Pending",
    "rowid": "893511",
    "final_x": "3700741.4",
    "final_y": "555702.38",
    "longitude": "-90.00642906608365",
    "latitude": "30.02139007068011",
    "geocoded_column": {
      "latitude": "30.02139007068011",
      "longitude": "-90.00642906608365"
    }
  },
  {
    "service_request": "2022-893510",
    "request_type": "Traffic Signals/Signs/Striping/Streetlights",
    "request_reason": "Additional signage",
    "date_created": "2022-06-21T14:45:51.000",
    "date_modified": "2022-06-21T14:45:51.000",
    "request_status": "Pending",
    "responsible_agency": "Department of Public Works",
    "final_address": "CHEF MENTEUR HWY & CHANTILLY DR",
    "address_councildis": "E",
    "status": "Pending",
    "rowid": "893510",
    "final_x": "3700963.5",
    "final_y": "552101.28",
    "longitude": "-90.00585911693433",
    "latitude": "30.011481342826563",
    "geocoded_column": {
      "latitude": "30.011481342826563",
      "longitude": "-90.00585911693433"
    }
  },
  {
    "service_request": "2022-893509",
    "request_type": "Traffic Signals/Signs/Striping/Streetlights",
    "request_reason": "Additional signage",
    "date_created": "2022-06-21T14:44:58.000",
    "date_modified": "2022-06-21T14:44:58.000",
    "request_status": "Pending",
    "responsible_agency": "Department of Public Works",
    "final_address": "DWYER RD & LAFON DR",
    "address_councildis": "E",
    "status": "Pending",
    "rowid": "893509",
    "final_x": "3701014.8",
    "final_y": "555735.18",
    "longitude": "-90.00556400184995",
    "latitude": "30.02147154989782",
    "geocoded_column": {
      "latitude": "30.02147154989782",
      "longitude": "-90.00556400184995"
    }
  },
  {
    "service_request": "2022-893508",
    "request_type": "Trash/Recycling",
    "request_reason": "Missed Trash Pick-Up",
    "date_created": "2022-06-21T14:44:29.000",
    "date_modified": "2022-06-21T14:44:30.000",
    "request_status": "Pending",
    "responsible_agency": "Department of Sanitation",
    "final_address": "1568 N Roman St, New Orleans, Louisiana, 70116",
    "address_councildis": "D",
    "status": "Assigned to Contractor",
    "contractor": "Metro Disposal",
    "rowid": "893508",
    "final_x": "3681532.19554",
    "final_y": "538067.571657",
    "longitude": "-90.06774030356726",
    "latitude": "29.97349828406359",
    "geocoded_column": {
      "latitude": "29.97349828406359",
      "longitude": "-90.06774030356726"
    }
  },
  {
    "service_request": "2022-893507",
    "request_type": "Traffic Signals/Signs/Striping/Streetlights",
    "request_reason": "Additional signage",
    "date_created": "2022-06-21T14:44:09.000",
    "date_modified": "2022-06-21T14:44:09.000",
    "request_status": "Pending",
    "responsible_agency": "Department of Public Works",
    "final_address": "CHEF MENTEUR HWY & CHANTILLY DR",
    "address_councildis": "E",
    "status": "Pending",
    "rowid": "893507",
    "final_x": "3700963.5",
    "final_y": "552101.28",
    "longitude": "-90.00585911693433",
    "latitude": "30.011481342826563",
    "geocoded_column": {
      "latitude": "30.011481342826563",
      "longitude": "-90.00585911693433"
    }
  },