[
  {
    "service_request": "2025-1194555",
    "request_type": "Streetlights",
    "request_reason": "Streetlight Outage/Malfunction",
    "date_created": "2025-05-22T23:35:45.000",
    "date_modified": "2025-05-22T23:35:47.000",
    "request_status": "Pending",
    "responsible_agency": "Department of Public Works",
    "final_address": "1121 Valence St",
    "address_councildis": "B",
    "status": "Pending",
    "contractor": "Legacy Professional Services",
    "rowid": "1194555",
    "final_x": "3669909.31137",
    "final_y": "519621.00172",
    "longitude": "-90.10507240022332",
    "latitude": "29.923124118629712",
    "geocoded_column": {
      "latitude": "29.923124118629712",
      "longitude": "-90.10507240022332"
    }
  },
  {
    "service_request": "2025-1194554",
    "request_type": "Streetlights",
    "request_reason": "Streetlight Outage/Malfunction",
    "date_created": "2025-05-22T22:29:38.000",
    "date_modified": "2025-05-22T22:29:40.000",
    "request_status": "Pending",
    "responsible_agency": "Department of Public Works",
    "final_address": "1 St Maurice Ave",
    "address_councildis": "E",
    "status": "Pending",
    "contractor": "Legacy Professional Services",
    "rowid": "1194554",
    "final_x": "3700147.36484",
    "final_y": "533716.706565",
    "longitude": "-90.00910887653636",
    "latitude": "29.960956491674477",
    "geocoded_column": {
      "latitude": "29.960956491674477",
      "longitude": "-90.00910887653636"
    }
  },
  {
    "service_request": "2025-1194553",
    "request_type": "Abandoned Vehicles",
    "request_reason": "Abandoned/Junk Vehicles",
    "date_created": "2025-05-22T22:09:40.000",
    "date_modified": "2025-05-22T22:09:42.000",
    "request_status": "Pending",
    "responsible_agency": "Department of Public Works",
    "final_address": "4745 Tulip St, New Orleans, Louisiana, 70126",
    "address_councildis": "E",
    "status": "Pending",
    "rowid": "1194553",
    "final_x": "3702127.19357",
    "final_y": "554346.128024",
    "longitude": "-90.00210015633633",
    "latitude": "30.017616699108352",
    "geocoded_column": {
      "latitude": "30.017616699108352",
      "longitude": "-90.00210015633633"
    }
  },
  {
    "service_request": "2025-1194552",
    "request_type": "Trash/Recycling",
    "request_reason": "Order Trash Cart",
    "date_created": "2025-05-22T22:01:34.000",
    "date_modified": "2025-05-22T22:01:36.000",
    "request_status": "Pending",
    "responsible_agency": "Department of Sanitation",
    "final_address": "4110 Iroquois St",
    "address_councildis": "D",
    "status": "Assigned to Contractor",
    "contractor": "IV Waste",
    "rowid": "1194552",
    "final_x": "3689052.81967",
    "final_y": "548485.869522",
    "longitude": "-90.04361832304882",
    "latitude": "30.00191432478873",
    "geocoded_column": {
      "latitude": "30.00191432478873",
      "longitude": "-90.04361832304882"
    }
  },
  {
    "service_request": "2025-1194551",
    "request_type": "Trash/Recycling",
    "request_reason": "Dead Animal Pick Up",
    "date_created": "2025-05-22T21:51:59.000",
    "date_modified": "2025-05-22T21:52:01.000",
    "request_status": "Pending",
    "responsible_agency": "Department of Sanitation",
    "final_address": "2528 Conti St",
    "address_councildis": "B",
    "status": "Assigned to Contractor",
    "contractor": "IV Waste",
    "rowid": "1194551",
    "final_x": "3676625.42299",
    "final_y": "535552.22055",
    "longitude": "-90.08332359415176",
    "latitude": "29.966730033153635",
    "geocoded_column": {
      "latitude": "29.966730033153635",
      "longitude": "-90.08332359415176"
    }
  },
  {
    "service_request": "2025-1194549",
    "request_type": "Drainage",
    "request_reason": "Catch Basin Clogged",
    "date_created": "2025-05-22T21:40:41.000",
    "date_modified": "2025-05-22T21:40:44.000",
    "request_status": "Pending",
    "responsible_agency": "Sewerage & Water Board",
    "final_address": "6103 Colbert St",
    "address_councildis": "A",
    "status": "Pending",
    "rowid": "1194549",
    "final_x": "3667571.90714",
    "final_y": "548074.559634",
    "longitude": "-90.1114929693629",
    "latitude": "30.00143068691018",
    "geocoded_column": {
      "latitude": "30.00143068691018",
      "longitude": "-90.1114929693629"
    }
  },
  {
    "service_request": "2025-1194548",
    "request_type": "Streetlights",
    "request_reason": "Streetlight Outage/Malfunction",
    "date_created": "2025-05-22T21:14:36.000",
    "date_modified": "2025-05-22T21:17:59.000",
    "request_status": "Pending",
    "responsible_agency": "Department of Public Works",
    "final_address": "2913 Gravier St",
    "address_councildis": "B",
    "status": "Pending",
    "contractor": "Legacy Professional Services",
    "rowid": "1194548",
    "final_x": "3673082.90004",
    "final_y": "533912.740421",
    "longitude": "-90.09456685960517",
    "latitude": "29.962327800244715",
    "geocoded_column": {
      "latitude": "29.962327800244715",
      "longitude": "-90.09456685960517"
    }
  },
  {
    "service_request": "2025-1194547",
    "request_type": "Healthy Homes",
    "request_reason": "Healthy Homes",
    "date_created": "2025-05-22T20:46:20.000",
    "date_modified": "2025-05-22T20:46:22.000",
    "request_status": "Pending",
    "responsible_agency": "Department of Code Enforcement",
    "final_address": "2427 Allen St",
    "address_councildis": "D",
    "status": "Pending",
    "rowid": "1194547",
    "final_x": "3682402.42325",
    "final_y": "541204.262924",
    "longitude": "-90.06488228122346",
    "latitude": "29.982096633909393",
    "geocoded_column": {
      "latitude": "29.982096633909393",
      "longitude": "-90.06488228122346"
    }
  },
  {
    "service_request": "2025-1194546",
    "request_type": "Trash/Recycling",
    "request_reason": "Order Recycling Cart",
    "date_created": "2025-05-22T20:39:46.000",
    "date_modified": "2025-05-22T20:39:47.000",
    "request_status": "Pending",
    "responsible_agency": "Department of Sanitation",
    "final_address": "342 40Th St",
    "address_councildis": "A",
    "status": "Pending",
    "rowid": "1194546",
    "final_x": "3665071.94253",
    "final_y": "553311.063063",
    "longitude": "-90.1192153420628",
    "latitude": "30.015902315914847",
    "geocoded_column": {
      "latitude": "30.015902315914847",
      "longitude": "-90.1192153420628"
    }
  },
  {
    "service_request": "2025-1194545",
    "request_type": "Drainage",
    "request_reason": "Catch Basin Clogged",
    "date_created": "2025-05-22T20:33:49.000",
    "date_modified": "2025-05-22T20:33:52.000",
    "request_status": "Pending",
    "responsible_agency": "Sewerage & Water Board",
    "final_address": "3815 St Bernard Ave",
    "address_councildis": "D",
    "status": "Pending",
    "rowid": "1194545",
    "final_x": "3677920.31509",
    "final_y": "546423.058577",
    "longitude": "-90.0788584812878",
    "latitude": "29.996582166148958",
    "geocoded_column": {
      "latitude": "29.996582166148958",
      "longitude": "-90.0788584812878"
    }
  },
  {
    "service_request": "2025-1194544",
    "request_type": "Trash/Recycling",
    "request_reason": "Repair Recycling Cart",
    "date_created": "2025-05-22T20:10:20.000",
    "date_modified": "2025-05-22T20:10:22.000",
    "request_status": "Pending",
    "responsible_agency": "Department of Sanitation",
    "final_address": "326 40Th St",
    "address_councildis": "A",
    "status": "Pending",
    "rowid": "1194544",
    "final_x": "3665170.14413",
    "final_y": "553302.928535",
    "longitude": "-90.11890534006518",
    "latitude": "30.01587708735757",
    "geocoded_column": {
      "latitude": "30.01587708735757",
      "longitude": "-90.11890534006518"
    }
  },
  {
    "service_request": "2025-1194543",
    "request_type": "Health Related Request",
    "request_reason": "Noise Ordinance Complaint",
    "date_created": "2025-05-22T20:09:43.000",
    "date_modified": "2025-05-22T20:09:45.000",
    "request_status": "Pending",
    "responsible_agency": "Health Department",
    "final_address": "0 BLK Alice Ct",
    "address_councildis": "E",
    "status": "Pending",
    "rowid": "1194543",
    "final_x": "3696830.85368",
    "final_y": "533835.980016",
    "longitude": "-90.01957742212986",
    "latitude": "29.961389424106756",
    "geocoded_column": {
      "latitude": "29.961389424106756",
      "longitude": "-90.01957742212986"
    }
  },
  {
    "service_request": "2025-1194542",
    "request_type": "Streetlights",
    "request_reason": "Streetlight Outage/Malfunction",
    "date_created": "2025-05-22T20:04:47.000",
    "date_modified": "2025-05-22T20:04:49.000",
    "request_status": "Pending",
    "responsible_agency": "Department of Public Works",
    "final_address": "5320 Wildair Dr",
    "address_councildis": "D",
    "status": "Pending",
    "contractor": "Legacy Professional Services",
    "rowid": "1194542",
    "final_x": "3681616.015",
    "final_y": "552661.198934",
    "longitude": "-90.06696620707186",
    "latitude": "30.013623040740427",
    "geocoded_column": {
      "latitude": "30.013623040740427",
      "longitude": "-90.06696620707186"
    }
  },
  {
    "service_request": "2025-1194541",
    "request_type": "Property Maintenance",
    "request_reason": "Property Maintenance",
    "date_created": "2025-05-22T20:00:53.000",
    "date_modified": "2025-05-22T20:00:54.000",
    "request_status": "Pending",
    "responsible_agency": "Department of Code Enforcement",
    "final_address": "2412 Calhoun St",
    "address_councildis": "A",
    "status": "Pending",
    "rowid": "1194541",
    "final_x": "3666039.181",
    "final_y": "525833.002173",
    "longitude": "-90.11708082419001",
    "latitude": "29.940318650565125",
    "geocoded_column": {
      "latitude": "29.940318650565125",
      "longitude": "-90.11708082419001"
    }
  },
  {
    "service_request": "2025-1194540",
    "request_type": "Trash/Recycling",
    "request_reason": "Missed Trash Pick-Up",
    "date_created": "2025-05-22T19:57:58.000",
    "date_modified": "2025-05-22T19:58:00.000",
    "request_status": "Pending",
    "responsible_agency": "Department of Sanitation",
    "final_address": "4919 Virgilian St",
    "address_councildis": "D",
    "status": "Assigned to Contractor",
    "contractor": "Waste Pro",
    "rowid": "1194540",
    "final_x": "3697471.43722",
    "final_y": "554689.511128",
    "longitude": "-90.0167979663185",
    "latitude": "30.01870877964808",
    "geocoded_column": {
      "latitude": "30.01870877964808",
      "longitude": "-90.0167979663185"
    }
  },
  {
    "service_request": "2025-1194539",
    "request_type": "Trash/Recycling",
    "request_reason": "Repair Trash Cart",
    "date_created": "2025-05-22T19:54:58.000",
    "date_modified": "2025-05-22T19:55:00.000",
    "request_status": "Pending",
    "responsible_agency": "Department of Sanitation",
    "final_address": "4810 Chestnut St",
    "address_councildis": "B",
    "status": "Assigned to Contractor",
    "contractor": "IV Waste",
    "rowid": "1194539",
    "final_x": "3669426.59655",
    "final_y": "519324.756471",
    "longitude": "-90.10660616144067",
    "latitude": "29.92232375712479",
    "geocoded_column": {
      "latitude": "29.92232375712479",
      "longitude": "-90.10660616144067"
    }
  },
  {
    "service_request": "2025-1194538",
    "request_type": "Trash/Recycling",
    "request_reason": "Order Second Trash Cart",
    "date_created": "2025-05-22T19:12:45.000",
    "date_modified": "2025-05-22T19:12:47.000",
    "request_status": "Pending",
    "responsible_agency": "Department of Sanitation",
    "final_address": "6592 Coveview Ct",
    "address_councildis": "E",
    "status": "Assigned to Contractor",
    "contractor": "Waste Pro",
    "rowid": "1194538",
    "final_x": "3699018.5896",
    "final_y": "555671.850905",
    "longitude": "-90.0118737543386",
    "latitude": "30.021360871166255",
    "geocoded_column": {
      "latitude": "30.021360871166255",
      "longitude": "-90.0118737543386"
    }
  },
  {
    "service_request": "2025-1194537",
    "request_type": "Trash/Recycling",
    "request_reason": "Request a Large Item Pick Up",
    "date_created": "2025-05-22T19:01:42.000",
    "date_modified": "2025-05-22T19:01:44.000",
    "request_status": "Pending",
    "responsible_agency": "Department of Sanitation",
    "final_address": "300 Jewel St",
    "address_councildis": "D",
    "status": "Assigned to Contractor",
    "contractor": "IV Waste",
    "rowid": "1194537",
    "final_x": "3667462.13908",
    "final_y": "555718.655257",
    "longitude": "-90.11158225566844",
    "latitude": "30.022452488455762",
    "geocoded_column": {
      "latitude": "30.022452488455762",
      "longitude": "-90.11158225566844"
    }
  },
  {
    "service_request": "2025-1194536",
    "request_type": "Streetlights",
    "request_reason": "Streetlight Outage/Malfunction",
    "date_created": "2025-05-22T18:56:56.000",
    "date_modified": "2025-05-22T18:56:58.000",
    "request_status": "Pending",
    "responsible_agency": "Department of Public Works",
    "final_address": "830 Nashville Ave",
    "address_councildis": "A",
    "status": "Pending",
    "contractor": "Legacy Professional Services",
    "rowid": "1194536",
    "final_x": "3665527.89376",
    "final_y": "519258.280567",
    "longitude": "-90.1189150442451",
    "latitude": "29.92225516288115",
    "geocoded_column": {
      "latitude": "29.92225516288115",
      "longitude": "-90.1189150442451"
    }
  },
  {
    "service_request": "2025-1194535",
    "request_type": "Trash/Recycling",
    "request_reason": "Replace Recycling Cart",
    "date_created": "2025-05-22T18:56:49.000",
    "date_modified": "2025-05-22T18:56:51.000",
    "request_status": "Pending",
    "responsible_agency": "Department of Sanitation",
    "final_address": "5517 Constance St",
    "address_councildis": "A",
    "status": "Pending",
    "rowid": "1194535",
    "final_x": "3666219.75962",
    "final_y": "518592.199415",
    "longitude": "-90.11675342348964",
    "latitude": "29.92040346802632",
    "geocoded_column": {
      "latitude": "29.92040346802632",
      "longitude": "-90.11675342348964"
    }
  },
  {
    "service_request": "2025-1194534",
    "request_type": "Streetlights",
    "request_reason": "Streetlight Outage/Malfunction",
    "date_created": "2025-05-22T18:51:28.000",
    "date_modified": "2025-05-22T18:51:30.000",
    "request_status": "Pending",
    "responsible_agency": "Department of Public Works",
    "final_address": "830 Nashville Ave",
    "address_councildis": "A",
    "status": "Pending",
    "contractor": "Legacy Professional Services",
    "rowid": "1194534",
    "final_x": "3665527.89376",
    "final_y": "519258.280567",
    "longitude": "-90.1189150442451",
    "latitude": "29.92225516288115",
    "geocoded_column": {
      "latitude": "29.92225516288115",
      "longitude": "-90.1189150442451"
    }
  },
  {
    "service_request": "2025-1194533",
    "request_type": "Property Maintenance",
    "request_reason": "Property Maintenance",
    "date_created": "2025-05-22T18:49:45.000",
    "date_modified": "2025-05-22T18:49:47.000",
    "request_status": "Pending",
    "responsible_agency": "Department of Code Enforcement",
    "final_address": "5971 Bullard Ave",
    "address_councildis": "E",
    "status": "Pending",
    "rowid": "1194533",
    "final_x": "3716295.96658",
    "final_y": "563272.490912",
    "longitude": "-89.95699416113035",
    "latitude": "30.041700391873693",
    "geocoded_column": {
      "latitude": "30.041700391873693",
      "longitude": "-89.95699416113035"
    }
  },
  {
    "service_request": "2025-1194532",
    "request_type": "Trash/Recycling",
    "request_reason": "Request a Large Item Pick Up",
    "date_created": "2025-05-22T18:49:41.000",
    "date_modified": "2025-05-22T18:49:43.000",
    "request_status": "Pending",
    "responsible_agency": "Department of Sanitation",
    "final_address": "4516 Mark Twain Dr",
    "address_councildis": "D",
    "status": "Assigned to Contractor",
    "contractor": "IV Waste",
    "rowid": "1194532",
    "final_x": "3691458.21065",
    "final_y": "550759.554261",
    "longitude": "-90.03593813020397",
    "latitude": "30.0080914586232",
    "geocoded_column": {
      "latitude": "30.0080914586232",
      "longitude": "-90.03593813020397"
    }
  },
  {
    "service_request": "2025-1194531",
    "request_type": "Trash/Recycling",
    "request_reason": "Request a Large Item Pick Up",
    "date_created": "2025-05-22T18:36:48.000",
    "date_modified": "2025-05-22T18:36:51.000",
    "request_status": "Pending",
    "responsible_agency": "Department of Sanitation",
    "final_address": "6327 S Johnson St",
    "address_councildis": "A",
    "status": "Assigned to Contractor",
    "contractor": "IV Waste",
    "rowid": "1194531",
    "final_x": "3666723.16551",
    "final_y": "527666.103551",
    "longitude": "-90.11485982525458",
    "latitude": "29.945339108041154",
    "geocoded_column": {
      "latitude": "29.945339108041154",
      "longitude": "-90.11485982525458"
    }
  },
  {
    "service_request": "2025-1194530",
    "request_type": "Streetlights",
    "request_reason": "Streetlight Outage/Malfunction",
    "date_created": "2025-05-22T18:31:28.000",
    "date_modified": "2025-05-22T18:31:30.000",
    "request_status": "Pending",
    "responsible_agency": "Department of Public Works",
    "final_address": "3501 Mansfield Ave",
    "address_councildis": "C",
    "status": "Pending",
    "contractor": "Legacy Professional Services",
    "rowid": "1194530",
    "final_x": "3708997.48126",
    "final_y": "517913.28671",
    "longitude": "-89.98175077239097",
    "latitude": "29.91721852494844",
    "geocoded_column": {
      "latitude": "29.91721852494844",
      "longitude": "-89.98175077239097"
    }
  },
  {
    "service_request": "2025-1194529",
    "request_type": "Trash/Recycling",
    "request_reason": "Request a Large Item Pick Up",
    "date_created": "2025-05-22T18:31:03.000",
    "date_modified": "2025-05-22T18:31:05.000",
    "request_status": "Pending",
    "responsible_agency": "Department of Sanitation",
    "final_address": "821 Louisiana Ave",
    "address_councildis": "B",
    "status": "Assigned to Contractor",
    "contractor": "IV Waste",
    "rowid": "1194529",
    "final_x": "3675528.5099",
    "final_y": "518833.833591",
    "longitude": "-90.0873617479501",
    "latitude": "29.92079283991565",
    "geocoded_column": {
      "latitude": "29.92079283991565",
      "longitude": "-90.0873617479501"
    }
  },
  {
    "service_request": "2025-1194528",
    "request_type": "Trash/Recycling",
    "request_reason": "Request a Large Item Pick Up",
    "date_created": "2025-05-22T18:30:00.000",
    "date_modified": "2025-05-22T18:30:03.000",
    "request_status": "Pending",
    "responsible_agency": "Department of Sanitation",
    "final_address": "6327 S Johnson St",
    "address_councildis": "A",
    "status": "Assigned to Contractor",
    "contractor": "IV Waste",
    "rowid": "1194528",
    "final_x": "3666723.16551",
    "final_y": "527666.103551",
    "longitude": "-90.11485982525458",
    "latitude": "29.945339108041154",
    "geocoded_column": {
      "latitude": "29.945339108041154",
      "longitude": "-90.11485982525458"
    }
  },
  {
    "service_request": "2025-1194527",
    "request_type": "Trash/Recycling",
    "request_reason": "Missed Trash Pick-Up",
    "date_created": "2025-05-22T18:28:52.000",
    "date_modified": "2025-05-22T18:28:54.000",
    "request_status": "Pending",
    "responsible_agency": "Department of Sanitation",
    "final_address": "2331 St Claude Ave",
    "address_councildis": "C",
    "status": "Assigned to Contractor",
    "contractor": "IV Waste",
    "rowid": "1194527",
    "final_x": "3686036.70121",
    "final_y": "536497.525959",
    "longitude": "-90.05356954067017",
    "latitude": "29.969043634631955",
    "geocoded_column": {
      "latitude": "29.969043634631955",
      "longitude": "-90.05356954067017"
    }
  },
  {
    "service_request": "2025-1194526",
    "request_type": "Trash/Recycling",
    "request_reason": "Request a Large Item Pick Up",
    "date_created": "2025-05-22T18:21:30.000",
    "date_modified": "2025-05-22T18:21:32.000",
    "request_status": "Pending",
    "responsible_agency": "Department of Sanitation",
    "final_address": "1821 Robert St, New Orleans, Louisiana, 70115",
    "address_councildis": "B",
    "status": "Assigned to Contractor",
    "contractor": "IV Waste",
    "rowid": "1194526",
    "final_x": "3668802.56474",
    "final_y": "522357.061818",
    "longitude": "-90.1084736621002",
    "latitude": "29.930679988310573",
    "geocoded_column": {
      "latitude": "29.930679988310573",
      "longitude": "-90.1084736621002"
    }
  },
  {
    "service_request": "2025-1194525",
    "request_type": "Trash/Recycling",
    "request_reason": "Replace Trash Cart",
    "date_created": "2025-05-22T18:18:51.000",
    "date_modified": "2025-05-22T18:18:53.000",
    "request_status": "Pending",
    "responsible_agency": "Department of Sanitation",
    "final_address": "917 Gordon St",
    "address_councildis": "E",
    "status": "Assigned to Contractor",
    "contractor": "Waste Pro",
    "rowid": "1194525",
    "final_x": "3698942.40848",
    "final_y": "532830.32314",
    "longitude": "-90.01294613380303",
    "latitude": "29.958557487622453",
    "geocoded_column": {
      "latitude": "29.958557487622453",
      "longitude": "-90.01294613380303"
    }
  },
  {
    "service_request": "2025-1194524",
    "request_type": "Trash/Recycling",
    "request_reason": "Request a Large Item Pick Up",
    "date_created": "2025-05-22T18:16:43.000",
    "date_modified": "2025-05-22T18:16:45.000",
    "request_status": "Pending",
    "responsible_agency": "Department of Sanitation",
    "final_address": "4822 St Charles Ave",
    "address_councildis": "B",
    "status": "Assigned to Contractor",
    "contractor": "IV Waste",
    "rowid": "1194524",
    "final_x": "3669207.51367",
    "final_y": "520618.874104",
    "longitude": "-90.10725400786546",
    "latitude": "29.925888617436954",
    "geocoded_column": {
      "latitude": "29.925888617436954",
      "longitude": "-90.10725400786546"
    }
  },
  {
    "service_request": "2025-1194523",
    "request_type": "General Services",
    "request_reason": "General Service Request",
    "date_created": "2025-05-22T18:06:15.000",
    "date_modified": "2025-05-22T18:06:17.000",
    "request_status": "Pending",
    "responsible_agency": "Orleans Parish Communication District",
    "final_address": "857 Wilson Dr, New Orleans, Louisiana, 70119",
    "address_councildis": "A",
    "status": "Pending",
    "rowid": "1194523",
    "final_x": "3674033.71771",
    "final_y": "539692.351626",
    "longitude": "-90.09136648650885",
    "latitude": "29.97819147504569",
    "geocoded_column": {
      "latitude": "29.97819147504569",
      "longitude": "-90.09136648650885"
    }
  },
  {
    "service_request": "2025-1194522",
    "request_type": "Trash/Recycling",
    "request_reason": "Repair Trash Cart",
    "date_created": "2025-05-22T18:05:04.000",
    "date_modified": "2025-05-22T18:05:06.000",
    "request_status": "Pending",
    "responsible_agency": "Department of Sanitation",
    "final_address": "2603 General Pershing St",
    "address_councildis": "B",
    "status": "Assigned to Contractor",
    "contractor": "IV Waste",
    "rowid": "1194522",
    "final_x": "3670942.11899",
    "final_y": "524483.136572",
    "longitude": "-90.10164723759432",
    "latitude": "29.936462947707753",
    "geocoded_column": {
      "latitude": "29.936462947707753",
      "longitude": "-90.10164723759432"
    }
  },
  {
    "service_request": "2025-1194521",
    "request_type": "Drainage",
    "request_reason": "Catch Basin Damaged",
    "date_created": "2025-05-22T17:52:49.000",
    "date_modified": "2025-05-22T17:52:51.000",
    "request_status": "Pending",
    "responsible_agency": "Sewerage & Water Board",
    "final_address": "940 Florida Blvd",
    "address_councildis": "A",
    "status": "Pending",
    "rowid": "1194521",
    "final_x": "3670106.12615",
    "final_y": "545122.135247",
    "longitude": "-90.10358721113941",
    "latitude": "29.99323799535953",
    "geocoded_column": {
      "latitude": "29.99323799535953",
      "longitude": "-90.10358721113941"
    }
  },
  {
    "service_request": "2025-1194520",
    "request_type": "General Services",
    "request_reason": "General Service Request",
    "date_created": "2025-05-22T17:51:05.000",
    "date_modified": "2025-05-22T17:51:07.000",
    "request_status": "Pending",
    "responsible_agency": "Orleans Parish Communication District",
    "final_address": "415 39Th St",
    "address_councildis": "A",
    "status": "Pending",
    "rowid": "1194520",
    "final_x": "3664920.19284",
    "final_y": "553094.083351",
    "longitude": "-90.11970206639022",
    "latitude": "30.015310117990545",
    "geocoded_column": {
      "latitude": "30.015310117990545",
      "longitude": "-90.11970206639022"
    }
  },
  {
    "service_request": "2025-1194519",
    "request_type": "Parks & Parkways",
    "request_reason": "Request Tree Service (Right of Way/Public Property)",
    "date_created": "2025-05-22T17:45:45.000",
    "date_modified": "2025-05-22T17:45:47.000",
    "request_status": "Pending",
    "responsible_agency": "Department of Parks & Parkway",
    "final_address": "44 Grand Canyon Dr",
    "address_councildis": "C",
    "status": "Pending",
    "rowid": "1194519",
    "final_x": "3699475.80042",
    "final_y": "516614.764021",
    "longitude": "-90.01185236531828",
    "latitude": "29.913953420389934",
    "geocoded_column": {
      "latitude": "29.913953420389934",
      "longitude": "-90.01185236531828"
    }
  },
  {
    "service_request": "2025-1194518",
    "request_type": "Trash/Recycling",
    "request_reason": "Return Trash Cart",
    "date_created": "2025-05-22T17:37:03.000",
    "date_modified": "2025-05-22T17:37:04.000",
    "request_status": "Pending",
    "responsible_agency": "Department of Sanitation",
    "final_address": "104 Brunswick Ct",
    "address_councildis": "C",
    "status": "Assigned to Contractor",
    "contractor": "Richards Disposal",
    "rowid": "1194518",
    "final_x": "3705729.46455",
    "final_y": "517245.753525",
    "longitude": "-89.99209061372714",
    "latitude": "29.915488629362798",
    "geocoded_column": {
      "latitude": "29.915488629362798",
      "longitude": "-89.99209061372714"
    }
  },
  {
    "service_request": "2025-1194517",
    "request_type": "Parks & Parkways",
    "request_reason": "Request Tree Service (Right of Way/Public Property)",
    "date_created": "2025-05-22T17:34:24.000",
    "date_modified": "2025-05-22T17:34:25.000",
    "request_status": "Pending",
    "responsible_agency": "Department of Parks & Parkway",
    "final_address": "44 Grand Canyon Dr",
    "address_councildis": "C",
    "status": "Pending",
    "rowid": "1194517",
    "final_x": "3699475.80042",
    "final_y": "516614.764021",
    "longitude": "-90.01185236531828",
    "latitude": "29.913953420389934",
    "geocoded_column": {
      "latitude": "29.913953420389934",
      "longitude": "-90.01185236531828"
    }
  },
  {
    "service_request": "2025-1194516",
    "request_type": "Trash/Recycling",
    "request_reason": "Return Trash Cart",
    "date_created": "2025-05-22T17:34:21.000",
    "date_modified": "2025-05-22T17:34:23.000",
    "request_status": "Pending",
    "responsible_agency": "Department of Sanitation",
    "final_address": "104 Brunswick Ct",
    "address_councildis": "C",
    "status": "Assigned to Contractor",
    "contractor": "Richards Disposal",
    "rowid": "1194516",
    "final_x": "3705729.46455",
    "final_y": "517245.753525",
    "longitude": "-89.99209061372714",
    "latitude": "29.915488629362798",
    "geocoded_column": {
      "latitude": "29.915488629362798",
      "longitude": "-89.99209061372714"
    }
  },
  {
    "service_request": "2025-1194515",
    "request_type": "Trash/Recycling",
    "request_reason": "Replace Trash Cart",
    "date_created": "2025-05-22T17:29:12.000",
    "date_modified": "2025-05-22T17:29:14.000",
    "request_status": "Pending",
    "responsible_agency": "Department of Sanitation",
    "final_address": "3322 Hollygrove St",
    "address_councildis": "A",
    "status": "Assigned to Contractor",
    "contractor": "IV Waste",
    "rowid": "1194515",
    "final_x": "3664764.20832",
    "final_y": "536226.038343",
    "longitude": "-90.12075889847068",
    "latitude": "29.968933271824604",
    "geocoded_column": {
      "latitude": "29.968933271824604",
      "longitude": "-90.12075889847068"
    }
  },
  {
    "service_request": "2025-1194514",
    "request_type": "Trash/Recycling",
    "request_reason": "Request a Large Item Pick Up",
    "date_created": "2025-05-22T17:24:04.000",
    "date_modified": "2025-05-22T17:24:07.000",
    "request_status": "Pending",
    "responsible_agency": "Department of Sanitation",
    "final_address": "6943 E Hermes St",
    "address_councildis": "D",
    "status": "Assigned to Contractor",
    "contractor": "Waste Pro",
    "rowid": "1194514",
    "final_x": "3697532.76298",
    "final_y": "556967.60041",
    "longitude": "-90.01652148063187",
    "latitude": "30.024970721784683",
    "geocoded_column": {
      "latitude": "30.024970721784683",
      "longitude": "-90.01652148063187"
    }
  },
  {
    "service_request": "2025-1194513",
    "request_type": "General Services",
    "request_reason": "General Service Request",
    "date_created": "2025-05-22T17:22:58.000",
    "date_modified": "2025-05-22T17:23:00.000",
    "request_status": "Pending",
    "responsible_agency": "Orleans Parish Communication District",
    "final_address": "2537 Tulane Ave",
    "address_councildis": "B",
    "status": "Pending",
    "rowid": "1194513",
    "final_x": "3674933.81909",
    "final_y": "533510.800196",
    "longitude": "-90.08873570273389",
    "latitude": "29.961167448443735",
    "geocoded_column": {
      "latitude": "29.961167448443735",
      "longitude": "-90.08873570273389"
    }
  },
  {
    "service_request": "2025-1194512",
    "request_type": "Trash/Recycling",
    "request_reason": "Request a Large Item Pick Up",
    "date_created": "2025-05-22T17:21:38.000",
    "date_modified": "2025-05-22T17:21:40.000",
    "request_status": "Pending",
    "responsible_agency": "Department of Sanitation",
    "final_address": "6943 E Hermes St",
    "address_councildis": "D",
    "status": "Assigned to Contractor",
    "contractor": "Waste Pro",
    "rowid": "1194512",
    "final_x": "3697532.76298",
    "final_y": "556967.60041",
    "longitude": "-90.01652148063187",
    "latitude": "30.024970721784683",
    "geocoded_column": {
      "latitude": "30.024970721784683",
      "longitude": "-90.01652148063187"
    }
  },
  {
    "service_request": "2025-1194511",
    "request_type": "General Services",
    "request_reason": "General Service Request",
    "date_created": "2025-05-22T17:14:39.000",
    "date_modified": "2025-05-22T17:14:41.000",
    "request_status": "Pending",
    "responsible_agency": "Orleans Parish Communication District",
    "final_address": "New Orleans,LA",
    "status": "Pending",
    "rowid": "1194511",
    "longitude": "0.0",
    "latitude": "0.0",
    "geocoded_column": {
      "latitude": "0.0",
      "longitude": "0.0"
    }
  },
  {
    "service_request": "2025-1194510",
    "request_type": "Healthy Homes",
    "request_reason": "Healthy Homes",
    "date_created": "2025-05-22T17:12:30.000",
    "date_modified": "2025-05-22T17:12:32.000",
    "request_status": "Pending",
    "responsible_agency": "Department of Code Enforcement",
    "final_address": "5845 Lafaye St",
    "address_councildis": "D",
    "status": "Pending",
    "rowid": "1194510",
    "final_x": "3687202.94198",
    "final_y": "554840.8694",
    "longitude": "-90.04923728967222",
    "latitude": "30.0194453683588",
    "geocoded_column": {
      "latitude": "30.0194453683588",
      "longitude": "-90.04923728967222"
    }
  },
  {
    "service_request": "2025-1194509",
    "request_type": "Trash/Recycling",
    "request_reason": "Request a Large Item Pick Up",
    "date_created": "2025-05-22T17:10:53.000",
    "date_modified": "2025-05-22T17:10:59.000",
    "request_status": "Pending",
    "responsible_agency": "Department of Sanitation",
    "final_address": "6620 Coventry St",
    "address_councildis": "E",
    "status": "Assigned to Contractor",
    "contractor": "Waste Pro",
    "rowid": "1194509",
    "final_x": "3697788.54781",
    "final_y": "559158.626652",
    "longitude": "-90.01563362954312",
    "latitude": "30.030987119760898",
    "geocoded_column": {
      "latitude": "30.030987119760898",
      "longitude": "-90.01563362954312"
    }
  },
  {
    "service_request": "2025-1194508",
    "request_type": "Street and Traffic Signs",
    "request_reason": "Traffic or Parking Sign Damaged or Missing",
    "date_created": "2025-05-22T17:04:52.000",
    "date_modified": "2025-05-22T17:04:54.000",
    "request_status": "Pending",
    "responsible_agency": "Department of Public Works",
    "final_address": "3112 Washington Ave",
    "address_councildis": "B",
    "status": "Pending",
    "rowid": "1194508",
    "final_x": "3672815.31976",
    "final_y": "527097.355455",
    "longitude": "-90.09564431312201",
    "latitude": "29.943595698590197",
    "geocoded_column": {
      "latitude": "29.943595698590197",
      "longitude": "-90.09564431312201"
    }
  },
  {
    "service_request": "2025-1194507",
    "request_type": "Trash/Recycling",
    "request_reason": "Request a Large Item Pick Up",
    "date_created": "2025-05-22T17:03:08.000",
    "date_modified": "2025-05-22T17:03:10.000",
    "request_status": "Pending",
    "responsible_agency": "Department of Sanitation",
    "final_address": "416 N Miro St",
    "address_councildis": "B",
    "status": "Assigned to Contractor",
    "contractor": "IV Waste",
    "rowid": "1194507",
    "final_x": "3677540.27291",
    "final_y": "535123.379974",
    "longitude": "-90.08044930877058",
    "latitude": "29.965523393481497",
    "geocoded_column": {
      "latitude": "29.965523393481497",
      "longitude": "-90.08044930877058"
    }
  },
  {
    "service_request": "2025-1194506",
    "request_type": "Abandoned Vehicles",
    "request_reason": "Abandoned/Junk Vehicles",
    "date_created": "2025-05-22T17:02:55.000",
    "date_modified": "2025-05-22T17:02:56.000",
    "request_status": "Pending",
    "responsible_agency": "Department of Public Works",
    "final_address": "857 Wilson Dr, New Orleans, Louisiana, 70119",
    "address_councildis": "A",
    "status": "Pending",
    "rowid": "1194506",
    "final_x": "3674033.71771",
    "final_y": "539692.351626",
    "longitude": "-90.09136648650885",
    "latitude": "29.97819147504569",
    "geocoded_column": {
      "latitude": "29.97819147504569",
      "longitude": "-90.09136648650885"
    }
  },
  {
    "service_request": "2025-1194505",
    "request_type": "Safety & Permits",
    "request_reason": "Licenses & Permits",
    "date_created": "2025-05-22T17:01:30.000",
    "date_modified": "2025-05-22T17:01:32.000",
    "request_status": "Pending",
    "responsible_agency": "Safety and Permits",
    "final_address": "3640 Constance St",
    "address_councildis": "B",
    "status": "Pending",
    "rowid": "1194505",
    "final_x": "3673931.39163",
    "final_y": "518778.064375",
    "longitude": "-90.09240503369915",
    "latitude": "29.9206871490348",
    "geocoded_column": {
      "latitude": "29.9206871490348",
      "longitude": "-90.09240503369915"
    }
  },
  {
    "service_request": "2025-1194504",
    "request_type": "Trash/Recycling",
    "request_reason": "Request a Large Item Pick Up",
    "date_created": "2025-05-22T16:51:27.000",
    "date_modified": "2025-05-22T16:51:29.000",
    "request_status": "Pending",
    "responsible_agency": "Department of Sanitation",
    "final_address": "504 S Murat St",
    "address_councildis": "A",
    "status": "Assigned to Contractor",
    "contractor": "IV Waste",
    "rowid": "1194504",
    "final_x": "3668723.52391",
    "final_y": "538043.335881",
    "longitude": "-90.1081937194886",
    "latitude": "29.973814429516555",
    "geocoded_column": {
      "latitude": "29.973814429516555",
      "longitude": "-90.1081937194886"
    }
  },
  {
    "service_request": "2025-1194503",
    "request_type": "Property Maintenance",
    "request_reason": "Property Maintenance",
    "date_created": "2025-05-22T16:48:58.000",
    "date_modified": "2025-05-22T16:49:00.000",
    "request_status": "Pending",
    "responsible_agency": "Department of Code Enforcement",
    "final_address": "5625 Woodlawn Pl",
    "address_councildis": "A",
    "status": "Pending",
    "rowid": "1194503",
    "final_x": "3667586.63879",
    "final_y": "544967.193807",
    "longitude": "-90.11155110122753",
    "latitude": "29.992886068905957",
    "geocoded_column": {
      "latitude": "29.992886068905957",
      "longitude": "-90.11155110122753"
    }
  },
  {
    "service_request": "2025-1194502",
    "request_type": "Trash/Recycling",
    "request_reason": "Request a Large Item Pick Up",
    "date_created": "2025-05-22T16:43:39.000",
    "date_modified": "2025-05-22T16:43:42.000",
    "request_status": "Pending",
    "responsible_agency": "Department of Sanitation",
    "final_address": "10 Finch St",
    "address_councildis": "D",
    "status": "Assigned to Contractor",
    "contractor": "IV Waste",
    "rowid": "1194502",
    "final_x": "3672276.16852",
    "final_y": "555360.845081",
    "longitude": "-90.09638325158463",
    "latitude": "30.02132662257969",
    "geocoded_column": {
      "latitude": "30.02132662257969",
      "longitude": "-90.09638325158463"
    }
  },
  {
    "service_request": "2025-1194501",
    "request_type": "Roads and Streets",
    "request_reason": "Sidewalk Damaged or Missing",
    "date_created": "2025-05-22T16:39:54.000",
    "date_modified": "2025-05-22T16:39:55.000",
    "request_status": "Pending",
    "responsible_agency": "Department of Public Works",
    "final_address": "5757 Read Blvd",
    "address_councildis": "E",
    "status": "Pending",
    "rowid": "1194501",
    "final_x": "3710769.01029",
    "final_y": "561214.427934",
    "longitude": "-89.97453834413257",
    "latitude": "30.03622292313844",
    "geocoded_column": {
      "latitude": "30.03622292313844",
      "longitude": "-89.97453834413257"
    }
  },
  {
    "service_request": "2025-1194500",
    "request_type": "Trash/Recycling",
    "request_reason": "Request a Large Item Pick Up",
    "date_created": "2025-05-22T16:37:53.000",
    "date_modified": "2025-05-22T16:37:54.000",
    "request_status": "Pending",
    "responsible_agency": "Department of Sanitation",
    "final_address": "4025 Lennox Blvd",
    "address_councildis": "C",
    "status": "Assigned to Contractor",
    "contractor": "Richards Disposal",
    "rowid": "1194500",
    "final_x": "3700754.07869",
    "final_y": "515712.56402",
    "longitude": "-90.00785067010827",
    "latitude": "29.91143207898574",
    "geocoded_column": {
      "latitude": "29.91143207898574",
      "longitude": "-90.00785067010827"
    }
  },
  {
    "service_request": "2025-1194499",
    "request_type": "Trash/Recycling",
    "request_reason": "Missed Trash Pick-Up",
    "date_created": "2025-05-22T16:37:35.000",
    "date_modified": "2025-05-22T16:37:37.000",
    "request_status": "Pending",
    "responsible_agency": "Department of Sanitation",
    "final_address": "7500 BLK Expedition Dr",
    "address_councildis": "E",
    "status": "Assigned to Contractor",
    "contractor": "Waste Pro",
    "rowid": "1194499",
    "final_x": "3726064.81522",
    "final_y": "571248.137803",
    "longitude": "-89.92581182840752",
    "latitude": "30.063303816921024",
    "geocoded_column": {
      "latitude": "30.063303816921024",
      "longitude": "-89.92581182840752"
    }
  },
  {
    "service_request": "2025-1194498",
    "request_type": "Trash/Recycling",
    "request_reason": "Illegal Dumping",
    "date_created": "2025-05-22T16:31:07.000",
    "date_modified": "2025-05-22T16:31:10.000",
    "request_status": "Pending",
    "responsible_agency": "Department of Sanitation",
    "final_address": "4119 Hollygrove St",
    "address_councildis": "A",
    "status": "Pending",
    "rowid": "1194498",
    "final_x": "3666683.13722",
    "final_y": "538217.027657",
    "longitude": "-90.11463189844622",
    "latitude": "29.974351852485164",
    "geocoded_column": {
      "latitude": "29.974351852485164",
      "longitude": "-90.11463189844622"
    }
  },
  {
    "service_request": "2025-1194497",
    "request_type": "Trash/Recycling",
    "request_reason": "Return Trash Cart",
    "date_created": "2025-05-22T16:22:17.000",
    "date_modified": "2025-05-22T16:22:18.000",
    "request_status": "Pending",
    "responsible_agency": "Department of Sanitation",
    "final_address": "1815 Farragut St",
    "address_councildis": "C",
    "status": "Assigned to Contractor",
    "contractor": "Richards Disposal",
    "rowid": "1194497",
    "final_x": "3692220.4815",
    "final_y": "524477.254076",
    "longitude": "-90.03447111820701",
    "latitude": "29.935800703381275",
    "geocoded_column": {
      "latitude": "29.935800703381275",
      "longitude": "-90.03447111820701"
    }
  },
  {
    "service_request": "2025-1194496",
    "request_type": "Trash/Recycling",
    "request_reason": "Replace Trash Cart",
    "date_created": "2025-05-22T16:21:17.000",
    "date_modified": "2025-05-22T16:21:18.000",
    "request_status": "Pending",
    "responsible_agency": "Department of Sanitation",
    "final_address": "5020 Magnolia St",
    "address_councildis": "B",
    "status": "Assigned to Contractor",
    "contractor": "IV Waste",
    "rowid": "1194496",
    "final_x": "3668686.13678",
    "final_y": "524580.504828",
    "longitude": "-90.10876619591352",
    "latitude": "29.936797165852138",
    "geocoded_column": {
      "latitude": "29.936797165852138",
      "longitude": "-90.10876619591352"
    }
  },
  {
    "service_request": "2025-1194495",
    "request_type": "Trash/Recycling",
    "request_reason": "Request a Large Item Pick Up",
    "date_created": "2025-05-22T16:21:05.000",
    "date_modified": "2025-05-22T17:01:49.000",
    "request_status": "Pending",
    "responsible_agency": "Department of Sanitation",
    "final_address": "833 Second St",
    "address_councildis": "B",
    "status": "Assigned to Contractor",
    "contractor": "IV Waste",
    "rowid": "1194495",
    "final_x": "3678307.08661",
    "final_y": "520662.004153",
    "longitude": "-90.07852785614686",
    "latitude": "29.925736344966502",
    "geocoded_column": {
      "latitude": "29.925736344966502",
      "longitude": "-90.07852785614686"
    }
  },
  {
    "service_request": "2025-1194494",
    "request_type": "Street and Traffic Signs",
    "request_reason": "Additional Signage Request",
    "date_created": "2025-05-22T16:20:14.000",
    "date_modified": "2025-05-22T16:20:17.000",
    "request_status": "Pending",
    "responsible_agency": "Department of Public Works",
    "final_address": "MARAIS ST & LESSEPS ST",
    "address_councildis": "D",
    "status": "Pending",
    "rowid": "1194494",
    "final_x": "3692790.6",
    "final_y": "535435.28",
    "longitude": "-90.03227844431703",
    "latitude": "29.965913690926847",
    "geocoded_column": {
      "latitude": "29.965913690926847",
      "longitude": "-90.03227844431703"
    }
  },
  {
    "service_request": "2025-1194493",
    "request_type": "Utility Poles",
    "request_reason": "Wires Sagging/Hanging Low",
    "date_created": "2025-05-22T16:17:20.000",
    "date_modified": "2025-05-22T16:17:21.000",
    "request_status": "Pending",
    "responsible_agency": "Utility Company Collective",
    "final_address": "3611 Banks St",
    "address_councildis": "B",
    "status": "Pending",
    "rowid": "1194493",
    "final_x": "3671825.01556",
    "final_y": "536354.504199",
    "longitude": "-90.09845598749936",
    "latitude": "29.969079165152838",
    "geocoded_column": {
      "latitude": "29.969079165152838",
      "longitude": "-90.09845598749936"
    }
  },
  {
    "service_request": "2025-1194492",
    "request_type": "Trash/Recycling",
    "request_reason": "Request a Large Item Pick Up",
    "date_created": "2025-05-22T16:16:02.000",
    "date_modified": "2025-05-22T16:16:04.000",
    "request_status": "Pending",
    "responsible_agency": "Department of Sanitation",
    "final_address": "7324 Dogwood Dr",
    "address_councildis": "E",
    "status": "Assigned to Contractor",
    "contractor": "Waste Pro",
    "rowid": "1194492",
    "final_x": "3701507.15543",
    "final_y": "560149.335389",
    "longitude": "-90.00384647403304",
    "latitude": "30.033593076489577",
    "geocoded_column": {
      "latitude": "30.033593076489577",
      "longitude": "-90.00384647403304"
    }
  },
  {
    "service_request": "2025-1194491",
    "request_type": "Safety & Permits",
    "request_reason": "Zoning Enforcement",
    "date_created": "2025-05-22T16:04:50.000",
    "date_modified": "2025-05-22T16:37:09.000",
    "case_close_date": "2025-05-22T11:37:08.000",
    "request_status": "Closed",
    "responsible_agency": "Safety and Permits",
    "final_address": "3303 Newton St",
    "address_councildis": "C",
    "status": "Resolved",
    "rowid": "1194491",
    "final_x": "3696474.23651",
    "final_y": "527726.761983",
    "longitude": "-90.02092451350906",
    "latitude": "29.944602456143777",
    "geocoded_column": {
      "latitude": "29.944602456143777",
      "longitude": "-90.02092451350906"
    }
  },
  {
    "service_request": "2025-1194490",
    "request_type": "Parks & Parkways",
    "request_reason": "Request Tree Service (Right of Way/Public Property)",
    "date_created": "2025-05-22T16:01:20.000",
    "date_modified": "2025-05-22T16:01:26.000",
    "request_status": "Pending",
    "responsible_agency": "Department of Parks & Parkway",
    "final_address": "5648 Elysian Fields Ave",
    "address_councildis": "D",
    "status": "Pending",
    "rowid": "1194490",
    "final_x": "3683440.14108",
    "final_y": "553709.972439",
    "longitude": "-90.06116613536402",
    "latitude": "30.016451226245632",
    "geocoded_column": {
      "latitude": "30.016451226245632",
      "longitude": "-90.06116613536402"
    }
  },
  {
    "service_request": "2025-1194489",
    "request_type": "Trash/Recycling",
    "request_reason": "Repair Trash Cart",
    "date_created": "2025-05-22T15:55:27.000",
    "date_modified": "2025-05-22T15:55:29.000",
    "request_status": "Pending",
    "responsible_agency": "Department of Sanitation",
    "final_address": "2319 Napoleon Ave",
    "address_councildis": "B",
    "status": "Assigned to Contractor",
    "contractor": "IV Waste",
    "rowid": "1194489",
    "final_x": "3670684.58951",
    "final_y": "523494.986491",
    "longitude": "-90.10249378042904",
    "latitude": "29.933753462907905",
    "geocoded_column": {
      "latitude": "29.933753462907905",
      "longitude": "-90.10249378042904"
    }
  },
  {
    "service_request": "2025-1194488",
    "request_type": "Trash/Recycling",
    "request_reason": "Missed Trash Pick-Up",
    "date_created": "2025-05-22T15:53:41.000",
    "date_modified": "2025-05-22T15:53:43.000",
    "request_status": "Pending",
    "responsible_agency": "Department of Sanitation",
    "final_address": "4700 Cardenas Dr",
    "address_councildis": "E",
    "status": "Assigned to Contractor",
    "contractor": "Waste Pro",
    "rowid": "1194488",
    "final_x": "3713644.22271",
    "final_y": "556044.230809",
    "longitude": "-89.965647228498",
    "latitude": "30.021912872819005",
    "geocoded_column": {
      "latitude": "30.021912872819005",
      "longitude": "-89.965647228498"
    }
  },
  {
    "service_request": "2025-1194487",
    "request_type": "Trash/Recycling",
    "request_reason": "Repair Trash Cart",
    "date_created": "2025-05-22T15:52:57.000",
    "date_modified": "2025-05-22T15:53:00.000",
    "request_status": "Pending",
    "responsible_agency": "Department of Sanitation",
    "final_address": "7901 S Claiborne Ave",
    "address_councildis": "A",
    "status": "Assigned to Contractor",
    "contractor": "IV Waste",
    "rowid": "1194487",
    "final_x": "3665448.72199",
    "final_y": "531124.849858",
    "longitude": "-90.1187679122729",
    "latitude": "29.954886742951356",
    "geocoded_column": {
      "latitude": "29.954886742951356",
      "longitude": "-90.1187679122729"
    }
  },
  {
    "service_request": "2025-1194486",
    "request_type": "Streetlights",
    "request_reason": "Streetlight Outage/Malfunction",
    "date_created": "2025-05-22T15:49:54.000",
    "date_modified": "2025-05-22T15:49:56.000",
    "request_status": "Pending",
    "responsible_agency": "Department of Public Works",
    "final_address": "8016 Hickory St",
    "address_councildis": "A",
    "status": "Pending",
    "contractor": "Legacy Professional Services",
    "rowid": "1194486",
    "final_x": "3663592.30138",
    "final_y": "529680.123393",
    "longitude": "-90.12467793135957",
    "latitude": "29.95096818889096",
    "geocoded_column": {
      "latitude": "29.95096818889096",
      "longitude": "-90.12467793135957"
    }
  },
  {
    "service_request": "2025-1194485",
    "request_type": "Streetlights",
    "request_reason": "Streetlight Outage/Malfunction",
    "date_created": "2025-05-22T15:49:54.000",
    "date_modified": "2025-05-22T15:49:57.000",
    "request_status": "Pending",
    "responsible_agency": "Department of Public Works",
    "final_address": "8016 Hickory St",
    "address_councildis": "A",
    "status": "Pending",
    "contractor": "Legacy Professional Services",
    "rowid": "1194485",
    "final_x": "3663592.30138",
    "final_y": "529680.123393",
    "longitude": "-90.12467793135957",
    "latitude": "29.95096818889096",
    "geocoded_column": {
      "latitude": "29.95096818889096",
      "longitude": "-90.12467793135957"
    }
  },
  {
    "service_request": "2025-1194484",
    "request_type": "Property Maintenance",
    "request_reason": "Property Maintenance",
    "date_created": "2025-05-22T15:44:44.000",
    "date_modified": "2025-05-22T15:44:47.000",
    "request_status": "Pending",
    "responsible_agency": "Department of Code Enforcement",
    "final_address": "7200 Downman Rd",
    "address_councildis": "D",
    "status": "Pending",
    "rowid": "1194484",
    "final_x": "3694978.47222",
    "final_y": "557048.165786",
    "longitude": "-90.02458968301826",
    "latitude": "30.025272711762245",
    "geocoded_column": {
      "latitude": "30.025272711762245",
      "longitude": "-90.02458968301826"
    }
  },
  {
    "service_request": "2025-1194483",
    "request_type": "Trash/Recycling",
    "request_reason": "Replace Trash Cart",
    "date_created": "2025-05-22T15:38:29.000",
    "date_modified": "2025-05-22T15:38:32.000",
    "request_status": "Pending",
    "responsible_agency": "Department of Sanitation",
    "final_address": "4736 Raymond Joseph Dr",
    "address_councildis": "E",
    "status": "Assigned to Contractor",
    "contractor": "Waste Pro",
    "rowid": "1194483",
    "final_x": "3703633.03812",
    "final_y": "555361.146201",
    "longitude": "-89.99730492249269",
    "latitude": "30.020359418840133",
    "geocoded_column": {
      "latitude": "30.020359418840133",
      "longitude": "-89.99730492249269"
    }
  },
  {
    "service_request": "2025-1194482",
    "request_type": "Trash/Recycling",
    "request_reason": "Request a Large Item Pick Up",
    "date_created": "2025-05-22T15:33:53.000",
    "date_modified": "2025-05-22T15:50:19.000",
    "request_status": "Pending",
    "responsible_agency": "Department of Sanitation",
    "final_address": "1343 Coliseum St",
    "address_councildis": "B",
    "status": "Assigned to Contractor",
    "contractor": "IV Waste",
    "rowid": "1194482",
    "final_x": "3679950.59835",
    "final_y": "524964.806397",
    "longitude": "-90.073190410487",
    "latitude": "29.937518045019342",
    "geocoded_column": {
      "latitude": "29.937518045019342",
      "longitude": "-90.073190410487"
    }
  },
  {
    "service_request": "2025-1194481",
    "request_type": "Trash/Recycling",
    "request_reason": "Request a Large Item Pick Up",
    "date_created": "2025-05-22T15:23:13.000",
    "date_modified": "2025-05-22T15:23:15.000",
    "request_status": "Pending",
    "responsible_agency": "Department of Sanitation",
    "final_address": "2535 Banks St",
    "address_councildis": "B",
    "status": "Assigned to Contractor",
    "contractor": "IV Waste",
    "rowid": "1194481",
    "final_x": "3675214.37102",
    "final_y": "533767.396293",
    "longitude": "-90.08784096181458",
    "latitude": "29.96186461936535",
    "geocoded_column": {
      "latitude": "29.96186461936535",
      "longitude": "-90.08784096181458"
    }
  },
  {
    "service_request": "2025-1194480",
    "request_type": "Trash/Recycling",
    "request_reason": "Request a Large Item Pick Up",
    "date_created": "2025-05-22T15:22:58.000",
    "date_modified": "2025-05-22T15:23:00.000",
    "request_status": "Pending",
    "responsible_agency": "Department of Sanitation",
    "final_address": "5510 Glouster Rd",
    "address_councildis": "E",
    "status": "Assigned to Contractor",
    "contractor": "Waste Pro",
    "rowid": "1194480",
    "final_x": "3707412.77016",
    "final_y": "557984.524699",
    "longitude": "-89.9852647133697",
    "latitude": "30.027450967090672",
    "geocoded_column": {
      "latitude": "30.027450967090672",
      "longitude": "-89.9852647133697"
    }
  },
  {
    "service_request": "2025-1194479",
    "request_type": "Abandoned Vehicles",
    "request_reason": "Abandoned/Junk Vehicles",
    "date_created": "2025-05-22T15:21:18.000",
    "date_modified": "2025-05-22T15:21:19.000",
    "request_status": "Pending",
    "responsible_agency": "Department of Public Works",
    "final_address": "3028 Marais St",
    "address_councildis": "C",
    "status": "Pending",
    "rowid": "1194479",
    "final_x": "3688748.66396",
    "final_y": "536404.647047",
    "longitude": "-90.04500829911602",
    "latitude": "29.968704686321242",
    "geocoded_column": {
      "latitude": "29.968704686321242",
      "longitude": "-90.04500829911602"
    }
  },
  {
    "service_request": "2025-1194478",
    "request_type": "Trash/Recycling",
    "request_reason": "Request a Large Item Pick Up",
    "date_created": "2025-05-22T15:13:43.000",
    "date_modified": "2025-05-22T15:13:46.000",
    "request_status": "Pending",
    "responsible_agency": "Department of Sanitation",
    "final_address": "12400 N Lake Carmel Dr",
    "address_councildis": "E",
    "status": "Assigned to Contractor",
    "contractor": "Waste Pro",
    "rowid": "1194478",
    "final_x": "3715367.01125",
    "final_y": "567568.389604",
    "longitude": "-89.95976722187062",
    "latitude": "30.053543010614035",
    "geocoded_column": {
      "latitude": "30.053543010614035",
      "longitude": "-89.95976722187062"
    }
  },
  {
    "service_request": "2025-1194477",
    "request_type": "Trash/Recycling",
    "request_reason": "Request a Large Item Pick Up",
    "date_created": "2025-05-22T15:12:31.000",
    "date_modified": "2025-05-22T15:43:33.000",
    "request_status": "Pending",
    "responsible_agency": "Department of Sanitation",
    "final_address": "2316 St Thomas St",
    "address_councildis": "B",
    "status": "Assigned to Contractor",
    "contractor": "IV Waste",
    "rowid": "1194477",
    "final_x": "3679543.31234",
    "final_y": "520277.169272",
    "longitude": "-90.07463880909484",
    "latitude": "29.924640891997818",
    "geocoded_column": {
      "latitude": "29.924640891997818",
      "longitude": "-90.07463880909484"
    }
  },
  {
    "service_request": "2025-1194476",
    "request_type": "Roads and Streets",
    "request_reason": "Pothole",
    "date_created": "2025-05-22T15:11:07.000",
    "date_modified": "2025-05-22T15:11:09.000",
    "request_status": "Pending",
    "responsible_agency": "Department of Public Works",
    "final_address": "2313 Delachaise St",
    "address_councildis": "B",
    "status": "Pending",
    "rowid": "1194476",
    "final_x": "3672814.53768",
    "final_y": "523813.263227",
    "longitude": "-90.09575877091778",
    "latitude": "29.934565537885934",
    "geocoded_column": {
      "latitude": "29.934565537885934",
      "longitude": "-90.09575877091778"
    }
  },
  {
    "service_request": "2025-1194475",
    "request_type": "Trash/Recycling",
    "request_reason": "Return Trash Cart",
    "date_created": "2025-05-22T15:09:40.000",
    "date_modified": "2025-05-22T15:09:42.000",
    "request_status": "Pending",
    "responsible_agency": "Department of Sanitation",
    "final_address": "2313 Delachaise St",
    "address_councildis": "B",
    "status": "Assigned to Contractor",
    "contractor": "IV Waste",
    "rowid": "1194475",
    "final_x": "3672814.53768",
    "final_y": "523813.263227",
    "longitude": "-90.09575877091778",
    "latitude": "29.934565537885934",
    "geocoded_column": {
      "latitude": "29.934565537885934",
      "longitude": "-90.09575877091778"
    }
  },
  {
    "service_request": "2025-1194474",
    "request_type": "Roads and Streets",
    "request_reason": "Road Shoulder Damage",
    "date_created": "2025-05-22T15:06:10.000",
    "date_modified": "2025-05-22T15:06:13.000",
    "request_status": "Pending",
    "responsible_agency": "Department of Public Works",
    "final_address": "5182 St Ferdinand Dr",
    "address_councildis": "D",
    "status": "Pending",
    "rowid": "1194474",
    "final_x": "3688978.75286",
    "final_y": "552675.800854",
    "longitude": "-90.04370333293451",
    "latitude": "30.01343739220101",
    "geocoded_column": {
      "latitude": "30.01343739220101",
      "longitude": "-90.04370333293451"
    }
  },
  {
    "service_request": "2025-1194473",
    "request_type": "Trash/Recycling",
    "request_reason": "Replace Trash Cart",
    "date_created": "2025-05-22T15:05:10.000",
    "date_modified": "2025-05-22T15:05:12.000",
    "request_status": "Pending",
    "responsible_agency": "Department of Sanitation",
    "final_address": "1825 Orleans Ave",
    "address_councildis": "D",
    "status": "Assigned to Contractor",
    "contractor": "IV Waste",
    "rowid": "1194473",
    "final_x": "3679523.96898",
    "final_y": "535121.954694",
    "longitude": "-90.07418493150286",
    "latitude": "29.96545968492413",
    "geocoded_column": {
      "latitude": "29.96545968492413",
      "longitude": "-90.07418493150286"
    }
  },
  {
    "service_request": "2025-1194472",
    "request_type": "Mosquito, Termite & Rodent Control",
    "request_reason": "Rodent Complaint (Mice & Rats)",
    "date_created": "2025-05-22T15:04:05.000",
    "date_modified": "2025-05-22T15:04:06.000",
    "request_status": "Pending",
    "responsible_agency": "Mosquito, Termite & Rodent Control Board",
    "final_address": "4965 Franklin Ave",
    "address_councildis": "D",
    "status": "Pending",
    "rowid": "1194472",
    "final_x": "3686819.67234",
    "final_y": "551465.728085",
    "longitude": "-90.05056767705887",
    "latitude": "30.010176775580383",
    "geocoded_column": {
      "latitude": "30.010176775580383",
      "longitude": "-90.05056767705887"
    }
  },
  {
    "service_request": "2025-1194471",
    "request_type": "Parks & Parkways",
    "request_reason": "Request Tree Service (Right of Way/Public Property)",
    "date_created": "2025-05-22T15:01:55.000",
    "date_modified": "2025-05-22T15:01:58.000",
    "request_status": "Pending",
    "responsible_agency": "Department of Parks & Parkway",
    "final_address": "302 Harney St",
    "address_councildis": "A",
    "status": "Pending",
    "rowid": "1194471",
    "final_x": "3667022.96423",
    "final_y": "546787.965265",
    "longitude": "-90.1132704154933",
    "latitude": "29.99790907989054",
    "geocoded_column": {
      "latitude": "29.99790907989054",
      "longitude": "-90.1132704154933"
    }
  },
  {
    "service_request": "2025-1194470",
    "request_type": "Trash/Recycling",
    "request_reason": "Order Trash Cart",
    "date_created": "2025-05-22T14:56:54.000",
    "date_modified": "2025-05-22T14:56:56.000",
    "request_status": "Pending",
    "responsible_agency": "Department of Sanitation",
    "final_address": "3015 Chartres St",
    "address_councildis": "C",
    "status": "Assigned to Contractor",
    "contractor": "IV Waste",
    "rowid": "1194470",
    "final_x": "3688121.48438",
    "final_y": "534285.917637",
    "longitude": "-90.04706407404949",
    "latitude": "29.96289829398759",
    "geocoded_column": {
      "latitude": "29.96289829398759",
      "longitude": "-90.04706407404949"
    }
  },
  {
    "service_request": "2025-1194469",
    "request_type": "Trash/Recycling",
    "request_reason": "Repair Trash Cart",
    "date_created": "2025-05-22T14:55:44.000",
    "date_modified": "2025-05-22T14:55:46.000",
    "request_status": "Pending",
    "responsible_agency": "Department of Sanitation",
    "final_address": "13435 Dwyer Blvd",
    "address_councildis": "E",
    "status": "Assigned to Contractor",
    "contractor": "Waste Pro",
    "rowid": "1194469",
    "final_x": "3725643.56102",
    "final_y": "561995.541919",
    "longitude": "-89.9275022575729",
    "latitude": "30.0378772708838",
    "geocoded_column": {
      "latitude": "30.0378772708838",
      "longitude": "-89.9275022575729"
    }
  },
  {
    "service_request": "2025-1194468",
    "request_type": "Mosquito, Termite & Rodent Control",
    "request_reason": "Rodent Complaint (Mice & Rats)",
    "date_created": "2025-05-22T14:54:47.000",
    "date_modified": "2025-05-22T14:54:49.000",
    "request_status": "Pending",
    "responsible_agency": "Mosquito, Termite & Rodent Control Board",
    "final_address": "1816 Philip St",
    "address_councildis": "B",
    "status": "Pending",
    "rowid": "1194468",
    "final_x": "3676626.7348",
    "final_y": "524068.684092",
    "longitude": "-90.08371494602316",
    "latitude": "29.935154096319554",
    "geocoded_column": {
      "latitude": "29.935154096319554",
      "longitude": "-90.08371494602316"
    }
  },
  {
    "service_request": "2025-1194467",
    "request_type": "Abandoned Vehicles",
    "request_reason": "Abandoned/Junk Vehicles",
    "date_created": "2025-05-22T14:53:30.000",
    "date_modified": "2025-05-22T14:53:32.000",
    "request_status": "Pending",
    "responsible_agency": "Department of Public Works",
    "final_address": "4624 Cleveland Ave",
    "address_councildis": "A",
    "status": "Pending",
    "rowid": "1194467",
    "final_x": "3668953.49556",
    "final_y": "539399.402314",
    "longitude": "-90.10742159589572",
    "latitude": "29.97753639263195",
    "geocoded_column": {
      "latitude": "29.97753639263195",
      "longitude": "-90.10742159589572"
    }
  },
  {
    "service_request": "2025-1194466",
    "request_type": "Trash/Recycling",
    "request_reason": "Missed Trash Pick-Up",
    "date_created": "2025-05-22T14:50:19.000",
    "date_modified": "2025-05-22T16:26:57.000",
    "request_status": "Pending",
    "responsible_agency": "Department of Sanitation",
    "final_address": "2939 Leonidas St",
    "address_councildis": "A",
    "status": "Assigned to Contractor",
    "contractor": "IV Waste",
    "rowid": "1194466",
    "final_x": "3664968.65895",
    "final_y": "534259.843205",
    "longitude": "-90.1201789689207",
    "latitude": "29.963520932740412",
    "geocoded_column": {
      "latitude": "29.963520932740412",
      "longitude": "-90.1201789689207"
    }
  },
  {
    "service_request": "2025-1194465",
    "request_type": "Trash/Recycling",
    "request_reason": "Request a Large Item Pick Up",
    "date_created": "2025-05-22T14:49:07.000",
    "date_modified": "2025-05-22T14:49:31.000",
    "request_status": "Pending",
    "responsible_agency": "Department of Sanitation",
    "final_address": "3745 Frenchmen St",
    "address_councildis": "D",
    "status": "Assigned to Contractor",
    "contractor": "IV Waste",
    "rowid": "1194465",
    "final_x": "3683805.75535",
    "final_y": "546552.388497",
    "longitude": "-90.0602622127931",
    "latitude": "29.99675929295467",
    "geocoded_column": {
      "latitude": "29.99675929295467",
      "longitude": "-90.0602622127931"
    }
  },
  {
    "service_request": "2025-1194464",
    "request_type": "Roads and Streets",
    "request_reason": "Road Shoulder Damage",
    "date_created": "2025-05-22T14:35:24.000",
    "date_modified": "2025-05-22T14:48:32.000",
    "request_status": "Pending",
    "responsible_agency": "Department of Public Works",
    "final_address": "601 N Solomon St",
    "address_councildis": "A",
    "status": "Pending",
    "rowid": "1194464",
    "final_x": "3671665.16615",
    "final_y": "540215.281099",
    "longitude": "-90.09882944364074",
    "latitude": "29.979699731232508",
    "geocoded_column": {
      "latitude": "29.979699731232508",
      "longitude": "-90.09882944364074"
    }
  },
  {
    "service_request": "2025-1194463",
    "request_type": "Abandoned Vehicles",
    "request_reason": "Abandoned/Junk Vehicles",
    "date_created": "2025-05-22T14:33:52.000",
    "date_modified": "2025-05-22T14:33:54.000",
    "request_status": "Pending",
    "responsible_agency": "Department of Public Works",
    "final_address": "DREUX AVE & FRANCIS ST",
    "address_councildis": "D",
    "status": "Pending",
    "rowid": "1194463",
    "final_x": "3698267.8",
    "final_y": "554035.68",
    "longitude": "-90.01430554157483",
    "latitude": "30.01688580873048",
    "geocoded_column": {
      "latitude": "30.01688580873048",
      "longitude": "-90.01430554157483"
    }
  },
  {
    "service_request": "2025-1194462",
    "request_type": "Abandoned Vehicles",
    "request_reason": "Abandoned/Junk Vehicles",
    "date_created": "2025-05-22T14:31:47.000",
    "date_modified": "2025-05-22T14:31:49.000",
    "request_status": "Pending",
    "responsible_agency": "Department of Public Works",
    "final_address": "FRANCIS ST & DWYER RD",
    "address_councildis": "D",
    "status": "Pending",
    "rowid": "1194462",
    "final_x": "3698147.5",
    "final_y": "555291.28",
    "longitude": "-90.01463998101886",
    "latitude": "30.020342039839964",
    "geocoded_column": {
      "latitude": "30.020342039839964",
      "longitude": "-90.01463998101886"
    }
  },
  {
    "service_request": "2025-1194461",
    "request_type": "Safety & Permits",
    "request_reason": "Zoning Enforcement",
    "date_created": "2025-05-22T14:29:34.000",
    "date_modified": "2025-05-22T14:29:35.000",
    "request_status": "Pending",
    "responsible_agency": "Safety and Permits",
    "final_address": "3981 Pauger St",
    "address_councildis": "D",
    "status": "Pending",
    "rowid": "1194461",
    "final_x": "3683181.86152",
    "final_y": "545732.622736",
    "longitude": "-90.06226178354308",
    "latitude": "29.994524274346126",
    "geocoded_column": {
      "latitude": "29.994524274346126",
      "longitude": "-90.06226178354308"
    }
  },
  {
    "service_request": "2025-1194460",
    "request_type": "Trash/Recycling",
    "request_reason": "Request a Large Item Pick Up",
    "date_created": "2025-05-22T14:29:14.000",
    "date_modified": "2025-05-22T14:29:16.000",
    "request_status": "Pending",
    "responsible_agency": "Department of Sanitation",
    "final_address": "7501 Morel St",
    "address_councildis": "E",
    "status": "Assigned to Contractor",
    "contractor": "Waste Pro",
    "rowid": "1194460",
    "final_x": "3719295.73823",
    "final_y": "571441.845992",
    "longitude": "-89.94720157124372",
    "latitude": "30.064063324095887",
    "geocoded_column": {
      "latitude": "30.064063324095887",
      "longitude": "-89.94720157124372"
    }
  },
  {
    "service_request": "2025-1194459",
    "request_type": "Trash/Recycling",
    "request_reason": "Return Trash Cart",
    "date_created": "2025-05-22T14:25:14.000",
    "date_modified": "2025-05-22T14:25:16.000",
    "request_status": "Pending",
    "responsible_agency": "Department of Sanitation",
    "final_address": "2508 Palmer Ave",
    "address_councildis": "A",
    "status": "Assigned to Contractor",
    "contractor": "IV Waste",
    "rowid": "1194459",
    "final_x": "3666432.72327",
    "final_y": "526004.241214",
    "longitude": "-90.11583259924609",
    "latitude": "29.940778010998873",
    "geocoded_column": {
      "latitude": "29.940778010998873",
      "longitude": "-90.11583259924609"
    }
  },
  {
    "service_request": "2025-1194458",
    "request_type": "Trash/Recycling",
    "request_reason": "Request a Large Item Pick Up",
    "date_created": "2025-05-22T14:22:43.000",
    "date_modified": "2025-05-22T15:04:35.000",
    "request_status": "Pending",
    "responsible_agency": "Department of Sanitation",
    "final_address": "1240 Eighth St",
    "address_councildis": "B",
    "status": "Assigned to Contractor",
    "contractor": "IV Waste",
    "rowid": "1194458",
    "final_x": "3675693.45057",
    "final_y": "520764.085945",
    "longitude": "-90.08677482034872",
    "latitude": "29.9260954788643",
    "geocoded_column": {
      "latitude": "29.9260954788643",
      "longitude": "-90.08677482034872"
    }
  },
  {
    "service_request": "2025-1194457",
    "request_type": "Trash/Recycling",
    "request_reason": "Order Recycling Cart",
    "date_created": "2025-05-22T14:16:45.000",
    "date_modified": "2025-05-22T14:16:47.000",
    "request_status": "Pending",
    "responsible_agency": "Department of Sanitation",
    "final_address": "4900 Citrus Dr",
    "address_councildis": "E",
    "status": "Pending",
    "rowid": "1194457",
    "final_x": "3710608.39665",
    "final_y": "556813.502106",
    "longitude": "-89.97521075313132",
    "latitude": "30.024127353000207",
    "geocoded_column": {
      "latitude": "30.024127353000207",
      "longitude": "-89.97521075313132"
    }
  },
  {
    "service_request": "2025-1194456",
    "request_type": "Parks & Parkways",
    "request_reason": "Park Maintenance/Clean Up",
    "date_created": "2025-05-22T14:16:32.000",
    "date_modified": "2025-05-22T14:16:34.000",
    "request_status": "Pending",
    "responsible_agency": "Department of Parks & Parkway",
    "final_address": "738 Napoleon Ave",
    "address_councildis": "B",
    "status": "Pending",
    "rowid": "1194456",
    "final_x": "3671003.26683",
    "final_y": "518330.136182",
    "longitude": "-90.10166299439517",
    "latitude": "29.919542359407593",
    "geocoded_column": {
      "latitude": "29.919542359407593",
      "longitude": "-90.10166299439517"
    }
  },
  {
    "service_request": "2025-1194455",
    "request_type": "Trash/Recycling",
    "request_reason": "Request a Large Item Pick Up",
    "date_created": "2025-05-22T14:14:05.000",
    "date_modified": "2025-05-22T14:14:07.000",
    "request_status": "Pending",
    "responsible_agency": "Department of Sanitation",
    "final_address": "1209 Pine St",
    "address_councildis": "A",
    "status": "Assigned to Contractor",
    "contractor": "IV Waste",
    "rowid": "1194455",
    "final_x": "3664000.84596",
    "final_y": "526708.51027",
    "longitude": "-90.12348701731591",
    "latitude": "29.94278535237069",
    "geocoded_column": {
      "latitude": "29.94278535237069",
      "longitude": "-90.12348701731591"
    }
  },
  {
    "service_request": "2025-1194454",
    "request_type": "Trash/Recycling",
    "request_reason": "Replace Trash Cart",
    "date_created": "2025-05-22T14:13:04.000",
    "date_modified": "2025-05-22T14:13:06.000",
    "request_status": "Pending",
    "responsible_agency": "Department of Sanitation",
    "final_address": "6355 Fleur-De-Lis Dr",
    "address_councildis": "A",
    "status": "Assigned to Contractor",
    "contractor": "IV Waste",
    "rowid": "1194454",
    "final_x": "3665377.45818",
    "final_y": "550103.945748",
    "longitude": "-90.11835748995455",
    "latitude": "30.00707495668983",
    "geocoded_column": {
      "latitude": "30.00707495668983",
      "longitude": "-90.11835748995455"
    }
  },
  {
    "service_request": "2025-1194453",
    "request_type": "Trash/Recycling",
    "request_reason": "Repair Trash Cart",
    "date_created": "2025-05-22T14:11:50.000",
    "date_modified": "2025-05-22T14:11:53.000",
    "request_status": "Pending",
    "responsible_agency": "Department of Sanitation",
    "final_address": "212 N Lopez St",
    "address_councildis": "B",
    "status": "Assigned to Contractor",
    "contractor": "IV Waste",
    "rowid": "1194453",
    "final_x": "3674233.30043",
    "final_y": "536646.874567",
    "longitude": "-90.09084043241627",
    "latitude": "29.96981149975265",
    "geocoded_column": {
      "latitude": "29.96981149975265",
      "longitude": "-90.09084043241627"
    }
  },
  {
    "service_request": "2025-1194452",
    "request_type": "Roads and Streets",
    "request_reason": "Pothole",
    "date_created": "2025-05-22T14:06:40.000",
    "date_modified": "2025-05-22T14:06:42.000",
    "request_status": "Pending",
    "responsible_agency": "Department of Public Works",
    "final_address": "MORRISON RD & WAVE DR",
    "address_councildis": "E",
    "status": "Pending",
    "rowid": "1194452",
    "final_x": "3715410.7",
    "final_y": "568169.48",
    "longitude": "-89.95960635705562",
    "latitude": "30.05519432223659",
    "geocoded_column": {
      "latitude": "30.05519432223659",
      "longitude": "-89.95960635705562"
    }
  },
  {
    "service_request": "2025-1194451",
    "request_type": "Trash/Recycling",
    "request_reason": "Request a Large Item Pick Up",
    "date_created": "2025-05-22T13:53:18.000",
    "date_modified": "2025-05-22T13:53:20.000",
    "request_status": "Pending",
    "responsible_agency": "Department of Sanitation",
    "final_address": "4332 Eastview Dr",
    "address_councildis": "E",
    "status": "Assigned to Contractor",
    "contractor": "Waste Pro",
    "rowid": "1194451",
    "final_x": "3705274.80887",
    "final_y": "553216.555415",
    "longitude": "-89.99219678388874",
    "latitude": "30.014409882041328",
    "geocoded_column": {
      "latitude": "30.014409882041328",
      "longitude": "-89.99219678388874"
    }
  },
  {
    "service_request": "2025-1194450",
    "request_type": "Abandoned Vehicles",
    "request_reason": "Abandoned/Junk Vehicles",
    "date_created": "2025-05-22T13:50:51.000",
    "date_modified": "2025-05-22T13:50:53.000",
    "request_status": "Pending",
    "responsible_agency": "Department of Public Works",
    "final_address": "KERLEREC ST & N PRIEUR ST",
    "address_councildis": "D",
    "status": "Pending",
    "rowid": "1194450",
    "final_x": "3680659.6",
    "final_y": "537547.28",
    "longitude": "-90.07051425142005",
    "latitude": "29.972094133660182",
    "geocoded_column": {
      "latitude": "29.972094133660182",
      "longitude": "-90.07051425142005"
    }
  },
  {
    "service_request": "2025-1194449",
    "request_type": "Trash/Recycling",
    "request_reason": "Repair Trash Cart",
    "date_created": "2025-05-22T13:50:40.000",
    "date_modified": "2025-05-22T13:50:43.000",
    "request_status": "Pending",
    "responsible_agency": "Department of Sanitation",
    "final_address": "934 Brooklyn Ave",
    "address_councildis": "C",
    "status": "Assigned to Contractor",
    "contractor": "Richards Disposal",
    "rowid": "1194449",
    "final_x": "3686214.18498",
    "final_y": "527983.178815",
    "longitude": "-90.0533094128359",
    "latitude": "29.94562665522429",
    "geocoded_column": {
      "latitude": "29.94562665522429",
      "longitude": "-90.0533094128359"
    }
  },
  {
    "service_request": "2025-1194448",
    "request_type": "Roads and Streets",
    "request_reason": "Pothole",
    "date_created": "2025-05-22T13:49:56.000",
    "date_modified": "2025-05-22T13:49:57.000",
    "request_status": "Pending",
    "responsible_agency": "Department of Public Works",
    "final_address": "100 BLK N Rocheblave St",
    "address_councildis": "B",
    "status": "Pending",
    "rowid": "1194448",
    "final_x": "3676284.63493",
    "final_y": "534698.202701",
    "longitude": "-90.08442919791207",
    "latitude": "29.964391991269945",
    "geocoded_column": {
      "latitude": "29.964391991269945",
      "longitude": "-90.08442919791207"
    }
  },
  {
    "service_request": "2025-1194447",
    "request_type": "Trash/Recycling",
    "request_reason": "Repair Trash Cart",
    "date_created": "2025-05-22T13:49:47.000",
    "date_modified": "2025-05-22T15:49:53.000",
    "case_close_date": "2025-05-22T10:49:52.000",
    "request_status": "Closed",
    "responsible_agency": "Department of Sanitation",
    "final_address": "826 St Ann St",
    "address_councildis": "C",
    "status": "Assigned to Contractor",
    "contractor": "IV Waste",
    "contractor_action": "Completed",
    "rowid": "1194447",
    "final_x": "3682294.74511",
    "final_y": "533095.652612",
    "longitude": "-90.0655057548322",
    "latitude": "29.959804036568386",
    "geocoded_column": {
      "latitude": "29.959804036568386",
      "longitude": "-90.0655057548322"
    }
  },
  {
    "service_request": "2025-1194446",
    "request_type": "Roads and Streets",
    "request_reason": "Pothole",
    "date_created": "2025-05-22T13:46:22.000",
    "date_modified": "2025-05-22T13:46:25.000",
    "request_status": "Pending",
    "responsible_agency": "Department of Public Works",
    "final_address": "100 BLK N Rocheblave St",
    "address_councildis": "B",
    "status": "Pending",
    "rowid": "1194446",
    "final_x": "3676284.63493",
    "final_y": "534698.202701",
    "longitude": "-90.08442919791207",
    "latitude": "29.964391991269945",
    "geocoded_column": {
      "latitude": "29.964391991269945",
      "longitude": "-90.08442919791207"
    }
  },
  {
    "service_request": "2025-1194445",
    "request_type": "Safety & Permits",
    "request_reason": "Construction permit",
    "date_created": "2025-05-22T13:43:58.000",
    "date_modified": "2025-05-22T13:44:00.000",
    "request_status": "Pending",
    "responsible_agency": "Safety and Permits",
    "final_address": "2433 Bedford Dr",
    "address_councildis": "C",
    "status": "Pending",
    "rowid": "1194445",
    "final_x": "3705313.57911",
    "final_y": "522211.086138",
    "longitude": "-89.99321999718983",
    "latitude": "29.929154948404037",
    "geocoded_column": {
      "latitude": "29.929154948404037",
      "longitude": "-89.99321999718983"
    }
  },
  {
    "service_request": "2025-1194444",
    "request_type": "Trash/Recycling",
    "request_reason": "Request a Large Item Pick Up",
    "date_created": "2025-05-22T13:42:52.000",
    "date_modified": "2025-05-22T13:42:53.000",
    "request_status": "Pending",
    "responsible_agency": "Department of Sanitation",
    "final_address": "9513 Dinkins St",
    "address_councildis": "E",
    "status": "Assigned to Contractor",
    "contractor": "Waste Pro",
    "rowid": "1194444",
    "final_x": "3706307.06206",
    "final_y": "564392.175713",
    "longitude": "-89.98852099553855",
    "latitude": "30.04510520345999",
    "geocoded_column": {
      "latitude": "30.04510520345999",
      "longitude": "-89.98852099553855"
    }
  },
  {
    "service_request": "2025-1194443",
    "request_type": "Trash/Recycling",
    "request_reason": "Missed Trash Pick-Up",
    "date_created": "2025-05-22T13:42:01.000",
    "date_modified": "2025-05-22T13:42:02.000",
    "request_status": "Pending",
    "responsible_agency": "Department of Sanitation",
    "final_address": "2435 Halsey Ave",
    "address_councildis": "C",
    "status": "Assigned to Contractor",
    "contractor": "Richards Disposal",
    "rowid": "1194443",
    "final_x": "3697621.8872",
    "final_y": "522088.584314",
    "longitude": "-90.01750548419268",
    "latitude": "29.929063223716966",
    "geocoded_column": {
      "latitude": "29.929063223716966",
      "longitude": "-90.01750548419268"
    }
  },
  {
    "service_request": "2025-1194442",
    "request_type": "Trash/Recycling",
    "request_reason": "Request a Large Item Pick Up",
    "date_created": "2025-05-22T13:41:49.000",
    "date_modified": "2025-05-22T13:41:50.000",
    "request_status": "Pending",
    "responsible_agency": "Department of Sanitation",
    "final_address": "5411 Vermillion Blvd",
    "address_councildis": "D",
    "status": "Assigned to Contractor",
    "contractor": "IV Waste",
    "rowid": "1194442",
    "final_x": "3683341.72207",
    "final_y": "552706.207638",
    "longitude": "-90.06151229823904",
    "latitude": "30.013694243519467",
    "geocoded_column": {
      "latitude": "30.013694243519467",
      "longitude": "-90.06151229823904"
    }
  },
  {
    "service_request": "2025-1194441",
    "request_type": "Trash/Recycling",
    "request_reason": "Repair Trash Cart",
    "date_created": "2025-05-22T13:40:12.000",
    "date_modified": "2025-05-22T13:40:14.000",
    "request_status": "Pending",
    "responsible_agency": "Department of Sanitation",
    "final_address": "2715 Cherry St",
    "address_councildis": "A",
    "status": "Assigned to Contractor",
    "contractor": "IV Waste",
    "rowid": "1194441",
    "final_x": "3662610.89997",
    "final_y": "535316.11239",
    "longitude": "-90.12758945836644",
    "latitude": "29.966493755603555",
    "geocoded_column": {
      "latitude": "29.966493755603555",
      "longitude": "-90.12758945836644"
    }
  },
  {
    "service_request": "2025-1194440",
    "request_type": "Trash/Recycling",
    "request_reason": "Replace Trash Cart",
    "date_created": "2025-05-22T13:35:53.000",
    "date_modified": "2025-05-22T13:35:55.000",
    "request_status": "Pending",
    "responsible_agency": "Department of Sanitation",
    "final_address": "3046 St Philip St",
    "address_councildis": "A",
    "status": "Assigned to Contractor",
    "contractor": "IV Waste",
    "rowid": "1194440",
    "final_x": "3676037.67029",
    "final_y": "538862.519369",
    "longitude": "-90.08506583232985",
    "latitude": "29.97584984440599",
    "geocoded_column": {
      "latitude": "29.97584984440599",
      "longitude": "-90.08506583232985"
    }
  },
  {
    "service_request": "2025-1194439",
    "request_type": "Trash/Recycling",
    "request_reason": "Order Recycling Cart",
    "date_created": "2025-05-22T13:31:56.000",
    "date_modified": "2025-05-22T13:31:58.000",
    "request_status": "Pending",
    "responsible_agency": "Department of Sanitation",
    "final_address": "4881 Chantilly Dr",
    "address_councildis": "E",
    "status": "Pending",
    "rowid": "1194439",
    "final_x": "3700883.35255",
    "final_y": "555016.285401",
    "longitude": "-90.00600565020922",
    "latitude": "30.019499052176066",
    "geocoded_column": {
      "latitude": "30.019499052176066",
      "longitude": "-90.00600565020922"
    }
  },
  {
    "service_request": "2025-1194438",
    "request_type": "Trash/Recycling",
    "request_reason": "Order Recycling Cart",
    "date_created": "2025-05-22T13:30:17.000",
    "date_modified": "2025-05-22T13:30:18.000",
    "request_status": "Pending",
    "responsible_agency": "Department of Sanitation",
    "final_address": "342 40Th St",
    "address_councildis": "A",
    "status": "Pending",
    "rowid": "1194438",
    "final_x": "3665071.94253",
    "final_y": "553311.063063",
    "longitude": "-90.1192153420628",
    "latitude": "30.015902315914847",
    "geocoded_column": {
      "latitude": "30.015902315914847",
      "longitude": "-90.1192153420628"
    }
  },
  {
    "service_request": "2025-1194437",
    "request_type": "Abandoned Vehicles",
    "request_reason": "Abandoned/Junk Vehicles",
    "date_created": "2025-05-22T13:29:55.000",
    "date_modified": "2025-05-22T13:29:57.000",
    "request_status": "Pending",
    "responsible_agency": "Department of Public Works",
    "final_address": "6208 Wadsworth Dr",
    "address_councildis": "D",
    "status": "Pending",
    "rowid": "1194437",
    "final_x": "3681577.33135",
    "final_y": "555736.271577",
    "longitude": "-90.06698105266985",
    "latitude": "30.02207954456996",
    "geocoded_column": {
      "latitude": "30.02207954456996",
      "longitude": "-90.06698105266985"
    }
  },
  {
    "service_request": "2025-1194436",
    "request_type": "Trash/Recycling",
    "request_reason": "Request a Large Item Pick Up",
    "date_created": "2025-05-22T13:27:39.000",
    "date_modified": "2025-05-22T13:27:41.000",
    "request_status": "Pending",
    "responsible_agency": "Department of Sanitation",
    "final_address": "4881 Chantilly Dr",
    "address_councildis": "E",
    "status": "Assigned to Contractor",
    "contractor": "Waste Pro",
    "rowid": "1194436",
    "final_x": "3700883.35255",
    "final_y": "555016.285401",
    "longitude": "-90.00600565020922",
    "latitude": "30.019499052176066",
    "geocoded_column": {
      "latitude": "30.019499052176066",
      "longitude": "-90.00600565020922"
    }
  },
  {
    "service_request": "2025-1194435",
    "request_type": "Abandoned Vehicles",
    "request_reason": "Abandoned/Junk Vehicles",
    "date_created": "2025-05-22T13:25:56.000",
    "date_modified": "2025-05-22T13:25:58.000",
    "request_status": "Pending",
    "responsible_agency": "Department of Public Works",
    "final_address": "3030 Boyd St",
    "address_councildis": "C",
    "status": "Pending",
    "rowid": "1194435",
    "final_x": "3708148.15921",
    "final_y": "519410.198519",
    "longitude": "-89.98437594865551",
    "latitude": "29.92136202980055",
    "geocoded_column": {
      "latitude": "29.92136202980055",
      "longitude": "-89.98437594865551"
    }
  },
  {
    "service_request": "2025-1194434",
    "request_type": "Roads and Streets",
    "request_reason": "Pothole",
    "date_created": "2025-05-22T13:25:42.000",
    "date_modified": "2025-05-22T13:25:43.000",
    "request_status": "Pending",
    "responsible_agency": "Department of Public Works",
    "final_address": "0 BLK Allard Blvd",
    "address_councildis": "A",
    "status": "Pending",
    "rowid": "1194434",
    "final_x": "3672889.12367",
    "final_y": "541158.059532",
    "longitude": "-90.09493149945968",
    "latitude": "29.982255733983415",
    "geocoded_column": {
      "latitude": "29.982255733983415",
      "longitude": "-90.09493149945968"
    }
  },
  {
    "service_request": "2025-1194433",
    "request_type": "Trash/Recycling",
    "request_reason": "Illegal Dumping",
    "date_created": "2025-05-22T13:24:14.000",
    "date_modified": "2025-05-22T13:24:15.000",
    "request_status": "Pending",
    "responsible_agency": "Department of Sanitation",
    "final_address": "3300 Kabel Dr",
    "address_councildis": "C",
    "status": "Pending",
    "rowid": "1194433",
    "final_x": "3700702.90429",
    "final_y": "519072.109495",
    "longitude": "-90.00788953238049",
    "latitude": "29.92067131085986",
    "geocoded_column": {
      "latitude": "29.92067131085986",
      "longitude": "-90.00788953238049"
    }
  },
  {
    "service_request": "2025-1194432",
    "request_type": "Streetlights",
    "request_reason": "Streetlight Knocked Down/Leaning",
    "date_created": "2025-05-22T13:23:46.000",
    "date_modified": "2025-05-22T13:23:48.000",
    "request_status": "Pending",
    "responsible_agency": "Department of Public Works",
    "final_address": "2022 Hope St",
    "address_councildis": "D",
    "status": "Pending",
    "contractor": "Legacy Professional Services",
    "rowid": "1194432",
    "final_x": "3682572.88892",
    "final_y": "542010.05134",
    "longitude": "-90.06431568245328",
    "latitude": "29.984307079417434",
    "geocoded_column": {
      "latitude": "29.984307079417434",
      "longitude": "-90.06431568245328"
    }
  },
  {
    "service_request": "2025-1194431",
    "request_type": "Trash/Recycling",
    "request_reason": "Repair Trash Cart",
    "date_created": "2025-05-22T13:22:39.000",
    "date_modified": "2025-05-22T13:22:42.000",
    "request_status": "Pending",
    "responsible_agency": "Department of Sanitation",
    "final_address": "2022 Hope St",
    "address_councildis": "D",
    "status": "Assigned to Contractor",
    "contractor": "IV Waste",
    "rowid": "1194431",
    "final_x": "3682572.88892",
    "final_y": "542010.05134",
    "longitude": "-90.06431568245328",
    "latitude": "29.984307079417434",
    "geocoded_column": {
      "latitude": "29.984307079417434",
      "longitude": "-90.06431568245328"
    }
  },
  {
    "service_request": "2025-1194430",
    "request_type": "Trash/Recycling",
    "request_reason": "Request a Large Item Pick Up",
    "date_created": "2025-05-22T13:19:51.000",
    "date_modified": "2025-05-22T13:19:53.000",
    "request_status": "Pending",
    "responsible_agency": "Department of Sanitation",
    "final_address": "7532 Horizon Dr",
    "address_councildis": "E",
    "status": "Assigned to Contractor",
    "contractor": "Waste Pro",
    "rowid": "1194430",
    "final_x": "3725273.33702",
    "final_y": "569708.616998",
    "longitude": "-89.92837336730125",
    "latitude": "30.059097494703302",
    "geocoded_column": {
      "latitude": "30.059097494703302",
      "longitude": "-89.92837336730125"
    }
  },
  {
    "service_request": "2025-1194429",
    "request_type": "Trash/Recycling",
    "request_reason": "Order Trash Cart",
    "date_created": "2025-05-22T13:18:49.000",
    "date_modified": "2025-05-22T13:18:51.000",
    "request_status": "Pending",
    "responsible_agency": "Department of Sanitation",
    "final_address": "2022 Painters St",
    "address_councildis": "D",
    "status": "Assigned to Contractor",
    "contractor": "IV Waste",
    "rowid": "1194429",
    "final_x": "3687250.1293",
    "final_y": "540011.744011",
    "longitude": "-90.04961312516824",
    "latitude": "29.978669179897437",
    "geocoded_column": {
      "latitude": "29.978669179897437",
      "longitude": "-90.04961312516824"
    }
  },
  {
    "service_request": "2025-1194428",
    "request_type": "Trash/Recycling",
    "request_reason": "Repair Trash Cart",
    "date_created": "2025-05-22T13:18:48.000",
    "date_modified": "2025-05-22T13:18:50.000",
    "request_status": "Pending",
    "responsible_agency": "Department of Sanitation",
    "final_address": "2936 Dublin St",
    "address_councildis": "A",
    "status": "Assigned to Contractor",
    "contractor": "IV Waste",
    "rowid": "1194428",
    "final_x": "3665990.24935",
    "final_y": "533376.214276",
    "longitude": "-90.11698250338773",
    "latitude": "29.961061463830443",
    "geocoded_column": {
      "latitude": "29.961061463830443",
      "longitude": "-90.11698250338773"
    }
  },
  {
    "service_request": "2025-1194427",
    "request_type": "Abandoned Vehicles",
    "request_reason": "Abandoned/Junk Vehicles",
    "date_created": "2025-05-22T13:17:45.000",
    "date_modified": "2025-05-22T13:17:47.000",
    "request_status": "Pending",
    "responsible_agency": "Department of Public Works",
    "final_address": "3140 N Derbigny St",
    "address_councildis": "D",
    "status": "Pending",
    "rowid": "1194427",
    "final_x": "3689903.89865",
    "final_y": "538120.831625",
    "longitude": "-90.04129890007313",
    "latitude": "29.97338782390384",
    "geocoded_column": {
      "latitude": "29.97338782390384",
      "longitude": "-90.04129890007313"
    }
  },
  {
    "service_request": "2025-1194426",
    "request_type": "Property Maintenance",
    "request_reason": "Property Maintenance",
    "date_created": "2025-05-22T13:17:33.000",
    "date_modified": "2025-05-22T14:16:27.000",
    "case_close_date": "2025-05-22T09:16:25.000",
    "request_status": "Closed",
    "responsible_agency": "Department of Code Enforcement",
    "final_address": "548 S Rampart St",
    "address_councildis": "B",
    "status": "Referred to Code Enforcement",
    "rowid": "1194426",
    "final_x": "3679274.50594",
    "final_y": "529265.666817",
    "longitude": "-90.07517579156094",
    "latitude": "29.949364407839855",
    "geocoded_column": {
      "latitude": "29.949364407839855",
      "longitude": "-90.07517579156094"
    }
  },
  {
    "service_request": "2025-1194425",
    "request_type": "Property Maintenance",
    "request_reason": "Property Maintenance",
    "date_created": "2025-05-22T13:14:50.000",
    "date_modified": "2025-05-22T14:27:08.000",
    "case_close_date": "2025-05-22T09:27:06.000",
    "request_status": "Closed",
    "responsible_agency": "Department of Code Enforcement",
    "final_address": "3400 BLK Loyola Ave",
    "address_councildis": "B",
    "status": "Referred to Code Enforcement",
    "rowid": "1194425",
    "final_x": "3673155.59132",
    "final_y": "523428.25444",
    "longitude": "-90.09469520920736",
    "latitude": "29.93349675547928",
    "geocoded_column": {
      "latitude": "29.93349675547928",
      "longitude": "-90.09469520920736"
    }
  },
  {
    "service_request": "2025-1194424",
    "request_type": "General Services",
    "request_reason": "General Service Request",
    "date_created": "2025-05-22T13:12:26.000",
    "date_modified": "2025-05-22T13:14:18.000",
    "case_close_date": "2025-05-22T08:14:17.000",
    "request_status": "Closed",
    "responsible_agency": "Orleans Parish Communication District",
    "final_address": "8540 Hickory St",
    "address_councildis": "A",
    "status": "Referred to External Agency",
    "rowid": "1194424",
    "final_x": "3662073.25018",
    "final_y": "531074.609602",
    "longitude": "-90.12942809257606",
    "latitude": "29.954846547833338",
    "geocoded_column": {
      "latitude": "29.954846547833338",
      "longitude": "-90.12942809257606"
    }
  },
  {
    "service_request": "2025-1194423",
    "request_type": "Trash/Recycling",
    "request_reason": "Order Recycling Cart",
    "date_created": "2025-05-22T13:08:32.000",
    "date_modified": "2025-05-22T13:08:33.000",
    "request_status": "Pending",
    "responsible_agency": "Department of Sanitation",
    "final_address": "4537 S Rocheblave St",
    "address_councildis": "B",
    "status": "Pending",
    "rowid": "1194423",
    "final_x": "3669384.8738",
    "final_y": "528438.901504",
    "longitude": "-90.1064298137125",
    "latitude": "29.947385954911873",
    "geocoded_column": {
      "latitude": "29.947385954911873",
      "longitude": "-90.1064298137125"
    }
  },
  {
    "service_request": "2025-1194422",
    "request_type": "Trash/Recycling",
    "request_reason": "Illegal Dumping",
    "date_created": "2025-05-22T13:08:27.000",
    "date_modified": "2025-05-22T13:08:28.000",
    "request_status": "Pending",
    "responsible_agency": "Department of Sanitation",
    "final_address": "3300 Kabel Dr",
    "address_councildis": "C",
    "status": "Pending",
    "rowid": "1194422",
    "final_x": "3700702.90429",
    "final_y": "519072.109495",
    "longitude": "-90.00788953238049",
    "latitude": "29.92067131085986",
    "geocoded_column": {
      "latitude": "29.92067131085986",
      "longitude": "-90.00788953238049"
    }
  },
  {
    "service_request": "2025-1194421",
    "request_type": "Trash/Recycling",
    "request_reason": "Request a Large Item Pick Up",
    "date_created": "2025-05-22T13:07:57.000",
    "date_modified": "2025-05-22T13:07:59.000",
    "request_status": "Pending",
    "responsible_agency": "Department of Sanitation",
    "final_address": "5306 Douglass St",
    "address_councildis": "E",
    "status": "Assigned to Contractor",
    "contractor": "Waste Pro",
    "rowid": "1194421",
    "final_x": "3696297.5969",
    "final_y": "531849.416579",
    "longitude": "-90.02133317455446",
    "latitude": "29.955943876424367",
    "geocoded_column": {
      "latitude": "29.955943876424367",
      "longitude": "-90.02133317455446"
    }
  },
  {
    "service_request": "2025-1194420",
    "request_type": "Trash/Recycling",
    "request_reason": "Repair Trash Cart",
    "date_created": "2025-05-22T13:07:03.000",
    "date_modified": "2025-05-22T13:07:44.000",
    "request_status": "Pending",
    "responsible_agency": "Department of Sanitation",
    "final_address": "4537 S Rocheblave St",
    "address_councildis": "B",
    "status": "Pending",
    "rowid": "1194420",
    "final_x": "3669384.8738",
    "final_y": "528438.901504",
    "longitude": "-90.1064298137125",
    "latitude": "29.947385954911873",
    "geocoded_column": {
      "latitude": "29.947385954911873",
      "longitude": "-90.1064298137125"
    }
  },
  {
    "service_request": "2025-1194419",
    "request_type": "Streetlights",
    "request_reason": "Streetlight Outage/Malfunction",
    "date_created": "2025-05-22T13:05:10.000",
    "date_modified": "2025-05-22T13:05:11.000",
    "request_status": "Pending",
    "responsible_agency": "Department of Public Works",
    "final_address": "9701 W Wheaton Cir",
    "address_councildis": "E",
    "status": "Pending",
    "contractor": "Legacy Professional Services",
    "rowid": "1194419",
    "final_x": "3708564.44932",
    "final_y": "562196.512479",
    "longitude": "-89.98146850923504",
    "latitude": "30.03899496435982",
    "geocoded_column": {
      "latitude": "30.03899496435982",
      "longitude": "-89.98146850923504"
    }
  },
  {
    "service_request": "2025-1194418",
    "request_type": "Trash/Recycling",
    "request_reason": "Request a Large Item Pick Up",
    "date_created": "2025-05-22T12:59:42.000",
    "date_modified": "2025-05-22T12:59:46.000",
    "request_status": "Pending",
    "responsible_agency": "Department of Sanitation",
    "final_address": "6041 General Diaz St",
    "address_councildis": "A",
    "status": "Assigned to Contractor",
    "contractor": "IV Waste",
    "rowid": "1194418",
    "final_x": "3669626.92103",
    "final_y": "547505.87189",
    "longitude": "-90.10502022714073",
    "latitude": "29.99980657964511",
    "geocoded_column": {
      "latitude": "29.99980657964511",
      "longitude": "-90.10502022714073"
    }
  },
  {
    "service_request": "2025-1194417",
    "request_type": "Trash/Recycling",
    "request_reason": "Return Recycling Cart",
    "date_created": "2025-05-22T12:58:42.000",
    "date_modified": "2025-05-22T12:58:44.000",
    "request_status": "Pending",
    "responsible_agency": "Department of Sanitation",
    "final_address": "1601 N Rocheblave St",
    "address_councildis": "D",
    "status": "Pending",
    "rowid": "1194417",
    "final_x": "3679930.8228",
    "final_y": "539553.331018",
    "longitude": "-90.07274615084303",
    "latitude": "29.977632145662515",
    "geocoded_column": {
      "latitude": "29.977632145662515",
      "longitude": "-90.07274615084303"
    }
  },