[
  {
    "service_request": "2025-1218921",
    "request_type": "Trash/Recycling",
    "request_reason": "Request a Large Item Pick Up",
    "date_created": "2025-08-15T23:57:09.000",
    "date_modified": "2025-08-15T23:57:11.000",
    "request_status": "Pending",
    "responsible_agency": "Department of Sanitation",
    "final_address": "4490 Lafaye St",
    "address_councildis": "D",
    "status": "Assigned to Contractor",
    "contractor": "IV Waste",
    "rowid": "1218921",
    "final_x": "3687462.01257",
    "final_y": "549669.37314",
    "longitude": "-90.04860192380187",
    "latitude": "30.005217667375696",
    "geocoded_column": {
      "latitude": "30.005217667375696",
      "longitude": "-90.04860192380187"
    }
  },
  {
    "service_request": "2025-1218920",
    "request_type": "Abandoned Vehicles",
    "request_reason": "Abandoned/Junk Vehicles",
    "date_created": "2025-08-15T23:09:23.000",
    "date_modified": "2025-08-15T23:09:25.000",
    "request_status": "Pending",
    "responsible_agency": "Department of Public Works",
    "final_address": "3400 Urquhart St",
    "address_councildis": "C",
    "status": "Pending",
    "rowid": "1218920",
    "final_x": "3690471.7951",
    "final_y": "536367.300871",
    "longitude": "-90.0395679016853",
    "latitude": "29.968548613115413",
    "geocoded_column": {
      "latitude": "29.968548613115413",
      "longitude": "-90.0395679016853"
    }
  },
  {
    "service_request": "2025-1218919",
    "request_type": "Streetlights",
    "request_reason": "Streetlight Outage/Malfunction",
    "date_created": "2025-08-15T22:01:09.000",
    "date_modified": "2025-08-15T22:01:11.000",
    "request_status": "Pending",
    "responsible_agency": "Department of Public Works",
    "final_address": "14211 Chef Menteur Hwy",
    "address_councildis": "E",
    "status": "Pending",
    "contractor": "Legacy Professional Services",
    "rowid": "1218919",
    "final_x": "3729815.82195",
    "final_y": "561325.235294",
    "longitude": "-89.91434332333519",
    "latitude": "30.035892795204653",
    "geocoded_column": {
      "latitude": "30.035892795204653",
      "longitude": "-89.91434332333519"
    }
  },
  {
    "service_request": "2025-1218918",
    "request_type": "Parks & Parkways",
    "request_reason": "Request Tree Service (Right of Way/Public Property)",
    "date_created": "2025-08-15T21:52:39.000",
    "date_modified": "2025-08-15T21:52:41.000",
    "request_status": "Pending",
    "responsible_agency": "Department of Parks & Parkway",
    "final_address": "6868 Canal Blvd",
    "address_councildis": "A",
    "status": "Pending",
    "rowid": "1218918",
    "final_x": "3668887.18503",
    "final_y": "553189.229143",
    "longitude": "-90.1071649655128",
    "latitude": "30.01545560732709",
    "geocoded_column": {
      "latitude": "30.01545560732709",
      "longitude": "-90.1071649655128"
    }
  },
  {
    "service_request": "2025-1218917",
    "request_type": "Streetlights",
    "request_reason": "Streetlight Outage/Malfunction",
    "date_created": "2025-08-15T21:24:13.000",
    "date_modified": "2025-08-15T21:24:16.000",
    "request_status": "Pending",
    "responsible_agency": "Department of Public Works",
    "final_address": "6361 Louisville St",
    "address_councildis": "A",
    "status": "Pending",
    "contractor": "Legacy Professional Services",
    "rowid": "1218917",
    "final_x": "3668066.15316",
    "final_y": "549814.744788",
    "longitude": "-90.10987289640458",
    "latitude": "30.006201090675304",
    "geocoded_column": {
      "latitude": "30.006201090675304",
      "longitude": "-90.10987289640458"
    }
  },
  {
    "service_request": "2025-1218916",
    "request_type": "Roads and Streets",
    "request_reason": "Pothole",
    "date_created": "2025-08-15T20:58:19.000",
    "date_modified": "2025-08-15T20:58:21.000",
    "request_status": "Pending",
    "responsible_agency": "Department of Public Works",
    "final_address": "2432 Constance St",
    "address_councildis": "B",
    "status": "Pending",
    "rowid": "1218916",
    "final_x": "3678078.43509",
    "final_y": "521011.491641",
    "longitude": "-90.07923756575632",
    "latitude": "29.92670420492132",
    "geocoded_column": {
      "latitude": "29.92670420492132",
      "longitude": "-90.07923756575632"
    }
  },
  {
    "service_request": "2025-1218915",
    "request_type": "Utility Poles",
    "request_reason": "Wires Sagging/Hanging Low",
    "date_created": "2025-08-15T20:54:41.000",
    "date_modified": "2025-08-15T20:54:43.000",
    "request_status": "Pending",
    "responsible_agency": "Utility Company Collective",
    "final_address": "1004 Second St",
    "address_councildis": "B",
    "status": "Pending",
    "rowid": "1218915",
    "final_x": "3677963.64117",
    "final_y": "521049.179385",
    "longitude": "-90.07959863748381",
    "latitude": "29.92681128812223",
    "geocoded_column": {
      "latitude": "29.92681128812223",
      "longitude": "-90.07959863748381"
    }
  },
  {
    "service_request": "2025-1218914",
    "request_type": "Trash/Recycling",
    "request_reason": "Order Recycling Cart",
    "date_created": "2025-08-15T20:44:01.000",
    "date_modified": "2025-08-15T20:44:06.000",
    "request_status": "Pending",
    "responsible_agency": "Department of Sanitation",
    "final_address": "2907 Dumaine St",
    "address_councildis": "A",
    "status": "Pending",
    "rowid": "1218914",
    "final_x": "3676405.27489",
    "final_y": "538143.463625",
    "longitude": "-90.08392959398513",
    "latitude": "29.97386167080172",
    "geocoded_column": {
      "latitude": "29.97386167080172",
      "longitude": "-90.08392959398513"
    }
  },
  {
    "service_request": "2025-1218913",
    "request_type": "Trash/Recycling",
    "request_reason": "Missed Trash Pick-Up",
    "date_created": "2025-08-15T20:29:55.000",
    "date_modified": "2025-08-15T20:29:57.000",
    "request_status": "Pending",
    "responsible_agency": "Department of Sanitation",
    "final_address": "7341 Fieldston Rd",
    "address_councildis": "E",
    "status": "Assigned to Contractor",
    "contractor": "Waste Pro",
    "rowid": "1218913",
    "final_x": "3700813.70455",
    "final_y": "559922.315229",
    "longitude": "-90.00604615250523",
    "latitude": "30.032990964157168",
    "geocoded_column": {
      "latitude": "30.032990964157168",
      "longitude": "-90.00604615250523"
    }
  },
  {
    "service_request": "2025-1218912",
    "request_type": "Streetlights",
    "request_reason": "Streetlight Outage/Malfunction",
    "date_created": "2025-08-15T20:13:26.000",
    "date_modified": "2025-08-15T20:13:27.000",
    "request_status": "Pending",
    "responsible_agency": "Department of Public Works",
    "final_address": "329 Eliza St",
    "address_councildis": "C",
    "status": "Pending",
    "contractor": "Legacy Professional Services",
    "rowid": "1218912",
    "final_x": "3686551.3503",
    "final_y": "529544.547457",
    "longitude": "-90.05218975520512",
    "latitude": "29.949909526614697",
    "geocoded_column": {
      "latitude": "29.949909526614697",
      "longitude": "-90.05218975520512"
    }
  },
  {
    "service_request": "2025-1218911",
    "request_type": "Streetlights",
    "request_reason": "Streetlight Outage/Malfunction",
    "date_created": "2025-08-15T20:10:24.000",
    "date_modified": "2025-08-15T20:10:27.000",
    "request_status": "Pending",
    "responsible_agency": "Department of Public Works",
    "final_address": "601 Seguin St",
    "address_councildis": "C",
    "status": "Pending",
    "contractor": "Legacy Professional Services",
    "rowid": "1218911",
    "final_x": "3686638.85916",
    "final_y": "529608.322177",
    "longitude": "-90.0519111979024",
    "latitude": "29.95008219471011",
    "geocoded_column": {
      "latitude": "29.95008219471011",
      "longitude": "-90.0519111979024"
    }
  },
  {
    "service_request": "2025-1218910",
    "request_type": "Property Maintenance",
    "request_reason": "Property Maintenance",
    "date_created": "2025-08-15T19:57:09.000",
    "date_modified": "2025-08-15T19:57:11.000",
    "request_status": "Pending",
    "responsible_agency": "Department of Code Enforcement",
    "final_address": "5009 Camp St",
    "address_councildis": "B",
    "status": "Pending",
    "rowid": "1218910",
    "final_x": "3668560.62074",
    "final_y": "518999.077559",
    "longitude": "-90.10935068271841",
    "latitude": "29.921453707079813",
    "geocoded_column": {
      "latitude": "29.921453707079813",
      "longitude": "-90.10935068271841"
    }
  },
  {
    "service_request": "2025-1218909",
    "request_type": "Property Maintenance",
    "request_reason": "Property Maintenance",
    "date_created": "2025-08-15T19:47:11.000",
    "date_modified": "2025-08-15T19:47:14.000",
    "request_status": "Pending",
    "responsible_agency": "Department of Code Enforcement",
    "final_address": "6245 London Ave",
    "address_councildis": "D",
    "status": "Pending",
    "rowid": "1218909",
    "final_x": "3680611.74728",
    "final_y": "555899.107673",
    "longitude": "-90.07002638112795",
    "latitude": "30.022556591309144",
    "geocoded_column": {
      "latitude": "30.022556591309144",
      "longitude": "-90.07002638112795"
    }
  },
  {
    "service_request": "2025-1218908",
    "request_type": "Drainage",
    "request_reason": "Catch Basin Not Draining",
    "date_created": "2025-08-15T19:34:20.000",
    "date_modified": "2025-08-15T19:34:22.000",
    "request_status": "Pending",
    "responsible_agency": "Sewerage & Water Board",
    "final_address": "6631 Colbert St",
    "address_councildis": "A",
    "status": "Pending",
    "rowid": "1218908",
    "final_x": "3667899.64353",
    "final_y": "551707.169685",
    "longitude": "-90.11033513064754",
    "latitude": "30.01140948523858",
    "geocoded_column": {
      "latitude": "30.01140948523858",
      "longitude": "-90.11033513064754"
    }
  },
  {
    "service_request": "2025-1218907",
    "request_type": "Trash/Recycling",
    "request_reason": "Replace Trash Cart",
    "date_created": "2025-08-15T19:31:21.000",
    "date_modified": "2025-08-15T19:31:23.000",
    "request_status": "Pending",
    "responsible_agency": "Department of Sanitation",
    "final_address": "6631 Colbert St",
    "address_councildis": "A",
    "status": "Assigned to Contractor",
    "contractor": "IV Waste",
    "rowid": "1218907",
    "final_x": "3667899.64353",
    "final_y": "551707.169685",
    "longitude": "-90.11033513064754",
    "latitude": "30.01140948523858",
    "geocoded_column": {
      "latitude": "30.01140948523858",
      "longitude": "-90.11033513064754"
    }
  },
  {
    "service_request": "2025-1218906",
    "request_type": "Trash/Recycling",
    "request_reason": "Request a Large Item Pick Up",
    "date_created": "2025-08-15T18:42:51.000",
    "date_modified": "2025-08-15T18:42:53.000",
    "request_status": "Pending",
    "responsible_agency": "Department of Sanitation",
    "final_address": "2537 Desire St",
    "address_councildis": "D",
    "status": "Assigned to Contractor",
    "contractor": "IV Waste",
    "rowid": "1218906",
    "final_x": "3691595.09846",
    "final_y": "541260.882764",
    "longitude": "-90.03584546905974",
    "latitude": "29.981969302060755",
    "geocoded_column": {
      "latitude": "29.981969302060755",
      "longitude": "-90.03584546905974"
    }
  },
  {
    "service_request": "2025-1218905",
    "request_type": "Trash/Recycling",
    "request_reason": "Order Second Trash Cart",
    "date_created": "2025-08-15T18:28:28.000",
    "date_modified": "2025-08-15T18:28:30.000",
    "request_status": "Pending",
    "responsible_agency": "Department of Sanitation",
    "final_address": "6019 Argonne Blvd",
    "address_councildis": "A",
    "status": "Assigned to Contractor",
    "contractor": "IV Waste",
    "rowid": "1218905",
    "final_x": "3670233.69031",
    "final_y": "547349.256209",
    "longitude": "-90.10310872391997",
    "latitude": "29.99935804212886",
    "geocoded_column": {
      "latitude": "29.99935804212886",
      "longitude": "-90.10310872391997"
    }
  },
  {
    "service_request": "2025-1218904",
    "request_type": "Parks & Parkways",
    "request_reason": "Request Tree Service (Right of Way/Public Property)",
    "date_created": "2025-08-15T18:25:35.000",
    "date_modified": "2025-08-15T18:25:37.000",
    "request_status": "Pending",
    "responsible_agency": "Department of Parks & Parkway",
    "final_address": "6019 Argonne Blvd",
    "address_councildis": "A",
    "status": "Pending",
    "rowid": "1218904",
    "final_x": "3670233.69031",
    "final_y": "547349.256209",
    "longitude": "-90.10310872391997",
    "latitude": "29.99935804212886",
    "geocoded_column": {
      "latitude": "29.99935804212886",
      "longitude": "-90.10310872391997"
    }
  },
  {
    "service_request": "2025-1218903",
    "request_type": "Trash/Recycling",
    "request_reason": "Request a Large Item Pick Up",
    "date_created": "2025-08-15T18:19:53.000",
    "date_modified": "2025-08-15T18:19:55.000",
    "request_status": "Pending",
    "responsible_agency": "Department of Sanitation",
    "final_address": "13677 N Lemans St",
    "address_councildis": "E",
    "status": "Assigned to Contractor",
    "contractor": "Waste Pro",
    "rowid": "1218903",
    "final_x": "3726291.56787",
    "final_y": "563515.441632",
    "longitude": "-89.92539540651266",
    "latitude": "30.04203448927935",
    "geocoded_column": {
      "latitude": "30.04203448927935",
      "longitude": "-89.92539540651266"
    }
  },
  {
    "service_request": "2025-1218902",
    "request_type": "Property Maintenance",
    "request_reason": "Property Maintenance",
    "date_created": "2025-08-15T18:11:33.000",
    "date_modified": "2025-08-15T18:11:36.000",
    "request_status": "Pending",
    "responsible_agency": "Department of Code Enforcement",
    "final_address": "1324 Music St",
    "address_councildis": "C",
    "status": "Pending",
    "rowid": "1218902",
    "final_x": "3686738.81334",
    "final_y": "537396.723592",
    "longitude": "-90.05132045548145",
    "latitude": "29.971494533334386",
    "geocoded_column": {
      "latitude": "29.971494533334386",
      "longitude": "-90.05132045548145"
    }
  },
  {
    "service_request": "2025-1218901",
    "request_type": "Property Maintenance",
    "request_reason": "Property Maintenance",
    "date_created": "2025-08-15T18:07:31.000",
    "date_modified": "2025-08-15T18:07:33.000",
    "request_status": "Pending",
    "responsible_agency": "Department of Code Enforcement",
    "final_address": "2331 Urquhart St",
    "address_councildis": "C",
    "status": "Pending",
    "rowid": "1218901",
    "final_x": "3685966.7334",
    "final_y": "537155.09076",
    "longitude": "-90.05376731348677",
    "latitude": "29.970853857240712",
    "geocoded_column": {
      "latitude": "29.970853857240712",
      "longitude": "-90.05376731348677"
    }
  },
  {
    "service_request": "2025-1218900",
    "request_type": "Property Maintenance",
    "request_reason": "Property Maintenance",
    "date_created": "2025-08-15T17:58:47.000",
    "date_modified": "2025-08-15T17:58:48.000",
    "request_status": "Pending",
    "responsible_agency": "Department of Code Enforcement",
    "final_address": "1412 Marigny St",
    "address_councildis": "C",
    "status": "Pending",
    "rowid": "1218900",
    "final_x": "3685284.32053",
    "final_y": "537549.07828",
    "longitude": "-90.0559085837851",
    "latitude": "29.971958121837712",
    "geocoded_column": {
      "latitude": "29.971958121837712",
      "longitude": "-90.0559085837851"
    }
  },
  {
    "service_request": "2025-1218899",
    "request_type": "Parks & Parkways",
    "request_reason": "Park Maintenance/Clean Up",
    "date_created": "2025-08-15T17:56:34.000",
    "date_modified": "2025-08-15T17:56:37.000",
    "request_status": "Pending",
    "responsible_agency": "Department of Parks & Parkway",
    "final_address": "8143 Sycamore St",
    "address_councildis": "A",
    "status": "Pending",
    "rowid": "1218899",
    "final_x": "3664175.17588",
    "final_y": "531189.115202",
    "longitude": "-90.12278716183963",
    "latitude": "29.955100508925053",
    "geocoded_column": {
      "latitude": "29.955100508925053",
      "longitude": "-90.12278716183963"
    }
  },
  {
    "service_request": "2025-1218898",
    "request_type": "Property Maintenance",
    "request_reason": "Property Maintenance",
    "date_created": "2025-08-15T17:54:43.000",
    "date_modified": "2025-08-15T17:54:45.000",
    "request_status": "Pending",
    "responsible_agency": "Department of Code Enforcement",
    "final_address": "2227 N Villere St",
    "address_councildis": "C",
    "status": "Pending",
    "rowid": "1218898",
    "final_x": "3685231.95631",
    "final_y": "537467.262856",
    "longitude": "-90.05607683831545",
    "latitude": "29.971734763019423",
    "geocoded_column": {
      "latitude": "29.971734763019423",
      "longitude": "-90.05607683831545"
    }
  },
  {
    "service_request": "2025-1218897",
    "request_type": "Trash/Recycling",
    "request_reason": "Replace Trash Cart",
    "date_created": "2025-08-15T17:33:29.000",
    "date_modified": "2025-08-15T17:33:32.000",
    "request_status": "Pending",
    "responsible_agency": "Department of Sanitation",
    "final_address": "4819 Gawain Dr",
    "address_councildis": "E",
    "status": "Assigned to Contractor",
    "contractor": "Waste Pro",
    "rowid": "1218897",
    "final_x": "3706982.02968",
    "final_y": "556060.864217",
    "longitude": "-89.98669724422497",
    "latitude": "30.022175577428598",
    "geocoded_column": {
      "latitude": "30.022175577428598",
      "longitude": "-89.98669724422497"
    }
  },
  {
    "service_request": "2025-1218896",
    "request_type": "Trash/Recycling",
    "request_reason": "Request a Large Item Pick Up",
    "date_created": "2025-08-15T17:14:32.000",
    "date_modified": "2025-08-15T17:14:34.000",
    "request_status": "Pending",
    "responsible_agency": "Department of Sanitation",
    "final_address": "2420 Laurel St",
    "address_councildis": "B",
    "status": "Assigned to Contractor",
    "contractor": "IV Waste",
    "rowid": "1218896",
    "final_x": "3678342.30446",
    "final_y": "520758.839033",
    "longitude": "-90.07841333620189",
    "latitude": "29.926001548858167",
    "geocoded_column": {
      "latitude": "29.926001548858167",
      "longitude": "-90.07841333620189"
    }
  },
  {
    "service_request": "2025-1218895",
    "request_type": "Trash/Recycling",
    "request_reason": "Replace Trash Cart",
    "date_created": "2025-08-15T17:13:53.000",
    "date_modified": "2025-08-15T17:13:55.000",
    "request_status": "Pending",
    "responsible_agency": "Department of Sanitation",
    "final_address": "2761 St Peter St",
    "address_councildis": "A",
    "status": "Assigned to Contractor",
    "contractor": "IV Waste",
    "rowid": "1218895",
    "final_x": "3676267.98824",
    "final_y": "537201.096136",
    "longitude": "-90.08439561587547",
    "latitude": "29.97127459730918",
    "geocoded_column": {
      "latitude": "29.97127459730918",
      "longitude": "-90.08439561587547"
    }
  },
  {
    "service_request": "2025-1218894",
    "request_type": "Mosquito, Termite & Rodent Control",
    "request_reason": "Rodent Complaint (Mice & Rats)",
    "date_created": "2025-08-15T17:02:20.000",
    "date_modified": "2025-08-15T17:02:21.000",
    "request_status": "Pending",
    "responsible_agency": "Mosquito, Termite & Rodent Control Board",
    "final_address": "143 Tacoma St",
    "address_councildis": "A",
    "status": "Pending",
    "rowid": "1218894",
    "final_x": "3665809.8738",
    "final_y": "551040.692565",
    "longitude": "-90.11695994948137",
    "latitude": "30.009638070423534",
    "geocoded_column": {
      "latitude": "30.009638070423534",
      "longitude": "-90.11695994948137"
    }
  },
  {
    "service_request": "2025-1218893",
    "request_type": "Trash/Recycling",
    "request_reason": "Missed Trash Pick-Up",
    "date_created": "2025-08-15T16:42:15.000",
    "date_modified": "2025-08-15T17:12:14.000",
    "case_close_date": "2025-08-15T12:12:13.000",
    "request_status": "Closed",
    "responsible_agency": "Department of Sanitation",
    "final_address": "2420 Laurel St",
    "address_councildis": "B",
    "status": "Invalid Request",
    "contractor": "IV Waste",
    "contractor_action": "Invalid",
    "rowid": "1218893",
    "final_x": "3678342.30446",
    "final_y": "520758.839033",
    "longitude": "-90.07841333620189",
    "latitude": "29.926001548858167",
    "geocoded_column": {
      "latitude": "29.926001548858167",
      "longitude": "-90.07841333620189"
    }
  },
  {
    "service_request": "2025-1218892",
    "request_type": "Trash/Recycling",
    "request_reason": "Request a Large Item Pick Up",
    "date_created": "2025-08-15T16:22:51.000",
    "date_modified": "2025-08-15T16:22:52.000",
    "request_status": "Pending",
    "responsible_agency": "Department of Sanitation",
    "final_address": "1449 N Tonti St",
    "address_councildis": "D",
    "status": "Assigned to Contractor",
    "contractor": "IV Waste",
    "rowid": "1218892",
    "final_x": "3679711.03496",
    "final_y": "538672.554697",
    "longitude": "-90.07347090163051",
    "latitude": "29.97521696211973",
    "geocoded_column": {
      "latitude": "29.97521696211973",
      "longitude": "-90.07347090163051"
    }
  },
  {
    "service_request": "2025-1218891",
    "request_type": "Trash/Recycling",
    "request_reason": "Request a Large Item Pick Up",
    "date_created": "2025-08-15T16:20:27.000",
    "date_modified": "2025-08-15T16:20:30.000",
    "request_status": "Pending",
    "responsible_agency": "Department of Sanitation",
    "final_address": "6 Crane St",
    "address_councildis": "D",
    "status": "Assigned to Contractor",
    "contractor": "IV Waste",
    "rowid": "1218891",
    "final_x": "3673350.87848",
    "final_y": "554573.169944",
    "longitude": "-90.09301439898364",
    "latitude": "30.019128854552196",
    "geocoded_column": {
      "latitude": "30.019128854552196",
      "longitude": "-90.09301439898364"
    }
  },
  {
    "service_request": "2025-1218890",
    "request_type": "Trash/Recycling",
    "request_reason": "Request a Large Item Pick Up",
    "date_created": "2025-08-15T16:16:26.000",
    "date_modified": "2025-08-15T16:16:27.000",
    "request_status": "Pending",
    "responsible_agency": "Department of Sanitation",
    "final_address": "15001 Emory Rd",
    "address_councildis": "E",
    "status": "Assigned to Contractor",
    "contractor": "Waste Pro",
    "rowid": "1218890",
    "final_x": "3720915.04601",
    "final_y": "574138.401898",
    "longitude": "-89.94197937600815",
    "latitude": "30.071423753550658",
    "geocoded_column": {
      "latitude": "30.071423753550658",
      "longitude": "-89.94197937600815"
    }
  },
  {
    "service_request": "2025-1218889",
    "request_type": "Trash/Recycling",
    "request_reason": "Request a Large Item Pick Up",
    "date_created": "2025-08-15T16:11:04.000",
    "date_modified": "2025-08-15T16:11:06.000",
    "request_status": "Pending",
    "responsible_agency": "Department of Sanitation",
    "final_address": "3228 Conti St",
    "address_councildis": "B",
    "status": "Assigned to Contractor",
    "contractor": "IV Waste",
    "rowid": "1218889",
    "final_x": "3674349.85947",
    "final_y": "537283.705288",
    "longitude": "-90.09045051260172",
    "latitude": "29.971559092474283",
    "geocoded_column": {
      "latitude": "29.971559092474283",
      "longitude": "-90.09045051260172"
    }
  },
  {
    "service_request": "2025-1218888",
    "request_type": "Trash/Recycling",
    "request_reason": "Replace Trash Cart",
    "date_created": "2025-08-15T15:56:16.000",
    "date_modified": "2025-08-15T15:56:26.000",
    "request_status": "Pending",
    "responsible_agency": "Department of Sanitation",
    "final_address": "3223 Iberville St",
    "address_councildis": "B",
    "status": "Assigned to Contractor",
    "contractor": "IV Waste",
    "rowid": "1218888",
    "final_x": "3674024.26299",
    "final_y": "536755.95284",
    "longitude": "-90.0914968597145",
    "latitude": "29.97011765907118",
    "geocoded_column": {
      "latitude": "29.97011765907118",
      "longitude": "-90.0914968597145"
    }
  },
  {
    "service_request": "2025-1218887",
    "request_type": "Trash/Recycling",
    "request_reason": "Missed Trash Pick-Up",
    "date_created": "2025-08-15T15:55:54.000",
    "date_modified": "2025-08-15T15:55:56.000",
    "request_status": "Pending",
    "responsible_agency": "Department of Sanitation",
    "final_address": "6910 Deanne St",
    "address_councildis": "D",
    "status": "Assigned to Contractor",
    "contractor": "Waste Pro",
    "rowid": "1218887",
    "final_x": "3695664.98083",
    "final_y": "556086.41737",
    "longitude": "-90.022455197162",
    "latitude": "30.022606690504517",
    "geocoded_column": {
      "latitude": "30.022606690504517",
      "longitude": "-90.022455197162"
    }
  },
  {
    "service_request": "2025-1218886",
    "request_type": "Safety & Permits",
    "request_reason": "Zoning Enforcement",
    "date_created": "2025-08-15T15:55:52.000",
    "date_modified": "2025-08-15T15:55:53.000",
    "request_status": "Pending",
    "responsible_agency": "Safety and Permits",
    "final_address": "1716 Desire St",
    "address_councildis": "D",
    "status": "Pending",
    "rowid": "1218886",
    "final_x": "3690739.36956",
    "final_y": "538103.611977",
    "longitude": "-90.03866093453681",
    "latitude": "29.973314545975676",
    "geocoded_column": {
      "latitude": "29.973314545975676",
      "longitude": "-90.03866093453681"
    }
  },
  {
    "service_request": "2025-1218885",
    "request_type": "Property Maintenance",
    "request_reason": "Property Maintenance",
    "date_created": "2025-08-15T15:51:10.000",
    "date_modified": "2025-08-15T15:51:11.000",
    "request_status": "Pending",
    "responsible_agency": "Department of Code Enforcement",
    "final_address": "2310 Seminole Ln",
    "address_councildis": "B",
    "status": "Pending",
    "rowid": "1218885",
    "final_x": "3673904.58964",
    "final_y": "528282.424",
    "longitude": "-90.09216466715381",
    "latitude": "29.946821850231483",
    "geocoded_column": {
      "latitude": "29.946821850231483",
      "longitude": "-90.09216466715381"
    }
  },
  {
    "service_request": "2025-1218884",
    "request_type": "Streetlights",
    "request_reason": "Streetlight Outage/Malfunction",
    "date_created": "2025-08-15T15:50:24.000",
    "date_modified": "2025-08-15T15:50:26.000",
    "request_status": "Pending",
    "responsible_agency": "Department of Public Works",
    "final_address": "6335 Oxford St",
    "address_councildis": "C",
    "status": "Pending",
    "contractor": "Legacy Professional Services",
    "rowid": "1218884",
    "final_x": "3707665.99729",
    "final_y": "519662.171",
    "longitude": "-89.98588855519915",
    "latitude": "29.92207046532061",
    "geocoded_column": {
      "latitude": "29.92207046532061",
      "longitude": "-89.98588855519915"
    }
  },
  {
    "service_request": "2025-1218883",
    "request_type": "Trash/Recycling",
    "request_reason": "Repair Trash Cart",
    "date_created": "2025-08-15T15:49:39.000",
    "date_modified": "2025-08-15T15:49:41.000",
    "request_status": "Pending",
    "responsible_agency": "Department of Sanitation",
    "final_address": "3540 Rue Colette",
    "address_councildis": "C",
    "status": "Assigned to Contractor",
    "contractor": "Richards Disposal",
    "rowid": "1218883",
    "final_x": "3704590.76273",
    "final_y": "517509.860278",
    "longitude": "-89.99567502301592",
    "latitude": "29.91625143284823",
    "geocoded_column": {
      "latitude": "29.91625143284823",
      "longitude": "-89.99567502301592"
    }
  },
  {
    "service_request": "2025-1218882",
    "request_type": "Property Maintenance",
    "request_reason": "Property Maintenance",
    "date_created": "2025-08-15T15:46:55.000",
    "date_modified": "2025-08-15T15:46:57.000",
    "request_status": "Pending",
    "responsible_agency": "Department of Code Enforcement",
    "final_address": "1443 N Roman St",
    "address_councildis": "D",
    "status": "Pending",
    "rowid": "1218882",
    "final_x": "3680930.1604",
    "final_y": "537387.672392",
    "longitude": "-90.06966533643815",
    "latitude": "29.971647066052427",
    "geocoded_column": {
      "latitude": "29.971647066052427",
      "longitude": "-90.06966533643815"
    }
  },
  {
    "service_request": "2025-1218881",
    "request_type": "Roads and Streets",
    "request_reason": "Sidewalk Damaged or Missing",
    "date_created": "2025-08-15T15:46:06.000",
    "date_modified": "2025-08-15T15:46:08.000",
    "request_status": "Pending",
    "responsible_agency": "Department of Public Works",
    "final_address": "1520 Desire St",
    "address_councildis": "D",
    "status": "Pending",
    "rowid": "1218881",
    "final_x": "3690553.8383",
    "final_y": "537378.044296",
    "longitude": "-90.03927275706174",
    "latitude": "29.971325253990386",
    "geocoded_column": {
      "latitude": "29.971325253990386",
      "longitude": "-90.03927275706174"
    }
  },
  {
    "service_request": "2025-1218880",
    "request_type": "Trash/Recycling",
    "request_reason": "Missed Trash Pick-Up",
    "date_created": "2025-08-15T15:44:15.000",
    "date_modified": "2025-08-15T16:09:14.000",
    "case_close_date": "2025-08-15T11:09:13.000",
    "request_status": "Closed",
    "responsible_agency": "Department of Sanitation",
    "final_address": "1337 Burdette St",
    "address_councildis": "A",
    "status": "Invalid Request",
    "contractor": "IV Waste",
    "contractor_action": "Invalid",
    "rowid": "1218880",
    "final_x": "3663261.46669",
    "final_y": "528071.509119",
    "longitude": "-90.12577607348997",
    "latitude": "29.94655460838485",
    "geocoded_column": {
      "latitude": "29.94655460838485",
      "longitude": "-90.12577607348997"
    }
  },
  {
    "service_request": "2025-1218879",
    "request_type": "Trash/Recycling",
    "request_reason": "Order Trash Cart",
    "date_created": "2025-08-15T15:42:51.000",
    "date_modified": "2025-08-15T15:42:53.000",
    "request_status": "Pending",
    "responsible_agency": "Department of Sanitation",
    "final_address": "910 Audubon St",
    "address_councildis": "A",
    "status": "Assigned to Contractor",
    "contractor": "IV Waste",
    "rowid": "1218879",
    "final_x": "3663857.72007",
    "final_y": "525569.498429",
    "longitude": "-90.12397685661266",
    "latitude": "29.939657588003634",
    "geocoded_column": {
      "latitude": "29.939657588003634",
      "longitude": "-90.12397685661266"
    }
  },
  {
    "service_request": "2025-1218878",
    "request_type": "Trash/Recycling",
    "request_reason": "Request a Large Item Pick Up",
    "date_created": "2025-08-15T15:39:12.000",
    "date_modified": "2025-08-15T15:39:14.000",
    "request_status": "Pending",
    "responsible_agency": "Department of Sanitation",
    "final_address": "7460 Horizon Dr",
    "address_councildis": "E",
    "status": "Assigned to Contractor",
    "contractor": "Waste Pro",
    "rowid": "1218878",
    "final_x": "3725488.30457",
    "final_y": "569443.82135",
    "longitude": "-89.92770414946104",
    "latitude": "30.058362169258892",
    "geocoded_column": {
      "latitude": "30.058362169258892",
      "longitude": "-89.92770414946104"
    }
  },
  {
    "service_request": "2025-1218877",
    "request_type": "Traffic Signals",
    "request_reason": "Traffic Signal Malfunctioning or Damaged",
    "date_created": "2025-08-15T15:34:52.000",
    "date_modified": "2025-08-15T15:34:54.000",
    "request_status": "Pending",
    "responsible_agency": "Department of Public Works",
    "final_address": "JEFFERSON AVE & S CLAIBORNE AVE",
    "address_councildis": "A",
    "status": "Pending",
    "rowid": "1218877",
    "final_x": "3668388.0",
    "final_y": "526228.78",
    "longitude": "-90.10965185923143",
    "latitude": "29.941338149304734",
    "geocoded_column": {
      "latitude": "29.941338149304734",
      "longitude": "-90.10965185923143"
    }
  },
  {
    "service_request": "2025-1218876",
    "request_type": "Trash/Recycling",
    "request_reason": "Illegal Dumping",
    "date_created": "2025-08-15T15:34:04.000",
    "date_modified": "2025-08-15T15:34:05.000",
    "request_status": "Pending",
    "responsible_agency": "Department of Sanitation",
    "final_address": "3522 Dante St",
    "address_councildis": "A",
    "status": "Pending",
    "rowid": "1218876",
    "final_x": "3666960.24097",
    "final_y": "535172.779846",
    "longitude": "-90.11385905912711",
    "latitude": "29.96597307744999",
    "geocoded_column": {
      "latitude": "29.96597307744999",
      "longitude": "-90.11385905912711"
    }
  },
  {
    "service_request": "2025-1218875",
    "request_type": "Trash/Recycling",
    "request_reason": "Repair Trash Cart",
    "date_created": "2025-08-15T15:32:42.000",
    "date_modified": "2025-08-15T15:32:44.000",
    "request_status": "Pending",
    "responsible_agency": "Department of Sanitation",
    "final_address": "1136 Esplanade Ave",
    "address_councildis": "C",
    "status": "Assigned to Contractor",
    "contractor": "IV Waste",
    "rowid": "1218875",
    "final_x": "3682590.27234",
    "final_y": "535476.75847",
    "longitude": "-90.06448928548305",
    "latitude": "29.96634226673819",
    "geocoded_column": {
      "latitude": "29.96634226673819",
      "longitude": "-90.06448928548305"
    }
  },
  {
    "service_request": "2025-1218874",
    "request_type": "Trash/Recycling",
    "request_reason": "Missed Trash Pick-Up",
    "date_created": "2025-08-15T15:30:19.000",
    "date_modified": "2025-08-15T17:14:44.000",
    "case_close_date": "2025-08-15T12:14:43.000",
    "request_status": "Closed",
    "responsible_agency": "Department of Sanitation",
    "final_address": "425 Celeste St",
    "address_councildis": "B",
    "status": "Invalid Request",
    "contractor": "IV Waste",
    "contractor_action": "Invalid",
    "rowid": "1218874",
    "final_x": "3682253.27951",
    "final_y": "521476.733881",
    "longitude": "-90.06604248169063",
    "latitude": "29.927857167766927",
    "geocoded_column": {
      "latitude": "29.927857167766927",
      "longitude": "-90.06604248169063"
    }
  },
  {
    "service_request": "2025-1218873",
    "request_type": "Trash/Recycling",
    "request_reason": "Replace Trash Cart",
    "date_created": "2025-08-15T15:21:23.000",
    "date_modified": "2025-08-15T15:21:25.000",
    "request_status": "Pending",
    "responsible_agency": "Department of Sanitation",
    "final_address": "1836 Harmony St",
    "address_councildis": "B",
    "status": "Assigned to Contractor",
    "contractor": "IV Waste",
    "rowid": "1218873",
    "final_x": "3674361.98625",
    "final_y": "522760.82585",
    "longitude": "-90.09090952882057",
    "latitude": "29.931625629981127",
    "geocoded_column": {
      "latitude": "29.931625629981127",
      "longitude": "-90.09090952882057"
    }
  },
  {
    "service_request": "2025-1218872",
    "request_type": "Abandoned Vehicles",
    "request_reason": "Abandoned/Junk Vehicles",
    "date_created": "2025-08-15T15:21:00.000",
    "date_modified": "2025-08-15T15:21:01.000",
    "request_status": "Pending",
    "responsible_agency": "Department of Public Works",
    "final_address": "727 Seventh St",
    "address_councildis": "B",
    "status": "Pending",
    "rowid": "1218872",
    "final_x": "3677098.9915",
    "final_y": "519344.854967",
    "longitude": "-90.08238684304425",
    "latitude": "29.922150933507083",
    "geocoded_column": {
      "latitude": "29.922150933507083",
      "longitude": "-90.08238684304425"
    }
  },
  {
    "service_request": "2025-1218871",
    "request_type": "Trash/Recycling",
    "request_reason": "Replace Trash Cart",
    "date_created": "2025-08-15T15:20:27.000",
    "date_modified": "2025-08-15T16:27:08.000",
    "request_status": "Pending",
    "responsible_agency": "Department of Sanitation",
    "final_address": "222 N Roman St",
    "address_councildis": "B",
    "status": "Assigned to Contractor",
    "contractor": "IV Waste",
    "rowid": "1218871",
    "final_x": "3678229.27464",
    "final_y": "533715.710789",
    "longitude": "-90.07832215907061",
    "latitude": "29.961632048059055",
    "geocoded_column": {
      "latitude": "29.961632048059055",
      "longitude": "-90.07832215907061"
    }
  },
  {
    "service_request": "2025-1218870",
    "request_type": "Trash/Recycling",
    "request_reason": "Illegal Dumping",
    "date_created": "2025-08-15T15:18:29.000",
    "date_modified": "2025-08-15T15:18:30.000",
    "request_status": "Pending",
    "responsible_agency": "Department of Sanitation",
    "final_address": "5100 BLK Bayouview Ct",
    "address_councildis": "E",
    "status": "Pending",
    "rowid": "1218870",
    "final_x": "3699204.54151",
    "final_y": "556435.842296",
    "longitude": "-90.01125834822916",
    "latitude": "30.023455657870613",
    "geocoded_column": {
      "latitude": "30.023455657870613",
      "longitude": "-90.01125834822916"
    }
  },
  {
    "service_request": "2025-1218869",
    "request_type": "Trash/Recycling",
    "request_reason": "Request a Large Item Pick Up",
    "date_created": "2025-08-15T15:16:49.000",
    "date_modified": "2025-08-15T15:16:51.000",
    "request_status": "Pending",
    "responsible_agency": "Department of Sanitation",
    "final_address": "5713 Constance St",
    "address_councildis": "A",
    "status": "Assigned to Contractor",
    "contractor": "IV Waste",
    "rowid": "1218869",
    "final_x": "3665642.70656",
    "final_y": "518700.141303",
    "longitude": "-90.1185713039261",
    "latitude": "29.920717108476044",
    "geocoded_column": {
      "latitude": "29.920717108476044",
      "longitude": "-90.1185713039261"
    }
  },
  {
    "service_request": "2025-1218868",
    "request_type": "Streetlights",
    "request_reason": "Streetlight Outage/Malfunction",
    "date_created": "2025-08-15T15:16:07.000",
    "date_modified": "2025-08-15T15:16:09.000",
    "request_status": "Pending",
    "responsible_agency": "Department of Public Works",
    "final_address": "2112 Painters St",
    "address_councildis": "D",
    "status": "Pending",
    "contractor": "Legacy Professional Services",
    "rowid": "1218868",
    "final_x": "3687226.50562",
    "final_y": "540305.479243",
    "longitude": "-90.04967734432039",
    "latitude": "29.97947757575487",
    "geocoded_column": {
      "latitude": "29.97947757575487",
      "longitude": "-90.04967734432039"
    }
  },
  {
    "service_request": "2025-1218867",
    "request_type": "Property Maintenance",
    "request_reason": "Property Maintenance",
    "date_created": "2025-08-15T15:15:04.000",
    "date_modified": "2025-08-15T15:15:06.000",
    "request_status": "Pending",
    "responsible_agency": "Department of Code Enforcement",
    "final_address": "2861 Bristol Pl",
    "address_councildis": "C",
    "status": "Pending",
    "rowid": "1218867",
    "final_x": "3702681.0826",
    "final_y": "520368.55564",
    "longitude": "-90.00159782042311",
    "latitude": "29.924173023053534",
    "geocoded_column": {
      "latitude": "29.924173023053534",
      "longitude": "-90.00159782042311"
    }
  },
  {
    "service_request": "2025-1218866",
    "request_type": "Street and Traffic Signs",
    "request_reason": "Traffic or Parking Sign Damaged or Missing",
    "date_created": "2025-08-15T15:11:12.000",
    "date_modified": "2025-08-15T15:11:14.000",
    "request_status": "Pending",
    "responsible_agency": "Department of Public Works",
    "final_address": "6414 Canal Blvd",
    "address_councildis": "A",
    "status": "Pending",
    "rowid": "1218866",
    "final_x": "3668584.50145",
    "final_y": "550220.056468",
    "longitude": "-90.10822161125233",
    "latitude": "30.007300327853002",
    "geocoded_column": {
      "latitude": "30.007300327853002",
      "longitude": "-90.10822161125233"
    }
  },
  {
    "service_request": "2025-1218865",
    "request_type": "Parks & Parkways",
    "request_reason": "Request Tree Service (Right of Way/Public Property)",
    "date_created": "2025-08-15T15:10:55.000",
    "date_modified": "2025-08-15T15:10:56.000",
    "request_status": "Pending",
    "responsible_agency": "Department of Parks & Parkway",
    "final_address": "WOODLAND HWY & ENGLISH TURN PKWY",
    "address_councildis": "C",
    "status": "Pending",
    "rowid": "1218865",
    "final_x": "3713658.6",
    "final_y": "516368.08",
    "longitude": "-89.96709659511461",
    "latitude": "29.912817749845452",
    "geocoded_column": {
      "latitude": "29.912817749845452",
      "longitude": "-89.96709659511461"
    }
  },
  {
    "service_request": "2025-1218864",
    "request_type": "Streetlights",
    "request_reason": "Streetlight Outage/Malfunction",
    "date_created": "2025-08-15T15:08:59.000",
    "date_modified": "2025-08-15T15:09:00.000",
    "request_status": "Pending",
    "responsible_agency": "Department of Public Works",
    "final_address": "2135 Painters St",
    "address_councildis": "D",
    "status": "Pending",
    "contractor": "Legacy Professional Services",
    "rowid": "1218864",
    "final_x": "3687275.41039",
    "final_y": "540495.151691",
    "longitude": "-90.04951617196161",
    "latitude": "29.979997601404044",
    "geocoded_column": {
      "latitude": "29.979997601404044",
      "longitude": "-90.04951617196161"
    }
  },
  {
    "service_request": "2025-1218863",
    "request_type": "Traffic Signals",
    "request_reason": "Traffic Signal Malfunctioning or Damaged",
    "date_created": "2025-08-15T15:08:32.000",
    "date_modified": "2025-08-15T15:08:33.000",
    "request_status": "Pending",
    "responsible_agency": "Department of Public Works",
    "final_address": "ST CLAUDE AVE & FRANKLIN AVE",
    "address_councildis": "C",
    "status": "Pending",
    "rowid": "1218863",
    "final_x": "3687068.7",
    "final_y": "536547.68",
    "longitude": "-90.05030865196827",
    "latitude": "29.96914980739771",
    "geocoded_column": {
      "latitude": "29.96914980739771",
      "longitude": "-90.05030865196827"
    }
  },
  {
    "service_request": "2025-1218862",
    "request_type": "Trash/Recycling",
    "request_reason": "Illegal Dumping",
    "date_created": "2025-08-15T15:08:21.000",
    "date_modified": "2025-08-15T15:09:02.000",
    "request_status": "Pending",
    "responsible_agency": "Department of Sanitation",
    "final_address": "2400 BLK Mistletoe St",
    "address_councildis": "A",
    "status": "Pending",
    "rowid": "1218862",
    "final_x": "3662127.85386",
    "final_y": "534319.834035",
    "longitude": "-90.12914798430471",
    "latitude": "29.963768283581913",
    "geocoded_column": {
      "latitude": "29.963768283581913",
      "longitude": "-90.12914798430471"
    }
  },
  {
    "service_request": "2025-1218861",
    "request_type": "Trash/Recycling",
    "request_reason": "Return Recycling Cart",
    "date_created": "2025-08-15T15:06:25.000",
    "date_modified": "2025-08-15T15:06:27.000",
    "request_status": "Pending",
    "responsible_agency": "Department of Sanitation",
    "final_address": "2811 Chelsea Dr",
    "address_councildis": "C",
    "status": "Pending",
    "rowid": "1218861",
    "final_x": "3704145.96702",
    "final_y": "520591.702072",
    "longitude": "-89.99696551508279",
    "latitude": "29.924739702849426",
    "geocoded_column": {
      "latitude": "29.924739702849426",
      "longitude": "-89.99696551508279"
    }
  },
  {
    "service_request": "2025-1218860",
    "request_type": "Trash/Recycling",
    "request_reason": "Illegal Dumping",
    "date_created": "2025-08-15T14:59:59.000",
    "date_modified": "2025-08-15T15:00:00.000",
    "request_status": "Pending",
    "responsible_agency": "Department of Sanitation",
    "final_address": "1914 Benton St",
    "address_councildis": "E",
    "status": "Pending",
    "rowid": "1218860",
    "final_x": "3699984.93744",
    "final_y": "536563.060295",
    "longitude": "-90.00951794544507",
    "latitude": "29.9687881043814",
    "geocoded_column": {
      "latitude": "29.9687881043814",
      "longitude": "-90.00951794544507"
    }
  },
  {
    "service_request": "2025-1218859",
    "request_type": "Trash/Recycling",
    "request_reason": "Request a Large Item Pick Up",
    "date_created": "2025-08-15T14:53:39.000",
    "date_modified": "2025-08-15T14:53:41.000",
    "request_status": "Pending",
    "responsible_agency": "Department of Sanitation",
    "final_address": "1908 Dumaine St",
    "address_councildis": "D",
    "status": "Assigned to Contractor",
    "contractor": "IV Waste",
    "rowid": "1218859",
    "final_x": "3679533.51413",
    "final_y": "535645.520646",
    "longitude": "-90.07413661869084",
    "latitude": "29.966899024035296",
    "geocoded_column": {
      "latitude": "29.966899024035296",
      "longitude": "-90.07413661869084"
    }
  },
  {
    "service_request": "2025-1218858",
    "request_type": "Trash/Recycling",
    "request_reason": "Repair Recycling Cart",
    "date_created": "2025-08-15T14:44:22.000",
    "date_modified": "2025-08-15T14:44:23.000",
    "request_status": "Pending",
    "responsible_agency": "Department of Sanitation",
    "final_address": "4744 Music St",
    "address_councildis": "D",
    "status": "Pending",
    "rowid": "1218858",
    "final_x": "3685541.25481",
    "final_y": "550592.420436",
    "longitude": "-90.05463745463811",
    "latitude": "30.007814788078424",
    "geocoded_column": {
      "latitude": "30.007814788078424",
      "longitude": "-90.05463745463811"
    }
  },
  {
    "service_request": "2025-1218857",
    "request_type": "Trash/Recycling",
    "request_reason": "Replace Trash Cart",
    "date_created": "2025-08-15T14:38:49.000",
    "date_modified": "2025-08-15T14:38:51.000",
    "request_status": "Pending",
    "responsible_agency": "Department of Sanitation",
    "final_address": "3619 Republic St",
    "address_councildis": "D",
    "status": "Assigned to Contractor",
    "contractor": "IV Waste",
    "rowid": "1218857",
    "final_x": "3680499.38971",
    "final_y": "545723.707472",
    "longitude": "-90.07073568447542",
    "latitude": "29.994581307499704",
    "geocoded_column": {
      "latitude": "29.994581307499704",
      "longitude": "-90.07073568447542"
    }
  },
  {
    "service_request": "2025-1218856",
    "request_type": "Parks & Parkways",
    "request_reason": "Request Tree Service (Right of Way/Public Property)",
    "date_created": "2025-08-15T14:34:38.000",
    "date_modified": "2025-08-15T14:34:40.000",
    "request_status": "Pending",
    "responsible_agency": "Department of Parks & Parkway",
    "final_address": "6500 Memphis St",
    "address_councildis": "A",
    "status": "Pending",
    "rowid": "1218856",
    "final_x": "3669409.81108",
    "final_y": "550702.770005",
    "longitude": "-90.10559787922817",
    "latitude": "30.008603332105125",
    "geocoded_column": {
      "latitude": "30.008603332105125",
      "longitude": "-90.10559787922817"
    }
  },
  {
    "service_request": "2025-1218855",
    "request_type": "Trash/Recycling",
    "request_reason": "Request a Large Item Pick Up",
    "date_created": "2025-08-15T14:30:44.000",
    "date_modified": "2025-08-15T14:30:45.000",
    "request_status": "Pending",
    "responsible_agency": "Department of Sanitation",
    "final_address": "9110 Dixon St",
    "address_councildis": "A",
    "status": "Assigned to Contractor",
    "contractor": "IV Waste",
    "rowid": "1218855",
    "final_x": "3665712.45972",
    "final_y": "537878.345225",
    "longitude": "-90.11770888784892",
    "latitude": "29.973448940473723",
    "geocoded_column": {
      "latitude": "29.973448940473723",
      "longitude": "-90.11770888784892"
    }
  },
  {
    "service_request": "2025-1218854",
    "request_type": "Trash/Recycling",
    "request_reason": "MIssed Recycling Pick-Up",
    "date_created": "2025-08-15T14:30:38.000",
    "date_modified": "2025-08-15T14:30:40.000",
    "request_status": "Pending",
    "responsible_agency": "Department of Sanitation",
    "final_address": "1122 Desire St",
    "address_councildis": "C",
    "status": "Assigned to Contractor",
    "contractor": "IV Waste",
    "rowid": "1218854",
    "final_x": "3690206.1279",
    "final_y": "535973.029575",
    "longitude": "-90.04042093938357",
    "latitude": "29.967472750866683",
    "geocoded_column": {
      "latitude": "29.967472750866683",
      "longitude": "-90.04042093938357"
    }
  },
  {
    "service_request": "2025-1218853",
    "request_type": "Roads and Streets",
    "request_reason": "Pothole",
    "date_created": "2025-08-15T14:30:36.000",
    "date_modified": "2025-08-15T14:30:38.000",
    "request_status": "Pending",
    "responsible_agency": "Department of Public Works",
    "final_address": "6042 Wildair Dr",
    "address_councildis": "D",
    "status": "Pending",
    "rowid": "1218853",
    "final_x": "3681419.81295",
    "final_y": "555148.238489",
    "longitude": "-90.06749929691726",
    "latitude": "30.02046745458937",
    "geocoded_column": {
      "latitude": "30.02046745458937",
      "longitude": "-90.06749929691726"
    }
  },
  {
    "service_request": "2025-1218852",
    "request_type": "Trash/Recycling",
    "request_reason": "Repair Trash Cart",
    "date_created": "2025-08-15T14:29:29.000",
    "date_modified": "2025-08-15T14:30:16.000",
    "request_status": "Pending",
    "responsible_agency": "Department of Sanitation",
    "final_address": "3617 Lancaster St",
    "address_councildis": "C",
    "status": "Assigned to Contractor",
    "contractor": "Richards Disposal",
    "rowid": "1218852",
    "final_x": "3709780.58462",
    "final_y": "517447.229174",
    "longitude": "-89.97929636940583",
    "latitude": "29.915911607213445",
    "geocoded_column": {
      "latitude": "29.915911607213445",
      "longitude": "-89.97929636940583"
    }
  },
  {
    "service_request": "2025-1218851",
    "request_type": "Trash/Recycling",
    "request_reason": "Illegal Dumping",
    "date_created": "2025-08-15T14:28:21.000",
    "date_modified": "2025-08-15T14:28:23.000",
    "request_status": "Pending",
    "responsible_agency": "Department of Sanitation",
    "final_address": "1901 Leonidas St",
    "address_councildis": "A",
    "status": "Pending",
    "rowid": "1218851",
    "final_x": "3662398.58989",
    "final_y": "531434.838147",
    "longitude": "-90.12838882710969",
    "latitude": "29.95582765673627",
    "geocoded_column": {
      "latitude": "29.95582765673627",
      "longitude": "-90.12838882710969"
    }
  },
  {
    "service_request": "2025-1218850",
    "request_type": "Roads and Streets",
    "request_reason": "Pothole",
    "date_created": "2025-08-15T14:21:30.000",
    "date_modified": "2025-08-15T14:21:32.000",
    "request_status": "Pending",
    "responsible_agency": "Department of Public Works",
    "final_address": "1521 Forstall St",
    "address_councildis": "E",
    "status": "Pending",
    "rowid": "1218850",
    "final_x": "3696790.81853",
    "final_y": "535820.882567",
    "longitude": "-90.01963198352074",
    "latitude": "29.96684846265562",
    "geocoded_column": {
      "latitude": "29.96684846265562",
      "longitude": "-90.01963198352074"
    }
  },
  {
    "service_request": "2025-1218849",
    "request_type": "Trash/Recycling",
    "request_reason": "Request a Large Item Pick Up",
    "date_created": "2025-08-15T14:20:16.000",
    "date_modified": "2025-08-15T14:20:18.000",
    "request_status": "Pending",
    "responsible_agency": "Department of Sanitation",
    "final_address": "8137 Cohn St",
    "address_councildis": "A",
    "status": "Assigned to Contractor",
    "contractor": "IV Waste",
    "rowid": "1218849",
    "final_x": "3663426.02669",
    "final_y": "530431.072514",
    "longitude": "-90.12517794486021",
    "latitude": "29.953037878034632",
    "geocoded_column": {
      "latitude": "29.953037878034632",
      "longitude": "-90.12517794486021"
    }
  },
  {
    "service_request": "2025-1218848",
    "request_type": "Trash/Recycling",
    "request_reason": "Request a Large Item Pick Up",
    "date_created": "2025-08-15T14:15:18.000",
    "date_modified": "2025-08-15T14:15:20.000",
    "request_status": "Pending",
    "responsible_agency": "Department of Sanitation",
    "final_address": "814 Olga St",
    "address_councildis": "A",
    "status": "Assigned to Contractor",
    "contractor": "IV Waste",
    "rowid": "1218848",
    "final_x": "3673341.54107",
    "final_y": "539874.669706",
    "longitude": "-90.09354640174031",
    "latitude": "29.978713398513673",
    "geocoded_column": {
      "latitude": "29.978713398513673",
      "longitude": "-90.09354640174031"
    }
  },
  {
    "service_request": "2025-1218847",
    "request_type": "Traffic Signals",
    "request_reason": "Traffic Signal Malfunctioning or Damaged",
    "date_created": "2025-08-15T14:12:51.000",
    "date_modified": "2025-08-15T14:12:52.000",
    "request_status": "Pending",
    "responsible_agency": "Department of Public Works",
    "final_address": "Leonidas Street & South Claiborne Avenue",
    "address_councildis": "A",
    "status": "Pending",
    "rowid": "1218847",
    "final_x": "3663561.67111",
    "final_y": "532773.568644",
    "longitude": "-90.1246716160918",
    "latitude": "29.959475048478655",
    "geocoded_column": {
      "latitude": "29.959475048478655",
      "longitude": "-90.1246716160918"
    }
  },
  {
    "service_request": "2025-1218846",
    "request_type": "Trash/Recycling",
    "request_reason": "Request a Large Item Pick Up",
    "date_created": "2025-08-15T14:12:08.000",
    "date_modified": "2025-08-15T14:12:10.000",
    "request_status": "Pending",
    "responsible_agency": "Department of Sanitation",
    "final_address": "7537 Tricia Ct",
    "address_councildis": "E",
    "status": "Assigned to Contractor",
    "contractor": "Waste Pro",
    "rowid": "1218846",
    "final_x": "3718067.56402",
    "final_y": "570771.748903",
    "longitude": "-89.9511094308557",
    "latitude": "30.0622616312686",
    "geocoded_column": {
      "latitude": "30.0622616312686",
      "longitude": "-89.9511094308557"
    }
  },
  {
    "service_request": "2025-1218845",
    "request_type": "Trash/Recycling",
    "request_reason": "Replace Recycling Cart",
    "date_created": "2025-08-15T14:11:20.000",
    "date_modified": "2025-08-15T14:11:22.000",
    "request_status": "Pending",
    "responsible_agency": "Department of Sanitation",
    "final_address": "1461 Webster St",
    "address_councildis": "A",
    "status": "Pending",
    "rowid": "1218845",
    "final_x": "3665088.2562",
    "final_y": "521879.517882",
    "longitude": "-90.1202152049667",
    "latitude": "29.92947554550726",
    "geocoded_column": {
      "latitude": "29.92947554550726",
      "longitude": "-90.1202152049667"
    }
  },
  {
    "service_request": "2025-1218844",
    "request_type": "Trash/Recycling",
    "request_reason": "Request a Large Item Pick Up",
    "date_created": "2025-08-15T13:59:39.000",
    "date_modified": "2025-08-15T13:59:40.000",
    "request_status": "Pending",
    "responsible_agency": "Department of Sanitation",
    "final_address": "4695 Owens Blvd",
    "address_councildis": "D",
    "status": "Assigned to Contractor",
    "contractor": "IV Waste",
    "rowid": "1218844",
    "final_x": "3676562.23323",
    "final_y": "549423.654739",
    "longitude": "-90.08304515713209",
    "latitude": "30.004873558749196",
    "geocoded_column": {
      "latitude": "30.004873558749196",
      "longitude": "-90.08304515713209"
    }
  },
  {
    "service_request": "2025-1218843",
    "request_type": "Trash/Recycling",
    "request_reason": "Request a Large Item Pick Up",
    "date_created": "2025-08-15T13:58:59.000",
    "date_modified": "2025-08-15T13:59:00.000",
    "request_status": "Pending",
    "responsible_agency": "Department of Sanitation",
    "final_address": "5614 Orleans Ave",
    "address_councildis": "A",
    "status": "Assigned to Contractor",
    "contractor": "IV Waste",
    "rowid": "1218843",
    "final_x": "3670570.69172",
    "final_y": "544530.553039",
    "longitude": "-90.1021398006748",
    "latitude": "29.991597630754473",
    "geocoded_column": {
      "latitude": "29.991597630754473",
      "longitude": "-90.1021398006748"
    }
  },
  {
    "service_request": "2025-1218842",
    "request_type": "Trash/Recycling",
    "request_reason": "Missed Trash Pick-Up",
    "date_created": "2025-08-15T13:58:48.000",
    "date_modified": "2025-08-15T13:58:50.000",
    "request_status": "Pending",
    "responsible_agency": "Department of Sanitation",
    "final_address": "7221 Spring Lake Dr",
    "address_councildis": "E",
    "status": "Assigned to Contractor",
    "contractor": "Waste Pro",
    "rowid": "1218842",
    "final_x": "3700300.1258",
    "final_y": "559038.862684",
    "longitude": "-90.00770139731985",
    "latitude": "30.03057815912377",
    "geocoded_column": {
      "latitude": "30.03057815912377",
      "longitude": "-90.00770139731985"
    }
  },
  {
    "service_request": "2025-1218841",
    "request_type": "Parks & Parkways",
    "request_reason": "Request Tree Service (Right of Way/Public Property)",
    "date_created": "2025-08-15T13:56:20.000",
    "date_modified": "2025-08-15T13:56:23.000",
    "request_status": "Pending",
    "responsible_agency": "Department of Parks & Parkway",
    "final_address": "2738 State St",
    "address_councildis": "A",
    "status": "Pending",
    "rowid": "1218841",
    "final_x": "3667063.38049",
    "final_y": "526717.340158",
    "longitude": "-90.11381753589285",
    "latitude": "29.942720362888387",
    "geocoded_column": {
      "latitude": "29.942720362888387",
      "longitude": "-90.11381753589285"
    }
  },
  {
    "service_request": "2025-1218840",
    "request_type": "Mosquito, Termite & Rodent Control",
    "request_reason": "Rodent Complaint (Mice & Rats)",
    "date_created": "2025-08-15T13:54:44.000",
    "date_modified": "2025-08-15T13:54:46.000",
    "request_status": "Pending",
    "responsible_agency": "Mosquito, Termite & Rodent Control Board",
    "final_address": "41 Snipe St",
    "address_councildis": "D",
    "status": "Pending",
    "rowid": "1218840",
    "final_x": "3672428.7794",
    "final_y": "556658.86537",
    "longitude": "-90.09585674841749",
    "latitude": "30.024891181076157",
    "geocoded_column": {
      "latitude": "30.024891181076157",
      "longitude": "-90.09585674841749"
    }
  },
  {
    "service_request": "2025-1218839",
    "request_type": "Street and Traffic Signs",
    "request_reason": "Traffic or Parking Sign Damaged or Missing",
    "date_created": "2025-08-15T13:53:27.000",
    "date_modified": "2025-08-15T13:53:29.000",
    "request_status": "Pending",
    "responsible_agency": "Department of Public Works",
    "final_address": "800 BLK Harrison Ave",
    "address_councildis": "A",
    "status": "Pending",
    "rowid": "1218839",
    "final_x": "3669443.25228",
    "final_y": "549162.084534",
    "longitude": "-90.10554438384717",
    "latitude": "30.0043660006697",
    "geocoded_column": {
      "latitude": "30.0043660006697",
      "longitude": "-90.10554438384717"
    }
  },
  {
    "service_request": "2025-1218838",
    "request_type": "Trash/Recycling",
    "request_reason": "Order Trash Cart",
    "date_created": "2025-08-15T13:50:21.000",
    "date_modified": "2025-08-15T13:50:23.000",
    "request_status": "Pending",
    "responsible_agency": "Department of Sanitation",
    "final_address": "4718 Francis Dr",
    "address_councildis": "D",
    "status": "Assigned to Contractor",
    "contractor": "Waste Pro",
    "rowid": "1218838",
    "final_x": "3698209.91031",
    "final_y": "554209.332312",
    "longitude": "-90.01448213269475",
    "latitude": "30.01736511905655",
    "geocoded_column": {
      "latitude": "30.01736511905655",
      "longitude": "-90.01448213269475"
    }
  },
  {
    "service_request": "2025-1218837",
    "request_type": "Traffic Signals",
    "request_reason": "Traffic Signal Malfunctioning or Damaged",
    "date_created": "2025-08-15T13:48:28.000",
    "date_modified": "2025-08-15T13:48:29.000",
    "request_status": "Pending",
    "responsible_agency": "Department of Public Works",
    "final_address": "SIMON BOLIVAR AVE & JACKSON AVE",
    "address_councildis": "B",
    "status": "Pending",
    "rowid": "1218837",
    "final_x": "3676268.4",
    "final_y": "525468.48",
    "longitude": "-90.08479805655436",
    "latitude": "29.93901381672783",
    "geocoded_column": {
      "latitude": "29.93901381672783",
      "longitude": "-90.08479805655436"
    }
  },
  {
    "service_request": "2025-1218836",
    "request_type": "Property Maintenance",
    "request_reason": "Property Maintenance",
    "date_created": "2025-08-15T13:47:29.000",
    "date_modified": "2025-08-15T13:47:30.000",
    "request_status": "Pending",
    "responsible_agency": "Department of Code Enforcement",
    "final_address": "710 N Carrollton Ave",
    "address_councildis": "A",
    "status": "Pending",
    "rowid": "1218836",
    "final_x": "3672733.29659",
    "final_y": "539957.811658",
    "longitude": "-90.09546463261647",
    "latitude": "29.978960092375473",
    "geocoded_column": {
      "latitude": "29.978960092375473",
      "longitude": "-90.09546463261647"
    }
  },
  {
    "service_request": "2025-1218835",
    "request_type": "Trash/Recycling",
    "request_reason": "Repair Trash Cart",
    "date_created": "2025-08-15T13:42:01.000",
    "date_modified": "2025-08-15T13:42:04.000",
    "request_status": "Pending",
    "responsible_agency": "Department of Sanitation",
    "final_address": "4512 Francisco Verrett Dr",
    "address_councildis": "E",
    "status": "Assigned to Contractor",
    "contractor": "Waste Pro",
    "rowid": "1218835",
    "final_x": "3704323.81873",
    "final_y": "553661.579863",
    "longitude": "-89.99518499818598",
    "latitude": "30.01566410000843",
    "geocoded_column": {
      "latitude": "30.01566410000843",
      "longitude": "-89.99518499818598"
    }
  },
  {
    "service_request": "2025-1218834",
    "request_type": "Trash/Recycling",
    "request_reason": "Repair Trash Cart",
    "date_created": "2025-08-15T13:36:14.000",
    "date_modified": "2025-08-15T13:36:15.000",
    "request_status": "Pending",
    "responsible_agency": "Department of Sanitation",
    "final_address": "1007 N Carrollton Ave",
    "address_councildis": "A",
    "status": "Assigned to Contractor",
    "contractor": "IV Waste",
    "rowid": "1218834",
    "final_x": "3673639.14318",
    "final_y": "541271.709068",
    "longitude": "-90.09255868172761",
    "latitude": "29.982545921018374",
    "geocoded_column": {
      "latitude": "29.982545921018374",
      "longitude": "-90.09255868172761"
    }
  },
  {
    "service_request": "2025-1218833",
    "request_type": "Trash/Recycling",
    "request_reason": "Replace Recycling Cart",
    "date_created": "2025-08-15T13:35:19.000",
    "date_modified": "2025-08-15T13:35:21.000",
    "request_status": "Pending",
    "responsible_agency": "Department of Sanitation",
    "final_address": "2501 Napoleon Ave",
    "address_councildis": "B",
    "status": "Pending",
    "rowid": "1218833",
    "final_x": "3670618.87527",
    "final_y": "524085.494268",
    "longitude": "-90.10268121577735",
    "latitude": "29.935379109795438",
    "geocoded_column": {
      "latitude": "29.935379109795438",
      "longitude": "-90.10268121577735"
    }
  },
  {
    "service_request": "2025-1218832",
    "request_type": "Trash/Recycling",
    "request_reason": "Request a Large Item Pick Up",
    "date_created": "2025-08-15T13:30:28.000",
    "date_modified": "2025-08-15T13:30:30.000",
    "request_status": "Pending",
    "responsible_agency": "Department of Sanitation",
    "final_address": "7930 Dorsett Dr",
    "address_councildis": "E",
    "status": "Assigned to Contractor",
    "contractor": "Waste Pro",
    "rowid": "1218832",
    "final_x": "3712183.1541",
    "final_y": "568257.143973",
    "longitude": "-89.96980457307082",
    "latitude": "30.055541361993154",
    "geocoded_column": {
      "latitude": "30.055541361993154",
      "longitude": "-89.96980457307082"
    }
  },
  {
    "service_request": "2025-1218831",
    "request_type": "Trash/Recycling",
    "request_reason": "Missed Trash Pick-Up",
    "date_created": "2025-08-15T13:27:57.000",
    "date_modified": "2025-08-15T17:15:42.000",
    "case_close_date": "2025-08-15T12:15:39.000",
    "request_status": "Closed",
    "responsible_agency": "Department of Sanitation",
    "final_address": "1906 Jena St",
    "address_councildis": "B",
    "status": "Invalid Request",
    "contractor": "IV Waste",
    "contractor_action": "Invalid",
    "rowid": "1218831",
    "final_x": "3670295.81326",
    "final_y": "522023.891578",
    "longitude": "-90.10377096682107",
    "latitude": "29.92971990143083",
    "geocoded_column": {
      "latitude": "29.92971990143083",
      "longitude": "-90.10377096682107"
    }
  },
  {
    "service_request": "2025-1218830",
    "request_type": "Trash/Recycling",
    "request_reason": "Illegal Dumping",
    "date_created": "2025-08-15T13:22:42.000",
    "date_modified": "2025-08-15T13:22:45.000",
    "request_status": "Pending",
    "responsible_agency": "Department of Sanitation",
    "final_address": "2832 N Rocheblave St",
    "address_councildis": "D",
    "status": "Pending",
    "rowid": "1218830",
    "final_x": "3688183.0966",
    "final_y": "541346.432588",
    "longitude": "-90.0466191372386",
    "latitude": "29.982310327040043",
    "geocoded_column": {
      "latitude": "29.982310327040043",
      "longitude": "-90.0466191372386"
    }
  },
  {
    "service_request": "2025-1218829",
    "request_type": "Roads and Streets",
    "request_reason": "ADA Ramps Damaged or Missing",
    "date_created": "2025-08-15T13:22:27.000",
    "date_modified": "2025-08-15T13:22:29.000",
    "request_status": "Pending",
    "responsible_agency": "Department of Public Works",
    "final_address": "2938 Ursulines Ave",
    "address_councildis": "A",
    "status": "Pending",
    "rowid": "1218829",
    "final_x": "3676527.46056",
    "final_y": "538901.495882",
    "longitude": "-90.08351759158572",
    "latitude": "29.97594233594543",
    "geocoded_column": {
      "latitude": "29.97594233594543",
      "longitude": "-90.08351759158572"
    }
  },
  {
    "service_request": "2025-1218828",
    "request_type": "Trash/Recycling",
    "request_reason": "Replace Trash Cart",
    "date_created": "2025-08-15T13:20:51.000",
    "date_modified": "2025-08-15T13:20:52.000",
    "request_status": "Pending",
    "responsible_agency": "Department of Sanitation",
    "final_address": "230 28Th St",
    "address_councildis": "A",
    "status": "Assigned to Contractor",
    "contractor": "IV Waste",
    "rowid": "1218828",
    "final_x": "3665571.68903",
    "final_y": "550166.90306",
    "longitude": "-90.11774174915442",
    "latitude": "30.007242403132036",
    "geocoded_column": {
      "latitude": "30.007242403132036",
      "longitude": "-90.11774174915442"
    }
  },
  {
    "service_request": "2025-1218827",
    "request_type": "Trash/Recycling",
    "request_reason": "Replace Trash Cart",
    "date_created": "2025-08-15T13:19:24.000",
    "date_modified": "2025-08-15T13:19:26.000",
    "request_status": "Pending",
    "responsible_agency": "Department of Sanitation",
    "final_address": "3223 Iberville St",
    "address_councildis": "B",
    "status": "Assigned to Contractor",
    "contractor": "IV Waste",
    "rowid": "1218827",
    "final_x": "3674024.26299",
    "final_y": "536755.95284",
    "longitude": "-90.0914968597145",
    "latitude": "29.97011765907118",
    "geocoded_column": {
      "latitude": "29.97011765907118",
      "longitude": "-90.0914968597145"
    }
  },
  {
    "service_request": "2025-1218826",
    "request_type": "Trash/Recycling",
    "request_reason": "Request a Large Item Pick Up",
    "date_created": "2025-08-15T13:17:26.000",
    "date_modified": "2025-08-15T13:17:28.000",
    "request_status": "Pending",
    "responsible_agency": "Department of Sanitation",
    "final_address": "1837 Dublin St",
    "address_councildis": "A",
    "status": "Assigned to Contractor",
    "contractor": "IV Waste",
    "rowid": "1218826",
    "final_x": "3663324.06208",
    "final_y": "530338.03469",
    "longitude": "-90.1255030026309",
    "latitude": "29.952785009860396",
    "geocoded_column": {
      "latitude": "29.952785009860396",
      "longitude": "-90.1255030026309"
    }
  },
  {
    "service_request": "2025-1218825",
    "request_type": "Trash/Recycling",
    "request_reason": "Request a Large Item Pick Up",
    "date_created": "2025-08-15T13:14:32.000",
    "date_modified": "2025-08-15T13:14:34.000",
    "request_status": "Pending",
    "responsible_agency": "Department of Sanitation",
    "final_address": "8706 Birch St",
    "address_councildis": "A",
    "status": "Assigned to Contractor",
    "contractor": "IV Waste",
    "rowid": "1218825",
    "final_x": "3661281.92979",
    "final_y": "530887.174786",
    "longitude": "-90.13193299987444",
    "latitude": "29.954354000056522",
    "geocoded_column": {
      "latitude": "29.954354000056522",
      "longitude": "-90.13193299987444"
    }
  },
  {
    "service_request": "2025-1218824",
    "request_type": "Trash/Recycling",
    "request_reason": "Request a Large Item Pick Up",
    "date_created": "2025-08-15T13:12:56.000",
    "date_modified": "2025-08-15T13:12:58.000",
    "request_status": "Pending",
    "responsible_agency": "Department of Sanitation",
    "final_address": "8532 Gervais St",
    "address_councildis": "E",
    "status": "Assigned to Contractor",
    "contractor": "Waste Pro",
    "rowid": "1218824",
    "final_x": "3703832.67882",
    "final_y": "562632.84176",
    "longitude": "-89.99640604467133",
    "latitude": "30.04034734816663",
    "geocoded_column": {
      "latitude": "30.04034734816663",
      "longitude": "-89.99640604467133"
    }
  },
  {
    "service_request": "2025-1218823",
    "request_type": "Healthy Homes",
    "request_reason": "Healthy Homes",
    "date_created": "2025-08-15T13:09:47.000",
    "date_modified": "2025-08-15T13:09:49.000",
    "request_status": "Pending",
    "responsible_agency": "Department of Code Enforcement",
    "final_address": "1200 Vallette St",
    "address_councildis": "C",
    "status": "Pending",
    "rowid": "1218823",
    "final_x": "3687456.05577",
    "final_y": "527165.631231",
    "longitude": "-90.04941735280568",
    "latitude": "29.94334047275777",
    "geocoded_column": {
      "latitude": "29.94334047275777",
      "longitude": "-90.04941735280568"
    }
  },
  {
    "service_request": "2025-1218822",
    "request_type": "General Services",
    "request_reason": "General Service Request",
    "date_created": "2025-08-15T13:08:11.000",
    "date_modified": "2025-08-15T13:09:28.000",
    "case_close_date": "2025-08-15T08:09:27.000",
    "request_status": "Closed",
    "responsible_agency": "Orleans Parish Communication District",
    "final_address": "2325 Pleasure St",
    "address_councildis": "D",
    "status": "Referred to Risk Management",
    "rowid": "1218822",
    "final_x": "3685261.11036",
    "final_y": "545260.134863",
    "longitude": "-90.05571034971372",
    "latitude": "29.993161517358907",
    "geocoded_column": {
      "latitude": "29.993161517358907",
      "longitude": "-90.05571034971372"
    }
  },
  {
    "service_request": "2025-1218821",
    "request_type": "Trash/Recycling",
    "request_reason": "Request a Large Item Pick Up",
    "date_created": "2025-08-15T13:07:24.000",
    "date_modified": "2025-08-15T13:07:26.000",
    "request_status": "Pending",
    "responsible_agency": "Department of Sanitation",
    "final_address": "2539 Banks St",
    "address_councildis": "B",
    "status": "Assigned to Contractor",
    "contractor": "IV Waste",
    "rowid": "1218821",
    "final_x": "3675198.63086",
    "final_y": "533781.363589",
    "longitude": "-90.08789018739895",
    "latitude": "29.961903495163675",
    "geocoded_column": {
      "latitude": "29.961903495163675",
      "longitude": "-90.08789018739895"
    }
  },
  {
    "service_request": "2025-1218820",
    "request_type": "Trash/Recycling",
    "request_reason": "Repair Trash Cart",
    "date_created": "2025-08-15T13:04:16.000",
    "date_modified": "2025-08-15T13:04:18.000",
    "request_status": "Pending",
    "responsible_agency": "Department of Sanitation",
    "final_address": "4176 Orleans Ave",
    "address_councildis": "A",
    "status": "Assigned to Contractor",
    "contractor": "IV Waste",
    "rowid": "1218820",
    "final_x": "3672109.38331",
    "final_y": "540440.371531",
    "longitude": "-90.09741875440946",
    "latitude": "29.98030548612089",
    "geocoded_column": {
      "latitude": "29.98030548612089",
      "longitude": "-90.09741875440946"
    }
  },
  {
    "service_request": "2025-1218819",
    "request_type": "Trash/Recycling",
    "request_reason": "Request a Large Item Pick Up",
    "date_created": "2025-08-15T13:03:02.000",
    "date_modified": "2025-08-15T13:03:04.000",
    "request_status": "Pending",
    "responsible_agency": "Department of Sanitation",
    "final_address": "11350 Prentiss Ave",
    "address_councildis": "E",
    "status": "Assigned to Contractor",
    "contractor": "Waste Pro",
    "rowid": "1218819",
    "final_x": "3717410.25394",
    "final_y": "556680.989658",
    "longitude": "-89.9537234580674",
    "latitude": "30.023539568083912",
    "geocoded_column": {
      "latitude": "30.023539568083912",
      "longitude": "-89.9537234580674"
    }
  },
  {
    "service_request": "2025-1218818",
    "request_type": "Trash/Recycling",
    "request_reason": "Missed Trash Pick-Up",
    "date_created": "2025-08-15T13:01:25.000",
    "date_modified": "2025-08-15T13:01:26.000",
    "request_status": "Pending",
    "responsible_agency": "Department of Sanitation",
    "final_address": "8130 Lomond Rd",
    "address_councildis": "E",
    "status": "Assigned to Contractor",
    "contractor": "Waste Pro",
    "rowid": "1218818",
    "final_x": "3702733.35831",
    "final_y": "561509.318303",
    "longitude": "-89.9999215508026",
    "latitude": "30.037293321488836",
    "geocoded_column": {
      "latitude": "30.037293321488836",
      "longitude": "-89.9999215508026"
    }
  },
  {
    "service_request": "2025-1218817",
    "request_type": "Roads and Streets",
    "request_reason": "Street Subsidence (Sinking)",
    "date_created": "2025-08-15T13:01:19.000",
    "date_modified": "2025-08-15T13:01:21.000",
    "request_status": "Pending",
    "responsible_agency": "Sewerage & Water Board",
    "final_address": "2325 Pleasure St",
    "address_councildis": "D",
    "status": "Pending",
    "rowid": "1218817",
    "final_x": "3685261.11036",
    "final_y": "545260.134863",
    "longitude": "-90.05571034971372",
    "latitude": "29.993161517358907",
    "geocoded_column": {
      "latitude": "29.993161517358907",
      "longitude": "-90.05571034971372"
    }
  },
  {
    "service_request": "2025-1218816",
    "request_type": "Utility Poles",
    "request_reason": "Wires Sagging/Hanging Low",
    "date_created": "2025-08-15T12:58:07.000",
    "date_modified": "2025-08-15T12:58:10.000",
    "request_status": "Pending",
    "responsible_agency": "Utility Company Collective",
    "final_address": "279 Elmira Ave",
    "address_councildis": "C",
    "status": "Pending",
    "rowid": "1218816",
    "final_x": "3688205.02735",
    "final_y": "530787.262338",
    "longitude": "-90.04692429337418",
    "latitude": "29.953275622595555",
    "geocoded_column": {
      "latitude": "29.953275622595555",
      "longitude": "-90.04692429337418"
    }
  },
  {
    "service_request": "2025-1218815",
    "request_type": "Roads and Streets",
    "request_reason": "Pothole",
    "date_created": "2025-08-15T12:57:49.000",
    "date_modified": "2025-08-15T12:57:50.000",
    "request_status": "Pending",
    "responsible_agency": "Department of Public Works",
    "final_address": "LOUIS XIV ST & HARRISON AVE",
    "address_councildis": "A",
    "status": "Pending",
    "rowid": "1218815",
    "final_x": "3668255.6",
    "final_y": "549270.98",
    "longitude": "-90.10929273673351",
    "latitude": "30.00470036359114",
    "geocoded_column": {
      "latitude": "30.00470036359114",
      "longitude": "-90.10929273673351"
    }
  },
  {
    "service_request": "2025-1218814",
    "request_type": "Trash/Recycling",
    "request_reason": "Request a Large Item Pick Up",
    "date_created": "2025-08-15T12:57:14.000",
    "date_modified": "2025-08-15T12:57:15.000",
    "request_status": "Pending",
    "responsible_agency": "Department of Sanitation",
    "final_address": "2444 Vienna St",
    "address_councildis": "D",
    "status": "Assigned to Contractor",
    "contractor": "IV Waste",
    "rowid": "1218814",
    "final_x": "3685435.10114",
    "final_y": "555060.083353",
    "longitude": "-90.05481533481307",
    "latitude": "30.020102481690017",
    "geocoded_column": {
      "latitude": "30.020102481690017",
      "longitude": "-90.05481533481307"
    }
  },
  {
    "service_request": "2025-1218813",
    "request_type": "Streetlights",
    "request_reason": "Streetlight Knocked Down/Leaning",
    "date_created": "2025-08-15T12:55:23.000",
    "date_modified": "2025-08-15T12:55:24.000",
    "request_status": "Pending",
    "responsible_agency": "Department of Public Works",
    "final_address": "750 City Park Ave",
    "address_councildis": "A",
    "status": "Pending",
    "contractor": "Legacy Professional Services",
    "rowid": "1218813",
    "final_x": "3670852.63835",
    "final_y": "541661.680844",
    "longitude": "-90.10134662491689",
    "latitude": "29.983700883319834",
    "geocoded_column": {
      "latitude": "29.983700883319834",
      "longitude": "-90.10134662491689"
    }
  },
  {
    "service_request": "2025-1218812",
    "request_type": "Safety & Permits",
    "request_reason": "Licenses & Permits",
    "date_created": "2025-08-15T12:54:52.000",
    "date_modified": "2025-08-15T12:54:54.000",
    "request_status": "Pending",
    "responsible_agency": "Safety and Permits",
    "final_address": "5641 Read Blvd",
    "address_councildis": "E",
    "status": "Pending",
    "rowid": "1218812",
    "final_x": "3711572.00325",
    "final_y": "559780.275677",
    "longitude": "-89.97205459784215",
    "latitude": "30.032253368105852",
    "geocoded_column": {
      "latitude": "30.032253368105852",
      "longitude": "-89.97205459784215"
    }
  },
  {
    "service_request": "2025-1218811",
    "request_type": "Property Maintenance",
    "request_reason": "Property Maintenance",
    "date_created": "2025-08-15T12:54:04.000",
    "date_modified": "2025-08-15T12:54:07.000",
    "request_status": "Pending",
    "responsible_agency": "Department of Code Enforcement",
    "final_address": "8328 Oleander St",
    "address_councildis": "A",
    "status": "Pending",
    "rowid": "1218811",
    "final_x": "3666050.77748",
    "final_y": "534262.327557",
    "longitude": "-90.11676165679455",
    "latitude": "29.963496216929403",
    "geocoded_column": {
      "latitude": "29.963496216929403",
      "longitude": "-90.11676165679455"
    }
  },
  {
    "service_request": "2025-1218810",
    "request_type": "Roads and Streets",
    "request_reason": "Pothole",
    "date_created": "2025-08-15T12:53:17.000",
    "date_modified": "2025-08-15T12:53:19.000",
    "request_status": "Pending",
    "responsible_agency": "Department of Public Works",
    "final_address": "6222 Pontchartrain Blvd",
    "address_councildis": "A",
    "status": "Pending",
    "rowid": "1218810",
    "final_x": "3666117.9193",
    "final_y": "549208.188883",
    "longitude": "-90.11604822611571",
    "latitude": "30.004590326672886",
    "geocoded_column": {
      "latitude": "30.004590326672886",
      "longitude": "-90.11604822611571"
    }
  },
  {
    "service_request": "2025-1218809",
    "request_type": "Streetlights",
    "request_reason": "Streetlight Outage/Malfunction",
    "date_created": "2025-08-15T12:52:17.000",
    "date_modified": "2025-08-15T12:52:19.000",
    "request_status": "Pending",
    "responsible_agency": "Department of Public Works",
    "final_address": "750 City Park Ave",
    "address_councildis": "A",
    "status": "Pending",
    "contractor": "Legacy Professional Services",
    "rowid": "1218809",
    "final_x": "3670852.63835",
    "final_y": "541661.680844",
    "longitude": "-90.10134662491689",
    "latitude": "29.983700883319834",
    "geocoded_column": {
      "latitude": "29.983700883319834",
      "longitude": "-90.10134662491689"
    }
  },
  {
    "service_request": "2025-1218808",
    "request_type": "Trash/Recycling",
    "request_reason": "Request a Large Item Pick Up",
    "date_created": "2025-08-15T12:49:41.000",
    "date_modified": "2025-08-15T12:49:43.000",
    "request_status": "Pending",
    "responsible_agency": "Department of Sanitation",
    "final_address": "4811 Redwood St",
    "address_councildis": "E",
    "status": "Assigned to Contractor",
    "contractor": "Waste Pro",
    "rowid": "1218808",
    "final_x": "3712526.34354",
    "final_y": "556506.096282",
    "longitude": "-89.96916202760025",
    "latitude": "30.02321946222862",
    "geocoded_column": {
      "latitude": "30.02321946222862",
      "longitude": "-89.96916202760025"
    }
  },
  {
    "service_request": "2025-1218807",
    "request_type": "Streetlights",
    "request_reason": "Streetlight Outage/Malfunction",
    "date_created": "2025-08-15T12:48:23.000",
    "date_modified": "2025-08-15T12:48:24.000",
    "request_status": "Pending",
    "responsible_agency": "Department of Public Works",
    "final_address": "5189 Basinview Dr",
    "address_councildis": "E",
    "status": "Pending",
    "contractor": "Legacy Professional Services",
    "rowid": "1218807",
    "final_x": "3698800.74896",
    "final_y": "556663.225882",
    "longitude": "-90.01252595887797",
    "latitude": "30.02409368013497",
    "geocoded_column": {
      "latitude": "30.02409368013497",
      "longitude": "-90.01252595887797"
    }
  },
  {
    "service_request": "2025-1218806",
    "request_type": "Streetlights",
    "request_reason": "Streetlight Outage/Malfunction",
    "date_created": "2025-08-15T12:46:40.000",
    "date_modified": "2025-08-15T12:46:42.000",
    "request_status": "Pending",
    "responsible_agency": "Department of Public Works",
    "final_address": "911 Iberville St",
    "address_councildis": "C",
    "status": "Pending",
    "contractor": "Legacy Professional Services",
    "rowid": "1218806",
    "final_x": "3680797.77429",
    "final_y": "531549.683331",
    "longitude": "-90.07028666322837",
    "latitude": "29.955598604481583",
    "geocoded_column": {
      "latitude": "29.955598604481583",
      "longitude": "-90.07028666322837"
    }
  },
  {
    "service_request": "2025-1218805",
    "request_type": "Parks & Parkways",
    "request_reason": "Request Tree Service (Right of Way/Public Property)",
    "date_created": "2025-08-15T12:45:22.000",
    "date_modified": "2025-08-15T12:45:25.000",
    "request_status": "Pending",
    "responsible_agency": "Department of Parks & Parkway",
    "final_address": "4810 Toulon St",
    "address_councildis": "E",
    "status": "Pending",
    "rowid": "1218805",
    "final_x": "3723732.09292",
    "final_y": "560138.962205",
    "longitude": "-89.93361455814353",
    "latitude": "30.032836782081432",
    "geocoded_column": {
      "latitude": "30.032836782081432",
      "longitude": "-89.93361455814353"
    }
  },
  {
    "service_request": "2025-1218804",
    "request_type": "Roads and Streets",
    "request_reason": "Pothole",
    "date_created": "2025-08-15T12:42:39.000",
    "date_modified": "2025-08-15T12:42:46.000",
    "request_status": "Pending",
    "responsible_agency": "Department of Public Works",
    "final_address": "N CLAIBORNE AVE & FORSTALL ST",
    "address_councildis": "E",
    "status": "Pending",
    "rowid": "1218804",
    "final_x": "3696732.7",
    "final_y": "535935.58",
    "longitude": "-90.01981136859588",
    "latitude": "29.967165671741167",
    "geocoded_column": {
      "latitude": "29.967165671741167",
      "longitude": "-90.01981136859588"
    }
  },
  {
    "service_request": "2025-1218803",
    "request_type": "Trash/Recycling",
    "request_reason": "Order Recycling Cart",
    "date_created": "2025-08-15T12:42:23.000",
    "date_modified": "2025-08-15T12:42:26.000",
    "request_status": "Pending",
    "responsible_agency": "Department of Sanitation",
    "final_address": "6037 Prytania St",
    "address_councildis": "A",
    "status": "Pending",
    "rowid": "1218803",
    "final_x": "3664886.89792",
    "final_y": "520990.631417",
    "longitude": "-90.12088055070429",
    "latitude": "29.927037248289437",
    "geocoded_column": {
      "latitude": "29.927037248289437",
      "longitude": "-90.12088055070429"
    }
  },
  {
    "service_request": "2025-1218802",
    "request_type": "Streetlights",
    "request_reason": "Streetlight Outage/Malfunction",
    "date_created": "2025-08-15T12:42:09.000",
    "date_modified": "2025-08-15T12:42:10.000",
    "request_status": "Pending",
    "responsible_agency": "Department of Public Works",
    "final_address": "6643 Avenue A",
    "address_councildis": "A",
    "status": "Pending",
    "contractor": "Legacy Professional Services",
    "rowid": "1218802",
    "final_x": "3666099.13722",
    "final_y": "552343.33103",
    "longitude": "-90.11600233765233",
    "latitude": "30.013211424866945",
    "geocoded_column": {
      "latitude": "30.013211424866945",
      "longitude": "-90.11600233765233"
    }
  },
  {
    "service_request": "2025-1218801",
    "request_type": "Property Maintenance",
    "request_reason": "Property Maintenance",
    "date_created": "2025-08-15T12:39:00.000",
    "date_modified": "2025-08-15T12:39:47.000",
    "request_status": "Pending",
    "responsible_agency": "Department of Code Enforcement",
    "final_address": "7080 Ridgefield Dr",
    "address_councildis": "E",
    "status": "Pending",
    "rowid": "1218801",
    "final_x": "3719193.94834",
    "final_y": "569743.142886",
    "longitude": "-89.94758827270583",
    "latitude": "30.059395985363345",
    "geocoded_column": {
      "latitude": "30.059395985363345",
      "longitude": "-89.94758827270583"
    }
  },
  {
    "service_request": "2025-1218800",
    "request_type": "Streetlights",
    "request_reason": "Streetlight Outage/Malfunction",
    "date_created": "2025-08-15T12:38:44.000",
    "date_modified": "2025-08-15T12:38:47.000",
    "request_status": "Pending",
    "responsible_agency": "Department of Public Works",
    "final_address": "6655 Avenue A",
    "address_councildis": "A",
    "status": "Pending",
    "contractor": "Legacy Professional Services",
    "rowid": "1218800",
    "final_x": "3666140.08871",
    "final_y": "552437.397014",
    "longitude": "-90.1158697945031",
    "latitude": "30.013468877059164",
    "geocoded_column": {
      "latitude": "30.013468877059164",
      "longitude": "-90.1158697945031"
    }
  },
  {
    "service_request": "2025-1218799",
    "request_type": "Trash/Recycling",
    "request_reason": "Missed Trash Pick-Up",
    "date_created": "2025-08-15T12:35:35.000",
    "date_modified": "2025-08-15T13:09:54.000",
    "case_close_date": "2025-08-15T08:09:52.000",
    "request_status": "Closed",
    "responsible_agency": "Department of Sanitation",
    "final_address": "1214 Simon Bolivar Ave",
    "address_councildis": "B",
    "status": "Invalid Request",
    "contractor": "IV Waste",
    "contractor_action": "Invalid",
    "rowid": "1218799",
    "final_x": "3677821.16398",
    "final_y": "527398.593343",
    "longitude": "-90.0798291331271",
    "latitude": "29.944274376185625",
    "geocoded_column": {
      "latitude": "29.944274376185625",
      "longitude": "-90.0798291331271"
    }
  },
  {
    "service_request": "2025-1218798",
    "request_type": "Abandoned Vehicles",
    "request_reason": "Abandoned/Junk Vehicles",
    "date_created": "2025-08-15T12:29:12.000",
    "date_modified": "2025-08-15T12:29:14.000",
    "request_status": "Pending",
    "responsible_agency": "Department of Public Works",
    "final_address": "15 Neron Pl",
    "address_councildis": "A",
    "status": "Pending",
    "rowid": "1218798",
    "final_x": "3664971.9529",
    "final_y": "530921.682178",
    "longitude": "-90.12028016613827",
    "latitude": "29.954341985133834",
    "geocoded_column": {
      "latitude": "29.954341985133834",
      "longitude": "-90.12028016613827"
    }
  },
  {
    "service_request": "2025-1218797",
    "request_type": "Trash/Recycling",
    "request_reason": "Request a Large Item Pick Up",
    "date_created": "2025-08-15T12:28:48.000",
    "date_modified": "2025-08-15T12:28:49.000",
    "request_status": "Pending",
    "responsible_agency": "Department of Sanitation",
    "final_address": "2110 DAbadie St",
    "address_councildis": "D",
    "status": "Assigned to Contractor",
    "contractor": "IV Waste",
    "rowid": "1218797",
    "final_x": "3681116.03407",
    "final_y": "539484.140618",
    "longitude": "-90.06900526351956",
    "latitude": "29.97740599011265",
    "geocoded_column": {
      "latitude": "29.97740599011265",
      "longitude": "-90.06900526351956"
    }
  },
  {
    "service_request": "2025-1218796",
    "request_type": "Trash/Recycling",
    "request_reason": "Illegal Dumping",
    "date_created": "2025-08-15T12:25:11.000",
    "date_modified": "2025-08-15T12:25:12.000",
    "request_status": "Pending",
    "responsible_agency": "Department of Sanitation",
    "final_address": "1200 BLK Frenchmen St",
    "address_councildis": "C",
    "status": "Pending",
    "rowid": "1218796",
    "final_x": "3684546.36709",
    "final_y": "536819.302133",
    "longitude": "-90.05826480247414",
    "latitude": "29.9699740918622",
    "geocoded_column": {
      "latitude": "29.9699740918622",
      "longitude": "-90.05826480247414"
    }
  },
  {
    "service_request": "2025-1218795",
    "request_type": "Trash/Recycling",
    "request_reason": "Order Trash Cart",
    "date_created": "2025-08-15T12:23:34.000",
    "date_modified": "2025-08-15T12:23:36.000",
    "request_status": "Pending",
    "responsible_agency": "Department of Sanitation",
    "final_address": "1616 Treasure St",
    "address_councildis": "D",
    "status": "Assigned to Contractor",
    "contractor": "IV Waste",
    "rowid": "1218795",
    "final_x": "3680021.75682",
    "final_y": "543661.91483",
    "longitude": "-90.07231614384095",
    "latitude": "29.988926566902556",
    "geocoded_column": {
      "latitude": "29.988926566902556",
      "longitude": "-90.07231614384095"
    }
  },
  {
    "service_request": "2025-1218794",
    "request_type": "Traffic Signals",
    "request_reason": "Traffic Signal Malfunctioning or Damaged",
    "date_created": "2025-08-15T12:16:30.000",
    "date_modified": "2025-08-15T12:16:31.000",
    "request_status": "Pending",
    "responsible_agency": "Department of Public Works",
    "final_address": "WASHINGTON AVE & MAGAZINE ST",
    "address_councildis": "B",
    "status": "Pending",
    "rowid": "1218794",
    "final_x": "3677050.9",
    "final_y": "520822.68",
    "longitude": "-90.08248772433362",
    "latitude": "29.92621591740664",
    "geocoded_column": {
      "latitude": "29.92621591740664",
      "longitude": "-90.08248772433362"
    }
  },
  {
    "service_request": "2025-1218793",
    "request_type": "Trash/Recycling",
    "request_reason": "Order Trash Cart",
    "date_created": "2025-08-15T12:09:10.000",
    "date_modified": "2025-08-15T12:09:12.000",
    "request_status": "Pending",
    "responsible_agency": "Department of Sanitation",
    "final_address": "3571 Plymouth Pl",
    "address_councildis": "C",
    "status": "Assigned to Contractor",
    "contractor": "Richards Disposal",
    "rowid": "1218793",
    "final_x": "3702708.55518",
    "final_y": "517692.171702",
    "longitude": "-90.0016092889655",
    "latitude": "29.916813010952396",
    "geocoded_column": {
      "latitude": "29.916813010952396",
      "longitude": "-90.0016092889655"
    }
  },
  {
    "service_request": "2025-1218792",
    "request_type": "Trash/Recycling",
    "request_reason": "Repair Trash Cart",
    "date_created": "2025-08-15T12:06:51.000",
    "date_modified": "2025-08-15T12:06:53.000",
    "request_status": "Pending",
    "responsible_agency": "Department of Sanitation",
    "final_address": "1712 Fern St",
    "address_councildis": "A",
    "status": "Assigned to Contractor",
    "contractor": "IV Waste",
    "rowid": "1218792",
    "final_x": "3663772.51386",
    "final_y": "529266.124481",
    "longitude": "-90.12412270341467",
    "latitude": "29.949824597329503",
    "geocoded_column": {
      "latitude": "29.949824597329503",
      "longitude": "-90.12412270341467"
    }
  },
  {
    "service_request": "2025-1218791",
    "request_type": "Trash/Recycling",
    "request_reason": "Missed Trash Pick-Up",
    "date_created": "2025-08-15T12:02:34.000",
    "date_modified": "2025-08-15T12:02:36.000",
    "request_status": "Pending",
    "responsible_agency": "Department of Sanitation",
    "final_address": "2639 Eton St",
    "address_councildis": "C",
    "status": "Assigned to Contractor",
    "contractor": "Richards Disposal",
    "rowid": "1218791",
    "final_x": "3703899.87786",
    "final_y": "521189.358713",
    "longitude": "-89.99772034010377",
    "latitude": "29.926390940555432",
    "geocoded_column": {
      "latitude": "29.926390940555432",
      "longitude": "-89.99772034010377"
    }
  },
  {
    "service_request": "2025-1218790",
    "request_type": "Trash/Recycling",
    "request_reason": "Return Trash Cart",
    "date_created": "2025-08-15T12:00:37.000",
    "date_modified": "2025-08-15T12:00:39.000",
    "request_status": "Pending",
    "responsible_agency": "Department of Sanitation",
    "final_address": "3812 General Meyer Ave",
    "address_councildis": "C",
    "status": "Assigned to Contractor",
    "contractor": "Richards Disposal",
    "rowid": "1218790",
    "final_x": "3698161.71799",
    "final_y": "525264.007357",
    "longitude": "-90.01568608247484",
    "latitude": "29.937777484745983",
    "geocoded_column": {
      "latitude": "29.937777484745983",
      "longitude": "-90.01568608247484"
    }
  },
  {
    "service_request": "2025-1218789",
    "request_type": "Trash/Recycling",
    "request_reason": "Replace Trash Cart",
    "date_created": "2025-08-15T12:00:13.000",
    "date_modified": "2025-08-15T12:00:16.000",
    "request_status": "Pending",
    "responsible_agency": "Department of Sanitation",
    "final_address": "1801 Frenchmen St",
    "address_councildis": "D",
    "status": "Assigned to Contractor",
    "contractor": "IV Waste",
    "rowid": "1218789",
    "final_x": "3684414.74703",
    "final_y": "538883.202889",
    "longitude": "-90.05860795940681",
    "latitude": "29.975653126699296",
    "geocoded_column": {
      "latitude": "29.975653126699296",
      "longitude": "-90.05860795940681"
    }
  },
  {
    "service_request": "2025-1218788",
    "request_type": "Trash/Recycling",
    "request_reason": "Replace Trash Cart",
    "date_created": "2025-08-15T11:57:11.000",
    "date_modified": "2025-08-15T11:57:12.000",
    "request_status": "Pending",
    "responsible_agency": "Department of Sanitation",
    "final_address": "3812 General Meyer Ave",
    "address_councildis": "C",
    "status": "Assigned to Contractor",
    "contractor": "Richards Disposal",
    "rowid": "1218788",
    "final_x": "3698161.71799",
    "final_y": "525264.007357",
    "longitude": "-90.01568608247484",
    "latitude": "29.937777484745983",
    "geocoded_column": {
      "latitude": "29.937777484745983",
      "longitude": "-90.01568608247484"
    }
  },
  {
    "service_request": "2025-1218787",
    "request_type": "Property Maintenance",
    "request_reason": "Property Maintenance",
    "date_created": "2025-08-15T11:56:17.000",
    "date_modified": "2025-08-15T11:57:13.000",
    "request_status": "Pending",
    "responsible_agency": "Department of Code Enforcement",
    "final_address": "4333 St Bernard Ave",
    "address_councildis": "D",
    "status": "Pending",
    "rowid": "1218787",
    "final_x": "3676930.18075",
    "final_y": "548544.365522",
    "longitude": "-90.0819130735056",
    "latitude": "30.002444780690364",
    "geocoded_column": {
      "latitude": "30.002444780690364",
      "longitude": "-90.0819130735056"
    }
  },
  {
    "service_request": "2025-1218786",
    "request_type": "Trash/Recycling",
    "request_reason": "Replace Trash Cart",
    "date_created": "2025-08-15T11:54:43.000",
    "date_modified": "2025-08-15T11:54:45.000",
    "request_status": "Pending",
    "responsible_agency": "Department of Sanitation",
    "final_address": "2539 Columbus St",
    "address_councildis": "D",
    "status": "Assigned to Contractor",
    "contractor": "IV Waste",
    "rowid": "1218786",
    "final_x": "3678914.15234",
    "final_y": "539441.882506",
    "longitude": "-90.0759610051361",
    "latitude": "29.977356415979948",
    "geocoded_column": {
      "latitude": "29.977356415979948",
      "longitude": "-90.0759610051361"
    }
  },
  {
    "service_request": "2025-1218785",
    "request_type": "Parks & Parkways",
    "request_reason": "Request Grass Cutting Service (City Owned Property)",
    "date_created": "2025-08-15T11:50:24.000",
    "date_modified": "2025-08-15T14:14:13.000",
    "case_close_date": "2025-08-15T09:14:11.000",
    "request_status": "Closed",
    "responsible_agency": "Department of Parks & Parkway",
    "final_address": "2038 St Ferdinand St",
    "address_councildis": "D",
    "status": "Resolved",
    "rowid": "1218785",
    "final_x": "3688630.93391",
    "final_y": "540019.830987",
    "longitude": "-90.04525175421071",
    "latitude": "29.978648808020875",
    "geocoded_column": {
      "latitude": "29.978648808020875",
      "longitude": "-90.04525175421071"
    }
  },
  {
    "service_request": "2025-1218784",
    "request_type": "Trash/Recycling",
    "request_reason": "Order Trash Cart",
    "date_created": "2025-08-15T11:49:27.000",
    "date_modified": "2025-08-15T11:50:39.000",
    "request_status": "Pending",
    "responsible_agency": "Department of Sanitation",
    "final_address": "3111 Diana St",
    "address_councildis": "C",
    "status": "Assigned to Contractor",
    "contractor": "Richards Disposal",
    "rowid": "1218784",
    "final_x": "3695907.19414",
    "final_y": "527373.128767",
    "longitude": "-90.02272759518682",
    "latitude": "29.94364793363604",
    "geocoded_column": {
      "latitude": "29.94364793363604",
      "longitude": "-90.02272759518682"
    }
  },