[
  {
    "service_request": "2023-1013517",
    "request_type": "Roads/Drainage",
    "request_reason": "Pothole",
    "date_created": "2023-07-02T01:10:18.000",
    "date_modified": "2023-07-02T01:10:18.000",
    "request_status": "Pending",
    "responsible_agency": "Department of Public Works",
    "final_address": "3501 Chestnut St",
    "address_councildis": "B",
    "status": "Pending",
    "rowid": "1013517",
    "final_x": "3674153.34984",
    "final_y": "520150.076856",
    "longitude": "-90.09165748259565",
    "latitude": "29.924453131703494",
    "geocoded_column": {
      "latitude": "29.924453131703494",
      "longitude": "-90.09165748259565"
    }
  },
  {
    "service_request": "2023-1013516",
    "request_type": "Property Maintenance",
    "request_reason": "Property Maintenance",
    "date_created": "2023-07-02T00:40:52.000",
    "date_modified": "2023-07-02T00:40:52.000",
    "request_status": "Pending",
    "responsible_agency": "Department of Code Enforcement",
    "final_address": "1441 Eleonore St",
    "address_councildis": "A",
    "status": "Pending",
    "rowid": "1013516",
    "final_x": "3665781.33408",
    "final_y": "521342.836601",
    "longitude": "-90.11804524522694",
    "latitude": "29.927979647159326",
    "geocoded_column": {
      "latitude": "29.927979647159326",
      "longitude": "-90.11804524522694"
    }
  },
  {
    "service_request": "2023-1013515",
    "request_type": "Trash/Recycling",
    "request_reason": "Start Trash Service",
    "date_created": "2023-07-02T00:12:34.000",
    "date_modified": "2023-07-02T00:12:34.000",
    "request_status": "Pending",
    "responsible_agency": "Department of Sanitation",
    "status": "Assigned to Contractor",
    "rowid": "1013515",
    "longitude": "0.0",
    "latitude": "0.0",
    "geocoded_column": {
      "latitude": "0.0",
      "longitude": "0.0"
    }
  },
  {
    "service_request": "2023-1013514",
    "request_type": "Property Maintenance",
    "request_reason": "Property Maintenance",
    "date_created": "2023-07-01T23:46:30.000",
    "date_modified": "2023-07-01T23:46:30.000",
    "request_status": "Pending",
    "responsible_agency": "Department of Code Enforcement",
    "final_address": "1545 State St",
    "address_councildis": "A",
    "status": "Pending",
    "rowid": "1013514",
    "final_x": "3665712.68276",
    "final_y": "522152.368058",
    "longitude": "-90.11823486278873",
    "latitude": "29.930207604521147",
    "geocoded_column": {
      "latitude": "29.930207604521147",
      "longitude": "-90.11823486278873"
    }
  },
  {
    "service_request": "2023-1013513",
    "request_type": "Trash/Recycling",
    "request_reason": "Order Recycling Cart",
    "date_created": "2023-07-01T22:58:19.000",
    "date_modified": "2023-07-01T22:58:19.000",
    "request_status": "Pending",
    "responsible_agency": "Department of Sanitation",
    "final_address": "1326 Harrison Ave",
    "address_councildis": "D",
    "status": "Pending",
    "rowid": "1013513",
    "final_x": "3677505.25538",
    "final_y": "547520.696146",
    "longitude": "-90.08013170834063",
    "latitude": "29.999612770322006",
    "geocoded_column": {
      "latitude": "29.999612770322006",
      "longitude": "-90.08013170834063"
    }
  },
  {
    "service_request": "2023-1013512",
    "request_type": "Trash/Recycling",
    "request_reason": "Order Recycling Cart",
    "date_created": "2023-07-01T22:57:00.000",
    "date_modified": "2023-07-01T22:57:00.000",
    "request_status": "Pending",
    "responsible_agency": "Department of Sanitation",
    "final_address": "1324 Harrison Ave",
    "address_councildis": "D",
    "status": "Pending",
    "rowid": "1013512",
    "final_x": "3677489.42203",
    "final_y": "547519.862802",
    "longitude": "-90.08018175528726",
    "latitude": "29.999610955063858",
    "geocoded_column": {
      "latitude": "29.999610955063858",
      "longitude": "-90.08018175528726"
    }
  },
  {
    "service_request": "2023-1013511",
    "request_type": "Trash/Recycling",
    "request_reason": "Order Trash Cart",
    "date_created": "2023-07-01T22:55:48.000",
    "date_modified": "2023-07-01T22:55:49.000",
    "request_status": "Pending",
    "responsible_agency": "Department of Sanitation",
    "final_address": "1326 Harrison Ave",
    "address_councildis": "D",
    "status": "Assigned to Contractor",
    "contractor": "IV Waste",
    "rowid": "1013511",
    "final_x": "3677505.25538",
    "final_y": "547520.696146",
    "longitude": "-90.08013170834063",
    "latitude": "29.999612770322006",
    "geocoded_column": {
      "latitude": "29.999612770322006",
      "longitude": "-90.08013170834063"
    }
  },
  {
    "service_request": "2023-1013510",
    "request_type": "Trash/Recycling",
    "request_reason": "Order Trash Cart",
    "date_created": "2023-07-01T22:54:16.000",
    "date_modified": "2023-07-01T22:54:17.000",
    "request_status": "Pending",
    "responsible_agency": "Department of Sanitation",
    "final_address": "1324 Harrison Ave",
    "address_councildis": "D",
    "status": "Assigned to Contractor",
    "contractor": "IV Waste",
    "rowid": "1013510",
    "final_x": "3677489.42203",
    "final_y": "547519.862802",
    "longitude": "-90.08018175528726",
    "latitude": "29.999610955063858",
    "geocoded_column": {
      "latitude": "29.999610955063858",
      "longitude": "-90.08018175528726"
    }
  },
  {
    "service_request": "2023-1013509",
    "request_type": "Health Related Request",
    "request_reason": "Noise Ordinance Complaint",
    "date_created": "2023-07-01T22:21:23.000",
    "date_modified": "2023-07-01T22:21:23.000",
    "request_status": "Pending",
    "responsible_agency": "Health Department",
    "final_address": "718 Bourbon St, New Orleans, Louisiana, 70116",
    "address_councildis": "C",
    "status": "Pending",
    "rowid": "1013509",
    "final_x": "3682364.17781",
    "final_y": "532746.008004",
    "longitude": "-90.06529872053143",
    "latitude": "29.95884052062511",
    "geocoded_column": {
      "latitude": "29.95884052062511",
      "longitude": "-90.06529872053143"
    }
  },
  {
    "service_request": "2023-1013508",
    "request_type": "Tax and Revenue",
    "request_reason": "Occupational License Tax",
    "date_created": "2023-07-01T22:14:25.000",
    "date_modified": "2023-07-01T22:14:25.000",
    "request_status": "Pending",
    "responsible_agency": "Bureau of Revenue",
    "final_address": "1139 St Bernard Ave",
    "address_councildis": "C",
    "status": "Pending",
    "rowid": "1013508",
    "final_x": "3683182.77832",
    "final_y": "536033.897031",
    "longitude": "-90.06259865177628",
    "latitude": "29.967856151484312",
    "geocoded_column": {
      "latitude": "29.967856151484312",
      "longitude": "-90.06259865177628"
    }
  },
  {
    "service_request": "2023-1013506",
    "request_type": "Safety & Permits",
    "request_reason": "Licenses & Permits",
    "date_created": "2023-07-01T22:12:35.000",
    "date_modified": "2023-07-01T22:12:35.000",
    "request_status": "Pending",
    "responsible_agency": "Safety and Permits",
    "final_address": "1139 St Bernard Ave",
    "address_councildis": "C",
    "status": "Pending",
    "rowid": "1013506",
    "final_x": "3683182.77832",
    "final_y": "536033.897031",
    "longitude": "-90.06259865177628",
    "latitude": "29.967856151484312",
    "geocoded_column": {
      "latitude": "29.967856151484312",
      "longitude": "-90.06259865177628"
    }
  },
  {
    "service_request": "2023-1013505",
    "request_type": "Health Related Request",
    "request_reason": "Noise Ordinance Complaint",
    "date_created": "2023-07-01T22:11:04.000",
    "date_modified": "2023-07-01T22:11:04.000",
    "request_status": "Pending",
    "responsible_agency": "Health Department",
    "final_address": "1139 St Bernard Ave",
    "address_councildis": "C",
    "status": "Pending",
    "rowid": "1013505",
    "final_x": "3683182.77832",
    "final_y": "536033.897031",
    "longitude": "-90.06259865177628",
    "latitude": "29.967856151484312",
    "geocoded_column": {
      "latitude": "29.967856151484312",
      "longitude": "-90.06259865177628"
    }
  },
  {
    "service_request": "2023-1013504",
    "request_type": "Traffic Signals/Signs/Striping/Streetlights",
    "request_reason": "Street Light Outage/Malfunction",
    "date_created": "2023-07-01T22:07:46.000",
    "date_modified": "2023-07-01T22:07:47.000",
    "request_status": "Pending",
    "responsible_agency": "Department of Public Works",
    "final_address": "5248 Basinview Dr",
    "address_councildis": "E",
    "status": "Assigned to Contractor",
    "contractor": "Legacy Professional Services",
    "rowid": "1013504",
    "final_x": "3698953.16375",
    "final_y": "556944.197594",
    "longitude": "-90.01203412211787",
    "latitude": "30.024861413228912",
    "geocoded_column": {
      "latitude": "30.024861413228912",
      "longitude": "-90.01203412211787"
    }
  },
  {
    "service_request": "2023-1013503",
    "request_type": "Traffic Signals/Signs/Striping/Streetlights",
    "request_reason": "Street Light Outage/Malfunction",
    "date_created": "2023-07-01T22:02:54.000",
    "date_modified": "2023-07-01T22:02:55.000",
    "request_status": "Pending",
    "responsible_agency": "Department of Public Works",
    "final_address": "940 Felicity St Apt 1A",
    "address_councildis": "B",
    "status": "Assigned to Contractor",
    "contractor": "Legacy Professional Services",
    "rowid": "1013503",
    "final_x": "3680255.11861",
    "final_y": "522710.048826",
    "longitude": "-90.07230735873844",
    "latitude": "29.931308994019535",
    "geocoded_column": {
      "latitude": "29.931308994019535",
      "longitude": "-90.07230735873844"
    }
  },
  {
    "service_request": "2023-1013502",
    "request_type": "Traffic Signals/Signs/Striping/Streetlights",
    "request_reason": "Street Light Outage/Malfunction",
    "date_created": "2023-07-01T22:00:51.000",
    "date_modified": "2023-07-01T22:00:52.000",
    "request_status": "Pending",
    "responsible_agency": "Department of Public Works",
    "final_address": "5248 Basinview Dr",
    "address_councildis": "E",
    "status": "Assigned to Contractor",
    "contractor": "Legacy Professional Services",
    "rowid": "1013502",
    "final_x": "3698953.16375",
    "final_y": "556944.197594",
    "longitude": "-90.01203412211787",
    "latitude": "30.024861413228912",
    "geocoded_column": {
      "latitude": "30.024861413228912",
      "longitude": "-90.01203412211787"
    }
  },
  {
    "service_request": "2023-1013501",
    "request_type": "Traffic Signals/Signs/Striping/Streetlights",
    "request_reason": "Street Light Outage/Malfunction",
    "date_created": "2023-07-01T21:55:40.000",
    "date_modified": "2023-07-01T21:55:41.000",
    "request_status": "Pending",
    "responsible_agency": "Department of Public Works",
    "final_address": "5248 Basinview Dr",
    "address_councildis": "E",
    "status": "Assigned to Contractor",
    "contractor": "Legacy Professional Services",
    "rowid": "1013501",
    "final_x": "3698953.16375",
    "final_y": "556944.197594",
    "longitude": "-90.01203412211787",
    "latitude": "30.024861413228912",
    "geocoded_column": {
      "latitude": "30.024861413228912",
      "longitude": "-90.01203412211787"
    }
  },
  {
    "service_request": "2023-1013500",
    "request_type": "Abandoned Vehicles",
    "request_reason": "Vehicle Blocking Your Driveway",
    "date_created": "2023-07-01T21:43:10.000",
    "date_modified": "2023-07-01T21:43:10.000",
    "request_status": "Pending",
    "responsible_agency": "Department of Public Works",
    "final_address": "714 Seventh St",
    "address_councildis": "B",
    "status": "Pending",
    "rowid": "1013500",
    "final_x": "3677095.29851",
    "final_y": "519210.183287",
    "longitude": "-90.08240314119541",
    "latitude": "29.92178074075092",
    "geocoded_column": {
      "latitude": "29.92178074075092",
      "longitude": "-90.08240314119541"
    }
  },
  {
    "service_request": "2023-1013499",
    "request_type": "Trash/Recycling",
    "request_reason": "Request a Large Item Pick Up",
    "date_created": "2023-07-01T21:42:58.000",
    "date_modified": "2023-07-01T21:42:59.000",
    "request_status": "Pending",
    "responsible_agency": "Department of Sanitation",
    "final_address": "7929 Freret St",
    "address_councildis": "A",
    "status": "Assigned to Contractor",
    "contractor": "Richards Disposal",
    "rowid": "1013499",
    "final_x": "3661926.85114",
    "final_y": "527522.518655",
    "longitude": "-90.13000815603785",
    "latitude": "29.9450836666227",
    "geocoded_column": {
      "latitude": "29.9450836666227",
      "longitude": "-90.13000815603785"
    }
  },
  {
    "service_request": "2023-1013498",
    "request_type": "Trash/Recycling",
    "request_reason": "Request a Large Item Pick Up",
    "date_created": "2023-07-01T21:25:13.000",
    "date_modified": "2023-07-01T21:25:14.000",
    "request_status": "Pending",
    "responsible_agency": "Department of Sanitation",
    "final_address": "1705 Numa St",
    "address_councildis": "C",
    "status": "Assigned to Contractor",
    "contractor": "Richards Disposal",
    "rowid": "1013498",
    "final_x": "3691669.03657",
    "final_y": "525080.330685",
    "longitude": "-90.03619047924036",
    "latitude": "29.937476134948927",
    "geocoded_column": {
      "latitude": "29.937476134948927",
      "longitude": "-90.03619047924036"
    }
  },
  {
    "service_request": "2023-1013497",
    "request_type": "Traffic Signals/Signs/Striping/Streetlights",
    "request_reason": "Street Light Outage/Malfunction",
    "date_created": "2023-07-01T21:21:34.000",
    "date_modified": "2023-07-01T21:21:35.000",
    "request_status": "Pending",
    "responsible_agency": "Department of Public Works",
    "final_address": "FRENCHMEN ST & LAW ST",
    "address_councildis": "D",
    "status": "Assigned to Contractor",
    "contractor": "Legacy Professional Services",
    "rowid": "1013497",
    "final_x": "3684142.2",
    "final_y": "541797.98",
    "longitude": "-90.05936638696443",
    "latitude": "29.983676075438787",
    "geocoded_column": {
      "latitude": "29.983676075438787",
      "longitude": "-90.05936638696443"
    }
  },
  {
    "service_request": "2023-1013496",
    "request_type": "Trash/Recycling",
    "request_reason": "Order Recycling Cart",
    "date_created": "2023-07-01T21:07:19.000",
    "date_modified": "2023-07-01T21:07:19.000",
    "request_status": "Pending",
    "responsible_agency": "Department of Sanitation",
    "final_address": "4666 Lurline St",
    "address_councildis": "E",
    "status": "Pending",
    "rowid": "1013496",
    "final_x": "3711940.13611",
    "final_y": "555689.569049",
    "longitude": "-89.97104497154652",
    "latitude": "30.02099350993239",
    "geocoded_column": {
      "latitude": "30.02099350993239",
      "longitude": "-89.97104497154652"
    }
  },
  {
    "service_request": "2023-1013495",
    "request_type": "Roads/Drainage",
    "request_reason": "Street Subsidence (Sinking)",
    "date_created": "2023-07-01T20:48:43.000",
    "date_modified": "2023-07-01T20:48:43.000",
    "request_status": "Pending",
    "responsible_agency": "Department of Public Works",
    "final_address": "3419 Plymouth Pl",
    "address_councildis": "C",
    "status": "Pending",
    "rowid": "1013495",
    "final_x": "3702723.61873",
    "final_y": "518538.095607",
    "longitude": "-90.00153070830063",
    "latitude": "29.91913852970749",
    "geocoded_column": {
      "latitude": "29.91913852970749",
      "longitude": "-90.00153070830063"
    }
  },
  {
    "service_request": "2023-1013494",
    "request_type": "Safety & Permits",
    "request_reason": "Safety & Permits Request (Cyber Incident Back Up)",
    "date_created": "2023-07-01T20:03:26.000",
    "date_modified": "2023-07-01T20:03:26.000",
    "request_status": "Pending",
    "responsible_agency": "Safety and Permits",
    "final_address": "8202 Pritchard Pl",
    "address_councildis": "A",
    "status": "Pending",
    "rowid": "1013494",
    "final_x": "3665740.80199",
    "final_y": "533129.23162",
    "longitude": "-90.11777848919843",
    "latitude": "29.960389621258923",
    "geocoded_column": {
      "latitude": "29.960389621258923",
      "longitude": "-90.11777848919843"
    }
  },
  {
    "service_request": "2023-1013493",
    "request_type": "Safety & Permits",
    "request_reason": "Licenses & Permits",
    "date_created": "2023-07-01T19:43:22.000",
    "date_modified": "2023-07-01T19:43:22.000",
    "request_status": "Pending",
    "responsible_agency": "Safety and Permits",
    "final_address": "ST CLAUDE AVE & MARIGNY ST",
    "address_councildis": "C",
    "status": "Pending",
    "rowid": "1013493",
    "final_x": "3685412.3",
    "final_y": "536410.68",
    "longitude": "-90.05554449729408",
    "latitude": "29.968823999204748",
    "geocoded_column": {
      "latitude": "29.968823999204748",
      "longitude": "-90.05554449729408"
    }
  },
  {
    "service_request": "2023-1013492",
    "request_type": "Trash/Recycling",
    "request_reason": "Replace Trash Cart",
    "date_created": "2023-07-01T19:42:34.000",
    "date_modified": "2023-07-01T19:42:34.000",
    "request_status": "Pending",
    "responsible_agency": "Department of Sanitation",
    "final_address": "1016 Joseph St",
    "address_councildis": "A",
    "status": "Assigned to Contractor",
    "contractor": "Richards Disposal",
    "rowid": "1013492",
    "final_x": "3666241.31847",
    "final_y": "519674.125944",
    "longitude": "-90.11664910922086",
    "latitude": "29.923377796667936",
    "geocoded_column": {
      "latitude": "29.923377796667936",
      "longitude": "-90.11664910922086"
    }
  },
  {
    "service_request": "2023-1013489",
    "request_type": "Trash/Recycling",
    "request_reason": "Illegal Dumping",
    "date_created": "2023-07-01T18:43:03.000",
    "date_modified": "2023-07-01T18:43:03.000",
    "request_status": "Pending",
    "responsible_agency": "Department of Sanitation",
    "final_address": "701 Ursulines Ave",
    "address_councildis": "C",
    "status": "Pending",
    "rowid": "1013489",
    "final_x": "3683421.52559",
    "final_y": "533671.906373",
    "longitude": "-90.06192744791936",
    "latitude": "29.9613542077854",
    "geocoded_column": {
      "latitude": "29.9613542077854",
      "longitude": "-90.06192744791936"
    }
  },
  {
    "service_request": "2023-1013488",
    "request_type": "Trash/Recycling",
    "request_reason": "Order Recycling Cart",
    "date_created": "2023-07-01T18:39:35.000",
    "date_modified": "2023-07-01T18:39:35.000",
    "request_status": "Pending",
    "responsible_agency": "Department of Sanitation",
    "final_address": "248 Cherokee St Unit 13",
    "address_councildis": "A",
    "status": "Pending",
    "rowid": "1013488",
    "final_x": "3661204.15187",
    "final_y": "524514.327484",
    "longitude": "-90.13238949978006",
    "latitude": "29.936832943675064",
    "geocoded_column": {
      "latitude": "29.936832943675064",
      "longitude": "-90.13238949978006"
    }
  },
  {
    "service_request": "2023-1013487",
    "request_type": "Trash/Recycling",
    "request_reason": "MIssed Recycling Pick-Up",
    "date_created": "2023-07-01T18:29:06.000",
    "date_modified": "2023-07-01T18:29:07.000",
    "request_status": "Pending",
    "responsible_agency": "Department of Sanitation",
    "final_address": "7300 BLK Colapissa St",
    "address_councildis": "B",
    "status": "Assigned to Contractor",
    "contractor": "Richards Disposal",
    "rowid": "1013487",
    "final_x": "3667602.89114",
    "final_y": "532428.838145",
    "longitude": "-90.11192194916458",
    "latitude": "29.95840932201153",
    "geocoded_column": {
      "latitude": "29.95840932201153",
      "longitude": "-90.11192194916458"
    }
  },
  {
    "service_request": "2023-1013486",
    "request_type": "Property Maintenance",
    "request_reason": "Property Maintenance",
    "date_created": "2023-07-01T17:58:07.000",
    "date_modified": "2023-07-01T17:58:07.000",
    "request_status": "Pending",
    "responsible_agency": "Department of Code Enforcement",
    "final_address": "4934 Longfellow Dr",
    "address_councildis": "E",
    "status": "Pending",
    "rowid": "1013486",
    "final_x": "3709470.67339",
    "final_y": "556867.809754",
    "longitude": "-89.97880368309823",
    "latitude": "30.02431370743417",
    "geocoded_column": {
      "latitude": "30.02431370743417",
      "longitude": "-89.97880368309823"
    }
  },
  {
    "service_request": "2023-1013485",
    "request_type": "Parks & Parkways",
    "request_reason": "Request Tree Service (Right of Way/Public Property)",
    "date_created": "2023-07-01T17:55:34.000",
    "date_modified": "2023-07-01T17:55:35.000",
    "request_status": "Pending",
    "responsible_agency": "Department of Parks & Parkway",
    "final_address": "PALMER AVE & LOYOLA AVE",
    "address_councildis": "A",
    "status": "Pending",
    "rowid": "1013485",
    "final_x": "3665557.4",
    "final_y": "523626.68",
    "longitude": "-90.11867573065366",
    "latitude": "29.93426602145871",
    "geocoded_column": {
      "latitude": "29.93426602145871",
      "longitude": "-90.11867573065366"
    }
  },
  {
    "service_request": "2023-1013484",
    "request_type": "Trash/Recycling",
    "request_reason": "Missed Trash Pick-Up",
    "date_created": "2023-07-01T17:47:15.000",
    "date_modified": "2023-07-01T17:47:16.000",
    "request_status": "Pending",
    "responsible_agency": "Department of Sanitation",
    "final_address": "5600 Bentley Dr",
    "address_councildis": "E",
    "status": "Assigned to Contractor",
    "contractor": "Waste Pro",
    "rowid": "1013484",
    "final_x": "3703860.79946",
    "final_y": "556690.277722",
    "longitude": "-89.9965362768309",
    "latitude": "30.02400671375497",
    "geocoded_column": {
      "latitude": "30.02400671375497",
      "longitude": "-89.9965362768309"
    }
  },
  {
    "service_request": "2023-1013483",
    "request_type": "Traffic Signals/Signs/Striping/Streetlights",
    "request_reason": "Traffic Signal Malfunctioning/Damaged",
    "date_created": "2023-07-01T17:40:39.000",
    "date_modified": "2023-07-01T17:40:40.000",
    "request_status": "Pending",
    "responsible_agency": "Department of Public Works",
    "final_address": "READ BLVD & OLD GENTILLY RD",
    "address_councildis": "E",
    "status": "Pending",
    "rowid": "1013483",
    "final_x": "3713030.3",
    "final_y": "553266.38",
    "longitude": "-89.96769165532007",
    "latitude": "30.014295007062245",
    "geocoded_column": {
      "latitude": "30.014295007062245",
      "longitude": "-89.96769165532007"
    }
  },
  {
    "service_request": "2023-1013482",
    "request_type": "Roads/Drainage",
    "request_reason": "Pothole",
    "date_created": "2023-07-01T17:37:13.000",
    "date_modified": "2023-07-01T17:37:13.000",
    "request_status": "Pending",
    "responsible_agency": "Department of Public Works",
    "final_address": "1400 BLK Webster St",
    "address_councildis": "A",
    "status": "Pending",
    "rowid": "1013482",
    "final_x": "3665011.25721",
    "final_y": "521818.826557",
    "longitude": "-90.12046030569682",
    "latitude": "29.929310904843867",
    "geocoded_column": {
      "latitude": "29.929310904843867",
      "longitude": "-90.12046030569682"
    }
  },
  {
    "service_request": "2023-1013481",
    "request_type": "Trash/Recycling",
    "request_reason": "Replace Trash Cart",
    "date_created": "2023-07-01T17:23:22.000",
    "date_modified": "2023-07-01T17:23:23.000",
    "request_status": "Pending",
    "responsible_agency": "Department of Sanitation",
    "final_address": "1925 Gallier St",
    "address_councildis": "D",
    "status": "Assigned to Contractor",
    "contractor": "IV Waste",
    "rowid": "1013481",
    "final_x": "3691340.3336",
    "final_y": "538860.421257",
    "longitude": "-90.03673592844768",
    "latitude": "29.975376818540077",
    "geocoded_column": {
      "latitude": "29.975376818540077",
      "longitude": "-90.03673592844768"
    }
  },
  {
    "service_request": "2023-1013480",
    "request_type": "Trash/Recycling",
    "request_reason": "Replace Trash Cart",
    "date_created": "2023-07-01T17:22:04.000",
    "date_modified": "2023-07-01T17:22:05.000",
    "request_status": "Pending",
    "responsible_agency": "Department of Sanitation",
    "final_address": "8015 Lacombe St",
    "address_councildis": "E",
    "status": "Assigned to Contractor",
    "contractor": "Waste Pro",
    "rowid": "1013480",
    "final_x": "3709000.89329",
    "final_y": "566443.245539",
    "longitude": "-89.97993071574949",
    "latitude": "30.05065761387577",
    "geocoded_column": {
      "latitude": "30.05065761387577",
      "longitude": "-89.97993071574949"
    }
  },
  {
    "service_request": "2023-1013479",
    "request_type": "Roads/Drainage",
    "request_reason": "Pothole",
    "date_created": "2023-07-01T17:18:52.000",
    "date_modified": "2023-07-01T17:18:52.000",
    "request_status": "Pending",
    "responsible_agency": "Department of Public Works",
    "final_address": "1310 Henry Clay Ave",
    "address_councildis": "A",
    "status": "Pending",
    "rowid": "1013479",
    "final_x": "3664395.27802",
    "final_y": "521285.701625",
    "longitude": "-90.12242263000925",
    "latitude": "29.92786289317235",
    "geocoded_column": {
      "latitude": "29.92786289317235",
      "longitude": "-90.12242263000925"
    }
  },
  {
    "service_request": "2023-1013478",
    "request_type": "Trash/Recycling",
    "request_reason": "MIssed Recycling Pick-Up",
    "date_created": "2023-07-01T17:12:46.000",
    "date_modified": "2023-07-01T17:12:47.000",
    "request_status": "Pending",
    "responsible_agency": "Department of Sanitation",
    "final_address": "4901 Piety Dr",
    "address_councildis": "D",
    "status": "Assigned to Contractor",
    "contractor": "IV Waste",
    "rowid": "1013478",
    "final_x": "3691531.2383",
    "final_y": "551871.81871",
    "longitude": "-90.03566761861497",
    "latitude": "30.01114750101827",
    "geocoded_column": {
      "latitude": "30.01114750101827",
      "longitude": "-90.03566761861497"
    }
  },
  {
    "service_request": "2023-1013477",
    "request_type": "Trash/Recycling",
    "request_reason": "Missed Trash Pick-Up",
    "date_created": "2023-07-01T17:12:07.000",
    "date_modified": "2023-07-01T17:12:08.000",
    "request_status": "Pending",
    "responsible_agency": "Department of Sanitation",
    "final_address": "4901 Piety Dr",
    "address_councildis": "D",
    "status": "Assigned to Contractor",
    "contractor": "IV Waste",
    "rowid": "1013477",
    "final_x": "3691531.2383",
    "final_y": "551871.81871",
    "longitude": "-90.03566761861497",
    "latitude": "30.01114750101827",
    "geocoded_column": {
      "latitude": "30.01114750101827",
      "longitude": "-90.03566761861497"
    }
  },
  {
    "service_request": "2023-1013476",
    "request_type": "Trash/Recycling",
    "request_reason": "Replace Trash Cart",
    "date_created": "2023-07-01T17:10:36.000",
    "date_modified": "2023-07-01T18:07:44.000",
    "request_status": "Pending",
    "responsible_agency": "Department of Sanitation",
    "final_address": "3530 Hyman Pl, New Orleans, Louisiana, 70131",
    "address_councildis": "C",
    "status": "Assigned to Contractor",
    "contractor": "Richards Disposal",
    "rowid": "1013476",
    "final_x": "3700995.31921",
    "final_y": "517971.407478",
    "longitude": "-90.00700673637469",
    "latitude": "29.917635453228566",
    "geocoded_column": {
      "latitude": "29.917635453228566",
      "longitude": "-90.00700673637469"
    }
  },
  {
    "service_request": "2023-1013475",
    "request_type": "Traffic Signals/Signs/Striping/Streetlights",
    "request_reason": "Request for Stop Sign",
    "date_created": "2023-07-01T16:31:26.000",
    "date_modified": "2023-07-01T16:31:26.000",
    "request_status": "Pending",
    "responsible_agency": "Department of Public Works",
    "final_address": "8200 BLK Pritchard Pl",
    "address_councildis": "A",
    "status": "Pending",
    "rowid": "1013475",
    "final_x": "3665666.51312",
    "final_y": "533241.010077",
    "longitude": "-90.11800933536576",
    "latitude": "29.96069914211382",
    "geocoded_column": {
      "latitude": "29.96069914211382",
      "longitude": "-90.11800933536576"
    }
  },
  {
    "service_request": "2023-1013474",
    "request_type": "Trash/Recycling",
    "request_reason": "Request a Large Item Pick Up",
    "date_created": "2023-07-01T16:24:00.000",
    "date_modified": "2023-07-01T16:24:01.000",
    "request_status": "Pending",
    "responsible_agency": "Department of Sanitation",
    "final_address": "7537 Briarheath Dr",
    "address_councildis": "E",
    "status": "Assigned to Contractor",
    "contractor": "Waste Pro",
    "rowid": "1013474",
    "final_x": "3714882.46232",
    "final_y": "566794.901987",
    "longitude": "-89.9613280137039",
    "latitude": "30.051432198486562",
    "geocoded_column": {
      "latitude": "30.051432198486562",
      "longitude": "-89.9613280137039"
    }
  },
  {
    "service_request": "2023-1013473",
    "request_type": "Trash/Recycling",
    "request_reason": "Request a Large Item Pick Up",
    "date_created": "2023-07-01T16:20:06.000",
    "date_modified": "2023-07-01T16:20:06.000",
    "request_status": "Pending",
    "responsible_agency": "Department of Sanitation",
    "final_address": "837 Roosevelt Pl",
    "address_councildis": "A",
    "status": "Assigned to Contractor",
    "contractor": "Richards Disposal",
    "rowid": "1013473",
    "final_x": "3673541.93672",
    "final_y": "539933.897354",
    "longitude": "-90.09291145107031",
    "latitude": "29.97887029082393",
    "geocoded_column": {
      "latitude": "29.97887029082393",
      "longitude": "-90.09291145107031"
    }
  },
  {
    "service_request": "2023-1013472",
    "request_type": "Abandoned Vehicles",
    "request_reason": "Vehicle Blocking Your Driveway",
    "date_created": "2023-07-01T15:50:29.000",
    "date_modified": "2023-07-01T15:50:29.000",
    "request_status": "Pending",
    "responsible_agency": "Department of Public Works",
    "final_address": "2419 memorial park dr",
    "address_councildis": "C",
    "status": "Pending",
    "rowid": "1013472",
    "final_x": "3692390.45577",
    "final_y": "521418.217785",
    "longitude": "-90.03404401593474",
    "latitude": "29.927384092827676",
    "geocoded_column": {
      "latitude": "29.927384092827676",
      "longitude": "-90.03404401593474"
    }
  },
  {
    "service_request": "2023-1013471",
    "request_type": "Trash/Recycling",
    "request_reason": "Illegal Dumping",
    "date_created": "2023-07-01T15:38:20.000",
    "date_modified": "2023-07-01T15:38:21.000",
    "request_status": "Pending",
    "responsible_agency": "Department of Sanitation",
    "final_address": "2831 S Derbigny St",
    "address_councildis": "B",
    "status": "Pending",
    "rowid": "1013471",
    "final_x": "3672664.66964",
    "final_y": "526934.34355",
    "longitude": "-90.0961255132774",
    "latitude": "29.94315194275292",
    "geocoded_column": {
      "latitude": "29.94315194275292",
      "longitude": "-90.0961255132774"
    }
  },
  {
    "service_request": "2023-1013470",
    "request_type": "Trash/Recycling",
    "request_reason": "Repair Trash Cart",
    "date_created": "2023-07-01T15:34:26.000",
    "date_modified": "2023-07-01T15:34:27.000",
    "request_status": "Pending",
    "responsible_agency": "Department of Sanitation",
    "final_address": "4339 Baudin St, New Orleans, Louisiana, 70119",
    "address_councildis": "A",
    "status": "Assigned to Contractor",
    "contractor": "Richards Disposal",
    "rowid": "1013470",
    "final_x": "3669069.58337",
    "final_y": "537902.125129",
    "longitude": "-90.107105557024",
    "latitude": "29.97341596886484",
    "geocoded_column": {
      "latitude": "29.97341596886484",
      "longitude": "-90.107105557024"
    }
  },
  {
    "service_request": "2023-1013468",
    "request_type": "Abandoned Vehicles",
    "request_reason": "Abandoned/Junk Vehicles",
    "date_created": "2023-07-01T15:28:56.000",
    "date_modified": "2023-07-01T15:28:56.000",
    "request_status": "Pending",
    "responsible_agency": "Department of Public Works",
    "final_address": "200 BLK N Tonti St",
    "address_councildis": "B",
    "status": "Pending",
    "rowid": "1013468",
    "final_x": "3676782.45906",
    "final_y": "534772.929586",
    "longitude": "-90.0828545319661",
    "latitude": "29.964582535814607",
    "geocoded_column": {
      "latitude": "29.964582535814607",
      "longitude": "-90.0828545319661"
    }
  },
  {
    "service_request": "2023-1013467",
    "request_type": "Abandoned Vehicles",
    "request_reason": "Abandoned/Junk Vehicles",
    "date_created": "2023-07-01T15:20:20.000",
    "date_modified": "2023-07-01T15:20:20.000",
    "request_status": "Pending",
    "responsible_agency": "Department of Public Works",
    "final_address": "2659 Iberville St",
    "address_councildis": "B",
    "status": "Pending",
    "rowid": "1013467",
    "final_x": "3675732.35176",
    "final_y": "535453.225798",
    "longitude": "-90.08614731470516",
    "latitude": "29.966484589744436",
    "geocoded_column": {
      "latitude": "29.966484589744436",
      "longitude": "-90.08614731470516"
    }
  },
  {
    "service_request": "2023-1013466",
    "request_type": "Trash/Recycling",
    "request_reason": "Dead Animal Pick Up",
    "date_created": "2023-07-01T14:59:48.000",
    "date_modified": "2023-07-01T14:59:49.000",
    "request_status": "Pending",
    "responsible_agency": "Department of Sanitation",
    "final_address": "8700 BLK Chef Menteur Hwy",
    "address_councildis": "E",
    "status": "Assigned to Contractor",
    "contractor": "Waste Pro",
    "rowid": "1013466",
    "final_x": "3707773.19892",
    "final_y": "553455.54806",
    "longitude": "-89.98429428847523",
    "latitude": "30.01498637786623",
    "geocoded_column": {
      "latitude": "30.01498637786623",
      "longitude": "-89.98429428847523"
    }
  },
  {
    "service_request": "2023-1013465",
    "request_type": "Traffic Signals/Signs/Striping/Streetlights",
    "request_reason": "Additional signage",
    "date_created": "2023-07-01T14:50:41.000",
    "date_modified": "2023-07-01T14:50:41.000",
    "request_status": "Pending",
    "responsible_agency": "Department of Public Works",
    "final_address": " & BALDWIN ST",
    "address_councildis": "D",
    "status": "Pending",
    "rowid": "1013465",
    "final_x": "3687880.8",
    "final_y": "560035.64",
    "longitude": "-90.04691121641319",
    "latitude": "30.03370814054373",
    "geocoded_column": {
      "latitude": "30.03370814054373",
      "longitude": "-90.04691121641319"
    }
  },
  {
    "service_request": "2023-1013464",
    "request_type": "Trash/Recycling",
    "request_reason": "Request a Large Item Pick Up",
    "date_created": "2023-07-01T14:42:47.000",
    "date_modified": "2023-07-01T14:42:48.000",
    "request_status": "Pending",
    "responsible_agency": "Department of Sanitation",
    "final_address": "4027 Piedmont Dr",
    "address_councildis": "D",
    "status": "Assigned to Contractor",
    "contractor": "IV Waste",
    "rowid": "1013464",
    "final_x": "3685281.09359",
    "final_y": "547434.150417",
    "longitude": "-90.05557064622866",
    "latitude": "29.999138667983942",
    "geocoded_column": {
      "latitude": "29.999138667983942",
      "longitude": "-90.05557064622866"
    }
  },
  {
    "service_request": "2023-1013463",
    "request_type": "Abandoned Vehicles",
    "request_reason": "Abandoned/Junk Vehicles",
    "date_created": "2023-07-01T14:18:21.000",
    "date_modified": "2023-07-01T14:22:07.000",
    "request_status": "Pending",
    "responsible_agency": "Department of Public Works",
    "final_address": "700 BLK Foucher St",
    "address_councildis": "B",
    "status": "Inspected",
    "rowid": "1013463",
    "final_x": "3674594.90996",
    "final_y": "518044.281284",
    "longitude": "-90.09033573547194",
    "latitude": "29.918649705147125",
    "geocoded_column": {
      "latitude": "29.918649705147125",
      "longitude": "-90.09033573547194"
    }
  },
  {
    "service_request": "2023-1013462",
    "request_type": "Roads/Drainage",
    "request_reason": "Service Cut",
    "date_created": "2023-07-01T13:50:01.000",
    "date_modified": "2023-07-01T13:50:01.000",
    "request_status": "Pending",
    "responsible_agency": "Department of Public Works",
    "final_address": "1415 Prytania St",
    "address_councildis": "B",
    "status": "Pending",
    "rowid": "1013462",
    "final_x": "3679696.82831",
    "final_y": "525413.506301",
    "longitude": "-90.07397601128585",
    "latitude": "29.938759492678518",
    "geocoded_column": {
      "latitude": "29.938759492678518",
      "longitude": "-90.07397601128585"
    }
  },
  {
    "service_request": "2023-1013461",
    "request_type": "Trash/Recycling",
    "request_reason": "Request a Large Item Pick Up",
    "date_created": "2023-07-01T13:44:24.000",
    "date_modified": "2023-07-01T13:44:25.000",
    "request_status": "Pending",
    "responsible_agency": "Department of Sanitation",
    "final_address": "4735 Charlmark Dr",
    "address_councildis": "E",
    "status": "Assigned to Contractor",
    "contractor": "Waste Pro",
    "rowid": "1013461",
    "final_x": "3711518.70162",
    "final_y": "555981.488985",
    "longitude": "-89.97236561477192",
    "latitude": "30.021809945324176",
    "geocoded_column": {
      "latitude": "30.021809945324176",
      "longitude": "-89.97236561477192"
    }
  },
  {
    "service_request": "2023-1013460",
    "request_type": "Trash/Recycling",
    "request_reason": "Missed Trash Pick-Up",
    "date_created": "2023-07-01T12:58:58.000",
    "date_modified": "2023-07-01T12:58:58.000",
    "request_status": "Pending",
    "responsible_agency": "Department of Sanitation",
    "final_address": "5021 N Prieur St",
    "address_councildis": "E",
    "status": "Assigned to Contractor",
    "contractor": "Waste Pro",
    "rowid": "1013460",
    "final_x": "3696987.93341",
    "final_y": "537247.781128",
    "longitude": "-90.0189578091464",
    "latitude": "29.97076570817171",
    "geocoded_column": {
      "latitude": "29.97076570817171",
      "longitude": "-90.0189578091464"
    }
  },
  {
    "service_request": "2023-1013459",
    "request_type": "Trash/Recycling",
    "request_reason": "Request a Large Item Pick Up",
    "date_created": "2023-07-01T12:58:25.000",
    "date_modified": "2023-07-01T12:58:25.000",
    "request_status": "Pending",
    "responsible_agency": "Department of Sanitation",
    "final_address": "510 Wallace Dr",
    "address_councildis": "D",
    "status": "Assigned to Contractor",
    "contractor": "IV Waste",
    "rowid": "1013459",
    "final_x": "3681413.48623",
    "final_y": "548664.513363",
    "longitude": "-90.06774556320632",
    "latitude": "30.0026397486523",
    "geocoded_column": {
      "latitude": "30.0026397486523",
      "longitude": "-90.06774556320632"
    }
  },
  {
    "service_request": "2023-1013458",
    "request_type": "Trash/Recycling",
    "request_reason": "Order Trash Cart",
    "date_created": "2023-07-01T12:44:39.000",
    "date_modified": "2023-07-01T12:44:40.000",
    "request_status": "Pending",
    "responsible_agency": "Department of Sanitation",
    "final_address": "11673 River Rd",
    "address_councildis": "C",
    "status": "Assigned to Contractor",
    "contractor": "Richards Disposal",
    "rowid": "1013458",
    "final_x": "3728574.15725",
    "final_y": "514925.265267",
    "longitude": "-89.92007568104995",
    "latitude": "29.908353095879995",
    "geocoded_column": {
      "latitude": "29.908353095879995",
      "longitude": "-89.92007568104995"
    }
  },
  {
    "service_request": "2023-1013457",
    "request_type": "Trash/Recycling",
    "request_reason": "Request a Large Item Pick Up",
    "date_created": "2023-07-01T12:35:55.000",
    "date_modified": "2023-07-01T12:35:56.000",
    "request_status": "Pending",
    "responsible_agency": "Department of Sanitation",
    "final_address": "4423 Painters St",
    "address_councildis": "D",
    "status": "Assigned to Contractor",
    "contractor": "IV Waste",
    "rowid": "1013457",
    "final_x": "3686407.28284",
    "final_y": "549075.892947",
    "longitude": "-90.05195500044279",
    "latitude": "30.003618286712513",
    "geocoded_column": {
      "latitude": "30.003618286712513",
      "longitude": "-90.05195500044279"
    }
  },
  {
    "service_request": "2023-1013456",
    "request_type": "Abandoned Vehicles",
    "request_reason": "Abandoned/Junk Vehicles",
    "date_created": "2023-07-01T12:19:48.000",
    "date_modified": "2023-07-01T12:19:49.000",
    "request_status": "Pending",
    "responsible_agency": "Department of Public Works",
    "final_address": "1500 BLK Chippewa St",
    "address_councildis": "B",
    "status": "Pending",
    "rowid": "1013456",
    "final_x": "3681360.36264",
    "final_y": "523367.761779",
    "longitude": "-90.06879532998134",
    "latitude": "29.93308399556683",
    "geocoded_column": {
      "latitude": "29.93308399556683",
      "longitude": "-90.06879532998134"
    }
  },
  {
    "service_request": "2023-1013455",
    "request_type": "Trash/Recycling",
    "request_reason": "Replace Trash Cart",
    "date_created": "2023-07-01T12:15:47.000",
    "date_modified": "2023-07-01T12:15:47.000",
    "request_status": "Pending",
    "responsible_agency": "Department of Sanitation",
    "final_address": "3421 Cecil St",
    "address_councildis": "A",
    "status": "Assigned to Contractor",
    "contractor": "Richards Disposal",
    "rowid": "1013455",
    "final_x": "3663430.14541",
    "final_y": "537906.953225",
    "longitude": "-90.12491599220616",
    "latitude": "29.973593983445653",
    "geocoded_column": {
      "latitude": "29.973593983445653",
      "longitude": "-90.12491599220616"
    }
  },
  {
    "service_request": "2023-1013454",
    "request_type": "Trash/Recycling",
    "request_reason": "Request a Large Item Pick Up",
    "date_created": "2023-07-01T11:55:20.000",
    "date_modified": "2023-07-01T11:55:21.000",
    "request_status": "Pending",
    "responsible_agency": "Department of Sanitation",
    "final_address": "4721 Bonita Dr",
    "address_councildis": "E",
    "status": "Assigned to Contractor",
    "contractor": "Waste Pro",
    "rowid": "1013454",
    "final_x": "3704624.11332",
    "final_y": "555154.898649",
    "longitude": "-89.99418106960407",
    "latitude": "30.019760506316413",
    "geocoded_column": {
      "latitude": "30.019760506316413",
      "longitude": "-89.99418106960407"
    }
  },
  {
    "service_request": "2023-1013452",
    "request_type": "Trash/Recycling",
    "request_reason": "Missed Trash Pick-Up",
    "date_created": "2023-07-01T11:10:23.000",
    "date_modified": "2023-07-01T11:10:24.000",
    "request_status": "Pending",
    "responsible_agency": "Department of Sanitation",
    "final_address": "203 Norland Ave",
    "address_councildis": "C",
    "status": "Assigned to Contractor",
    "contractor": "Richards Disposal",
    "rowid": "1013452",
    "final_x": "3706196.49687",
    "final_y": "520329.99692",
    "longitude": "-89.99050241105523",
    "latitude": "29.923954187809738",
    "geocoded_column": {
      "latitude": "29.923954187809738",
      "longitude": "-89.99050241105523"
    }
  },
  {
    "service_request": "2023-1013451",
    "request_type": "Trash/Recycling",
    "request_reason": "Order Recycling Cart",
    "date_created": "2023-07-01T11:09:09.000",
    "date_modified": "2023-07-01T11:09:09.000",
    "request_status": "Pending",
    "responsible_agency": "Department of Sanitation",
    "final_address": "212 S Bernadotte St",
    "address_councildis": "A",
    "status": "Pending",
    "rowid": "1013451",
    "final_x": "3668519.56679",
    "final_y": "539605.76673",
    "longitude": "-90.10878512836132",
    "latitude": "29.97811658339189",
    "geocoded_column": {
      "latitude": "29.97811658339189",
      "longitude": "-90.10878512836132"
    }
  },
  {
    "service_request": "2023-1013450",
    "request_type": "Trash/Recycling",
    "request_reason": "Order Trash Cart",
    "date_created": "2023-07-01T11:07:55.000",
    "date_modified": "2023-07-01T11:07:55.000",
    "request_status": "Pending",
    "responsible_agency": "Department of Sanitation",
    "final_address": "212 S Bernadotte St",
    "address_councildis": "A",
    "status": "Assigned to Contractor",
    "contractor": "Richards Disposal",
    "rowid": "1013450",
    "final_x": "3668519.56679",
    "final_y": "539605.76673",
    "longitude": "-90.10878512836132",
    "latitude": "29.97811658339189",
    "geocoded_column": {
      "latitude": "29.97811658339189",
      "longitude": "-90.10878512836132"
    }
  },
  {
    "service_request": "2023-1013449",
    "request_type": "Trash/Recycling",
    "request_reason": "Request a Large Item Pick Up",
    "date_created": "2023-07-01T11:07:24.000",
    "date_modified": "2023-07-01T11:07:24.000",
    "request_status": "Pending",
    "responsible_agency": "Department of Sanitation",
    "final_address": "2250 Halsey Ave",
    "address_councildis": "C",
    "status": "Assigned to Contractor",
    "contractor": "Richards Disposal",
    "rowid": "1013449",
    "final_x": "3697770.54627",
    "final_y": "522560.001914",
    "longitude": "-90.01701910363474",
    "latitude": "29.930354765376308",
    "geocoded_column": {
      "latitude": "29.930354765376308",
      "longitude": "-90.01701910363474"
    }
  },
  {
    "service_request": "2023-1013448",
    "request_type": "Trash/Recycling",
    "request_reason": "Repair Trash Cart",
    "date_created": "2023-07-01T11:00:58.000",
    "date_modified": "2023-07-01T11:00:58.000",
    "request_status": "Pending",
    "responsible_agency": "Department of Sanitation",
    "final_address": "1635 Joliet St",
    "address_councildis": "A",
    "status": "Assigned to Contractor",
    "contractor": "Richards Disposal",
    "rowid": "1013448",
    "final_x": "3662068.11648",
    "final_y": "530560.308226",
    "longitude": "-90.12946136510189",
    "latitude": "29.95343253332475",
    "geocoded_column": {
      "latitude": "29.95343253332475",
      "longitude": "-90.12946136510189"
    }
  },
  {
    "service_request": "2023-1013447",
    "request_type": "Trash/Recycling",
    "request_reason": "Illegal Dumping",
    "date_created": "2023-07-01T11:00:37.000",
    "date_modified": "2023-07-01T11:00:37.000",
    "request_status": "Pending",
    "responsible_agency": "Department of Sanitation",
    "final_address": "4018 Prytania St",
    "address_councildis": "B",
    "status": "Pending",
    "rowid": "1013447",
    "final_x": "3672229.96686",
    "final_y": "520405.038776",
    "longitude": "-90.09772027869872",
    "latitude": "29.925211365385827",
    "geocoded_column": {
      "latitude": "29.925211365385827",
      "longitude": "-90.09772027869872"
    }
  },
  {
    "service_request": "2023-1013446",
    "request_type": "Trash/Recycling",
    "request_reason": "Missed Trash Pick-Up",
    "date_created": "2023-07-01T10:51:56.000",
    "date_modified": "2023-07-01T10:51:56.000",
    "request_status": "Pending",
    "responsible_agency": "Department of Sanitation",
    "final_address": "5902 Chestnut St",
    "address_councildis": "A",
    "status": "Assigned to Contractor",
    "contractor": "Richards Disposal",
    "rowid": "1013446",
    "final_x": "3665332.78746",
    "final_y": "519693.01868",
    "longitude": "-90.1195163800655",
    "latitude": "29.923456240716437",
    "geocoded_column": {
      "latitude": "29.923456240716437",
      "longitude": "-90.1195163800655"
    }
  },
  {
    "service_request": "2023-1013445",
    "request_type": "Trash/Recycling",
    "request_reason": "Request a Large Item Pick Up",
    "date_created": "2023-07-01T10:43:47.000",
    "date_modified": "2023-07-01T10:43:48.000",
    "request_status": "Pending",
    "responsible_agency": "Department of Sanitation",
    "final_address": "3504 Palmyra St",
    "address_councildis": "B",
    "status": "Assigned to Contractor",
    "contractor": "Richards Disposal",
    "rowid": "1013445",
    "final_x": "3672295.27719",
    "final_y": "536379.491335",
    "longitude": "-90.09697001393641",
    "latitude": "29.969133927624423",
    "geocoded_column": {
      "latitude": "29.969133927624423",
      "longitude": "-90.09697001393641"
    }
  },
  {
    "service_request": "2023-1013444",
    "request_type": "Trash/Recycling",
    "request_reason": "MIssed Recycling Pick-Up",
    "date_created": "2023-07-01T10:38:18.000",
    "date_modified": "2023-07-01T10:38:40.000",
    "request_status": "Pending",
    "responsible_agency": "Department of Sanitation",
    "final_address": "8040 Morrison Rd",
    "address_councildis": "E",
    "contractor": "Waste Pro",
    "rowid": "1013444",
    "final_x": "3702089.94583",
    "final_y": "559968.567197",
    "longitude": "-90.00201144085082",
    "latitude": "30.033077428596695",
    "geocoded_column": {
      "latitude": "30.033077428596695",
      "longitude": "-90.00201144085082"
    }
  },
  {
    "service_request": "2023-1013443",
    "request_type": "Trash/Recycling",
    "request_reason": "Repair Recycling Cart",
    "date_created": "2023-07-01T10:37:50.000",
    "date_modified": "2023-07-01T10:37:50.000",
    "request_status": "Pending",
    "responsible_agency": "Department of Sanitation",
    "final_address": "8040 Morrison Rd",
    "address_councildis": "E",
    "status": "Pending",
    "rowid": "1013443",
    "final_x": "3702089.94583",
    "final_y": "559968.567197",
    "longitude": "-90.00201144085082",
    "latitude": "30.033077428596695",
    "geocoded_column": {
      "latitude": "30.033077428596695",
      "longitude": "-90.00201144085082"
    }
  },
  {
    "service_request": "2023-1013442",
    "request_type": "Abandoned Vehicles",
    "request_reason": "Abandoned/Junk Vehicles",
    "date_created": "2023-07-01T10:35:57.000",
    "date_modified": "2023-07-01T10:35:57.000",
    "request_status": "Pending",
    "responsible_agency": "Department of Public Works",
    "final_address": "1932 Clouet St",
    "address_councildis": "D",
    "status": "Pending",
    "rowid": "1013442",
    "final_x": "3689788.88508",
    "final_y": "539285.353162",
    "longitude": "-90.0416206754551",
    "latitude": "29.976593411673576",
    "geocoded_column": {
      "latitude": "29.976593411673576",
      "longitude": "-90.0416206754551"
    }
  },
  {
    "service_request": "2023-1013441",
    "request_type": "Trash/Recycling",
    "request_reason": "Request a Large Item Pick Up",
    "date_created": "2023-07-01T10:23:58.000",
    "date_modified": "2023-07-01T10:23:58.000",
    "request_status": "Pending",
    "responsible_agency": "Department of Sanitation",
    "final_address": "3633 Pin Oak Ave",
    "address_councildis": "C",
    "status": "Assigned to Contractor",
    "contractor": "Richards Disposal",
    "rowid": "1013441",
    "final_x": "3703864.39934",
    "final_y": "514745.901747",
    "longitude": "-89.99806936138764",
    "latitude": "29.908674789904655",
    "geocoded_column": {
      "latitude": "29.908674789904655",
      "longitude": "-89.99806936138764"
    }
  },
  {
    "service_request": "2023-1013440",
    "request_type": "Trash/Recycling",
    "request_reason": "Order Recycling Cart",
    "date_created": "2023-07-01T10:19:40.000",
    "date_modified": "2023-07-01T10:19:40.000",
    "request_status": "Pending",
    "responsible_agency": "Department of Sanitation",
    "final_address": "827 Delachaise St",
    "address_councildis": "B",
    "status": "Pending",
    "rowid": "1013440",
    "final_x": "3675046.81704",
    "final_y": "518682.886967",
    "longitude": "-90.08888740843858",
    "latitude": "29.92039217877699",
    "geocoded_column": {
      "latitude": "29.92039217877699",
      "longitude": "-90.08888740843858"
    }
  },
  {
    "service_request": "2023-1013439",
    "request_type": "Trash/Recycling",
    "request_reason": "Request a Large Item Pick Up",
    "date_created": "2023-07-01T10:11:05.000",
    "date_modified": "2023-07-01T10:11:05.000",
    "request_status": "Pending",
    "responsible_agency": "Department of Sanitation",
    "final_address": "727 Leontine St",
    "address_councildis": "B",
    "status": "Assigned to Contractor",
    "contractor": "Richards Disposal",
    "rowid": "1013439",
    "final_x": "3667127.97223",
    "final_y": "518100.329526",
    "longitude": "-90.11390313605472",
    "latitude": "29.91902443443011",
    "geocoded_column": {
      "latitude": "29.91902443443011",
      "longitude": "-90.11390313605472"
    }
  },
  {
    "service_request": "2023-1013438",
    "request_type": "Trash/Recycling",
    "request_reason": "Missed Trash Pick-Up",
    "date_created": "2023-07-01T09:56:32.000",
    "date_modified": "2023-07-01T09:56:33.000",
    "request_status": "Pending",
    "responsible_agency": "Department of Sanitation",
    "final_address": "26258 Chef Menteur Hwy, New Orleans, Louisiana, 70129",
    "address_councildis": "E",
    "status": "Assigned to Contractor",
    "contractor": "Waste Pro",
    "rowid": "1013438",
    "final_x": "3785060.3541",
    "final_y": "603692.518022",
    "longitude": "-89.73790245327567",
    "latitude": "30.15038489812685",
    "geocoded_column": {
      "latitude": "30.15038489812685",
      "longitude": "-89.73790245327567"
    }
  },
  {
    "service_request": "2023-1013437",
    "request_type": "Trash/Recycling",
    "request_reason": "Missed Trash Pick-Up",
    "date_created": "2023-07-01T09:55:12.000",
    "date_modified": "2023-07-01T09:55:12.000",
    "request_status": "Pending",
    "responsible_agency": "Department of Sanitation",
    "final_address": "26258 Chef Menteur Hwy, New Orleans, Louisiana, 70129",
    "address_councildis": "E",
    "status": "Assigned to Contractor",
    "contractor": "Waste Pro",
    "rowid": "1013437",
    "final_x": "3785060.3541",
    "final_y": "603692.518022",
    "longitude": "-89.73790245327567",
    "latitude": "30.15038489812685",
    "geocoded_column": {
      "latitude": "30.15038489812685",
      "longitude": "-89.73790245327567"
    }
  },
  {
    "service_request": "2023-1013436",
    "request_type": "Trash/Recycling",
    "request_reason": "Missed Trash Pick-Up",
    "date_created": "2023-07-01T09:53:14.000",
    "date_modified": "2023-07-01T13:11:27.000",
    "request_status": "Pending",
    "responsible_agency": "Department of Sanitation",
    "final_address": "900 BLK Seventh St",
    "address_councildis": "B",
    "status": "Assigned to Contractor",
    "contractor": "Richards Disposal",
    "rowid": "1013436",
    "final_x": "3676674.98027",
    "final_y": "519914.529512",
    "longitude": "-90.08370566057935",
    "latitude": "29.923730076055648",
    "geocoded_column": {
      "latitude": "29.923730076055648",
      "longitude": "-90.08370566057935"
    }
  },
  {
    "service_request": "2023-1013435",
    "request_type": "Trash/Recycling",
    "request_reason": "Order Recycling Cart",
    "date_created": "2023-07-01T09:44:58.000",
    "date_modified": "2023-07-01T09:44:58.000",
    "request_status": "Pending",
    "responsible_agency": "Department of Sanitation",
    "final_address": "6153 Catina St",
    "address_councildis": "A",
    "status": "Pending",
    "rowid": "1013435",
    "final_x": "3666923.71572",
    "final_y": "548739.699795",
    "longitude": "-90.11351830551484",
    "latitude": "30.00327858142252",
    "geocoded_column": {
      "latitude": "30.00327858142252",
      "longitude": "-90.11351830551484"
    }
  },
  {
    "service_request": "2023-1013434",
    "request_type": "Trash/Recycling",
    "request_reason": "Request a Large Item Pick Up",
    "date_created": "2023-07-01T09:43:26.000",
    "date_modified": "2023-07-01T09:43:27.000",
    "request_status": "Pending",
    "responsible_agency": "Department of Sanitation",
    "final_address": "4025 S Inwood Ave",
    "address_councildis": "C",
    "status": "Assigned to Contractor",
    "contractor": "Richards Disposal",
    "rowid": "1013434",
    "final_x": "3705218.04164",
    "final_y": "513258.71717",
    "longitude": "-89.99385195556103",
    "latitude": "29.904542097348198",
    "geocoded_column": {
      "latitude": "29.904542097348198",
      "longitude": "-89.99385195556103"
    }
  },
  {
    "service_request": "2023-1013433",
    "request_type": "Trash/Recycling",
    "request_reason": "Missed Trash Pick-Up",
    "date_created": "2023-07-01T09:31:43.000",
    "date_modified": "2023-07-01T13:14:40.000",
    "request_status": "Pending",
    "responsible_agency": "Department of Sanitation",
    "final_address": "26258 US-90, New Orleans, Louisiana, 70129",
    "address_councildis": "E",
    "status": "Assigned to Contractor",
    "contractor": "Waste Pro",
    "rowid": "1013433",
    "final_x": "3785060.3541",
    "final_y": "603692.518022",
    "longitude": "-89.73790245327567",
    "latitude": "30.15038489812685",
    "geocoded_column": {
      "latitude": "30.15038489812685",
      "longitude": "-89.73790245327567"
    }
  },
  {
    "service_request": "2023-1013432",
    "request_type": "Roads/Drainage",
    "request_reason": "Street Subsidence (Sinking)",
    "date_created": "2023-07-01T09:30:58.000",
    "date_modified": "2023-07-01T13:17:10.000",
    "case_close_date": "2023-07-01T08:17:10.000",
    "request_status": "Closed",
    "responsible_agency": "Department of Public Works",
    "final_address": "26258 US-90, New Orleans, Louisiana, 70129",
    "status": "Resolved",
    "rowid": "1013432",
    "longitude": "0.0",
    "latitude": "0.0",
    "geocoded_column": {
      "latitude": "0.0",
      "longitude": "0.0"
    }
  },
  {
    "service_request": "2023-1013431",
    "request_type": "Roads/Drainage",
    "request_reason": "Pothole",
    "date_created": "2023-07-01T09:23:28.000",
    "date_modified": "2023-07-01T09:23:28.000",
    "request_status": "Pending",
    "responsible_agency": "Department of Public Works",
    "final_address": "1138 Webster St",
    "address_councildis": "A",
    "status": "Pending",
    "rowid": "1013431",
    "final_x": "3664540.24397",
    "final_y": "520668.993977",
    "longitude": "-90.12198558548621",
    "latitude": "29.926162927916074",
    "geocoded_column": {
      "latitude": "29.926162927916074",
      "longitude": "-90.12198558548621"
    }
  },
  {
    "service_request": "2023-1013430",
    "request_type": "Abandoned Vehicles",
    "request_reason": "Abandoned/Junk Vehicles",
    "date_created": "2023-07-01T09:19:18.000",
    "date_modified": "2023-07-01T09:19:19.000",
    "request_status": "Pending",
    "responsible_agency": "Department of Public Works",
    "final_address": "1540 N Roman St",
    "address_councildis": "D",
    "status": "Pending",
    "rowid": "1013430",
    "final_x": "3681386.12565",
    "final_y": "537873.148489",
    "longitude": "-90.06820840210239",
    "latitude": "29.972968122974276",
    "geocoded_column": {
      "latitude": "29.972968122974276",
      "longitude": "-90.06820840210239"
    }
  },
  {
    "service_request": "2023-1013429",
    "request_type": "Trash/Recycling",
    "request_reason": "Request a Large Item Pick Up",
    "date_created": "2023-07-01T09:18:50.000",
    "date_modified": "2023-07-01T09:18:50.000",
    "request_status": "Pending",
    "responsible_agency": "Department of Sanitation",
    "final_address": "2866 Fortin St",
    "address_councildis": "A",
    "status": "Assigned to Contractor",
    "contractor": "IV Waste",
    "rowid": "1013429",
    "final_x": "3677824.49211",
    "final_y": "540877.812811",
    "longitude": "-90.07935288351557",
    "latitude": "29.981337561616314",
    "geocoded_column": {
      "latitude": "29.981337561616314",
      "longitude": "-90.07935288351557"
    }
  },
  {
    "service_request": "2023-1013428",
    "request_type": "Trash/Recycling",
    "request_reason": "MIssed Recycling Pick-Up",
    "date_created": "2023-07-01T09:04:59.000",
    "date_modified": "2023-07-01T09:05:00.000",
    "request_status": "Pending",
    "responsible_agency": "Department of Sanitation",
    "final_address": "7817 Doyle Ct",
    "address_councildis": "E",
    "status": "Assigned to Contractor",
    "contractor": "Waste Pro",
    "rowid": "1013428",
    "final_x": "3700342.70487",
    "final_y": "561369.462494",
    "longitude": "-90.00748163044572",
    "latitude": "30.03698505019488",
    "geocoded_column": {
      "latitude": "30.03698505019488",
      "longitude": "-90.00748163044572"
    }
  },
  {
    "service_request": "2023-1013427",
    "request_type": "Trash/Recycling",
    "request_reason": "MIssed Recycling Pick-Up",
    "date_created": "2023-07-01T08:57:50.000",
    "date_modified": "2023-07-01T08:57:51.000",
    "request_status": "Pending",
    "responsible_agency": "Department of Sanitation",
    "final_address": "1560 Tropic Dr",
    "address_councildis": "C",
    "status": "Assigned to Contractor",
    "contractor": "Richards Disposal",
    "rowid": "1013427",
    "final_x": "3699554.32061",
    "final_y": "525063.593085",
    "longitude": "-90.01129685337115",
    "latitude": "29.937182308370268",
    "geocoded_column": {
      "latitude": "29.937182308370268",
      "longitude": "-90.01129685337115"
    }
  },
  {
    "service_request": "2023-1013426",
    "request_type": "Trash/Recycling",
    "request_reason": "Replace Trash Cart",
    "date_created": "2023-07-01T08:33:23.000",
    "date_modified": "2023-07-01T08:33:23.000",
    "request_status": "Pending",
    "responsible_agency": "Department of Sanitation",
    "final_address": "4705 Coliseum St",
    "address_councildis": "B",
    "status": "Assigned to Contractor",
    "contractor": "Richards Disposal",
    "rowid": "1013426",
    "final_x": "3669774.32314",
    "final_y": "519742.587512",
    "longitude": "-90.10549439477116",
    "latitude": "29.92346241898897",
    "geocoded_column": {
      "latitude": "29.92346241898897",
      "longitude": "-90.10549439477116"
    }
  },
  {
    "service_request": "2023-1013425",
    "request_type": "Trash/Recycling",
    "request_reason": "Missed Trash Pick-Up",
    "date_created": "2023-07-01T08:29:35.000",
    "date_modified": "2023-07-01T08:29:36.000",
    "request_status": "Pending",
    "responsible_agency": "Department of Sanitation",
    "final_address": "6929 Downman Rd",
    "address_councildis": "D",
    "status": "Assigned to Contractor",
    "contractor": "Waste Pro",
    "rowid": "1013425",
    "final_x": "3695515.17392",
    "final_y": "556168.731866",
    "longitude": "-90.02292557488589",
    "latitude": "30.022837735769684",
    "geocoded_column": {
      "latitude": "30.022837735769684",
      "longitude": "-90.02292557488589"
    }
  },
  {
    "service_request": "2023-1013424",
    "request_type": "Trash/Recycling",
    "request_reason": "Replace Trash Cart",
    "date_created": "2023-07-01T08:29:25.000",
    "date_modified": "2023-07-01T08:29:25.000",
    "request_status": "Pending",
    "responsible_agency": "Department of Sanitation",
    "final_address": "4705 Coliseum St",
    "address_councildis": "B",
    "status": "Assigned to Contractor",
    "contractor": "Richards Disposal",
    "rowid": "1013424",
    "final_x": "3669774.32314",
    "final_y": "519742.587512",
    "longitude": "-90.10549439477116",
    "latitude": "29.92346241898897",
    "geocoded_column": {
      "latitude": "29.92346241898897",
      "longitude": "-90.10549439477116"
    }
  },
  {
    "service_request": "2023-1013423",
    "request_type": "Trash/Recycling",
    "request_reason": "Missed Trash Pick-Up",
    "date_created": "2023-07-01T08:28:51.000",
    "date_modified": "2023-07-01T08:28:52.000",
    "request_status": "Pending",
    "responsible_agency": "Department of Sanitation",
    "final_address": "6937 Downman Rd",
    "address_councildis": "D",
    "status": "Assigned to Contractor",
    "contractor": "Waste Pro",
    "rowid": "1013423",
    "final_x": "3695494.72528",
    "final_y": "556230.189658",
    "longitude": "-90.02298796688407",
    "latitude": "30.023007364418653",
    "geocoded_column": {
      "latitude": "30.023007364418653",
      "longitude": "-90.02298796688407"
    }
  },
  {
    "service_request": "2023-1013422",
    "request_type": "Trash/Recycling",
    "request_reason": "Illegal Dumping",
    "date_created": "2023-07-01T08:16:36.000",
    "date_modified": "2023-07-01T08:17:06.000",
    "request_status": "Pending",
    "responsible_agency": "Department of Sanitation",
    "final_address": "3125 N Villere St",
    "address_councildis": "C",
    "status": "Pending",
    "rowid": "1013422",
    "final_x": "3689496.02499",
    "final_y": "537095.01172",
    "longitude": "-90.04262353861344",
    "latitude": "29.97057982024269",
    "geocoded_column": {
      "latitude": "29.97057982024269",
      "longitude": "-90.04262353861344"
    }
  },
  {
    "service_request": "2023-1013421",
    "request_type": "Trash/Recycling",
    "request_reason": "Request a Large Item Pick Up",
    "date_created": "2023-07-01T08:06:57.000",
    "date_modified": "2023-07-01T08:16:39.000",
    "request_status": "Pending",
    "responsible_agency": "Department of Sanitation",
    "final_address": "4819 Stemway Dr",
    "address_councildis": "D",
    "status": "Assigned to Contractor",
    "contractor": "Waste Pro",
    "rowid": "1013421",
    "final_x": "3696944.30288",
    "final_y": "554613.412184",
    "longitude": "-90.01846627174314",
    "latitude": "30.018516179245157",
    "geocoded_column": {
      "latitude": "30.018516179245157",
      "longitude": "-90.01846627174314"
    }
  },
  {
    "service_request": "2023-1013420",
    "request_type": "Trash/Recycling",
    "request_reason": "Replace Trash Cart",
    "date_created": "2023-07-01T07:58:13.000",
    "date_modified": "2023-07-01T07:58:13.000",
    "request_status": "Pending",
    "responsible_agency": "Department of Sanitation",
    "final_address": "2018 General Taylor St",
    "address_councildis": "B",
    "status": "Assigned to Contractor",
    "contractor": "Richards Disposal",
    "rowid": "1013420",
    "final_x": "3672223.2555",
    "final_y": "522610.06745",
    "longitude": "-90.09766640194043",
    "latitude": "29.931274684799817",
    "geocoded_column": {
      "latitude": "29.931274684799817",
      "longitude": "-90.09766640194043"
    }
  },
  {
    "service_request": "2023-1013419",
    "request_type": "Health Related Request",
    "request_reason": "Noise Ordinance Complaint",
    "date_created": "2023-07-01T07:57:29.000",
    "date_modified": "2023-07-01T07:57:29.000",
    "request_status": "Pending",
    "responsible_agency": "Health Department",
    "final_address": "309 Decatur St, New Orleans, Louisiana, 70130",
    "address_councildis": "C",
    "status": "Pending",
    "rowid": "1013419",
    "final_x": "3682303.87119",
    "final_y": "530935.66509",
    "longitude": "-90.06555240294671",
    "latitude": "29.953864528206758",
    "geocoded_column": {
      "latitude": "29.953864528206758",
      "longitude": "-90.06555240294671"
    }
  },
  {
    "service_request": "2023-1013418",
    "request_type": "Trash/Recycling",
    "request_reason": "Repair Recycling Cart",
    "date_created": "2023-07-01T07:37:41.000",
    "date_modified": "2023-07-01T07:37:41.000",
    "request_status": "Pending",
    "responsible_agency": "Department of Sanitation",
    "final_address": "2140 S Carrollton Ave",
    "address_councildis": "A",
    "status": "Pending",
    "rowid": "1013418",
    "final_x": "3664265.21223",
    "final_y": "530926.92045",
    "longitude": "-90.12251160799333",
    "latitude": "29.95437694267643",
    "geocoded_column": {
      "latitude": "29.95437694267643",
      "longitude": "-90.12251160799333"
    }
  },
  {
    "service_request": "2023-1013417",
    "request_type": "Abandoned Vehicles",
    "request_reason": "Abandoned/Junk Vehicles",
    "date_created": "2023-07-01T07:17:13.000",
    "date_modified": "2023-07-01T07:17:13.000",
    "request_status": "Pending",
    "responsible_agency": "Department of Public Works",
    "final_address": "5359 Baccich St",
    "address_councildis": "D",
    "status": "Pending",
    "rowid": "1013417",
    "final_x": "3687728.54678",
    "final_y": "552812.611158",
    "longitude": "-90.04764846660139",
    "latitude": "30.013852200858153",
    "geocoded_column": {
      "latitude": "30.013852200858153",
      "longitude": "-90.04764846660139"
    }
  },
  {
    "service_request": "2023-1013416",
    "request_type": "Traffic Signals/Signs/Striping/Streetlights",
    "request_reason": "Traffic Signal Malfunctioning/Damaged",
    "date_created": "2023-07-01T06:48:49.000",
    "date_modified": "2023-07-01T06:48:50.000",
    "request_status": "Pending",
    "responsible_agency": "Department of Public Works",
    "final_address": "GENERAL MEYER AVE & PACE BLVD",
    "address_councildis": "C",
    "status": "Pending",
    "rowid": "1013416",
    "final_x": "3694432.8",
    "final_y": "526974.48",
    "longitude": "-90.02739697139619",
    "latitude": "29.94259807528312",
    "geocoded_column": {
      "latitude": "29.94259807528312",
      "longitude": "-90.02739697139619"
    }
  },
  {
    "service_request": "2023-1013415",
    "request_type": "Tax and Revenue",
    "request_reason": "Occupational License Tax",
    "date_created": "2023-07-01T05:20:38.000",
    "date_modified": "2023-07-01T05:20:38.000",
    "request_status": "Pending",
    "responsible_agency": "Bureau of Revenue",
    "final_address": "1328 St Bernard Ave",
    "address_councildis": "C",
    "status": "Pending",
    "rowid": "1013415",
    "final_x": "3682712.52284",
    "final_y": "536735.540615",
    "longitude": "-90.06405918653729",
    "latitude": "29.96979976049472",
    "geocoded_column": {
      "latitude": "29.96979976049472",
      "longitude": "-90.06405918653729"
    }
  },
  {
    "service_request": "2023-1013414",
    "request_type": "Safety & Permits",
    "request_reason": "Licenses & Permits",
    "date_created": "2023-07-01T05:19:10.000",
    "date_modified": "2023-07-01T05:19:10.000",
    "request_status": "Pending",
    "responsible_agency": "Safety and Permits",
    "final_address": "1328 St Bernard Ave",
    "address_councildis": "C",
    "status": "Pending",
    "rowid": "1013414",
    "final_x": "3682712.52284",
    "final_y": "536735.540615",
    "longitude": "-90.06405918653729",
    "latitude": "29.96979976049472",
    "geocoded_column": {
      "latitude": "29.96979976049472",
      "longitude": "-90.06405918653729"
    }
  },
  {
    "service_request": "2023-1013413",
    "request_type": "Trash/Recycling",
    "request_reason": "Dead Animal Pick Up",
    "date_created": "2023-07-01T05:17:45.000",
    "date_modified": "2023-07-01T05:17:45.000",
    "request_status": "Pending",
    "responsible_agency": "Department of Sanitation",
    "final_address": "BEHRMAN HWY & IDAHO ST",
    "address_councildis": "C",
    "status": "Assigned to Contractor",
    "contractor": "Richards Disposal",
    "rowid": "1013413",
    "final_x": "3692942.6",
    "final_y": "520586.38",
    "longitude": "-90.03233085645181",
    "latitude": "29.925079593169073",
    "geocoded_column": {
      "latitude": "29.925079593169073",
      "longitude": "-90.03233085645181"
    }
  },
  {
    "service_request": "2023-1013412",
    "request_type": "Health Related Request",
    "request_reason": "Noise Ordinance Complaint",
    "date_created": "2023-07-01T05:08:08.000",
    "date_modified": "2023-07-01T05:08:08.000",
    "request_status": "Pending",
    "responsible_agency": "Health Department",
    "final_address": "1328 St Bernard Ave",
    "address_councildis": "C",
    "status": "Pending",
    "rowid": "1013412",
    "final_x": "3682712.52284",
    "final_y": "536735.540615",
    "longitude": "-90.06405918653729",
    "latitude": "29.96979976049472",
    "geocoded_column": {
      "latitude": "29.96979976049472",
      "longitude": "-90.06405918653729"
    }
  },
  {
    "service_request": "2023-1013411",
    "request_type": "Roads/Drainage",
    "request_reason": "Damaged Sidewalk",
    "date_created": "2023-07-01T03:55:14.000",
    "date_modified": "2023-07-01T03:55:14.000",
    "request_status": "Pending",
    "responsible_agency": "Department of Public Works",
    "final_address": "1401 State St",
    "address_councildis": "A",
    "status": "Pending",
    "rowid": "1013411",
    "final_x": "3665428.29716",
    "final_y": "521162.099129",
    "longitude": "-90.11916575166714",
    "latitude": "29.92749296715368",
    "geocoded_column": {
      "latitude": "29.92749296715368",
      "longitude": "-90.11916575166714"
    }
  },
  {
    "service_request": "2023-1013410",
    "request_type": "Trash/Recycling",
    "request_reason": "Start Trash Service",
    "date_created": "2023-07-01T00:59:50.000",
    "date_modified": "2023-07-01T00:59:50.000",
    "request_status": "Pending",
    "responsible_agency": "Department of Sanitation",
    "final_address": "5142 Desire Dr",
    "address_councildis": "D",
    "status": "Assigned to Contractor",
    "contractor": "IV Waste",
    "rowid": "1013410",
    "final_x": "3691386.69174",
    "final_y": "552765.998742",
    "longitude": "-90.0360923140736",
    "latitude": "30.01361066503764",
    "geocoded_column": {
      "latitude": "30.01361066503764",
      "longitude": "-90.0360923140736"
    }
  },
  {
    "service_request": "2023-1013409",
    "request_type": "Roads/Drainage",
    "request_reason": "Debris in Roadway",
    "date_created": "2023-07-01T00:57:36.000",
    "date_modified": "2023-07-01T00:57:37.000",
    "request_status": "Pending",
    "responsible_agency": "Department of Public Works",
    "final_address": "7025 Bullard Ave",
    "address_councildis": "E",
    "status": "Pending",
    "rowid": "1013409",
    "final_x": "3714631.15685",
    "final_y": "565596.976994",
    "longitude": "-89.96216760848506",
    "latitude": "30.048146664778802",
    "geocoded_column": {
      "latitude": "30.048146664778802",
      "longitude": "-89.96216760848506"
    }
  },
  {
    "service_request": "2023-1013408",
    "request_type": "Roads/Drainage",
    "request_reason": "Pothole",
    "date_created": "2023-07-01T00:56:07.000",
    "date_modified": "2023-07-01T00:56:07.000",
    "request_status": "Pending",
    "responsible_agency": "Department of Public Works",
    "final_address": "1138 Webster St",
    "address_councildis": "A",
    "status": "Pending",
    "rowid": "1013408",
    "final_x": "3664540.24397",
    "final_y": "520668.993977",
    "longitude": "-90.12198558548621",
    "latitude": "29.926162927916074",
    "geocoded_column": {
      "latitude": "29.926162927916074",
      "longitude": "-90.12198558548621"
    }
  },
  {
    "service_request": "2023-1013407",
    "request_type": "Traffic Signals/Signs/Striping/Streetlights",
    "request_reason": "Street Light Outage/Malfunction",
    "date_created": "2023-06-30T23:19:09.000",
    "date_modified": "2023-06-30T23:19:09.000",
    "request_status": "Pending",
    "responsible_agency": "Department of Public Works",
    "final_address": "76 Audubon Blvd",
    "address_councildis": "A",
    "status": "Assigned to Contractor",
    "contractor": "Legacy Professional Services",
    "rowid": "1013407",
    "final_x": "3665685.25613",
    "final_y": "527653.766335",
    "longitude": "-90.11813726209179",
    "latitude": "29.94533549199607",
    "geocoded_column": {
      "latitude": "29.94533549199607",
      "longitude": "-90.11813726209179"
    }
  },
  {
    "service_request": "2023-1013406",
    "request_type": "Tax and Revenue",
    "request_reason": "Sales Tax Question",
    "date_created": "2023-06-30T23:19:08.000",
    "date_modified": "2023-06-30T23:19:08.000",
    "request_status": "Pending",
    "responsible_agency": "Bureau of Revenue",
    "final_address": "1139 St Bernard Ave",
    "address_councildis": "C",
    "status": "Pending",
    "rowid": "1013406",
    "final_x": "3683182.77832",
    "final_y": "536033.897031",
    "longitude": "-90.06259865177628",
    "latitude": "29.967856151484312",
    "geocoded_column": {
      "latitude": "29.967856151484312",
      "longitude": "-90.06259865177628"
    }
  },
  {
    "service_request": "2023-1013405",
    "request_type": "Safety & Permits",
    "request_reason": "Licenses & Permits",
    "date_created": "2023-06-30T23:18:01.000",
    "date_modified": "2023-06-30T23:18:01.000",
    "request_status": "Pending",
    "responsible_agency": "Safety and Permits",
    "final_address": "1139 St Bernard Ave",
    "address_councildis": "C",
    "status": "Pending",
    "rowid": "1013405",
    "final_x": "3683182.77832",
    "final_y": "536033.897031",
    "longitude": "-90.06259865177628",
    "latitude": "29.967856151484312",
    "geocoded_column": {
      "latitude": "29.967856151484312",
      "longitude": "-90.06259865177628"
    }
  },
  {
    "service_request": "2023-1013404",
    "request_type": "Health Related Request",
    "request_reason": "Noise Ordinance Complaint",
    "date_created": "2023-06-30T23:16:09.000",
    "date_modified": "2023-06-30T23:16:09.000",
    "request_status": "Pending",
    "responsible_agency": "Health Department",
    "final_address": "1139 St Bernard Ave",
    "address_councildis": "C",
    "status": "Pending",
    "rowid": "1013404",
    "final_x": "3683182.77832",
    "final_y": "536033.897031",
    "longitude": "-90.06259865177628",
    "latitude": "29.967856151484312",
    "geocoded_column": {
      "latitude": "29.967856151484312",
      "longitude": "-90.06259865177628"
    }
  },
  {
    "service_request": "2023-1013403",
    "request_type": "Traffic Signals/Signs/Striping/Streetlights",
    "request_reason": "Street Light Outage/Malfunction",
    "date_created": "2023-06-30T23:15:50.000",
    "date_modified": "2023-06-30T23:15:50.000",
    "request_status": "Pending",
    "responsible_agency": "Department of Public Works",
    "final_address": "7664 Lucerne St",
    "address_councildis": "E",
    "status": "Assigned to Contractor",
    "contractor": "Legacy Professional Services",
    "rowid": "1013403",
    "final_x": "3710769.654",
    "final_y": "565865.383843",
    "longitude": "-89.9743619923955",
    "latitude": "30.049011165396067",
    "geocoded_column": {
      "latitude": "30.049011165396067",
      "longitude": "-89.9743619923955"
    }
  },
  {
    "service_request": "2023-1013402",
    "request_type": "Traffic Signals/Signs/Striping/Streetlights",
    "request_reason": "Street Name Sign Damaged or Missing",
    "date_created": "2023-06-30T23:15:46.000",
    "date_modified": "2023-06-30T23:15:46.000",
    "request_status": "Pending",
    "responsible_agency": "Department of Public Works",
    "final_address": "100 Audubon Blvd",
    "address_councildis": "A",
    "status": "Pending",
    "rowid": "1013402",
    "final_x": "3665806.56557",
    "final_y": "527880.032127",
    "longitude": "-90.11774666924633",
    "latitude": "29.945954111893784",
    "geocoded_column": {
      "latitude": "29.945954111893784",
      "longitude": "-90.11774666924633"
    }
  },
  {
    "service_request": "2023-1013401",
    "request_type": "Traffic Signals/Signs/Striping/Streetlights",
    "request_reason": "Street Light Outage/Malfunction",
    "date_created": "2023-06-30T23:13:29.000",
    "date_modified": "2023-06-30T23:13:30.000",
    "request_status": "Pending",
    "responsible_agency": "Department of Public Works",
    "final_address": "76 Audubon Blvd",
    "address_councildis": "A",
    "status": "Assigned to Contractor",
    "contractor": "Legacy Professional Services",
    "rowid": "1013401",
    "final_x": "3665685.25613",
    "final_y": "527653.766335",
    "longitude": "-90.11813726209179",
    "latitude": "29.94533549199607",
    "geocoded_column": {
      "latitude": "29.94533549199607",
      "longitude": "-90.11813726209179"
    }
  },
  {
    "service_request": "2023-1013400",
    "request_type": "Trash/Recycling",
    "request_reason": "Illegal Dumping",
    "date_created": "2023-06-30T22:58:17.000",
    "date_modified": "2023-06-30T22:58:17.000",
    "request_status": "Pending",
    "responsible_agency": "Department of Sanitation",
    "final_address": "2102 Dublin St",
    "address_councildis": "A",
    "status": "Pending",
    "rowid": "1013400",
    "final_x": "3663838.35571",
    "final_y": "531015.046082",
    "longitude": "-90.12385652100544",
    "latitude": "29.95463165544035",
    "geocoded_column": {
      "latitude": "29.95463165544035",
      "longitude": "-90.12385652100544"
    }
  },
  {
    "service_request": "2023-1013399",
    "request_type": "Trash/Recycling",
    "request_reason": "Illegal Dumping",
    "date_created": "2023-06-30T22:45:01.000",
    "date_modified": "2023-06-30T22:45:01.000",
    "request_status": "Pending",
    "responsible_agency": "Department of Sanitation",
    "final_address": "2102 Dublin St",
    "address_councildis": "A",
    "status": "Pending",
    "rowid": "1013399",
    "final_x": "3663838.35571",
    "final_y": "531015.046082",
    "longitude": "-90.12385652100544",
    "latitude": "29.95463165544035",
    "geocoded_column": {
      "latitude": "29.95463165544035",
      "longitude": "-90.12385652100544"
    }
  },
  {
    "service_request": "2023-1013398",
    "request_type": "Roads/Drainage",
    "request_reason": "Pothole",
    "date_created": "2023-06-30T21:57:30.000",
    "date_modified": "2023-06-30T21:57:30.000",
    "request_status": "Pending",
    "responsible_agency": "Department of Public Works",
    "final_address": "6328 Annunciation St",
    "address_councildis": "A",
    "status": "Pending",
    "rowid": "1013398",
    "final_x": "3662699.03539",
    "final_y": "518456.263478",
    "longitude": "-90.12787126339161",
    "latitude": "29.920132002180992",
    "geocoded_column": {
      "latitude": "29.920132002180992",
      "longitude": "-90.12787126339161"
    }
  },
  {
    "service_request": "2023-1013397",
    "request_type": "Traffic Signals/Signs/Striping/Streetlights",
    "request_reason": "Street Light Outage/Malfunction",
    "date_created": "2023-06-30T21:52:23.000",
    "date_modified": "2023-07-01T07:08:14.000",
    "request_status": "Pending",
    "responsible_agency": "Department of Public Works",
    "final_address": "7600 Eastmore Rd, New Orleans, Louisiana, 70126",
    "address_councildis": "E",
    "status": "Assigned to Contractor",
    "contractor": "Legacy Professional Services",
    "rowid": "1013397",
    "final_x": "3700174.67735",
    "final_y": "560403.88579",
    "longitude": "-90.00804792398091",
    "latitude": "30.034335434283513",
    "geocoded_column": {
      "latitude": "30.034335434283513",
      "longitude": "-90.00804792398091"
    }
  },
  {
    "service_request": "2023-1013396",
    "request_type": "Parks & Parkways",
    "request_reason": "Request Tree Service (Right of Way/Public Property)",
    "date_created": "2023-06-30T21:33:23.000",
    "date_modified": "2023-06-30T21:33:23.000",
    "request_status": "Pending",
    "responsible_agency": "Department of Parks & Parkway",
    "final_address": "2011 State St",
    "address_councildis": "A",
    "status": "Pending",
    "rowid": "1013396",
    "final_x": "3666380.05626",
    "final_y": "524107.855484",
    "longitude": "-90.11606248345879",
    "latitude": "29.93556509602188",
    "geocoded_column": {
      "latitude": "29.93556509602188",
      "longitude": "-90.11606248345879"
    }
  },
  {
    "service_request": "2023-1013395",
    "request_type": "Property Maintenance",
    "request_reason": "Property Maintenance",
    "date_created": "2023-06-30T20:46:12.000",
    "date_modified": "2023-06-30T20:46:12.000",
    "request_status": "Pending",
    "responsible_agency": "Department of Code Enforcement",
    "final_address": "529 S Rendon St",
    "address_councildis": "B",
    "status": "Pending",
    "rowid": "1013395",
    "final_x": "3672442.62055",
    "final_y": "535011.035654",
    "longitude": "-90.09655133893993",
    "latitude": "29.9653667621743",
    "geocoded_column": {
      "latitude": "29.9653667621743",
      "longitude": "-90.09655133893993"
    }
  },
  {
    "service_request": "2023-1013394",
    "request_type": "Health Related Request",
    "request_reason": "Noise Ordinance Complaint",
    "date_created": "2023-06-30T20:40:38.000",
    "date_modified": "2023-06-30T20:40:38.000",
    "request_status": "Pending",
    "responsible_agency": "Health Department",
    "final_address": "2242 St Claude Ave",
    "address_councildis": "C",
    "status": "Pending",
    "rowid": "1013394",
    "final_x": "3685492.26748",
    "final_y": "536310.755783",
    "longitude": "-90.05529547528458",
    "latitude": "29.968546790060884",
    "geocoded_column": {
      "latitude": "29.968546790060884",
      "longitude": "-90.05529547528458"
    }
  },
  {
    "service_request": "2023-1013393",
    "request_type": "Trash/Recycling",
    "request_reason": "Request a Large Item Pick Up",
    "date_created": "2023-06-30T20:37:46.000",
    "date_modified": "2023-06-30T20:37:47.000",
    "request_status": "Pending",
    "responsible_agency": "Department of Sanitation",
    "final_address": "524 S Rendon St",
    "address_councildis": "B",
    "status": "Assigned to Contractor",
    "contractor": "Richards Disposal",
    "rowid": "1013393",
    "final_x": "3672525.99297",
    "final_y": "535000.85703",
    "longitude": "-90.09628839931105",
    "latitude": "29.96533629970597",
    "geocoded_column": {
      "latitude": "29.96533629970597",
      "longitude": "-90.09628839931105"
    }
  },
  {
    "service_request": "2023-1013392",
    "request_type": "Health Related Request",
    "request_reason": "Noise Ordinance Complaint",
    "date_created": "2023-06-30T20:37:35.000",
    "date_modified": "2023-06-30T20:37:35.000",
    "request_status": "Pending",
    "responsible_agency": "Health Department",
    "final_address": "2242 St Claude Ave",
    "address_councildis": "C",
    "status": "Pending",
    "rowid": "1013392",
    "final_x": "3685492.26748",
    "final_y": "536310.755783",
    "longitude": "-90.05529547528458",
    "latitude": "29.968546790060884",
    "geocoded_column": {
      "latitude": "29.968546790060884",
      "longitude": "-90.05529547528458"
    }
  },
  {
    "service_request": "2023-1013391",
    "request_type": "Health Related Request",
    "request_reason": "Noise Ordinance Complaint",
    "date_created": "2023-06-30T20:34:32.000",
    "date_modified": "2023-06-30T20:34:32.000",
    "request_status": "Pending",
    "responsible_agency": "Health Department",
    "final_address": "2242 St Claude Ave",
    "address_councildis": "C",
    "status": "Pending",
    "rowid": "1013391",
    "final_x": "3685492.26748",
    "final_y": "536310.755783",
    "longitude": "-90.05529547528458",
    "latitude": "29.968546790060884",
    "geocoded_column": {
      "latitude": "29.968546790060884",
      "longitude": "-90.05529547528458"
    }
  },
  {
    "service_request": "2023-1013390",
    "request_type": "Trash/Recycling",
    "request_reason": "MIssed Recycling Pick-Up",
    "date_created": "2023-06-30T20:20:48.000",
    "date_modified": "2023-06-30T20:20:49.000",
    "request_status": "Pending",
    "responsible_agency": "Department of Sanitation",
    "final_address": "1528 Clouet St",
    "address_councildis": "D",
    "status": "Assigned to Contractor",
    "contractor": "IV Waste",
    "rowid": "1013390",
    "final_x": "3689407.53321",
    "final_y": "537741.871944",
    "longitude": "-90.04287999834645",
    "latitude": "29.97236119872097",
    "geocoded_column": {
      "latitude": "29.97236119872097",
      "longitude": "-90.04287999834645"
    }
  },
  {
    "service_request": "2023-1013389",
    "request_type": "Abandoned Vehicles",
    "request_reason": "Abandoned/Junk Vehicles",
    "date_created": "2023-06-30T19:56:49.000",
    "date_modified": "2023-06-30T19:56:49.000",
    "request_status": "Pending",
    "responsible_agency": "Department of Public Works",
    "status": "Pending",
    "rowid": "1013389",
    "longitude": "0.0",
    "latitude": "0.0",
    "geocoded_column": {
      "latitude": "0.0",
      "longitude": "0.0"
    }
  },
  {
    "service_request": "2023-1013388",
    "request_type": "Trash/Recycling",
    "request_reason": "Missed Trash Pick-Up",
    "date_created": "2023-06-30T19:45:43.000",
    "date_modified": "2023-06-30T19:45:44.000",
    "request_status": "Pending",
    "responsible_agency": "Department of Sanitation",
    "final_address": "4708 Bonita Dr",
    "address_councildis": "E",
    "status": "Assigned to Contractor",
    "contractor": "Waste Pro",
    "rowid": "1013388",
    "final_x": "3704470.64369",
    "final_y": "555042.767897",
    "longitude": "-89.99467011904031",
    "latitude": "30.019457120811442",
    "geocoded_column": {
      "latitude": "30.019457120811442",
      "longitude": "-89.99467011904031"
    }
  },
  {
    "service_request": "2023-1013387",
    "request_type": "Roads/Drainage",
    "request_reason": "Catch Basin - Broken/Damage",
    "date_created": "2023-06-30T19:44:25.000",
    "date_modified": "2023-06-30T19:44:25.000",
    "request_status": "Pending",
    "responsible_agency": "Department of Public Works",
    "final_address": "1035 Marigny St",
    "address_councildis": "C",
    "status": "Pending",
    "rowid": "1013387",
    "final_x": "3685456.73186",
    "final_y": "536260.016903",
    "longitude": "-90.0554094855056",
    "latitude": "29.968408365560254",
    "geocoded_column": {
      "latitude": "29.968408365560254",
      "longitude": "-90.0554094855056"
    }
  },
  {
    "service_request": "2023-1013386",
    "request_type": "Roads/Drainage",
    "request_reason": "Catch Basin - Broken/Damage",
    "date_created": "2023-06-30T19:32:49.000",
    "date_modified": "2023-06-30T19:32:49.000",
    "request_status": "Pending",
    "responsible_agency": "Department of Public Works",
    "final_address": "1025 Marigny St",
    "address_councildis": "C",
    "status": "Pending",
    "rowid": "1013386",
    "final_x": "3685464.50825",
    "final_y": "536190.974215",
    "longitude": "-90.05538735911702",
    "latitude": "29.968218283679303",
    "geocoded_column": {
      "latitude": "29.968218283679303",
      "longitude": "-90.05538735911702"
    }
  },
  {
    "service_request": "2023-1013385",
    "request_type": "Safety & Permits",
    "request_reason": "Licenses & Permits",
    "date_created": "2023-06-30T19:31:20.000",
    "date_modified": "2023-06-30T19:31:21.000",
    "request_status": "Pending",
    "responsible_agency": "Safety and Permits",
    "final_address": "1035 Marigny St",
    "address_councildis": "C",
    "status": "Pending",
    "rowid": "1013385",
    "final_x": "3685456.73186",
    "final_y": "536260.016903",
    "longitude": "-90.0554094855056",
    "latitude": "29.968408365560254",
    "geocoded_column": {
      "latitude": "29.968408365560254",
      "longitude": "-90.0554094855056"
    }
  },
  {
    "service_request": "2023-1013384",
    "request_type": "Roads/Drainage",
    "request_reason": "Street Flooding / Drainage",
    "date_created": "2023-06-30T19:30:34.000",
    "date_modified": "2023-06-30T19:30:34.000",
    "request_status": "Pending",
    "responsible_agency": "Department of Public Works",
    "final_address": "3600 BLK Cambronne St",
    "address_councildis": "A",
    "status": "Pending",
    "rowid": "1013384",
    "final_x": "3667038.15572",
    "final_y": "535546.98578",
    "longitude": "-90.11360042627737",
    "latitude": "29.96699973943839",
    "geocoded_column": {
      "latitude": "29.96699973943839",
      "longitude": "-90.11360042627737"
    }
  },
  {
    "service_request": "2023-1013383",
    "request_type": "Health Related Request",
    "request_reason": "Noise Ordinance Complaint",
    "date_created": "2023-06-30T19:28:15.000",
    "date_modified": "2023-06-30T19:28:15.000",
    "request_status": "Pending",
    "responsible_agency": "Health Department",
    "final_address": "718 Bourbon St, New Orleans, Louisiana, 70116",
    "address_councildis": "C",
    "status": "Pending",
    "rowid": "1013383",
    "final_x": "3682364.17781",
    "final_y": "532746.008004",
    "longitude": "-90.06529872053143",
    "latitude": "29.95884052062511",
    "geocoded_column": {
      "latitude": "29.95884052062511",
      "longitude": "-90.06529872053143"
    }
  },
  {
    "service_request": "2023-1013382",
    "request_type": "Health Related Request",
    "request_reason": "Noise Ordinance Complaint",
    "date_created": "2023-06-30T19:26:06.000",
    "date_modified": "2023-06-30T19:26:06.000",
    "request_status": "Pending",
    "responsible_agency": "Health Department",
    "final_address": "718 Bourbon St, New Orleans, Louisiana, 70116",
    "address_councildis": "C",
    "status": "Pending",
    "rowid": "1013382",
    "final_x": "3682364.17781",
    "final_y": "532746.008004",
    "longitude": "-90.06529872053143",
    "latitude": "29.95884052062511",
    "geocoded_column": {
      "latitude": "29.95884052062511",
      "longitude": "-90.06529872053143"
    }
  },
  {
    "service_request": "2023-1013381",
    "request_type": "Trash/Recycling",
    "request_reason": "Request a Large Item Pick Up",
    "date_created": "2023-06-30T19:12:16.000",
    "date_modified": "2023-06-30T19:12:17.000",
    "request_status": "Pending",
    "responsible_agency": "Department of Sanitation",
    "final_address": "920 Independence St",
    "address_councildis": "C",
    "status": "Assigned to Contractor",
    "contractor": "IV Waste",
    "rowid": "1013381",
    "final_x": "3690774.72572",
    "final_y": "534910.241286",
    "longitude": "-90.038663225496",
    "latitude": "29.964532802655263",
    "geocoded_column": {
      "latitude": "29.964532802655263",
      "longitude": "-90.038663225496"
    }
  },
  {
    "service_request": "2023-1013380",
    "request_type": "Trash/Recycling",
    "request_reason": "Request a Large Item Pick Up",
    "date_created": "2023-06-30T19:10:52.000",
    "date_modified": "2023-06-30T19:10:53.000",
    "request_status": "Pending",
    "responsible_agency": "Department of Sanitation",
    "final_address": "417 S St Patrick St",
    "address_councildis": "A",
    "status": "Assigned to Contractor",
    "contractor": "Richards Disposal",
    "rowid": "1013380",
    "final_x": "3668250.10253",
    "final_y": "538774.710281",
    "longitude": "-90.10966422572777",
    "latitude": "29.97583937343071",
    "geocoded_column": {
      "latitude": "29.97583937343071",
      "longitude": "-90.10966422572777"
    }
  },
  {
    "service_request": "2023-1013379",
    "request_type": "Roads/Drainage",
    "request_reason": "Pothole",
    "date_created": "2023-06-30T18:48:03.000",
    "date_modified": "2023-06-30T18:48:03.000",
    "request_status": "Pending",
    "responsible_agency": "Department of Public Works",
    "final_address": "8941 Dwyer Rd",
    "address_councildis": "E",
    "status": "Pending",
    "rowid": "1013379",
    "final_x": "3708088.03998",
    "final_y": "557100.579546",
    "longitude": "-89.9831638479898",
    "latitude": "30.02499860219977",
    "geocoded_column": {
      "latitude": "30.02499860219977",
      "longitude": "-89.9831638479898"
    }
  },
  {
    "service_request": "2023-1013378",
    "request_type": "Trash/Recycling",
    "request_reason": "Repair Trash Cart",
    "date_created": "2023-06-30T18:43:55.000",
    "date_modified": "2023-06-30T18:43:56.000",
    "request_status": "Pending",
    "responsible_agency": "Department of Sanitation",
    "final_address": "6040 Oxford Pl",
    "address_councildis": "C",
    "status": "Assigned to Contractor",
    "contractor": "Richards Disposal",
    "rowid": "1013378",
    "final_x": "3706346.87179",
    "final_y": "519858.208568",
    "longitude": "-89.99004519414213",
    "latitude": "29.92265208779472",
    "geocoded_column": {
      "latitude": "29.92265208779472",
      "longitude": "-89.99004519414213"
    }
  },
  {
    "service_request": "2023-1013377",
    "request_type": "Trash/Recycling",
    "request_reason": "Request a Large Item Pick Up",
    "date_created": "2023-06-30T18:36:42.000",
    "date_modified": "2023-06-30T18:36:42.000",
    "request_status": "Pending",
    "responsible_agency": "Department of Sanitation",
    "final_address": "2001 Robert St",
    "address_councildis": "B",
    "status": "Assigned to Contractor",
    "contractor": "Richards Disposal",
    "rowid": "1013377",
    "final_x": "3668828.56058",
    "final_y": "522886.561275",
    "longitude": "-90.10837372701303",
    "latitude": "29.93213517843514",
    "geocoded_column": {
      "latitude": "29.93213517843514",
      "longitude": "-90.10837372701303"
    }
  },
  {
    "service_request": "2023-1013376",
    "request_type": "Trash/Recycling",
    "request_reason": "Request a Large Item Pick Up",
    "date_created": "2023-06-30T17:53:58.000",
    "date_modified": "2023-06-30T17:53:59.000",
    "request_status": "Pending",
    "responsible_agency": "Department of Sanitation",
    "final_address": "1617 Nashville Ave",
    "address_councildis": "A",
    "status": "Assigned to Contractor",
    "contractor": "Richards Disposal",
    "rowid": "1013376",
    "final_x": "3666359.53281",
    "final_y": "522326.970426",
    "longitude": "-90.11618699796499",
    "latitude": "29.930668828445835",
    "geocoded_column": {
      "latitude": "29.930668828445835",
      "longitude": "-90.11618699796499"
    }
  },
  {
    "service_request": "2023-1013375",
    "request_type": "Trash/Recycling",
    "request_reason": "MIssed Recycling Pick-Up",
    "date_created": "2023-06-30T17:48:20.000",
    "date_modified": "2023-06-30T17:48:20.000",
    "request_status": "Pending",
    "responsible_agency": "Department of Sanitation",
    "final_address": "7710 Spruce St",
    "address_councildis": "A",
    "status": "Assigned to Contractor",
    "contractor": "Richards Disposal",
    "rowid": "1013375",
    "final_x": "3664840.9017",
    "final_y": "529502.147649",
    "longitude": "-90.12074141015833",
    "latitude": "29.95044253965382",
    "geocoded_column": {
      "latitude": "29.95044253965382",
      "longitude": "-90.12074141015833"
    }
  },
  {
    "service_request": "2023-1013374",
    "request_type": "Trash/Recycling",
    "request_reason": "Replace Trash Cart",
    "date_created": "2023-06-30T17:46:32.000",
    "date_modified": "2023-06-30T17:46:32.000",
    "request_status": "Pending",
    "responsible_agency": "Department of Sanitation",
    "final_address": "1705 S White St Apt C",
    "address_councildis": "B",
    "status": "Assigned to Contractor",
    "contractor": "Richards Disposal",
    "rowid": "1013374",
    "final_x": "3670962.64071",
    "final_y": "529906.837121",
    "longitude": "-90.10139835566282",
    "latitude": "29.95137574946864",
    "geocoded_column": {
      "latitude": "29.95137574946864",
      "longitude": "-90.10139835566282"
    }
  },