[
  {
    "service_request": "2023-1023366",
    "request_type": "Safety & Permits",
    "request_reason": "Construction permit",
    "date_created": "2023-08-04T01:29:04.000",
    "date_modified": "2023-08-04T01:29:04.000",
    "request_status": "Pending",
    "responsible_agency": "Department of Code Enforcement",
    "final_address": "4964 Tulip St",
    "address_councildis": "E",
    "status": "Pending",
    "rowid": "1023366",
    "final_x": "3701900.18205",
    "final_y": "555565.948441",
    "longitude": "-90.0027726637043",
    "latitude": "30.020977988292646",
    "geocoded_column": {
      "latitude": "30.020977988292646",
      "longitude": "-90.0027726637043"
    }
  },
  {
    "service_request": "2023-1023365",
    "request_type": "Abandoned Vehicles",
    "request_reason": "Abandoned/Junk Vehicles",
    "date_created": "2023-08-04T01:21:51.000",
    "date_modified": "2023-08-04T01:21:51.000",
    "request_status": "Pending",
    "responsible_agency": "Department of Public Works",
    "final_address": "4964 Tulip St",
    "address_councildis": "E",
    "status": "Pending",
    "rowid": "1023365",
    "final_x": "3701900.18205",
    "final_y": "555565.948441",
    "longitude": "-90.0027726637043",
    "latitude": "30.020977988292646",
    "geocoded_column": {
      "latitude": "30.020977988292646",
      "longitude": "-90.0027726637043"
    }
  },
  {
    "service_request": "2023-1023364",
    "request_type": "Roads/Drainage",
    "request_reason": "Pothole",
    "date_created": "2023-08-04T01:16:36.000",
    "date_modified": "2023-08-04T01:16:36.000",
    "request_status": "Pending",
    "responsible_agency": "Department of Public Works",
    "final_address": "1119 Marengo St",
    "address_councildis": "B",
    "status": "Pending",
    "rowid": "1023364",
    "final_x": "3672134.90695",
    "final_y": "519810.415864",
    "longitude": "-90.09804058895095",
    "latitude": "29.923579160838297",
    "geocoded_column": {
      "latitude": "29.923579160838297",
      "longitude": "-90.09804058895095"
    }
  },
  {
    "service_request": "2023-1023363",
    "request_type": "Roads/Drainage",
    "request_reason": "Pothole",
    "date_created": "2023-08-03T23:42:50.000",
    "date_modified": "2023-08-03T23:42:50.000",
    "request_status": "Pending",
    "responsible_agency": "Department of Public Works",
    "final_address": "800 Magazine St",
    "address_councildis": "B",
    "status": "Pending",
    "rowid": "1023363",
    "final_x": "3681201.88066",
    "final_y": "527733.957247",
    "longitude": "-90.06914357188084",
    "latitude": "29.94509438882781",
    "geocoded_column": {
      "latitude": "29.94509438882781",
      "longitude": "-90.06914357188084"
    }
  },
  {
    "service_request": "2023-1023361",
    "request_type": "Roads/Drainage",
    "request_reason": "Pothole",
    "date_created": "2023-08-03T23:26:10.000",
    "date_modified": "2023-08-03T23:26:10.000",
    "request_status": "Pending",
    "responsible_agency": "Department of Public Works",
    "final_address": "1582 Henry Clay Ave",
    "address_councildis": "A",
    "status": "Pending",
    "rowid": "1023361",
    "final_x": "3664965.95636",
    "final_y": "522812.780283",
    "longitude": "-90.1205701026709",
    "latitude": "29.932045281635194",
    "geocoded_column": {
      "latitude": "29.932045281635194",
      "longitude": "-90.1205701026709"
    }
  },
  {
    "service_request": "2023-1023360",
    "request_type": "Trash/Recycling",
    "request_reason": "MIssed Recycling Pick-Up",
    "date_created": "2023-08-03T22:47:04.000",
    "date_modified": "2023-08-03T22:47:04.000",
    "request_status": "Pending",
    "responsible_agency": "Department of Sanitation",
    "final_address": "219 N Tonti St",
    "address_councildis": "B",
    "status": "Assigned to Contractor",
    "contractor": "Richards Disposal",
    "rowid": "1023360",
    "final_x": "3676708.91105",
    "final_y": "534839.579974",
    "longitude": "-90.08308449486326",
    "latitude": "29.96476800860436",
    "geocoded_column": {
      "latitude": "29.96476800860436",
      "longitude": "-90.08308449486326"
    }
  },
  {
    "service_request": "2023-1023359",
    "request_type": "Traffic Signals/Signs/Striping/Streetlights",
    "request_reason": "Request for Stop Sign",
    "date_created": "2023-08-03T22:22:05.000",
    "date_modified": "2023-08-03T22:22:05.000",
    "request_status": "Pending",
    "responsible_agency": "Department of Public Works",
    "final_address": "7701 Grant St",
    "address_councildis": "E",
    "status": "Pending",
    "rowid": "1023359",
    "final_x": "3703579.43518",
    "final_y": "554522.127128",
    "longitude": "-89.9975051960252",
    "latitude": "30.018054157163554",
    "geocoded_column": {
      "latitude": "30.018054157163554",
      "longitude": "-89.9975051960252"
    }
  },
  {
    "service_request": "2023-1023358",
    "request_type": "Traffic Signals/Signs/Striping/Streetlights",
    "request_reason": "Street Light Outage/Malfunction",
    "date_created": "2023-08-03T22:09:12.000",
    "date_modified": "2023-08-03T22:09:12.000",
    "request_status": "Pending",
    "responsible_agency": "Department of Public Works",
    "final_address": "905 Chapelle St",
    "address_councildis": "A",
    "status": "Assigned to Contractor",
    "contractor": "Legacy Professional Services",
    "rowid": "1023358",
    "final_x": "3670431.94612",
    "final_y": "552584.571158",
    "longitude": "-90.1023047456693",
    "latitude": "30.013747468407857",
    "geocoded_column": {
      "latitude": "30.013747468407857",
      "longitude": "-90.1023047456693"
    }
  },
  {
    "service_request": "2023-1023357",
    "request_type": "Roads/Drainage",
    "request_reason": "Street Subsidence (Sinking)",
    "date_created": "2023-08-03T22:07:49.000",
    "date_modified": "2023-08-03T22:07:49.000",
    "request_status": "Pending",
    "responsible_agency": "Department of Public Works",
    "final_address": "8800 Forshey St",
    "address_councildis": "A",
    "status": "Pending",
    "rowid": "1023357",
    "final_x": "3665085.24628",
    "final_y": "535624.66407",
    "longitude": "-90.11976514979902",
    "latitude": "29.967270345864762",
    "geocoded_column": {
      "latitude": "29.967270345864762",
      "longitude": "-90.11976514979902"
    }
  },
  {
    "service_request": "2023-1023356",
    "request_type": "Abandoned Vehicles",
    "request_reason": "Abandoned/Junk Vehicles",
    "date_created": "2023-08-03T21:53:27.000",
    "date_modified": "2023-08-03T21:53:27.000",
    "request_status": "Pending",
    "responsible_agency": "Department of Public Works",
    "final_address": "1612 Clouet St",
    "address_councildis": "D",
    "status": "Pending",
    "rowid": "1023356",
    "final_x": "3689478.99964",
    "final_y": "538025.907657",
    "longitude": "-90.04264419136787",
    "latitude": "29.973139983511818",
    "geocoded_column": {
      "latitude": "29.973139983511818",
      "longitude": "-90.04264419136787"
    }
  },
  {
    "service_request": "2023-1023355",
    "request_type": "Property Maintenance",
    "request_reason": "Property Maintenance",
    "date_created": "2023-08-03T21:52:09.000",
    "date_modified": "2023-08-03T21:52:09.000",
    "request_status": "Pending",
    "responsible_agency": "Department of Code Enforcement",
    "final_address": "1638 Clouet St",
    "address_councildis": "D",
    "status": "Pending",
    "rowid": "1023355",
    "final_x": "3689481.34697",
    "final_y": "538230.067337",
    "longitude": "-90.04262951513603",
    "latitude": "29.97370127789469",
    "geocoded_column": {
      "latitude": "29.97370127789469",
      "longitude": "-90.04262951513603"
    }
  },
  {
    "service_request": "2023-1023354",
    "request_type": "Traffic Signals/Signs/Striping/Streetlights",
    "request_reason": "Street Light Outage/Malfunction",
    "date_created": "2023-08-03T21:47:36.000",
    "date_modified": "2023-08-03T21:47:36.000",
    "request_status": "Pending",
    "responsible_agency": "Department of Public Works",
    "final_address": "370 Broadway St",
    "address_councildis": "A",
    "status": "Assigned to Contractor",
    "contractor": "Legacy Professional Services",
    "rowid": "1023354",
    "final_x": "3661843.39456",
    "final_y": "523123.090747",
    "longitude": "-90.13041747849635",
    "latitude": "29.93298904349296",
    "geocoded_column": {
      "latitude": "29.93298904349296",
      "longitude": "-90.13041747849635"
    }
  },
  {
    "service_request": "2023-1023352",
    "request_type": "Trash/Recycling",
    "request_reason": "Replace Recycling Cart",
    "date_created": "2023-08-03T21:44:45.000",
    "date_modified": "2023-08-03T21:44:45.000",
    "request_status": "Pending",
    "responsible_agency": "Department of Sanitation",
    "final_address": "1640 Robert St",
    "address_councildis": "B",
    "status": "Pending",
    "rowid": "1023352",
    "final_x": "3668638.68238",
    "final_y": "521266.796665",
    "longitude": "-90.10902779157972",
    "latitude": "29.927686922586595",
    "geocoded_column": {
      "latitude": "29.927686922586595",
      "longitude": "-90.10902779157972"
    }
  },
  {
    "service_request": "2023-1023351",
    "request_type": "Abandoned Vehicles",
    "request_reason": "Abandoned/Junk Vehicles",
    "date_created": "2023-08-03T21:43:59.000",
    "date_modified": "2023-08-03T21:43:59.000",
    "request_status": "Pending",
    "responsible_agency": "Department of Public Works",
    "final_address": "2500 Dumaine St",
    "address_councildis": "D",
    "status": "Pending",
    "rowid": "1023351",
    "final_x": "3677912.21173",
    "final_y": "536903.357896",
    "longitude": "-90.07921321866425",
    "latitude": "29.9704065382151",
    "geocoded_column": {
      "latitude": "29.9704065382151",
      "longitude": "-90.07921321866425"
    }
  },
  {
    "service_request": "2023-1023350",
    "request_type": "Trash/Recycling",
    "request_reason": "Illegal Dumping",
    "date_created": "2023-08-03T21:40:33.000",
    "date_modified": "2023-08-03T21:40:33.000",
    "request_status": "Pending",
    "responsible_agency": "Department of Sanitation",
    "final_address": "2000 Ap Tureaud Ave",
    "address_councildis": "D",
    "status": "Pending",
    "rowid": "1023350",
    "final_x": "3681638.234",
    "final_y": "539673.088586",
    "longitude": "-90.06734938998007",
    "latitude": "29.977909677482593",
    "geocoded_column": {
      "latitude": "29.977909677482593",
      "longitude": "-90.06734938998007"
    }
  },
  {
    "service_request": "2023-1023349",
    "request_type": "Trash/Recycling",
    "request_reason": "Request a Large Item Pick Up",
    "date_created": "2023-08-03T21:38:37.000",
    "date_modified": "2023-08-03T21:38:38.000",
    "request_status": "Pending",
    "responsible_agency": "Department of Sanitation",
    "final_address": "2208 Nashville Ave",
    "address_councildis": "A",
    "status": "Assigned to Contractor",
    "contractor": "Richards Disposal",
    "rowid": "1023349",
    "final_x": "3666824.35476",
    "final_y": "524333.296124",
    "longitude": "-90.11465225411933",
    "latitude": "29.93617199990042",
    "geocoded_column": {
      "latitude": "29.93617199990042",
      "longitude": "-90.11465225411933"
    }
  },
  {
    "service_request": "2023-1023348",
    "request_type": "Property Maintenance",
    "request_reason": "Property Maintenance",
    "date_created": "2023-08-03T21:34:59.000",
    "date_modified": "2023-08-03T21:34:59.000",
    "request_status": "Pending",
    "responsible_agency": "Department of Code Enforcement",
    "final_address": "2001 St Bernard Ave",
    "address_councildis": "D",
    "status": "Pending",
    "rowid": "1023348",
    "final_x": "3681518.86741",
    "final_y": "539377.467018",
    "longitude": "-90.06773670367747",
    "latitude": "29.97710044673789",
    "geocoded_column": {
      "latitude": "29.97710044673789",
      "longitude": "-90.06773670367747"
    }
  },
  {
    "service_request": "2023-1023347",
    "request_type": "Trash/Recycling",
    "request_reason": "Illegal Dumping",
    "date_created": "2023-08-03T21:30:33.000",
    "date_modified": "2023-08-03T21:30:33.000",
    "request_status": "Pending",
    "responsible_agency": "Department of Sanitation",
    "final_address": "1921 Onzaga St",
    "address_councildis": "D",
    "status": "Pending",
    "rowid": "1023347",
    "final_x": "3681451.43228",
    "final_y": "538847.880521",
    "longitude": "-90.06796815627551",
    "latitude": "29.9756463156104",
    "geocoded_column": {
      "latitude": "29.9756463156104",
      "longitude": "-90.06796815627551"
    }
  },
  {
    "service_request": "2023-1023345",
    "request_type": "Traffic Signals/Signs/Striping/Streetlights",
    "request_reason": "Street Light Outage/Malfunction",
    "date_created": "2023-08-03T21:20:41.000",
    "date_modified": "2023-08-03T21:20:41.000",
    "request_status": "Pending",
    "responsible_agency": "Department of Public Works",
    "final_address": "1730 Audubon St",
    "address_councildis": "A",
    "status": "Assigned to Contractor",
    "contractor": "Legacy Professional Services",
    "rowid": "1023345",
    "final_x": "3665525.74727",
    "final_y": "528050.051775",
    "longitude": "-90.11862762042233",
    "latitude": "29.946429799696276",
    "geocoded_column": {
      "latitude": "29.946429799696276",
      "longitude": "-90.11862762042233"
    }
  },
  {
    "service_request": "2023-1023344",
    "request_type": "Trash/Recycling",
    "request_reason": "Order Recycling Cart",
    "date_created": "2023-08-03T21:19:36.000",
    "date_modified": "2023-08-03T21:19:36.000",
    "request_status": "Pending",
    "responsible_agency": "Department of Sanitation",
    "final_address": "348 West Robert E Lee Blvd",
    "address_councildis": "A",
    "status": "Pending",
    "rowid": "1023344",
    "final_x": "3665100.6432",
    "final_y": "554883.866456",
    "longitude": "-90.11907199946828",
    "latitude": "30.02022613657772",
    "geocoded_column": {
      "latitude": "30.02022613657772",
      "longitude": "-90.11907199946828"
    }
  },
  {
    "service_request": "2023-1023343",
    "request_type": "Traffic Signals/Signs/Striping/Streetlights",
    "request_reason": "Street Light Outage/Malfunction",
    "date_created": "2023-08-03T21:18:37.000",
    "date_modified": "2023-08-03T21:18:38.000",
    "request_status": "Pending",
    "responsible_agency": "Department of Public Works",
    "final_address": "312 Audubon Blvd",
    "address_councildis": "A",
    "status": "Assigned to Contractor",
    "contractor": "Legacy Professional Services",
    "rowid": "1023343",
    "final_x": "3667060.99565",
    "final_y": "529906.108417",
    "longitude": "-90.11371790627784",
    "latitude": "29.951488512118665",
    "geocoded_column": {
      "latitude": "29.951488512118665",
      "longitude": "-90.11371790627784"
    }
  },
  {
    "service_request": "2023-1023342",
    "request_type": "Trash/Recycling",
    "request_reason": "Request a Large Item Pick Up",
    "date_created": "2023-08-03T20:48:33.000",
    "date_modified": "2023-08-03T20:48:34.000",
    "request_status": "Pending",
    "responsible_agency": "Department of Sanitation",
    "final_address": "8420 Apple St",
    "address_councildis": "A",
    "status": "Assigned to Contractor",
    "contractor": "Richards Disposal",
    "rowid": "1023342",
    "final_x": "3664346.82215",
    "final_y": "532971.108484",
    "longitude": "-90.12218568865624",
    "latitude": "29.959995422497443",
    "geocoded_column": {
      "latitude": "29.959995422497443",
      "longitude": "-90.12218568865624"
    }
  },
  {
    "service_request": "2023-1023341",
    "request_type": "Property Maintenance",
    "request_reason": "Property Maintenance",
    "date_created": "2023-08-03T20:42:52.000",
    "date_modified": "2023-08-03T20:42:52.000",
    "request_status": "Pending",
    "responsible_agency": "Department of Code Enforcement",
    "final_address": "2614 St Claude Ave",
    "address_councildis": "C",
    "status": "Pending",
    "rowid": "1023341",
    "final_x": "3687260.29174",
    "final_y": "536391.462983",
    "longitude": "-90.04970911962272",
    "latitude": "29.968714364924857",
    "geocoded_column": {
      "latitude": "29.968714364924857",
      "longitude": "-90.04970911962272"
    }
  },
  {
    "service_request": "2023-1023340",
    "request_type": "Traffic Signals/Signs/Striping/Streetlights",
    "request_reason": "Street Light Outage/Malfunction",
    "date_created": "2023-08-03T20:41:19.000",
    "date_modified": "2023-08-03T20:41:19.000",
    "request_status": "Pending",
    "responsible_agency": "Department of Public Works",
    "final_address": "700 Tupelo St",
    "address_councildis": "E",
    "status": "Assigned to Contractor",
    "contractor": "Legacy Professional Services",
    "rowid": "1023340",
    "final_x": "3698910.59812",
    "final_y": "531964.570947",
    "longitude": "-90.0130780813413",
    "latitude": "29.956177984039464",
    "geocoded_column": {
      "latitude": "29.956177984039464",
      "longitude": "-90.0130780813413"
    }
  },
  {
    "service_request": "2023-1023339",
    "request_type": "Trash/Recycling",
    "request_reason": "Request a Large Item Pick Up",
    "date_created": "2023-08-03T20:40:42.000",
    "date_modified": "2023-08-03T20:40:43.000",
    "request_status": "Pending",
    "responsible_agency": "Department of Sanitation",
    "final_address": "6954 E Laverne St",
    "address_councildis": "D",
    "status": "Assigned to Contractor",
    "contractor": "Waste Pro",
    "rowid": "1023339",
    "final_x": "3697059.99075",
    "final_y": "556861.832922",
    "longitude": "-90.01801919321792",
    "latitude": "30.02469483215529",
    "geocoded_column": {
      "latitude": "30.02469483215529",
      "longitude": "-90.01801919321792"
    }
  },
  {
    "service_request": "2023-1023338",
    "request_type": "Trash/Recycling",
    "request_reason": "Request a Large Item Pick Up",
    "date_created": "2023-08-03T20:40:24.000",
    "date_modified": "2023-08-03T20:40:25.000",
    "request_status": "Pending",
    "responsible_agency": "Department of Sanitation",
    "final_address": "4407 Lonely Oak Dr",
    "address_councildis": "E",
    "status": "Assigned to Contractor",
    "contractor": "Waste Pro",
    "rowid": "1023338",
    "final_x": "3702515.00119",
    "final_y": "552924.406807",
    "longitude": "-90.00092708035764",
    "latitude": "30.013695114211068",
    "geocoded_column": {
      "latitude": "30.013695114211068",
      "longitude": "-90.00092708035764"
    }
  },
  {
    "service_request": "2023-1023337",
    "request_type": "Traffic Signals/Signs/Striping/Streetlights",
    "request_reason": "Street Light Outage/Malfunction",
    "date_created": "2023-08-03T20:37:06.000",
    "date_modified": "2023-08-03T20:37:07.000",
    "request_status": "Pending",
    "responsible_agency": "Department of Public Works",
    "final_address": "700 Tupelo St",
    "address_councildis": "E",
    "status": "Assigned to Contractor",
    "contractor": "Legacy Professional Services",
    "rowid": "1023337",
    "final_x": "3698910.59812",
    "final_y": "531964.570947",
    "longitude": "-90.0130780813413",
    "latitude": "29.956177984039464",
    "geocoded_column": {
      "latitude": "29.956177984039464",
      "longitude": "-90.0130780813413"
    }
  },
  {
    "service_request": "2023-1023336",
    "request_type": "Trash/Recycling",
    "request_reason": "Return Trash Cart",
    "date_created": "2023-08-03T20:19:01.000",
    "date_modified": "2023-08-03T20:19:01.000",
    "request_status": "Pending",
    "responsible_agency": "Department of Sanitation",
    "final_address": "1436 New York St",
    "address_councildis": "D",
    "status": "Assigned to Contractor",
    "contractor": "IV Waste",
    "rowid": "1023336",
    "final_x": "3678237.53128",
    "final_y": "555567.877145",
    "longitude": "-90.0775398141445",
    "latitude": "30.02171758887915",
    "geocoded_column": {
      "latitude": "30.02171758887915",
      "longitude": "-90.0775398141445"
    }
  },
  {
    "service_request": "2023-1023335",
    "request_type": "Trash/Recycling",
    "request_reason": "Missed Trash Pick-Up",
    "date_created": "2023-08-03T20:01:09.000",
    "date_modified": "2023-08-03T20:01:09.000",
    "request_status": "Pending",
    "responsible_agency": "Department of Sanitation",
    "final_address": "3322 Cherry St",
    "address_councildis": "A",
    "status": "Assigned to Contractor",
    "contractor": "Richards Disposal",
    "rowid": "1023335",
    "final_x": "3663978.30291",
    "final_y": "536925.697032",
    "longitude": "-90.12321751500458",
    "latitude": "29.970879946977632",
    "geocoded_column": {
      "latitude": "29.970879946977632",
      "longitude": "-90.12321751500458"
    }
  },
  {
    "service_request": "2023-1023334",
    "request_type": "Trash/Recycling",
    "request_reason": "MIssed Recycling Pick-Up",
    "date_created": "2023-08-03T19:38:10.000",
    "date_modified": "2023-08-03T19:38:11.000",
    "request_status": "Pending",
    "responsible_agency": "Department of Sanitation",
    "final_address": "5947 Constance St",
    "address_councildis": "A",
    "status": "Assigned to Contractor",
    "contractor": "Richards Disposal",
    "rowid": "1023334",
    "final_x": "3664785.57818",
    "final_y": "518878.203575",
    "longitude": "-90.1212709299508",
    "latitude": "29.92123168212325",
    "geocoded_column": {
      "latitude": "29.92123168212325",
      "longitude": "-90.1212709299508"
    }
  },
  {
    "service_request": "2023-1023332",
    "request_type": "Trash/Recycling",
    "request_reason": "Missed Trash Pick-Up",
    "date_created": "2023-08-03T19:28:22.000",
    "date_modified": "2023-08-03T19:28:23.000",
    "request_status": "Pending",
    "responsible_agency": "Department of Sanitation",
    "final_address": "3300 BLK Napoleon Ave",
    "address_councildis": "B",
    "status": "Assigned to Contractor",
    "contractor": "Richards Disposal",
    "rowid": "1023332",
    "final_x": "3670272.14662",
    "final_y": "527059.204528",
    "longitude": "-90.10367509474027",
    "latitude": "29.943566085165955",
    "geocoded_column": {
      "latitude": "29.943566085165955",
      "longitude": "-90.10367509474027"
    }
  },
  {
    "service_request": "2023-1023331",
    "request_type": "Trash/Recycling",
    "request_reason": "Replace Trash Cart",
    "date_created": "2023-08-03T19:26:33.000",
    "date_modified": "2023-08-03T19:26:34.000",
    "request_status": "Pending",
    "responsible_agency": "Department of Sanitation",
    "final_address": "150 Huntlee Dr",
    "address_councildis": "C",
    "status": "Assigned to Contractor",
    "contractor": "Richards Disposal",
    "rowid": "1023331",
    "final_x": "3702486.81681",
    "final_y": "523664.312763",
    "longitude": "-90.00209017625684",
    "latitude": "29.933241417914807",
    "geocoded_column": {
      "latitude": "29.933241417914807",
      "longitude": "-90.00209017625684"
    }
  },
  {
    "service_request": "2023-1023330",
    "request_type": "Trash/Recycling",
    "request_reason": "Order Recycling Cart",
    "date_created": "2023-08-03T19:10:15.000",
    "date_modified": "2023-08-03T19:10:15.000",
    "request_status": "Pending",
    "responsible_agency": "Department of Sanitation",
    "final_address": "1004 Verret St",
    "address_councildis": "C",
    "status": "Pending",
    "rowid": "1023330",
    "final_x": "3687268.79561",
    "final_y": "527891.241663",
    "longitude": "-90.049982920829",
    "latitude": "29.945341423105305",
    "geocoded_column": {
      "latitude": "29.945341423105305",
      "longitude": "-90.049982920829"
    }
  },
  {
    "service_request": "2023-1023329",
    "request_type": "Trash/Recycling",
    "request_reason": "Request a Large Item Pick Up",
    "date_created": "2023-08-03T18:48:04.000",
    "date_modified": "2023-08-03T18:48:05.000",
    "request_status": "Pending",
    "responsible_agency": "Department of Sanitation",
    "final_address": "5311 Edenboro Rd",
    "address_councildis": "E",
    "status": "Assigned to Contractor",
    "contractor": "Waste Pro",
    "rowid": "1023329",
    "final_x": "3708476.35985",
    "final_y": "557609.971163",
    "longitude": "-89.98191784670604",
    "latitude": "30.026386642689797",
    "geocoded_column": {
      "latitude": "30.026386642689797",
      "longitude": "-89.98191784670604"
    }
  },
  {
    "service_request": "2023-1023328",
    "request_type": "Trash/Recycling",
    "request_reason": "Replace Recycling Cart",
    "date_created": "2023-08-03T18:45:39.000",
    "date_modified": "2023-08-03T18:45:39.000",
    "request_status": "Pending",
    "responsible_agency": "Department of Sanitation",
    "final_address": "6126 Patton St",
    "address_councildis": "A",
    "status": "Pending",
    "rowid": "1023328",
    "final_x": "3663656.04103",
    "final_y": "518831.248311",
    "longitude": "-90.12483795701377",
    "latitude": "29.9211353751018",
    "geocoded_column": {
      "latitude": "29.9211353751018",
      "longitude": "-90.12483795701377"
    }
  },
  {
    "service_request": "2023-1023327",
    "request_type": "Roads/Drainage",
    "request_reason": "Damaged Sidewalk",
    "date_created": "2023-08-03T18:44:54.000",
    "date_modified": "2023-08-03T18:44:54.000",
    "request_status": "Pending",
    "responsible_agency": "Department of Public Works",
    "final_address": "2855 St Charles Ave",
    "address_councildis": "B",
    "status": "Pending",
    "rowid": "1023327",
    "final_x": "3675502.7972",
    "final_y": "522369.56633",
    "longitude": "-90.08732154746049",
    "latitude": "29.930515731521275",
    "geocoded_column": {
      "latitude": "29.930515731521275",
      "longitude": "-90.08732154746049"
    }
  },
  {
    "service_request": "2023-1023326",
    "request_type": "Parks & Parkways",
    "request_reason": "Request Tree Service (Right of Way/Public Property)",
    "date_created": "2023-08-03T18:24:45.000",
    "date_modified": "2023-08-03T18:24:46.000",
    "request_status": "Pending",
    "responsible_agency": "Department of Parks & Parkway",
    "final_address": "645 S Dupre St",
    "address_councildis": "B",
    "status": "Pending",
    "rowid": "1023326",
    "final_x": "3673191.79214",
    "final_y": "533932.400453",
    "longitude": "-90.09422232203133",
    "latitude": "29.962378621313338",
    "geocoded_column": {
      "latitude": "29.962378621313338",
      "longitude": "-90.09422232203133"
    }
  },
  {
    "service_request": "2023-1023325",
    "request_type": "Trash/Recycling",
    "request_reason": "Replace Trash Cart",
    "date_created": "2023-08-03T18:22:13.000",
    "date_modified": "2023-08-03T18:22:13.000",
    "request_status": "Pending",
    "responsible_agency": "Department of Sanitation",
    "final_address": "2018 Dumaine St",
    "address_councildis": "D",
    "status": "Assigned to Contractor",
    "contractor": "Richards Disposal",
    "rowid": "1023325",
    "final_x": "3679203.31925",
    "final_y": "535909.282183",
    "longitude": "-90.07517022826022",
    "latitude": "29.96763425141972",
    "geocoded_column": {
      "latitude": "29.96763425141972",
      "longitude": "-90.07517022826022"
    }
  },
  {
    "service_request": "2023-1023324",
    "request_type": "Trash/Recycling",
    "request_reason": "Request a Large Item Pick Up",
    "date_created": "2023-08-03T18:18:36.000",
    "date_modified": "2023-08-03T18:18:37.000",
    "request_status": "Pending",
    "responsible_agency": "Department of Sanitation",
    "final_address": "2208 Nashville Ave",
    "address_councildis": "A",
    "status": "Assigned to Contractor",
    "contractor": "Richards Disposal",
    "rowid": "1023324",
    "final_x": "3666824.35476",
    "final_y": "524333.296124",
    "longitude": "-90.11465225411933",
    "latitude": "29.93617199990042",
    "geocoded_column": {
      "latitude": "29.93617199990042",
      "longitude": "-90.11465225411933"
    }
  },
  {
    "service_request": "2023-1023323",
    "request_type": "Trash/Recycling",
    "request_reason": "Replace Trash Cart",
    "date_created": "2023-08-03T18:12:19.000",
    "date_modified": "2023-08-03T18:12:20.000",
    "request_status": "Pending",
    "responsible_agency": "Department of Sanitation",
    "final_address": "4666 Lurline St",
    "address_councildis": "E",
    "status": "Assigned to Contractor",
    "contractor": "Waste Pro",
    "rowid": "1023323",
    "final_x": "3711940.13611",
    "final_y": "555689.569049",
    "longitude": "-89.97104497154652",
    "latitude": "30.02099350993239",
    "geocoded_column": {
      "latitude": "30.02099350993239",
      "longitude": "-89.97104497154652"
    }
  },
  {
    "service_request": "2023-1023322",
    "request_type": "Property Maintenance",
    "request_reason": "Property Maintenance",
    "date_created": "2023-08-03T18:12:00.000",
    "date_modified": "2023-08-03T18:12:00.000",
    "request_status": "Pending",
    "responsible_agency": "Department of Code Enforcement",
    "final_address": "1600 BLK Elysian Fields Ave",
    "address_councildis": "D",
    "status": "Pending",
    "rowid": "1023322",
    "final_x": "3684904.34046",
    "final_y": "538333.770233",
    "longitude": "-90.05708101756835",
    "latitude": "29.974127393504652",
    "geocoded_column": {
      "latitude": "29.974127393504652",
      "longitude": "-90.05708101756835"
    }
  },
  {
    "service_request": "2023-1023320",
    "request_type": "Abandoned Vehicles",
    "request_reason": "Abandoned/Junk Vehicles",
    "date_created": "2023-08-03T18:03:35.000",
    "date_modified": "2023-08-03T18:03:36.000",
    "request_status": "Pending",
    "responsible_agency": "Department of Public Works",
    "final_address": "2501 St Anthony St",
    "address_councildis": "D",
    "status": "Pending",
    "rowid": "1023320",
    "final_x": "3683136.53199",
    "final_y": "541386.761292",
    "longitude": "-90.06255722222818",
    "latitude": "29.982576074562125",
    "geocoded_column": {
      "latitude": "29.982576074562125",
      "longitude": "-90.06255722222818"
    }
  },
  {
    "service_request": "2023-1023319",
    "request_type": "Trash/Recycling",
    "request_reason": "Replace Trash Cart",
    "date_created": "2023-08-03T17:58:07.000",
    "date_modified": "2023-08-03T17:58:08.000",
    "request_status": "Pending",
    "responsible_agency": "Department of Sanitation",
    "final_address": "2819 Laurel St",
    "address_councildis": "B",
    "status": "Assigned to Contractor",
    "contractor": "Richards Disposal",
    "rowid": "1023319",
    "final_x": "3677285.53614",
    "final_y": "520144.11692",
    "longitude": "-90.08177044144665",
    "latitude": "29.924343043994913",
    "geocoded_column": {
      "latitude": "29.924343043994913",
      "longitude": "-90.08177044144665"
    }
  },
  {
    "service_request": "2023-1023318",
    "request_type": "Trash/Recycling",
    "request_reason": "Illegal Dumping",
    "date_created": "2023-08-03T17:46:17.000",
    "date_modified": "2023-08-03T17:46:17.000",
    "request_status": "Pending",
    "responsible_agency": "Department of Sanitation",
    "final_address": "4808 St Claude Ave",
    "address_councildis": "E",
    "status": "Pending",
    "rowid": "1023318",
    "final_x": "3695140.33008",
    "final_y": "534421.409861",
    "longitude": "-90.0248946657472",
    "latitude": "29.963052336513883",
    "geocoded_column": {
      "latitude": "29.963052336513883",
      "longitude": "-90.0248946657472"
    }
  },
  {
    "service_request": "2023-1023317",
    "request_type": "Trash/Recycling",
    "request_reason": "Missed Trash Pick-Up",
    "date_created": "2023-08-03T17:46:01.000",
    "date_modified": "2023-08-03T17:46:02.000",
    "request_status": "Pending",
    "responsible_agency": "Department of Sanitation",
    "final_address": "1100 BLK Saint Mary St",
    "address_councildis": "B",
    "status": "Assigned to Contractor",
    "contractor": "Richards Disposal",
    "rowid": "1023317",
    "final_x": "3679674.56581",
    "final_y": "522902.542565",
    "longitude": "-90.07413341300796",
    "latitude": "29.931855843778933",
    "geocoded_column": {
      "latitude": "29.931855843778933",
      "longitude": "-90.07413341300796"
    }
  },
  {
    "service_request": "2023-1023316",
    "request_type": "Trash/Recycling",
    "request_reason": "Order Trash Cart",
    "date_created": "2023-08-03T17:44:30.000",
    "date_modified": "2023-08-03T17:44:31.000",
    "request_status": "Pending",
    "responsible_agency": "Department of Sanitation",
    "final_address": "8000 Edgelake Ct",
    "address_councildis": "E",
    "status": "Assigned to Contractor",
    "contractor": "Waste Pro",
    "rowid": "1023316",
    "final_x": "3702413.17149",
    "final_y": "562100.359583",
    "longitude": "-90.00091168787607",
    "latitude": "30.038928694776992",
    "geocoded_column": {
      "latitude": "30.038928694776992",
      "longitude": "-90.00091168787607"
    }
  },
  {
    "service_request": "2023-1023315",
    "request_type": "Property Maintenance",
    "request_reason": "Property Maintenance",
    "date_created": "2023-08-03T17:33:46.000",
    "date_modified": "2023-08-03T17:33:46.000",
    "request_status": "Pending",
    "responsible_agency": "Department of Code Enforcement",
    "final_address": "2232 Louisa St",
    "address_councildis": "D",
    "status": "Pending",
    "rowid": "1023315",
    "final_x": "3690614.5574",
    "final_y": "540284.970123",
    "longitude": "-90.03897729449687",
    "latitude": "29.979316383655235",
    "geocoded_column": {
      "latitude": "29.979316383655235",
      "longitude": "-90.03897729449687"
    }
  },
  {
    "service_request": "2023-1023314",
    "request_type": "Trash/Recycling",
    "request_reason": "Illegal Dumping",
    "date_created": "2023-08-03T17:23:24.000",
    "date_modified": "2023-08-03T17:23:24.000",
    "request_status": "Pending",
    "responsible_agency": "Department of Sanitation",
    "final_address": "4808 St Claude Ave",
    "address_councildis": "E",
    "status": "Pending",
    "rowid": "1023314",
    "final_x": "3695140.33008",
    "final_y": "534421.409861",
    "longitude": "-90.0248946657472",
    "latitude": "29.963052336513883",
    "geocoded_column": {
      "latitude": "29.963052336513883",
      "longitude": "-90.0248946657472"
    }
  },
  {
    "service_request": "2023-1023313",
    "request_type": "Trash/Recycling",
    "request_reason": "Request a Large Item Pick Up",
    "date_created": "2023-08-03T17:14:39.000",
    "date_modified": "2023-08-03T17:14:40.000",
    "request_status": "Pending",
    "responsible_agency": "Department of Sanitation",
    "final_address": "2218 Freret St",
    "address_councildis": "B",
    "status": "Assigned to Contractor",
    "contractor": "Richards Disposal",
    "rowid": "1023313",
    "final_x": "3675536.62177",
    "final_y": "526128.155454",
    "longitude": "-90.08708571793836",
    "latitude": "29.940849612242534",
    "geocoded_column": {
      "latitude": "29.940849612242534",
      "longitude": "-90.08708571793836"
    }
  },
  {
    "service_request": "2023-1023312",
    "request_type": "Trash/Recycling",
    "request_reason": "Replace Trash Cart",
    "date_created": "2023-08-03T16:57:38.000",
    "date_modified": "2023-08-03T16:57:39.000",
    "request_status": "Pending",
    "responsible_agency": "Department of Sanitation",
    "final_address": "1834 St Roch Ave",
    "address_councildis": "D",
    "status": "Assigned to Contractor",
    "contractor": "IV Waste",
    "rowid": "1023312",
    "final_x": "3686049.73609",
    "final_y": "539280.564106",
    "longitude": "-90.05343020241577",
    "latitude": "29.976695615999745",
    "geocoded_column": {
      "latitude": "29.976695615999745",
      "longitude": "-90.05343020241577"
    }
  },
  {
    "service_request": "2023-1023311",
    "request_type": "Trash/Recycling",
    "request_reason": "Order Trash Cart",
    "date_created": "2023-08-03T16:55:44.000",
    "date_modified": "2023-08-03T16:55:45.000",
    "request_status": "Pending",
    "responsible_agency": "Department of Sanitation",
    "final_address": "2336 Esplanade Ave",
    "address_councildis": "D",
    "status": "Assigned to Contractor",
    "contractor": "Richards Disposal",
    "rowid": "1023311",
    "final_x": "3679018.56155",
    "final_y": "538228.078793",
    "longitude": "-90.07567332324639",
    "latitude": "29.974015723686342",
    "geocoded_column": {
      "latitude": "29.974015723686342",
      "longitude": "-90.07567332324639"
    }
  },
  {
    "service_request": "2023-1023310",
    "request_type": "Trash/Recycling",
    "request_reason": "Order Recycling Cart",
    "date_created": "2023-08-03T16:53:15.000",
    "date_modified": "2023-08-03T16:53:15.000",
    "request_status": "Pending",
    "responsible_agency": "Department of Sanitation",
    "final_address": "2326 Esplanade Ave",
    "address_councildis": "D",
    "status": "Pending",
    "rowid": "1023310",
    "final_x": "3679062.98178",
    "final_y": "538129.665161",
    "longitude": "-90.07553644592474",
    "latitude": "29.973743779404096",
    "geocoded_column": {
      "latitude": "29.973743779404096",
      "longitude": "-90.07553644592474"
    }
  },
  {
    "service_request": "2023-1023308",
    "request_type": "Parks & Parkways",
    "request_reason": "Request Tree Service (Right of Way/Public Property)",
    "date_created": "2023-08-03T16:51:47.000",
    "date_modified": "2023-08-03T16:51:47.000",
    "request_status": "Pending",
    "responsible_agency": "Department of Parks & Parkway",
    "final_address": "6301 Oxford St",
    "address_councildis": "C",
    "status": "Pending",
    "rowid": "1023308",
    "final_x": "3707428.12209",
    "final_y": "519664.889976",
    "longitude": "-89.98663932042172",
    "latitude": "29.922085631001462",
    "geocoded_column": {
      "latitude": "29.922085631001462",
      "longitude": "-89.98663932042172"
    }
  },
  {
    "service_request": "2023-1023307",
    "request_type": "Trash/Recycling",
    "request_reason": "Order Trash Cart",
    "date_created": "2023-08-03T16:51:29.000",
    "date_modified": "2023-08-03T16:52:38.000",
    "request_status": "Pending",
    "responsible_agency": "Department of Sanitation",
    "final_address": "2326 Esplanade Ave",
    "address_councildis": "D",
    "contractor": "Richards Disposal",
    "rowid": "1023307",
    "final_x": "3679062.98178",
    "final_y": "538129.665161",
    "longitude": "-90.07553644592474",
    "latitude": "29.973743779404096",
    "geocoded_column": {
      "latitude": "29.973743779404096",
      "longitude": "-90.07553644592474"
    }
  },
  {
    "service_request": "2023-1023306",
    "request_type": "Property Maintenance",
    "request_reason": "Property Maintenance",
    "date_created": "2023-08-03T16:51:15.000",
    "date_modified": "2023-08-03T16:51:15.000",
    "request_status": "Pending",
    "responsible_agency": "Department of Code Enforcement",
    "final_address": "2025 Dumaine St",
    "address_councildis": "D",
    "status": "Pending",
    "rowid": "1023306",
    "final_x": "3679200.72162",
    "final_y": "536009.613703",
    "longitude": "-90.07517495256164",
    "latitude": "29.967910207220616",
    "geocoded_column": {
      "latitude": "29.967910207220616",
      "longitude": "-90.07517495256164"
    }
  },
  {
    "service_request": "2023-1023302",
    "request_type": "Trash/Recycling",
    "request_reason": "Illegal Dumping",
    "date_created": "2023-08-03T16:44:05.000",
    "date_modified": "2023-08-03T16:44:05.000",
    "request_status": "Pending",
    "responsible_agency": "Department of Sanitation",
    "final_address": "1937 St Ann St",
    "address_councildis": "D",
    "status": "Pending",
    "rowid": "1023302",
    "final_x": "3679243.69864",
    "final_y": "535591.551174",
    "longitude": "-90.07505372781881",
    "latitude": "29.96675938053113",
    "geocoded_column": {
      "latitude": "29.96675938053113",
      "longitude": "-90.07505372781881"
    }
  },
  {
    "service_request": "2023-1023301",
    "request_type": "Trash/Recycling",
    "request_reason": "Request a Large Item Pick Up",
    "date_created": "2023-08-03T16:44:05.000",
    "date_modified": "2023-08-03T16:44:06.000",
    "request_status": "Pending",
    "responsible_agency": "Department of Sanitation",
    "final_address": "127 34Th St",
    "address_councildis": "A",
    "status": "Assigned to Contractor",
    "contractor": "IV Waste",
    "rowid": "1023301",
    "final_x": "3666070.16916",
    "final_y": "551382.114517",
    "longitude": "-90.11612612251041",
    "latitude": "30.010569261445223",
    "geocoded_column": {
      "latitude": "30.010569261445223",
      "longitude": "-90.11612612251041"
    }
  },
  {
    "service_request": "2023-1023300",
    "request_type": "Trash/Recycling",
    "request_reason": "Order Recycling Cart",
    "date_created": "2023-08-03T16:43:56.000",
    "date_modified": "2023-08-03T16:43:56.000",
    "request_status": "Pending",
    "responsible_agency": "Department of Sanitation",
    "final_address": "4635 Bundy Rd",
    "address_councildis": "E",
    "status": "Pending",
    "rowid": "1023300",
    "final_x": "3709533.96721",
    "final_y": "555105.112345",
    "longitude": "-89.97866953650895",
    "latitude": "30.019464920772673",
    "geocoded_column": {
      "latitude": "30.019464920772673",
      "longitude": "-89.97866953650895"
    }
  },
  {
    "service_request": "2023-1023299",
    "request_type": "Property Maintenance",
    "request_reason": "Property Maintenance",
    "date_created": "2023-08-03T16:43:40.000",
    "date_modified": "2023-08-03T16:43:40.000",
    "request_status": "Pending",
    "responsible_agency": "Department of Code Enforcement",
    "final_address": "1937 St Ann St",
    "address_councildis": "D",
    "status": "Pending",
    "rowid": "1023299",
    "final_x": "3679243.69864",
    "final_y": "535591.551174",
    "longitude": "-90.07505372781881",
    "latitude": "29.96675938053113",
    "geocoded_column": {
      "latitude": "29.96675938053113",
      "longitude": "-90.07505372781881"
    }
  },
  {
    "service_request": "2023-1023298",
    "request_type": "Trash/Recycling",
    "request_reason": "Order Recycling Cart",
    "date_created": "2023-08-03T16:43:34.000",
    "date_modified": "2023-08-03T16:43:34.000",
    "request_status": "Pending",
    "responsible_agency": "Department of Sanitation",
    "final_address": "2336 Esplanade Ave",
    "address_councildis": "D",
    "status": "Pending",
    "rowid": "1023298",
    "final_x": "3679018.56155",
    "final_y": "538228.078793",
    "longitude": "-90.07567332324639",
    "latitude": "29.974015723686342",
    "geocoded_column": {
      "latitude": "29.974015723686342",
      "longitude": "-90.07567332324639"
    }
  },
  {
    "service_request": "2023-1023297",
    "request_type": "Safety & Permits",
    "request_reason": "Construction permit",
    "date_created": "2023-08-03T16:42:43.000",
    "date_modified": "2023-08-03T16:42:43.000",
    "request_status": "Pending",
    "responsible_agency": "Department of Code Enforcement",
    "final_address": "2001 St Ann St",
    "address_councildis": "D",
    "status": "Pending",
    "rowid": "1023297",
    "final_x": "3679119.85045",
    "final_y": "535586.625094",
    "longitude": "-90.07544501073703",
    "latitude": "29.966749574479906",
    "geocoded_column": {
      "latitude": "29.966749574479906",
      "longitude": "-90.07544501073703"
    }
  },
  {
    "service_request": "2023-1023295",
    "request_type": "Safety & Permits",
    "request_reason": "Construction permit",
    "date_created": "2023-08-03T16:41:00.000",
    "date_modified": "2023-08-03T16:41:00.000",
    "request_status": "Pending",
    "responsible_agency": "Department of Code Enforcement",
    "final_address": "2017 Dumaine St",
    "address_councildis": "D",
    "status": "Pending",
    "rowid": "1023295",
    "final_x": "3679256.59829",
    "final_y": "535963.853447",
    "longitude": "-90.07500007920878",
    "latitude": "29.96778269502809",
    "geocoded_column": {
      "latitude": "29.96778269502809",
      "longitude": "-90.07500007920878"
    }
  },
  {
    "service_request": "2023-1023293",
    "request_type": "Trash/Recycling",
    "request_reason": "Order Trash Cart",
    "date_created": "2023-08-03T16:40:02.000",
    "date_modified": "2023-08-03T16:40:02.000",
    "request_status": "Pending",
    "responsible_agency": "Department of Sanitation",
    "final_address": "2336 Esplanade Ave",
    "address_councildis": "D",
    "status": "Assigned to Contractor",
    "contractor": "Richards Disposal",
    "rowid": "1023293",
    "final_x": "3679018.56155",
    "final_y": "538228.078793",
    "longitude": "-90.07567332324639",
    "latitude": "29.974015723686342",
    "geocoded_column": {
      "latitude": "29.974015723686342",
      "longitude": "-90.07567332324639"
    }
  },
  {
    "service_request": "2023-1023292",
    "request_type": "Property Maintenance",
    "request_reason": "Property Maintenance",
    "date_created": "2023-08-03T16:39:51.000",
    "date_modified": "2023-08-03T16:39:51.000",
    "request_status": "Pending",
    "responsible_agency": "Department of Code Enforcement",
    "final_address": "2017 Dumaine St",
    "address_councildis": "D",
    "status": "Pending",
    "rowid": "1023292",
    "final_x": "3679256.59829",
    "final_y": "535963.853447",
    "longitude": "-90.07500007920878",
    "latitude": "29.96778269502809",
    "geocoded_column": {
      "latitude": "29.96778269502809",
      "longitude": "-90.07500007920878"
    }
  },
  {
    "service_request": "2023-1023291",
    "request_type": "Trash/Recycling",
    "request_reason": "Request a Large Item Pick Up",
    "date_created": "2023-08-03T16:26:07.000",
    "date_modified": "2023-08-03T16:26:07.000",
    "request_status": "Pending",
    "responsible_agency": "Department of Sanitation",
    "final_address": "2427 Conti St",
    "address_councildis": "B",
    "status": "Assigned to Contractor",
    "contractor": "Richards Disposal",
    "rowid": "1023291",
    "final_x": "3676979.05115",
    "final_y": "535384.991878",
    "longitude": "-90.08221260359726",
    "latitude": "29.96625959880874",
    "geocoded_column": {
      "latitude": "29.96625959880874",
      "longitude": "-90.08221260359726"
    }
  },
  {
    "service_request": "2023-1023290",
    "request_type": "Trash/Recycling",
    "request_reason": "Missed Trash Pick-Up",
    "date_created": "2023-08-03T16:25:33.000",
    "date_modified": "2023-08-03T17:11:49.000",
    "case_close_date": "2023-08-03T12:11:49.000",
    "request_status": "Closed",
    "responsible_agency": "Department of Sanitation",
    "final_address": "800 BLK Soniat St",
    "address_councildis": "B",
    "status": "Resolved",
    "contractor": "Richards Disposal",
    "contractor_action": "Completed",
    "rowid": "1023290",
    "final_x": "3668335.6797",
    "final_y": "518410.791706",
    "longitude": "-90.11008054980579",
    "latitude": "29.919842711579832",
    "geocoded_column": {
      "latitude": "29.919842711579832",
      "longitude": "-90.11008054980579"
    }
  },
  {
    "service_request": "2023-1023289",
    "request_type": "Trash/Recycling",
    "request_reason": "Request a Large Item Pick Up",
    "date_created": "2023-08-03T16:22:06.000",
    "date_modified": "2023-08-03T16:22:07.000",
    "request_status": "Pending",
    "responsible_agency": "Department of Sanitation",
    "final_address": "5618 Cherlyn Dr",
    "address_councildis": "A",
    "status": "Assigned to Contractor",
    "contractor": "IV Waste",
    "rowid": "1023289",
    "final_x": "3665108.28506",
    "final_y": "545053.738895",
    "longitude": "-90.11937691954068",
    "latitude": "29.993196468163944",
    "geocoded_column": {
      "latitude": "29.993196468163944",
      "longitude": "-90.11937691954068"
    }
  },
  {
    "service_request": "2023-1023288",
    "request_type": "Traffic Signals/Signs/Striping/Streetlights",
    "request_reason": "Street Light Outage/Malfunction",
    "date_created": "2023-08-03T16:13:20.000",
    "date_modified": "2023-08-03T16:13:20.000",
    "request_status": "Pending",
    "responsible_agency": "Department of Public Works",
    "final_address": "9416 Palmetto St",
    "address_councildis": "A",
    "status": "Assigned to Contractor",
    "contractor": "Legacy Professional Services",
    "rowid": "1023288",
    "final_x": "3664590.96237",
    "final_y": "538290.495561",
    "longitude": "-90.12123705596055",
    "latitude": "29.974614884621943",
    "geocoded_column": {
      "latitude": "29.974614884621943",
      "longitude": "-90.12123705596055"
    }
  },
  {
    "service_request": "2023-1023287",
    "request_type": "Trash/Recycling",
    "request_reason": "MIssed Recycling Pick-Up",
    "date_created": "2023-08-03T16:12:02.000",
    "date_modified": "2023-08-03T16:12:03.000",
    "request_status": "Pending",
    "responsible_agency": "Department of Sanitation",
    "final_address": "2923 Hudson St, New Orleans, Louisiana, 70114",
    "address_councildis": "C",
    "status": "Assigned to Contractor",
    "contractor": "Richards Disposal",
    "rowid": "1023287",
    "final_x": "3693997.31357",
    "final_y": "520299.51756",
    "longitude": "-90.02901178845543",
    "latitude": "29.92425784808203",
    "geocoded_column": {
      "latitude": "29.92425784808203",
      "longitude": "-90.02901178845543"
    }
  },
  {
    "service_request": "2023-1023286",
    "request_type": "Trash/Recycling",
    "request_reason": "Missed Trash Pick-Up",
    "date_created": "2023-08-03T16:05:52.000",
    "date_modified": "2023-08-03T16:05:52.000",
    "request_status": "Pending",
    "responsible_agency": "Department of Sanitation",
    "final_address": "2081 N Dorgenois St",
    "address_councildis": "D",
    "status": "Assigned to Contractor",
    "contractor": "IV Waste",
    "rowid": "1023286",
    "final_x": "3683259.67804",
    "final_y": "541385.34126",
    "longitude": "-90.06216831603709",
    "latitude": "29.98256841411268",
    "geocoded_column": {
      "latitude": "29.98256841411268",
      "longitude": "-90.06216831603709"
    }
  },
  {
    "service_request": "2023-1023285",
    "request_type": "Trash/Recycling",
    "request_reason": "MIssed Recycling Pick-Up",
    "date_created": "2023-08-03T16:02:51.000",
    "date_modified": "2023-08-03T16:02:51.000",
    "request_status": "Pending",
    "responsible_agency": "Department of Sanitation",
    "final_address": "6725 Argonne Blvd",
    "address_councildis": "A",
    "status": "Assigned to Contractor",
    "contractor": "IV Waste",
    "rowid": "1023285",
    "final_x": "3670670.01326",
    "final_y": "552068.89871",
    "longitude": "-90.10157008872388",
    "latitude": "30.01232251669761",
    "geocoded_column": {
      "latitude": "30.01232251669761",
      "longitude": "-90.10157008872388"
    }
  },
  {
    "service_request": "2023-1023284",
    "request_type": "Trash/Recycling",
    "request_reason": "Missed Trash Pick-Up",
    "date_created": "2023-08-03T16:02:34.000",
    "date_modified": "2023-08-03T16:02:34.000",
    "request_status": "Pending",
    "responsible_agency": "Department of Sanitation",
    "final_address": "1714 Charbonnet St",
    "address_councildis": "E",
    "status": "Assigned to Contractor",
    "contractor": "Waste Pro",
    "rowid": "1023284",
    "final_x": "3699177.23146",
    "final_y": "535981.781191",
    "longitude": "-90.01208988121063",
    "latitude": "29.967215429521925",
    "geocoded_column": {
      "latitude": "29.967215429521925",
      "longitude": "-90.01208988121063"
    }
  },
  {
    "service_request": "2023-1023283",
    "request_type": "Trash/Recycling",
    "request_reason": "MIssed Recycling Pick-Up",
    "date_created": "2023-08-03T16:01:56.000",
    "date_modified": "2023-08-03T16:01:56.000",
    "request_status": "Pending",
    "responsible_agency": "Department of Sanitation",
    "final_address": "6209 West End Blvd",
    "address_councildis": "A",
    "status": "Assigned to Contractor",
    "contractor": "IV Waste",
    "rowid": "1023283",
    "final_x": "3666643.17089",
    "final_y": "549082.108051",
    "longitude": "-90.11439308543811",
    "latitude": "30.00422829455396",
    "geocoded_column": {
      "latitude": "30.00422829455396",
      "longitude": "-90.11439308543811"
    }
  },
  {
    "service_request": "2023-1023282",
    "request_type": "Trash/Recycling",
    "request_reason": "Order Recycling Cart",
    "date_created": "2023-08-03T16:01:29.000",
    "date_modified": "2023-08-03T16:01:29.000",
    "request_status": "Pending",
    "responsible_agency": "Department of Sanitation",
    "final_address": "6209 West End Blvd",
    "address_councildis": "A",
    "status": "Pending",
    "rowid": "1023282",
    "final_x": "3666643.17089",
    "final_y": "549082.108051",
    "longitude": "-90.11439308543811",
    "latitude": "30.00422829455396",
    "geocoded_column": {
      "latitude": "30.00422829455396",
      "longitude": "-90.11439308543811"
    }
  },
  {
    "service_request": "2023-1023281",
    "request_type": "Traffic Signals/Signs/Striping/Streetlights",
    "request_reason": "Street Light Outage/Malfunction",
    "date_created": "2023-08-03T16:01:16.000",
    "date_modified": "2023-08-03T16:01:16.000",
    "request_status": "Pending",
    "responsible_agency": "Department of Public Works",
    "final_address": "MAPLE LEAF DR & WOODLAND HWY",
    "address_councildis": "C",
    "status": "Assigned to Contractor",
    "contractor": "Legacy Professional Services",
    "rowid": "1023281",
    "final_x": "3706595.1",
    "final_y": "514923.88",
    "longitude": "-89.98944432120811",
    "latitude": "29.909076388566007",
    "geocoded_column": {
      "latitude": "29.909076388566007",
      "longitude": "-89.98944432120811"
    }
  },
  {
    "service_request": "2023-1023280",
    "request_type": "Roads/Drainage",
    "request_reason": "Pothole",
    "date_created": "2023-08-03T15:59:42.000",
    "date_modified": "2023-08-03T15:59:42.000",
    "request_status": "Pending",
    "responsible_agency": "Department of Public Works",
    "final_address": "111 S Salcedo St",
    "address_councildis": "B",
    "status": "Pending",
    "rowid": "1023280",
    "final_x": "3673942.11336",
    "final_y": "535964.564615",
    "longitude": "-90.0917833775517",
    "latitude": "29.967944056823796",
    "geocoded_column": {
      "latitude": "29.967944056823796",
      "longitude": "-90.0917833775517"
    }
  },
  {
    "service_request": "2023-1023279",
    "request_type": "Trash/Recycling",
    "request_reason": "Missed Trash Pick-Up",
    "date_created": "2023-08-03T15:57:16.000",
    "date_modified": "2023-08-03T15:57:16.000",
    "request_status": "Pending",
    "responsible_agency": "Department of Sanitation",
    "final_address": "7506 Sandy Cove Dr",
    "address_councildis": "E",
    "status": "Assigned to Contractor",
    "contractor": "Waste Pro",
    "rowid": "1023279",
    "final_x": "3715981.38418",
    "final_y": "568730.229477",
    "longitude": "-89.95778128356889",
    "latitude": "30.0567173275726",
    "geocoded_column": {
      "latitude": "30.0567173275726",
      "longitude": "-89.95778128356889"
    }
  },
  {
    "service_request": "2023-1023278",
    "request_type": "Trash/Recycling",
    "request_reason": "Missed Trash Pick-Up",
    "date_created": "2023-08-03T15:57:04.000",
    "date_modified": "2023-08-03T15:57:04.000",
    "request_status": "Pending",
    "responsible_agency": "Department of Sanitation",
    "final_address": "5800 N Rocheblave St",
    "address_councildis": "E",
    "status": "Assigned to Contractor",
    "contractor": "Waste Pro",
    "rowid": "1023278",
    "final_x": "3699961.78781",
    "final_y": "538439.619529",
    "longitude": "-90.0095225855523",
    "latitude": "29.973948700067382",
    "geocoded_column": {
      "latitude": "29.973948700067382",
      "longitude": "-90.0095225855523"
    }
  },
  {
    "service_request": "2023-1023277",
    "request_type": "Trash/Recycling",
    "request_reason": "Repair Trash Cart",
    "date_created": "2023-08-03T15:55:48.000",
    "date_modified": "2023-08-03T15:55:48.000",
    "request_status": "Pending",
    "responsible_agency": "Department of Sanitation",
    "final_address": "2026 Tennessee St",
    "address_councildis": "E",
    "status": "Assigned to Contractor",
    "contractor": "Waste Pro",
    "rowid": "1023277",
    "final_x": "3696637.76061",
    "final_y": "537915.692809",
    "longitude": "-90.02003951596807",
    "latitude": "29.972613266066727",
    "geocoded_column": {
      "latitude": "29.972613266066727",
      "longitude": "-90.02003951596807"
    }
  },
  {
    "service_request": "2023-1023276",
    "request_type": "Trash/Recycling",
    "request_reason": "Request a Large Item Pick Up",
    "date_created": "2023-08-03T15:54:01.000",
    "date_modified": "2023-08-03T15:54:02.000",
    "request_status": "Pending",
    "responsible_agency": "Department of Sanitation",
    "final_address": "4300 BLK Magnolia St",
    "address_councildis": "B",
    "status": "Assigned to Contractor",
    "contractor": "Richards Disposal",
    "rowid": "1023276",
    "final_x": "3670683.0792",
    "final_y": "524761.722574",
    "longitude": "-90.10245559029849",
    "latitude": "29.937236623020976",
    "geocoded_column": {
      "latitude": "29.937236623020976",
      "longitude": "-90.10245559029849"
    }
  },
  {
    "service_request": "2023-1023275",
    "request_type": "Trash/Recycling",
    "request_reason": "Order Trash Cart",
    "date_created": "2023-08-03T15:53:50.000",
    "date_modified": "2023-08-03T15:53:51.000",
    "request_status": "Pending",
    "responsible_agency": "Department of Sanitation",
    "final_address": "4425 Fort Macomb Rd",
    "address_councildis": "E",
    "status": "Assigned to Contractor",
    "contractor": "Waste Pro",
    "rowid": "1023275",
    "final_x": "3763407.0737",
    "final_y": "573338.465258",
    "longitude": "-89.80768623831698",
    "latitude": "30.067737118373955",
    "geocoded_column": {
      "latitude": "30.067737118373955",
      "longitude": "-89.80768623831698"
    }
  },
  {
    "service_request": "2023-1023274",
    "request_type": "Trash/Recycling",
    "request_reason": "Repair Trash Cart",
    "date_created": "2023-08-03T15:51:56.000",
    "date_modified": "2023-08-03T15:51:56.000",
    "request_status": "Pending",
    "responsible_agency": "Department of Sanitation",
    "final_address": "7213 Salem Dr",
    "address_councildis": "E",
    "status": "Assigned to Contractor",
    "contractor": "Waste Pro",
    "rowid": "1023274",
    "final_x": "3706365.49457",
    "final_y": "561589.455071",
    "longitude": "-89.98844028932238",
    "latitude": "30.037396947270107",
    "geocoded_column": {
      "latitude": "30.037396947270107",
      "longitude": "-89.98844028932238"
    }
  },
  {
    "service_request": "2023-1023273",
    "request_type": "Trash/Recycling",
    "request_reason": "Repair Trash Cart",
    "date_created": "2023-08-03T15:51:07.000",
    "date_modified": "2023-08-03T15:51:08.000",
    "request_status": "Pending",
    "responsible_agency": "Department of Sanitation",
    "final_address": "1630 Kabel Dr",
    "address_councildis": "C",
    "status": "Assigned to Contractor",
    "contractor": "Richards Disposal",
    "rowid": "1023273",
    "final_x": "3700811.34525",
    "final_y": "521730.296826",
    "longitude": "-90.00745014611554",
    "latitude": "29.92797696179449",
    "geocoded_column": {
      "latitude": "29.92797696179449",
      "longitude": "-90.00745014611554"
    }
  },
  {
    "service_request": "2023-1023272",
    "request_type": "Traffic Signals/Signs/Striping/Streetlights",
    "request_reason": "Request for Traffic Calming due to Speeding",
    "date_created": "2023-08-03T15:49:57.000",
    "date_modified": "2023-08-03T15:49:57.000",
    "request_status": "Pending",
    "responsible_agency": "Department of Public Works",
    "final_address": "2300 St Claude Ave",
    "address_councildis": "C",
    "status": "Pending",
    "rowid": "1023272",
    "final_x": "3685972.92796",
    "final_y": "536198.830855",
    "longitude": "-90.05378147430721",
    "latitude": "29.96822428536932",
    "geocoded_column": {
      "latitude": "29.96822428536932",
      "longitude": "-90.05378147430721"
    }
  },
  {
    "service_request": "2023-1023271",
    "request_type": "Trash/Recycling",
    "request_reason": "Missed Trash Pick-Up",
    "date_created": "2023-08-03T15:48:46.000",
    "date_modified": "2023-08-03T15:48:46.000",
    "request_status": "Pending",
    "responsible_agency": "Department of Sanitation",
    "final_address": "2326 Esplanade Ave",
    "address_councildis": "D",
    "status": "Assigned to Contractor",
    "contractor": "Richards Disposal",
    "rowid": "1023271",
    "final_x": "3679062.98178",
    "final_y": "538129.665161",
    "longitude": "-90.07553644592474",
    "latitude": "29.973743779404096",
    "geocoded_column": {
      "latitude": "29.973743779404096",
      "longitude": "-90.07553644592474"
    }
  },
  {
    "service_request": "2023-1023270",
    "request_type": "Trash/Recycling",
    "request_reason": "Request a Large Item Pick Up",
    "date_created": "2023-08-03T15:46:59.000",
    "date_modified": "2023-08-03T15:47:00.000",
    "request_status": "Pending",
    "responsible_agency": "Department of Sanitation",
    "final_address": "2618 Somerset Dr",
    "address_councildis": "C",
    "status": "Assigned to Contractor",
    "contractor": "Richards Disposal",
    "rowid": "1023270",
    "final_x": "3702918.71966",
    "final_y": "521343.727673",
    "longitude": "-90.00081189133125",
    "latitude": "29.926846811939484",
    "geocoded_column": {
      "latitude": "29.926846811939484",
      "longitude": "-90.00081189133125"
    }
  },
  {
    "service_request": "2023-1023269",
    "request_type": "Trash/Recycling",
    "request_reason": "MIssed Recycling Pick-Up",
    "date_created": "2023-08-03T15:44:42.000",
    "date_modified": "2023-08-03T15:44:43.000",
    "request_status": "Pending",
    "responsible_agency": "Department of Sanitation",
    "final_address": "4100 BLK Dryades St",
    "address_councildis": "B",
    "status": "Assigned to Contractor",
    "contractor": "Richards Disposal",
    "rowid": "1023269",
    "final_x": "3671667.44764",
    "final_y": "522037.573495",
    "longitude": "-90.09944048286879",
    "latitude": "29.929716979844947",
    "geocoded_column": {
      "latitude": "29.929716979844947",
      "longitude": "-90.09944048286879"
    }
  },
  {
    "service_request": "2023-1023268",
    "request_type": "Trash/Recycling",
    "request_reason": "MIssed Recycling Pick-Up",
    "date_created": "2023-08-03T15:43:06.000",
    "date_modified": "2023-08-03T15:43:06.000",
    "request_status": "Pending",
    "responsible_agency": "Department of Sanitation",
    "final_address": "4510 Chagnard Dr",
    "address_councildis": "E",
    "status": "Assigned to Contractor",
    "contractor": "Waste Pro",
    "rowid": "1023268",
    "final_x": "3784938.11884",
    "final_y": "608544.090506",
    "longitude": "-89.73807547375797",
    "latitude": "30.16372882259528",
    "geocoded_column": {
      "latitude": "30.16372882259528",
      "longitude": "-89.73807547375797"
    }
  },
  {
    "service_request": "2023-1023267",
    "request_type": "Parks & Parkways",
    "request_reason": "Request Grass Cutting Service (City Owned Property)",
    "date_created": "2023-08-03T15:41:30.000",
    "date_modified": "2023-08-03T15:41:30.000",
    "request_status": "Pending",
    "responsible_agency": "Department of Parks & Parkway",
    "final_address": "500 BLK Harrison Ave",
    "address_councildis": "A",
    "status": "Pending",
    "rowid": "1023267",
    "final_x": "3668181.80074",
    "final_y": "549366.207486",
    "longitude": "-90.10952267080343",
    "latitude": "30.004964373534268",
    "geocoded_column": {
      "latitude": "30.004964373534268",
      "longitude": "-90.10952267080343"
    }
  },
  {
    "service_request": "2023-1023266",
    "request_type": "Trash/Recycling",
    "request_reason": "Missed Trash Pick-Up",
    "date_created": "2023-08-03T15:39:40.000",
    "date_modified": "2023-08-03T15:39:40.000",
    "request_status": "Pending",
    "responsible_agency": "Department of Sanitation",
    "final_address": "1113 Ninth St",
    "address_councildis": "B",
    "status": "Assigned to Contractor",
    "contractor": "Richards Disposal",
    "rowid": "1023266",
    "final_x": "3675807.77032",
    "final_y": "520179.467384",
    "longitude": "-90.0864340280447",
    "latitude": "29.924484546528937",
    "geocoded_column": {
      "latitude": "29.924484546528937",
      "longitude": "-90.0864340280447"
    }
  },
  {
    "service_request": "2023-1023265",
    "request_type": "Trash/Recycling",
    "request_reason": "Missed Trash Pick-Up",
    "date_created": "2023-08-03T15:35:01.000",
    "date_modified": "2023-08-03T15:35:02.000",
    "request_status": "Pending",
    "responsible_agency": "Department of Sanitation",
    "final_address": "2306 Benton St",
    "address_councildis": "E",
    "status": "Assigned to Contractor",
    "contractor": "Waste Pro",
    "rowid": "1023265",
    "final_x": "3700539.35748",
    "final_y": "537941.920905",
    "longitude": "-90.0077166878517",
    "latitude": "29.97256184876461",
    "geocoded_column": {
      "latitude": "29.97256184876461",
      "longitude": "-90.0077166878517"
    }
  },
  {
    "service_request": "2023-1023264",
    "request_type": "Abandoned Vehicles",
    "request_reason": "Abandoned/Junk Vehicles",
    "date_created": "2023-08-03T15:31:52.000",
    "date_modified": "2023-08-03T15:31:52.000",
    "request_status": "Pending",
    "responsible_agency": "Department of Public Works",
    "final_address": "4834 Cardenas Dr",
    "address_councildis": "E",
    "status": "Inspected",
    "rowid": "1023264",
    "final_x": "3713570.24645",
    "final_y": "556778.979546",
    "longitude": "-89.96585326514642",
    "latitude": "30.023935569456842",
    "geocoded_column": {
      "latitude": "30.023935569456842",
      "longitude": "-89.96585326514642"
    }
  },
  {
    "service_request": "2023-1023263",
    "request_type": "Trash/Recycling",
    "request_reason": "Illegal Dumping",
    "date_created": "2023-08-03T15:29:39.000",
    "date_modified": "2023-08-03T15:29:39.000",
    "request_status": "Pending",
    "responsible_agency": "Department of Sanitation",
    "final_address": "ST MARY ST & LAUREL ST",
    "address_councildis": "B",
    "status": "Pending",
    "rowid": "1023263",
    "final_x": "3680258.26",
    "final_y": "522264.34",
    "longitude": "-90.07231292659857",
    "latitude": "29.93008334623524",
    "geocoded_column": {
      "latitude": "29.93008334623524",
      "longitude": "-90.07231292659857"
    }
  },
  {
    "service_request": "2023-1023262",
    "request_type": "Property Maintenance",
    "request_reason": "Property Maintenance",
    "date_created": "2023-08-03T15:29:24.000",
    "date_modified": "2023-08-03T15:29:24.000",
    "request_status": "Pending",
    "responsible_agency": "Department of Code Enforcement",
    "final_address": "1600 BLK Elysian Fields Ave",
    "address_councildis": "D",
    "status": "Pending",
    "rowid": "1023262",
    "final_x": "3684798.14382",
    "final_y": "538324.618348",
    "longitude": "-90.05741673221107",
    "latitude": "29.974105480968266",
    "geocoded_column": {
      "latitude": "29.974105480968266",
      "longitude": "-90.05741673221107"
    }
  },
  {
    "service_request": "2023-1023261",
    "request_type": "Trash/Recycling",
    "request_reason": "Illegal Dumping",
    "date_created": "2023-08-03T15:29:05.000",
    "date_modified": "2023-08-03T15:29:05.000",
    "request_status": "Pending",
    "responsible_agency": "Department of Sanitation",
    "final_address": "N DERBIGNY ST & NEW ORLEANS ST",
    "address_councildis": "D",
    "status": "Pending",
    "rowid": "1023261",
    "final_x": "3682235.2",
    "final_y": "538305.58",
    "longitude": "-90.0655117531538",
    "latitude": "29.97413135531496",
    "geocoded_column": {
      "latitude": "29.97413135531496",
      "longitude": "-90.0655117531538"
    }
  },
  {
    "service_request": "2023-1023260",
    "request_type": "Property Maintenance",
    "request_reason": "Property Maintenance",
    "date_created": "2023-08-03T15:26:20.000",
    "date_modified": "2023-08-03T15:26:20.000",
    "request_status": "Pending",
    "responsible_agency": "Department of Code Enforcement",
    "final_address": "132 Fairway Dr",
    "address_councildis": "A",
    "status": "Pending",
    "rowid": "1023260",
    "final_x": "3664073.89741",
    "final_y": "540610.675723",
    "longitude": "-90.12279266640125",
    "latitude": "29.98100963560136",
    "geocoded_column": {
      "latitude": "29.98100963560136",
      "longitude": "-90.12279266640125"
    }
  },
  {
    "service_request": "2023-1023259",
    "request_type": "Traffic Signals/Signs/Striping/Streetlights",
    "request_reason": "Additional signage",
    "date_created": "2023-08-03T15:25:26.000",
    "date_modified": "2023-08-03T15:25:26.000",
    "request_status": "Pending",
    "responsible_agency": "Department of Public Works",
    "final_address": "3100 BLK State Street Dr",
    "address_councildis": "A",
    "status": "Pending",
    "rowid": "1023259",
    "final_x": "3667487.60003",
    "final_y": "527812.786682",
    "longitude": "-90.11244131891864",
    "latitude": "29.945720065205688",
    "geocoded_column": {
      "latitude": "29.945720065205688",
      "longitude": "-90.11244131891864"
    }
  },
  {
    "service_request": "2023-1023258",
    "request_type": "Trash/Recycling",
    "request_reason": "Missed Trash Pick-Up",
    "date_created": "2023-08-03T15:21:21.000",
    "date_modified": "2023-08-03T15:21:22.000",
    "request_status": "Pending",
    "responsible_agency": "Department of Sanitation",
    "status": "Assigned to Contractor",
    "rowid": "1023258",
    "longitude": "0.0",
    "latitude": "0.0",
    "geocoded_column": {
      "latitude": "0.0",
      "longitude": "0.0"
    }
  },
  {
    "service_request": "2023-1023257",
    "request_type": "Trash/Recycling",
    "request_reason": "Repair Recycling Cart",
    "date_created": "2023-08-03T15:20:35.000",
    "date_modified": "2023-08-03T15:20:35.000",
    "request_status": "Pending",
    "responsible_agency": "Department of Sanitation",
    "final_address": "3027 Serantine St",
    "address_councildis": "D",
    "status": "Pending",
    "rowid": "1023257",
    "final_x": "3679165.83573",
    "final_y": "543021.065421",
    "longitude": "-90.07504196921981",
    "latitude": "29.987190328086964",
    "geocoded_column": {
      "latitude": "29.987190328086964",
      "longitude": "-90.07504196921981"
    }
  },
  {
    "service_request": "2023-1023256",
    "request_type": "Trash/Recycling",
    "request_reason": "Repair Recycling Cart",
    "date_created": "2023-08-03T15:18:40.000",
    "date_modified": "2023-08-03T15:18:40.000",
    "request_status": "Pending",
    "responsible_agency": "Department of Sanitation",
    "final_address": "3027 Serantine St",
    "address_councildis": "D",
    "status": "Pending",
    "rowid": "1023256",
    "final_x": "3679165.83573",
    "final_y": "543021.065421",
    "longitude": "-90.07504196921981",
    "latitude": "29.987190328086964",
    "geocoded_column": {
      "latitude": "29.987190328086964",
      "longitude": "-90.07504196921981"
    }
  },
  {
    "service_request": "2023-1023255",
    "request_type": "Trash/Recycling",
    "request_reason": "Order Recycling Cart",
    "date_created": "2023-08-03T15:18:05.000",
    "date_modified": "2023-08-03T15:18:05.000",
    "request_status": "Pending",
    "responsible_agency": "Department of Sanitation",
    "final_address": "5120 Royal St",
    "address_councildis": "E",
    "status": "Pending",
    "rowid": "1023255",
    "final_x": "3695995.00029",
    "final_y": "532652.012548",
    "longitude": "-90.02225966730558",
    "latitude": "29.958160256250874",
    "geocoded_column": {
      "latitude": "29.958160256250874",
      "longitude": "-90.02225966730558"
    }
  },
  {
    "service_request": "2023-1023254",
    "request_type": "Property Maintenance",
    "request_reason": "Property Maintenance",
    "date_created": "2023-08-03T15:17:49.000",
    "date_modified": "2023-08-03T15:17:50.000",
    "request_status": "Pending",
    "responsible_agency": "Department of Code Enforcement",
    "final_address": "5700 Louis Prima Ct",
    "address_councildis": "E",
    "status": "Pending",
    "rowid": "1023254",
    "final_x": "3716112.88613",
    "final_y": "561730.484191",
    "longitude": "-89.95763126531321",
    "latitude": "30.037466542596274",
    "geocoded_column": {
      "latitude": "30.037466542596274",
      "longitude": "-89.95763126531321"
    }
  },
  {
    "service_request": "2023-1023252",
    "request_type": "Traffic Signals/Signs/Striping/Streetlights",
    "request_reason": "Street Light Outage/Malfunction",
    "date_created": "2023-08-03T15:11:58.000",
    "date_modified": "2023-08-03T15:11:58.000",
    "request_status": "Pending",
    "responsible_agency": "Department of Public Works",
    "final_address": "5500 BLK Cherlyn Dr",
    "address_councildis": "A",
    "status": "Assigned to Contractor",
    "contractor": "Legacy Professional Services",
    "rowid": "1023252",
    "final_x": "3665194.59182",
    "final_y": "544871.904138",
    "longitude": "-90.11911037639342",
    "latitude": "29.992693970031958",
    "geocoded_column": {
      "latitude": "29.992693970031958",
      "longitude": "-90.11911037639342"
    }
  },
  {
    "service_request": "2023-1023250",
    "request_type": "Trash/Recycling",
    "request_reason": "Order Recycling Cart",
    "date_created": "2023-08-03T15:10:14.000",
    "date_modified": "2023-08-03T15:10:14.000",
    "request_status": "Pending",
    "responsible_agency": "Department of Sanitation",
    "final_address": "5120 Royal St",
    "address_councildis": "E",
    "status": "Pending",
    "rowid": "1023250",
    "final_x": "3695995.00029",
    "final_y": "532652.012548",
    "longitude": "-90.02225966730558",
    "latitude": "29.958160256250874",
    "geocoded_column": {
      "latitude": "29.958160256250874",
      "longitude": "-90.02225966730558"
    }
  },
  {
    "service_request": "2023-1023249",
    "request_type": "Parks & Parkways",
    "request_reason": "Request Tree Service (Right of Way/Public Property)",
    "date_created": "2023-08-03T15:07:46.000",
    "date_modified": "2023-08-03T15:07:46.000",
    "request_status": "Pending",
    "responsible_agency": "Department of Parks & Parkway",
    "final_address": "3231 Pauger St",
    "address_councildis": "D",
    "status": "Pending",
    "rowid": "1023249",
    "final_x": "3683474.41705",
    "final_y": "541634.832908",
    "longitude": "-90.06148131766462",
    "latitude": "29.98324787630903",
    "geocoded_column": {
      "latitude": "29.98324787630903",
      "longitude": "-90.06148131766462"
    }
  },
  {
    "service_request": "2023-1023248",
    "request_type": "Roads/Drainage",
    "request_reason": "Road Shoulder Repair",
    "date_created": "2023-08-03T15:04:04.000",
    "date_modified": "2023-08-03T15:04:04.000",
    "request_status": "Pending",
    "responsible_agency": "Department of Public Works",
    "final_address": "1111 Newton St",
    "address_councildis": "C",
    "status": "Pending",
    "rowid": "1023248",
    "final_x": "3688880.01903",
    "final_y": "527767.251583",
    "longitude": "-90.04490019207914",
    "latitude": "29.944950774395323",
    "geocoded_column": {
      "latitude": "29.944950774395323",
      "longitude": "-90.04490019207914"
    }
  },
  {
    "service_request": "2023-1023247",
    "request_type": "Property Maintenance",
    "request_reason": "Property Maintenance",
    "date_created": "2023-08-03T14:50:16.000",
    "date_modified": "2023-08-03T14:50:16.000",
    "request_status": "Pending",
    "responsible_agency": "Department of Code Enforcement",
    "final_address": "1319 Mithra St",
    "address_councildis": "D",
    "status": "Pending",
    "rowid": "1023247",
    "final_x": "3677163.18958",
    "final_y": "552151.81935",
    "longitude": "-90.0810524182833",
    "latitude": "30.012356993356377",
    "geocoded_column": {
      "latitude": "30.012356993356377",
      "longitude": "-90.0810524182833"
    }
  },
  {
    "service_request": "2023-1023246",
    "request_type": "Trash/Recycling",
    "request_reason": "Request a Large Item Pick Up",
    "date_created": "2023-08-03T14:46:39.000",
    "date_modified": "2023-08-03T14:46:40.000",
    "request_status": "Pending",
    "responsible_agency": "Department of Sanitation",
    "final_address": "2135 Lamanche St",
    "address_councildis": "E",
    "status": "Assigned to Contractor",
    "contractor": "Waste Pro",
    "rowid": "1023246",
    "final_x": "3699472.43594",
    "final_y": "537680.903816",
    "longitude": "-90.0110957093178",
    "latitude": "29.97187804222866",
    "geocoded_column": {
      "latitude": "29.97187804222866",
      "longitude": "-90.0110957093178"
    }
  },
  {
    "service_request": "2023-1023245",
    "request_type": "Trash/Recycling",
    "request_reason": "Request a Large Item Pick Up",
    "date_created": "2023-08-03T14:43:54.000",
    "date_modified": "2023-08-03T14:43:55.000",
    "request_status": "Pending",
    "responsible_agency": "Department of Sanitation",
    "final_address": "4701 Babylon St",
    "address_councildis": "D",
    "status": "Assigned to Contractor",
    "contractor": "Waste Pro",
    "rowid": "1023245",
    "final_x": "3696713.07255",
    "final_y": "553927.250391",
    "longitude": "-90.01922173526566",
    "latitude": "30.016636787172903",
    "geocoded_column": {
      "latitude": "30.016636787172903",
      "longitude": "-90.01922173526566"
    }
  },
  {
    "service_request": "2023-1023244",
    "request_type": "Traffic Signals/Signs/Striping/Streetlights",
    "request_reason": "Traffic Signal Malfunctioning/Damaged",
    "date_created": "2023-08-03T14:42:02.000",
    "date_modified": "2023-08-03T14:42:04.000",
    "request_status": "Pending",
    "responsible_agency": "Department of Public Works",
    "final_address": "VENDOME PL & FONTAINEBLEAU DR",
    "address_councildis": "B",
    "status": "Pending",
    "rowid": "1023244",
    "final_x": "3668682.3",
    "final_y": "529774.18",
    "longitude": "-90.10860305290439",
    "latitude": "29.951078201721245",
    "geocoded_column": {
      "latitude": "29.951078201721245",
      "longitude": "-90.10860305290439"
    }
  },
  {
    "service_request": "2023-1023243",
    "request_type": "Property Maintenance",
    "request_reason": "Property Maintenance",
    "date_created": "2023-08-03T14:41:57.000",
    "date_modified": "2023-08-03T14:41:57.000",
    "request_status": "Pending",
    "responsible_agency": "Department of Code Enforcement",
    "final_address": "1319 Mithra St",
    "address_councildis": "D",
    "status": "Pending",
    "rowid": "1023243",
    "final_x": "3677163.18958",
    "final_y": "552151.81935",
    "longitude": "-90.0810524182833",
    "latitude": "30.012356993356377",
    "geocoded_column": {
      "latitude": "30.012356993356377",
      "longitude": "-90.0810524182833"
    }
  },
  {
    "service_request": "2023-1023242",
    "request_type": "Property Maintenance",
    "request_reason": "Property Maintenance",
    "date_created": "2023-08-03T14:38:29.000",
    "date_modified": "2023-08-03T14:38:29.000",
    "request_status": "Pending",
    "responsible_agency": "Department of Code Enforcement",
    "final_address": "2105 Behrman Hwy",
    "address_councildis": "C",
    "status": "Pending",
    "rowid": "1023242",
    "final_x": "3691532.55926",
    "final_y": "521746.486458",
    "longitude": "-90.03674044509751",
    "latitude": "29.928313441432483",
    "geocoded_column": {
      "latitude": "29.928313441432483",
      "longitude": "-90.03674044509751"
    }
  },
  {
    "service_request": "2023-1023241",
    "request_type": "Trash/Recycling",
    "request_reason": "Repair Recycling Cart",
    "date_created": "2023-08-03T14:36:10.000",
    "date_modified": "2023-08-03T14:54:03.000",
    "request_status": "Pending",
    "responsible_agency": "Department of Sanitation",
    "final_address": "57 Fontainebleau Dr",
    "address_councildis": "A",
    "rowid": "1023241",
    "final_x": "3666494.82183",
    "final_y": "531209.478146",
    "longitude": "-90.11546187310358",
    "latitude": "29.955088912172002",
    "geocoded_column": {
      "latitude": "29.955088912172002",
      "longitude": "-90.11546187310358"
    }
  },
  {
    "service_request": "2023-1023240",
    "request_type": "Traffic Signals/Signs/Striping/Streetlights",
    "request_reason": "Street Name Sign Damaged or Missing",
    "date_created": "2023-08-03T14:27:17.000",
    "date_modified": "2023-08-03T14:27:17.000",
    "request_status": "Pending",
    "responsible_agency": "Department of Public Works",
    "final_address": "POYDRAS ST & PENN ST",
    "address_councildis": "B",
    "status": "Pending",
    "rowid": "1023240",
    "final_x": "3679824.5",
    "final_y": "529608.68",
    "longitude": "-90.07342730679184",
    "latitude": "29.950290962171284",
    "geocoded_column": {
      "latitude": "29.950290962171284",
      "longitude": "-90.07342730679184"
    }
  },
  {
    "service_request": "2023-1023239",
    "request_type": "Roads/Drainage",
    "request_reason": "Pothole",
    "date_created": "2023-08-03T14:26:02.000",
    "date_modified": "2023-08-03T14:26:02.000",
    "request_status": "Pending",
    "responsible_agency": "Department of Public Works",
    "final_address": "2033 Coliseum St",
    "address_councildis": "B",
    "status": "Pending",
    "rowid": "1023239",
    "final_x": "3678620.99963",
    "final_y": "523240.432379",
    "longitude": "-90.07744771708482",
    "latitude": "29.93281672349263",
    "geocoded_column": {
      "latitude": "29.93281672349263",
      "longitude": "-90.07744771708482"
    }
  },
  {
    "service_request": "2023-1023238",
    "request_type": "Trash/Recycling",
    "request_reason": "MIssed Recycling Pick-Up",
    "date_created": "2023-08-03T14:24:01.000",
    "date_modified": "2023-08-03T14:24:02.000",
    "request_status": "Pending",
    "responsible_agency": "Department of Sanitation",
    "final_address": "1920 First St",
    "address_councildis": "B",
    "status": "Assigned to Contractor",
    "contractor": "Richards Disposal",
    "rowid": "1023238",
    "final_x": "3676223.74229",
    "final_y": "524250.26182",
    "longitude": "-90.08498094781986",
    "latitude": "29.935665454076805",
    "geocoded_column": {
      "latitude": "29.935665454076805",
      "longitude": "-90.08498094781986"
    }
  },
  {
    "service_request": "2023-1023237",
    "request_type": "Trash/Recycling",
    "request_reason": "Illegal Dumping",
    "date_created": "2023-08-03T14:21:07.000",
    "date_modified": "2023-08-03T14:21:07.000",
    "request_status": "Pending",
    "responsible_agency": "Department of Sanitation",
    "final_address": "VINCENT RD & HAYNE BLVD",
    "address_councildis": "E",
    "status": "Pending",
    "rowid": "1023237",
    "final_x": "3717313.5",
    "final_y": "572894.08",
    "longitude": "-89.9534122226147",
    "latitude": "30.06812214510888",
    "geocoded_column": {
      "latitude": "30.06812214510888",
      "longitude": "-89.9534122226147"
    }
  },
  {
    "service_request": "2023-1023236",
    "request_type": "Trash/Recycling",
    "request_reason": "Replace Trash Cart",
    "date_created": "2023-08-03T14:18:18.000",
    "date_modified": "2023-08-03T14:18:19.000",
    "request_status": "Pending",
    "responsible_agency": "Department of Sanitation",
    "final_address": "6071 Vicksburg St",
    "address_councildis": "A",
    "status": "Assigned to Contractor",
    "contractor": "IV Waste",
    "rowid": "1023236",
    "final_x": "3669011.78695",
    "final_y": "547806.034514",
    "longitude": "-90.10695331903784",
    "latitude": "30.00065003984893",
    "geocoded_column": {
      "latitude": "30.00065003984893",
      "longitude": "-90.10695331903784"
    }
  },
  {
    "service_request": "2023-1023235",
    "request_type": "Trash/Recycling",
    "request_reason": "Missed Trash Pick-Up",
    "date_created": "2023-08-03T14:15:53.000",
    "date_modified": "2023-08-03T14:15:54.000",
    "request_status": "Pending",
    "responsible_agency": "Department of Sanitation",
    "final_address": "0 BLK Claiborne Dr",
    "address_councildis": "A",
    "status": "Assigned to Contractor",
    "rowid": "1023235",
    "final_x": "3674085.17443",
    "final_y": "541752.972384",
    "longitude": "-90.09113341263269",
    "latitude": "29.983855941679376",
    "geocoded_column": {
      "latitude": "29.983855941679376",
      "longitude": "-90.09113341263269"
    }
  },
  {
    "service_request": "2023-1023234",
    "request_type": "Property Maintenance",
    "request_reason": "Property Maintenance",
    "date_created": "2023-08-03T14:14:26.000",
    "date_modified": "2023-08-03T14:14:27.000",
    "request_status": "Pending",
    "responsible_agency": "Department of Code Enforcement",
    "final_address": "N MIRO ST & LAMANCHE ST",
    "address_councildis": "E",
    "status": "Pending",
    "rowid": "1023234",
    "final_x": "3699469.4",
    "final_y": "537798.08",
    "longitude": "-90.01110102696066",
    "latitude": "29.97220033077241",
    "geocoded_column": {
      "latitude": "29.97220033077241",
      "longitude": "-90.01110102696066"
    }
  },
  {
    "service_request": "2023-1023233",
    "request_type": "Property Maintenance",
    "request_reason": "Property Maintenance",
    "date_created": "2023-08-03T14:13:25.000",
    "date_modified": "2023-08-03T14:13:25.000",
    "request_status": "Pending",
    "responsible_agency": "Department of Code Enforcement",
    "final_address": "4826 Banks St",
    "address_councildis": "A",
    "status": "Pending",
    "rowid": "1023233",
    "final_x": "3667878.71098",
    "final_y": "539190.012106",
    "longitude": "-90.11082319551872",
    "latitude": "29.976992214273746",
    "geocoded_column": {
      "latitude": "29.976992214273746",
      "longitude": "-90.11082319551872"
    }
  },
  {
    "service_request": "2023-1023232",
    "request_type": "Parks & Parkways",
    "request_reason": "Request Tree Service (Right of Way/Public Property)",
    "date_created": "2023-08-03T14:09:55.000",
    "date_modified": "2023-08-03T14:09:55.000",
    "request_status": "Pending",
    "responsible_agency": "Department of Parks & Parkway",
    "final_address": "235 N Norman C Francis Prkwy",
    "address_councildis": "B",
    "status": "Pending",
    "rowid": "1023232",
    "final_x": "3673432.53128",
    "final_y": "537422.33268",
    "longitude": "-90.09334283824948",
    "latitude": "29.97196759853805",
    "geocoded_column": {
      "latitude": "29.97196759853805",
      "longitude": "-90.09334283824948"
    }
  },
  {
    "service_request": "2023-1023231",
    "request_type": "Property Maintenance",
    "request_reason": "Property Maintenance",
    "date_created": "2023-08-03T14:09:28.000",
    "date_modified": "2023-08-03T14:09:28.000",
    "request_status": "Pending",
    "responsible_agency": "Department of Code Enforcement",
    "final_address": "3402 Cherry St",
    "address_councildis": "A",
    "status": "Pending",
    "rowid": "1023231",
    "final_x": "3664127.92474",
    "final_y": "537106.422024",
    "longitude": "-90.12273895810745",
    "latitude": "29.97137253517573",
    "geocoded_column": {
      "latitude": "29.97137253517573",
      "longitude": "-90.12273895810745"
    }
  },
  {
    "service_request": "2023-1023230",
    "request_type": "Trash/Recycling",
    "request_reason": "Missed Trash Pick-Up",
    "date_created": "2023-08-03T14:05:50.000",
    "date_modified": "2023-08-03T14:05:51.000",
    "request_status": "Pending",
    "responsible_agency": "Department of Sanitation",
    "final_address": "4001 Magnolia St",
    "address_councildis": "B",
    "status": "Assigned to Contractor",
    "contractor": "Richards Disposal",
    "rowid": "1023230",
    "final_x": "3671678.14695",
    "final_y": "524892.023292",
    "longitude": "-90.0993096621004",
    "latitude": "29.93756547857811",
    "geocoded_column": {
      "latitude": "29.93756547857811",
      "longitude": "-90.0993096621004"
    }
  },
  {
    "service_request": "2023-1023229",
    "request_type": "Roads/Drainage",
    "request_reason": "Street Subsidence (Sinking)",
    "date_created": "2023-08-03T14:04:51.000",
    "date_modified": "2023-08-03T14:06:14.000",
    "request_status": "Pending",
    "responsible_agency": "Department of Public Works",
    "final_address": "PALMETTO ST & LIVE OAK ST",
    "address_councildis": "A",
    "status": "Pending",
    "rowid": "1023229",
    "final_x": "3664730.0",
    "final_y": "538213.78",
    "longitude": "-90.1208005030649",
    "latitude": "29.97439989750398",
    "geocoded_column": {
      "latitude": "29.97439989750398",
      "longitude": "-90.1208005030649"
    }
  },
  {
    "service_request": "2023-1023228",
    "request_type": "Traffic Signals/Signs/Striping/Streetlights",
    "request_reason": "Traffic Sign Missing/Damaged",
    "date_created": "2023-08-03T14:03:29.000",
    "date_modified": "2023-08-03T14:03:29.000",
    "request_status": "Pending",
    "responsible_agency": "Department of Public Works",
    "final_address": "3102 Arts St",
    "address_councildis": "D",
    "status": "Pending",
    "rowid": "1023228",
    "final_x": "3686533.36118",
    "final_y": "544257.493774",
    "longitude": "-90.05172695629226",
    "latitude": "29.990365546028794",
    "geocoded_column": {
      "latitude": "29.990365546028794",
      "longitude": "-90.05172695629226"
    }
  },
  {
    "service_request": "2023-1023227",
    "request_type": "Trash/Recycling",
    "request_reason": "Missed Trash Pick-Up",
    "date_created": "2023-08-03T13:57:05.000",
    "date_modified": "2023-08-03T13:57:05.000",
    "request_status": "Pending",
    "responsible_agency": "Department of Sanitation",
    "final_address": "6519 E Hermes St",
    "address_councildis": "D",
    "status": "Assigned to Contractor",
    "contractor": "Waste Pro",
    "rowid": "1023227",
    "final_x": "3698031.80682",
    "final_y": "555458.326873",
    "longitude": "-90.0149994610959",
    "latitude": "30.02080501578286",
    "geocoded_column": {
      "latitude": "30.02080501578286",
      "longitude": "-90.0149994610959"
    }
  },
  {
    "service_request": "2023-1023226",
    "request_type": "Trash/Recycling",
    "request_reason": "Missed Trash Pick-Up",
    "date_created": "2023-08-03T13:53:21.000",
    "date_modified": "2023-08-03T13:53:21.000",
    "request_status": "Pending",
    "responsible_agency": "Department of Sanitation",
    "final_address": "927 Eighth St",
    "address_councildis": "B",
    "status": "Assigned to Contractor",
    "contractor": "Richards Disposal",
    "rowid": "1023226",
    "final_x": "3676415.81563",
    "final_y": "519812.769144",
    "longitude": "-90.08452725032687",
    "latitude": "29.92345803703147",
    "geocoded_column": {
      "latitude": "29.92345803703147",
      "longitude": "-90.08452725032687"
    }
  },
  {
    "service_request": "2023-1023224",
    "request_type": "Abandoned Vehicles",
    "request_reason": "Abandoned/Junk Vehicles",
    "date_created": "2023-08-03T13:49:06.000",
    "date_modified": "2023-08-03T13:51:12.000",
    "request_status": "Pending",
    "responsible_agency": "Department of Public Works",
    "final_address": "3600 BLK Hollygrove St",
    "address_councildis": "A",
    "status": "Pending",
    "rowid": "1023224",
    "final_x": "3665479.37603",
    "final_y": "536952.39734",
    "longitude": "-90.11847602245061",
    "latitude": "29.97090968889377",
    "geocoded_column": {
      "latitude": "29.97090968889377",
      "longitude": "-90.11847602245061"
    }
  },
  {
    "service_request": "2023-1023223",
    "request_type": "Trash/Recycling",
    "request_reason": "MIssed Recycling Pick-Up",
    "date_created": "2023-08-03T13:48:44.000",
    "date_modified": "2023-08-03T14:31:26.000",
    "case_close_date": "2023-08-03T09:31:26.000",
    "request_status": "Closed",
    "responsible_agency": "Department of Sanitation",
    "final_address": "737 Montegut St",
    "address_councildis": "C",
    "status": "Invalid Request",
    "contractor": "IV Waste",
    "contractor_action": "Invalid Pick-Up",
    "rowid": "1023223",
    "final_x": "3688158.32156",
    "final_y": "534931.256006",
    "longitude": "-90.04692486821101",
    "latitude": "29.964671612902013",
    "geocoded_column": {
      "latitude": "29.964671612902013",
      "longitude": "-90.04692486821101"
    }
  },
  {
    "service_request": "2023-1023222",
    "request_type": "Trash/Recycling",
    "request_reason": "Order Trash Cart",
    "date_created": "2023-08-03T13:48:18.000",
    "date_modified": "2023-08-03T13:48:19.000",
    "request_status": "Pending",
    "responsible_agency": "Department of Sanitation",
    "final_address": "4400 Francis Dr",
    "address_councildis": "D",
    "status": "Assigned to Contractor",
    "contractor": "Waste Pro",
    "rowid": "1023222",
    "final_x": "3698374.11997",
    "final_y": "552469.461462",
    "longitude": "-90.01402659418913",
    "latitude": "30.012575933607966",
    "geocoded_column": {
      "latitude": "30.012575933607966",
      "longitude": "-90.01402659418913"
    }
  },
  {
    "service_request": "2023-1023221",
    "request_type": "Trash/Recycling",
    "request_reason": "Request a Large Item Pick Up",
    "date_created": "2023-08-03T13:47:11.000",
    "date_modified": "2023-08-03T13:47:11.000",
    "request_status": "Pending",
    "responsible_agency": "Department of Sanitation",
    "final_address": "1311 St Maurice Ave",
    "address_councildis": "E",
    "status": "Assigned to Contractor",
    "contractor": "Waste Pro",
    "rowid": "1023221",
    "final_x": "3700209.66807",
    "final_y": "533928.561093",
    "longitude": "-90.00890440325131",
    "latitude": "29.961537035956937",
    "geocoded_column": {
      "latitude": "29.961537035956937",
      "longitude": "-90.00890440325131"
    }
  },
  {
    "service_request": "2023-1023220",
    "request_type": "Parks & Parkways",
    "request_reason": "Request Tree Service (Right of Way/Public Property)",
    "date_created": "2023-08-03T13:46:02.000",
    "date_modified": "2023-08-03T13:47:43.000",
    "request_status": "Pending",
    "responsible_agency": "Department of Parks & Parkway",
    "final_address": "1527 Pace Blvd",
    "address_councildis": "C",
    "status": "Pending",
    "rowid": "1023220",
    "final_x": "3694292.17558",
    "final_y": "525442.921853",
    "longitude": "-90.02789604302683",
    "latitude": "29.93839122389574",
    "geocoded_column": {
      "latitude": "29.93839122389574",
      "longitude": "-90.02789604302683"
    }
  },
  {
    "service_request": "2023-1023219",
    "request_type": "Trash/Recycling",
    "request_reason": "Illegal Dumping",
    "date_created": "2023-08-03T13:45:57.000",
    "date_modified": "2023-08-03T13:45:57.000",
    "request_status": "Pending",
    "responsible_agency": "Department of Sanitation",
    "final_address": "2723 Spain St",
    "address_councildis": "D",
    "status": "Pending",
    "rowid": "1023219",
    "final_x": "3685654.38498",
    "final_y": "542859.709069",
    "longitude": "-90.05455268625687",
    "latitude": "29.986549138361887",
    "geocoded_column": {
      "latitude": "29.986549138361887",
      "longitude": "-90.05455268625687"
    }
  },
  {
    "service_request": "2023-1023218",
    "request_type": "Roads/Drainage",
    "request_reason": "Debris in Roadway",
    "date_created": "2023-08-03T13:39:20.000",
    "date_modified": "2023-08-03T13:39:20.000",
    "request_status": "Pending",
    "responsible_agency": "Department of Public Works",
    "final_address": "4000 BLK Hamilton St",
    "address_councildis": "A",
    "status": "Pending",
    "rowid": "1023218",
    "final_x": "3666169.81329",
    "final_y": "538232.830802",
    "longitude": "-90.11625257305282",
    "latitude": "29.97441030804364",
    "geocoded_column": {
      "latitude": "29.97441030804364",
      "longitude": "-90.11625257305282"
    }
  },
  {
    "service_request": "2023-1023217",
    "request_type": "Property Maintenance",
    "request_reason": "Property Maintenance",
    "date_created": "2023-08-03T13:38:38.000",
    "date_modified": "2023-08-03T13:38:38.000",
    "request_status": "Pending",
    "responsible_agency": "Department of Code Enforcement",
    "final_address": "2810 St Roch Ave",
    "address_councildis": "D",
    "status": "Pending",
    "rowid": "1023217",
    "final_x": "3685867.65558",
    "final_y": "543146.162253",
    "longitude": "-90.05386894314101",
    "latitude": "29.987330236584345",
    "geocoded_column": {
      "latitude": "29.987330236584345",
      "longitude": "-90.05386894314101"
    }
  },
  {
    "service_request": "2023-1023216",
    "request_type": "Trash/Recycling",
    "request_reason": "Request a Large Item Pick Up",
    "date_created": "2023-08-03T13:36:24.000",
    "date_modified": "2023-08-03T13:36:24.000",
    "request_status": "Pending",
    "responsible_agency": "Department of Sanitation",
    "final_address": "2001 General Taylor St",
    "address_councildis": "B",
    "status": "Assigned to Contractor",
    "contractor": "Richards Disposal",
    "rowid": "1023216",
    "final_x": "3672329.33371",
    "final_y": "522488.982522",
    "longitude": "-90.09733564900115",
    "latitude": "29.93093859439635",
    "geocoded_column": {
      "latitude": "29.93093859439635",
      "longitude": "-90.09733564900115"
    }
  },
  {
    "service_request": "2023-1023215",
    "request_type": "Roads/Drainage",
    "request_reason": "Debris in Roadway",
    "date_created": "2023-08-03T13:32:23.000",
    "date_modified": "2023-08-03T13:32:24.000",
    "request_status": "Pending",
    "responsible_agency": "Department of Public Works",
    "final_address": "4502 Prytania St",
    "address_councildis": "B",
    "status": "Pending",
    "rowid": "1023215",
    "final_x": "3670461.29012",
    "final_y": "520233.03148",
    "longitude": "-90.1033092719137",
    "latitude": "29.924790724753944",
    "geocoded_column": {
      "latitude": "29.924790724753944",
      "longitude": "-90.1033092719137"
    }
  },
  {
    "service_request": "2023-1023213",
    "request_type": "Trash/Recycling",
    "request_reason": "Replace Recycling Cart",
    "date_created": "2023-08-03T13:30:36.000",
    "date_modified": "2023-08-03T13:30:36.000",
    "request_status": "Pending",
    "responsible_agency": "Department of Sanitation",
    "final_address": "419 14Th St",
    "address_councildis": "A",
    "status": "Pending",
    "rowid": "1023213",
    "final_x": "3664623.24704",
    "final_y": "548199.27637",
    "longitude": "-90.12080393498131",
    "latitude": "30.001859740889465",
    "geocoded_column": {
      "latitude": "30.001859740889465",
      "longitude": "-90.12080393498131"
    }
  },