[
  {
    "service_request": "2024-1142045",
    "request_type": "Property Maintenance",
    "request_reason": "Property Maintenance",
    "date_created": "2024-10-17T23:05:37.000",
    "date_modified": "2024-10-17T23:05:37.000",
    "request_status": "Pending",
    "responsible_agency": "Department of Code Enforcement",
    "final_address": "1030 Henriette Delille St",
    "address_councildis": "C",
    "status": "Pending",
    "rowid": "1142045",
    "final_x": "3681929.02901",
    "final_y": "534664.18951",
    "longitude": "-90.06660584706263",
    "latitude": "29.96412809813914",
    "geocoded_column": {
      "latitude": "29.96412809813914",
      "longitude": "-90.06660584706263"
    }
  },
  {
    "service_request": "2024-1142044",
    "request_type": "Abandoned Vehicles",
    "request_reason": "Abandoned/Junk Vehicles",
    "date_created": "2024-10-17T22:27:09.000",
    "date_modified": "2024-10-17T22:27:09.000",
    "request_status": "Pending",
    "responsible_agency": "Department of Public Works",
    "final_address": "1827 Second St",
    "address_councildis": "B",
    "status": "Pending",
    "rowid": "1142044",
    "final_x": "3676174.33006",
    "final_y": "523889.306172",
    "longitude": "-90.0851493562218",
    "latitude": "29.934674424226255",
    "geocoded_column": {
      "latitude": "29.934674424226255",
      "longitude": "-90.0851493562218"
    }
  },
  {
    "service_request": "2024-1142043",
    "request_type": "Abandoned Vehicles",
    "request_reason": "Abandoned/Junk Vehicles",
    "date_created": "2024-10-17T22:25:02.000",
    "date_modified": "2024-10-17T22:25:02.000",
    "request_status": "Pending",
    "responsible_agency": "Department of Public Works",
    "final_address": "1830 Second St",
    "address_councildis": "B",
    "status": "Pending",
    "rowid": "1142043",
    "final_x": "3676112.52366",
    "final_y": "523868.89158",
    "longitude": "-90.08534517998706",
    "latitude": "29.934620141890427",
    "geocoded_column": {
      "latitude": "29.934620141890427",
      "longitude": "-90.08534517998706"
    }
  },
  {
    "service_request": "2024-1142042",
    "request_type": "Abandoned Vehicles",
    "request_reason": "Abandoned/Junk Vehicles",
    "date_created": "2024-10-17T22:23:53.000",
    "date_modified": "2024-10-17T22:23:53.000",
    "request_status": "Pending",
    "responsible_agency": "Department of Public Works",
    "final_address": "1830 Second St",
    "address_councildis": "B",
    "status": "Pending",
    "rowid": "1142042",
    "final_x": "3676112.52366",
    "final_y": "523868.89158",
    "longitude": "-90.08534517998706",
    "latitude": "29.934620141890427",
    "geocoded_column": {
      "latitude": "29.934620141890427",
      "longitude": "-90.08534517998706"
    }
  },
  {
    "service_request": "2024-1142041",
    "request_type": "Streetlights",
    "request_reason": "Streetlight Outage/Malfunction",
    "date_created": "2024-10-17T22:15:53.000",
    "date_modified": "2024-10-17T22:15:54.000",
    "request_status": "Pending",
    "responsible_agency": "Department of Public Works",
    "final_address": "1615 Burdette St",
    "address_councildis": "A",
    "status": "Pending",
    "contractor": "Legacy Professional Services",
    "rowid": "1142041",
    "final_x": "3663862.43495",
    "final_y": "528727.590848",
    "longitude": "-90.12385672819248",
    "latitude": "29.948341193777864",
    "geocoded_column": {
      "latitude": "29.948341193777864",
      "longitude": "-90.12385672819248"
    }
  },
  {
    "service_request": "2024-1142040",
    "request_type": "Street and Traffic Signs",
    "request_reason": "Street Name Sign Damaged or Missing",
    "date_created": "2024-10-17T21:19:43.000",
    "date_modified": "2024-10-17T21:19:43.000",
    "request_status": "Pending",
    "responsible_agency": "Department of Public Works",
    "final_address": "BARONNE ST & TOLEDANO ST",
    "address_councildis": "B",
    "status": "Pending",
    "rowid": "1142040",
    "final_x": "3674275.1",
    "final_y": "522379.88",
    "longitude": "-90.09119685580025",
    "latitude": "29.930580742497437",
    "geocoded_column": {
      "latitude": "29.930580742497437",
      "longitude": "-90.09119685580025"
    }
  },
  {
    "service_request": "2024-1142039",
    "request_type": "Streetlights",
    "request_reason": "Streetlight Outage/Malfunction",
    "date_created": "2024-10-17T21:19:12.000",
    "date_modified": "2024-10-17T21:19:14.000",
    "request_status": "Pending",
    "responsible_agency": "Department of Public Works",
    "final_address": "1615 Burdette St",
    "address_councildis": "A",
    "status": "Pending",
    "contractor": "Legacy Professional Services",
    "rowid": "1142039",
    "final_x": "3663862.43495",
    "final_y": "528727.590848",
    "longitude": "-90.12385672819248",
    "latitude": "29.948341193777864",
    "geocoded_column": {
      "latitude": "29.948341193777864",
      "longitude": "-90.12385672819248"
    }
  },
  {
    "service_request": "2024-1142038",
    "request_type": "Street and Traffic Signs",
    "request_reason": "Street Name Sign Damaged or Missing",
    "date_created": "2024-10-17T21:18:09.000",
    "date_modified": "2024-10-17T21:18:09.000",
    "request_status": "Pending",
    "responsible_agency": "Department of Public Works",
    "final_address": "7TH ST & BARONNE ST",
    "address_councildis": "B",
    "status": "Pending",
    "rowid": "1142038",
    "final_x": "3674836.2",
    "final_y": "522698.18",
    "longitude": "-90.08941463560566",
    "latitude": "29.93143922729399",
    "geocoded_column": {
      "latitude": "29.93143922729399",
      "longitude": "-90.08941463560566"
    }
  },
  {
    "service_request": "2024-1142037",
    "request_type": "Street and Traffic Signs",
    "request_reason": "Street Name Sign Damaged or Missing",
    "date_created": "2024-10-17T21:15:57.000",
    "date_modified": "2024-10-17T21:15:57.000",
    "request_status": "Pending",
    "responsible_agency": "Department of Public Works",
    "final_address": "2ND ST & BARONNE ST",
    "address_councildis": "B",
    "status": "Pending",
    "rowid": "1142037",
    "final_x": "3676289.5",
    "final_y": "523659.68",
    "longitude": "-90.08479366555538",
    "latitude": "29.93403957715643",
    "geocoded_column": {
      "latitude": "29.93403957715643",
      "longitude": "-90.08479366555538"
    }
  },
  {
    "service_request": "2024-1142036",
    "request_type": "Street and Traffic Signs",
    "request_reason": "Street Name Sign Damaged or Missing",
    "date_created": "2024-10-17T21:13:31.000",
    "date_modified": "2024-10-17T21:13:31.000",
    "request_status": "Pending",
    "responsible_agency": "Department of Public Works",
    "final_address": "1ST ST & COLISEUM ST",
    "address_councildis": "B",
    "status": "Pending",
    "rowid": "1142036",
    "final_x": "3677506.9",
    "final_y": "522368.38",
    "longitude": "-90.080994933809",
    "latitude": "29.93045239361488",
    "geocoded_column": {
      "latitude": "29.93045239361488",
      "longitude": "-90.080994933809"
    }
  },
  {
    "service_request": "2024-1142035",
    "request_type": "Street and Traffic Signs",
    "request_reason": "Traffic or Parking Sign Damaged or Missing",
    "date_created": "2024-10-17T21:12:48.000",
    "date_modified": "2024-10-17T21:12:48.000",
    "request_status": "Pending",
    "responsible_agency": "Department of Public Works",
    "final_address": "CLIO ST & ST CHARLES AVE",
    "address_councildis": "B",
    "status": "Pending",
    "rowid": "1142035",
    "final_x": "3679706.2",
    "final_y": "526368.98",
    "longitude": "-90.07391326837957",
    "latitude": "29.941386445126852",
    "geocoded_column": {
      "latitude": "29.941386445126852",
      "longitude": "-90.07391326837957"
    }
  },
  {
    "service_request": "2024-1142034",
    "request_type": "Parks & Parkways",
    "request_reason": "Request Tree Service (Right of Way/Public Property)",
    "date_created": "2024-10-17T20:32:38.000",
    "date_modified": "2024-10-17T20:32:38.000",
    "request_status": "Pending",
    "responsible_agency": "Department of Parks & Parkway",
    "final_address": "1000 BLK General Taylor St",
    "address_councildis": "B",
    "status": "Pending",
    "rowid": "1142034",
    "final_x": "3672988.00012",
    "final_y": "519531.59327",
    "longitude": "-90.09535719324596",
    "latitude": "29.92278717184743",
    "geocoded_column": {
      "latitude": "29.92278717184743",
      "longitude": "-90.09535719324596"
    }
  },
  {
    "service_request": "2024-1142033",
    "request_type": "General Services",
    "request_reason": "General Service Request",
    "date_created": "2024-10-17T20:00:34.000",
    "date_modified": "2024-10-17T20:00:34.000",
    "request_status": "Pending",
    "responsible_agency": "Orleans Parish Communication District",
    "final_address": "2814 Seine St",
    "address_councildis": "C",
    "status": "Pending",
    "rowid": "1142033",
    "final_x": "3693417.14537",
    "final_y": "521015.798969",
    "longitude": "-90.03081746734189",
    "latitude": "29.926245526240336",
    "geocoded_column": {
      "latitude": "29.926245526240336",
      "longitude": "-90.03081746734189"
    }
  },
  {
    "service_request": "2024-1142032",
    "request_type": "Property Maintenance",
    "request_reason": "Property Maintenance",
    "date_created": "2024-10-17T19:48:28.000",
    "date_modified": "2024-10-17T19:48:28.000",
    "request_status": "Pending",
    "responsible_agency": "Department of Code Enforcement",
    "final_address": "830 Deslonde St",
    "address_councildis": "E",
    "status": "Pending",
    "rowid": "1142032",
    "final_x": "3695096.40342",
    "final_y": "533527.162116",
    "longitude": "-90.02506562237743",
    "latitude": "29.960594850123556",
    "geocoded_column": {
      "latitude": "29.960594850123556",
      "longitude": "-90.02506562237743"
    }
  },
  {
    "service_request": "2024-1142031",
    "request_type": "Abandoned Vehicles",
    "request_reason": "Abandoned/Junk Vehicles",
    "date_created": "2024-10-17T19:14:55.000",
    "date_modified": "2024-10-17T19:14:55.000",
    "request_status": "Pending",
    "responsible_agency": "Department of Public Works",
    "final_address": "800 BLK Pelican Ave",
    "address_councildis": "C",
    "status": "Pending",
    "rowid": "1142031",
    "final_x": "3688072.48602",
    "final_y": "530762.656438",
    "longitude": "-90.04734367269806",
    "latitude": "29.95321205569076",
    "geocoded_column": {
      "latitude": "29.95321205569076",
      "longitude": "-90.04734367269806"
    }
  },
  {
    "service_request": "2024-1142030",
    "request_type": "Street and Traffic Signs",
    "request_reason": "Additional Signage Request",
    "date_created": "2024-10-17T19:01:45.000",
    "date_modified": "2024-10-17T19:01:45.000",
    "request_status": "Pending",
    "responsible_agency": "Department of Public Works",
    "final_address": "3528 Clematis St",
    "address_councildis": "D",
    "status": "Pending",
    "rowid": "1142030",
    "final_x": "3686403.68834",
    "final_y": "545946.01384",
    "longitude": "-90.05207691939151",
    "latitude": "29.995012359009692",
    "geocoded_column": {
      "latitude": "29.995012359009692",
      "longitude": "-90.05207691939151"
    }
  },
  {
    "service_request": "2024-1142029",
    "request_type": "Street and Traffic Signs",
    "request_reason": "Additional Signage Request",
    "date_created": "2024-10-17T19:00:11.000",
    "date_modified": "2024-10-17T19:00:11.000",
    "request_status": "Pending",
    "responsible_agency": "Department of Public Works",
    "final_address": "3528 Clematis St",
    "address_councildis": "D",
    "status": "Pending",
    "rowid": "1142029",
    "final_x": "3686403.68834",
    "final_y": "545946.01384",
    "longitude": "-90.05207691939151",
    "latitude": "29.995012359009692",
    "geocoded_column": {
      "latitude": "29.995012359009692",
      "longitude": "-90.05207691939151"
    }
  },
  {
    "service_request": "2024-1142028",
    "request_type": "Abandoned Vehicles",
    "request_reason": "Abandoned/Junk Vehicles",
    "date_created": "2024-10-17T18:51:14.000",
    "date_modified": "2024-10-17T18:51:14.000",
    "request_status": "Pending",
    "responsible_agency": "Department of Public Works",
    "final_address": "1305 Barracks St",
    "address_councildis": "C",
    "status": "Pending",
    "rowid": "1142028",
    "final_x": "3682103.53743",
    "final_y": "535608.329862",
    "longitude": "-90.06602178929235",
    "latitude": "29.966718854085766",
    "geocoded_column": {
      "latitude": "29.966718854085766",
      "longitude": "-90.06602178929235"
    }
  },
  {
    "service_request": "2024-1142027",
    "request_type": "Trash/Recycling",
    "request_reason": "Illegal Dumping",
    "date_created": "2024-10-17T18:45:06.000",
    "date_modified": "2024-10-17T18:45:06.000",
    "request_status": "Pending",
    "responsible_agency": "Department of Sanitation",
    "final_address": "MARENGO ST & TCHOUPITOULAS ST",
    "address_councildis": "B",
    "status": "Pending",
    "rowid": "1142027",
    "final_x": "3672294.2",
    "final_y": "517576.08",
    "longitude": "-90.09761382071339",
    "latitude": "29.917430726080497",
    "geocoded_column": {
      "latitude": "29.917430726080497",
      "longitude": "-90.09761382071339"
    }
  },
  {
    "service_request": "2024-1142026",
    "request_type": "Trash/Recycling",
    "request_reason": "MIssed Recycling Pick-Up",
    "date_created": "2024-10-17T18:38:42.000",
    "date_modified": "2024-10-17T18:38:43.000",
    "request_status": "Pending",
    "responsible_agency": "Department of Sanitation",
    "final_address": "413 Constantinople St",
    "address_councildis": "B",
    "status": "Assigned to Contractor",
    "contractor": "IV Waste",
    "rowid": "1142026",
    "final_x": "3672691.84276",
    "final_y": "517475.15071",
    "longitude": "-90.09636212350053",
    "latitude": "29.917141405070293",
    "geocoded_column": {
      "latitude": "29.917141405070293",
      "longitude": "-90.09636212350053"
    }
  },
  {
    "service_request": "2024-1142025",
    "request_type": "Trash/Recycling",
    "request_reason": "Request a Large Item Pick Up",
    "date_created": "2024-10-17T18:36:01.000",
    "date_modified": "2024-10-17T18:36:02.000",
    "request_status": "Pending",
    "responsible_agency": "Department of Sanitation",
    "final_address": "7220 Thornley Dr",
    "address_councildis": "E",
    "status": "Assigned to Contractor",
    "contractor": "Waste Pro",
    "rowid": "1142025",
    "final_x": "3702894.56247",
    "final_y": "560033.846749",
    "longitude": "-89.99946639193918",
    "latitude": "30.033231192157377",
    "geocoded_column": {
      "latitude": "30.033231192157377",
      "longitude": "-89.99946639193918"
    }
  },
  {
    "service_request": "2024-1142024",
    "request_type": "Trash/Recycling",
    "request_reason": "General Service Request",
    "date_created": "2024-10-17T18:17:53.000",
    "date_modified": "2024-10-17T18:17:53.000",
    "request_status": "Pending",
    "responsible_agency": "Orleans Parish Communication District",
    "final_address": "2013 Burdette St",
    "address_councildis": "A",
    "status": "Pending",
    "rowid": "1142024",
    "final_x": "3664808.34701",
    "final_y": "529757.073665",
    "longitude": "-90.12083568388132",
    "latitude": "29.951144450953368",
    "geocoded_column": {
      "latitude": "29.951144450953368",
      "longitude": "-90.12083568388132"
    }
  },
  {
    "service_request": "2024-1142023",
    "request_type": "Abandoned Vehicles",
    "request_reason": "Abandoned/Junk Vehicles",
    "date_created": "2024-10-17T18:02:56.000",
    "date_modified": "2024-10-17T18:02:56.000",
    "request_status": "Pending",
    "responsible_agency": "Department of Public Works",
    "final_address": "9108 Forshey St",
    "address_councildis": "A",
    "status": "Pending",
    "rowid": "1142023",
    "final_x": "3664303.92602",
    "final_y": "536332.119623",
    "longitude": "-90.12220896539623",
    "latitude": "29.96923834558525",
    "geocoded_column": {
      "latitude": "29.96923834558525",
      "longitude": "-90.12220896539623"
    }
  },
  {
    "service_request": "2024-1142022",
    "request_type": "Abandoned Vehicles",
    "request_reason": "Abandoned/Junk Vehicles",
    "date_created": "2024-10-17T18:00:35.000",
    "date_modified": "2024-10-17T18:00:35.000",
    "request_status": "Pending",
    "responsible_agency": "Department of Public Works",
    "final_address": "9108 Forshey St",
    "address_councildis": "A",
    "status": "Pending",
    "rowid": "1142022",
    "final_x": "3664303.92602",
    "final_y": "536332.119623",
    "longitude": "-90.12220896539623",
    "latitude": "29.96923834558525",
    "geocoded_column": {
      "latitude": "29.96923834558525",
      "longitude": "-90.12220896539623"
    }
  },
  {
    "service_request": "2024-1142021",
    "request_type": "Drainage",
    "request_reason": "Catch Basin Clogged",
    "date_created": "2024-10-17T17:57:26.000",
    "date_modified": "2024-10-17T17:57:26.000",
    "request_status": "Pending",
    "responsible_agency": "Department of Public Works",
    "final_address": "1440 Magazine St",
    "address_councildis": "B",
    "status": "Pending",
    "rowid": "1142021",
    "final_x": "3680317.01781",
    "final_y": "524161.851132",
    "longitude": "-90.07206150215748",
    "latitude": "29.93529909829683",
    "geocoded_column": {
      "latitude": "29.93529909829683",
      "longitude": "-90.07206150215748"
    }
  },
  {
    "service_request": "2024-1142020",
    "request_type": "Trash/Recycling",
    "request_reason": "Missed Trash Pick-Up",
    "date_created": "2024-10-17T17:40:28.000",
    "date_modified": "2024-10-17T17:40:29.000",
    "request_status": "Pending",
    "responsible_agency": "Department of Sanitation",
    "final_address": "1406 Arts St",
    "address_councildis": "C",
    "status": "Assigned to Contractor",
    "contractor": "IV Waste",
    "rowid": "1142020",
    "final_x": "3687089.56457",
    "final_y": "537661.927496",
    "longitude": "-90.05020335544829",
    "latitude": "29.972212955942464",
    "geocoded_column": {
      "latitude": "29.972212955942464",
      "longitude": "-90.05020335544829"
    }
  },
  {
    "service_request": "2024-1142019",
    "request_type": "Parks & Parkways",
    "request_reason": "Request Tree Service (Right of Way/Public Property)",
    "date_created": "2024-10-17T17:39:05.000",
    "date_modified": "2024-10-17T17:39:05.000",
    "request_status": "Pending",
    "responsible_agency": "Department of Parks & Parkway",
    "final_address": "5515 Marcia Ave",
    "address_councildis": "A",
    "status": "Pending",
    "rowid": "1142019",
    "final_x": "3664924.72576",
    "final_y": "544436.276239",
    "longitude": "-90.11997740912501",
    "latitude": "29.99150400191586",
    "geocoded_column": {
      "latitude": "29.99150400191586",
      "longitude": "-90.11997740912501"
    }
  },
  {
    "service_request": "2024-1142018",
    "request_type": "Trash/Recycling",
    "request_reason": "Request a Large Item Pick Up",
    "date_created": "2024-10-17T17:37:06.000",
    "date_modified": "2024-10-17T17:37:07.000",
    "request_status": "Pending",
    "responsible_agency": "Department of Sanitation",
    "final_address": "613 Philip St",
    "address_councildis": "B",
    "status": "Assigned to Contractor",
    "contractor": "IV Waste",
    "rowid": "1142018",
    "final_x": "3679607.55874",
    "final_y": "520512.309688",
    "longitude": "-90.07442784981517",
    "latitude": "29.92528551072822",
    "geocoded_column": {
      "latitude": "29.92528551072822",
      "longitude": "-90.07442784981517"
    }
  },
  {
    "service_request": "2024-1142017",
    "request_type": "Trash/Recycling",
    "request_reason": "Order Recycling Cart",
    "date_created": "2024-10-17T17:11:22.000",
    "date_modified": "2024-10-17T17:11:22.000",
    "request_status": "Pending",
    "responsible_agency": "Department of Sanitation",
    "final_address": "1335 Independence St",
    "address_councildis": "D",
    "status": "Pending",
    "rowid": "1142017",
    "final_x": "3691248.74006",
    "final_y": "536506.758663",
    "longitude": "-90.03710929527156",
    "latitude": "29.968907928766605",
    "geocoded_column": {
      "latitude": "29.968907928766605",
      "longitude": "-90.03710929527156"
    }
  },
  {
    "service_request": "2024-1142016",
    "request_type": "Trash/Recycling",
    "request_reason": "Repair Trash Cart",
    "date_created": "2024-10-17T16:58:15.000",
    "date_modified": "2024-10-17T16:58:16.000",
    "request_status": "Pending",
    "responsible_agency": "Department of Sanitation",
    "final_address": "8826 Pritchard Pl",
    "address_councildis": "A",
    "status": "Assigned to Contractor",
    "contractor": "IV Waste",
    "rowid": "1142016",
    "final_x": "3664046.44954",
    "final_y": "534678.07399",
    "longitude": "-90.12307727166892",
    "latitude": "29.96469774526731",
    "geocoded_column": {
      "latitude": "29.96469774526731",
      "longitude": "-90.12307727166892"
    }
  },
  {
    "service_request": "2024-1142015",
    "request_type": "Trash/Recycling",
    "request_reason": "Replace Trash Cart",
    "date_created": "2024-10-17T16:55:49.000",
    "date_modified": "2024-10-17T16:55:50.000",
    "request_status": "Pending",
    "responsible_agency": "Department of Sanitation",
    "final_address": "2519 General Pershing St",
    "address_councildis": "B",
    "status": "Assigned to Contractor",
    "contractor": "IV Waste",
    "rowid": "1142015",
    "final_x": "3670961.8331",
    "final_y": "524280.44838",
    "longitude": "-90.10159187791244",
    "latitude": "29.935905037976166",
    "geocoded_column": {
      "latitude": "29.935905037976166",
      "longitude": "-90.10159187791244"
    }
  },
  {
    "service_request": "2024-1142014",
    "request_type": "Streetlights",
    "request_reason": "New Streetlight Request",
    "date_created": "2024-10-17T16:55:03.000",
    "date_modified": "2024-10-17T16:55:04.000",
    "request_status": "Pending",
    "responsible_agency": "Department of Public Works",
    "final_address": "3900 BLK Pauger St",
    "address_councildis": "D",
    "status": "Pending",
    "contractor": "Legacy Professional Services",
    "rowid": "1142014",
    "final_x": "3683115.30991",
    "final_y": "545602.538832",
    "longitude": "-90.06247656904715",
    "latitude": "29.99416861967791",
    "geocoded_column": {
      "latitude": "29.99416861967791",
      "longitude": "-90.06247656904715"
    }
  },
  {
    "service_request": "2024-1142013",
    "request_type": "Roads and Streets",
    "request_reason": "Abandoned Service Cut",
    "date_created": "2024-10-17T16:36:53.000",
    "date_modified": "2024-10-17T16:36:54.000",
    "request_status": "Pending",
    "responsible_agency": "Department of Public Works",
    "final_address": "3216 Laurel St",
    "address_councildis": "B",
    "status": "Pending",
    "rowid": "1142013",
    "final_x": "3676018.46574",
    "final_y": "519243.482103",
    "longitude": "-90.08580110184205",
    "latitude": "29.921904582862922",
    "geocoded_column": {
      "latitude": "29.921904582862922",
      "longitude": "-90.08580110184205"
    }
  },
  {
    "service_request": "2024-1142012",
    "request_type": "Trash/Recycling",
    "request_reason": "Request a Large Item Pick Up",
    "date_created": "2024-10-17T16:35:13.000",
    "date_modified": "2024-10-17T16:35:14.000",
    "request_status": "Pending",
    "responsible_agency": "Department of Sanitation",
    "final_address": "7095 Edgefield Dr",
    "address_councildis": "E",
    "status": "Assigned to Contractor",
    "contractor": "Waste Pro",
    "rowid": "1142012",
    "final_x": "3718586.25023",
    "final_y": "569528.63703",
    "longitude": "-89.94951732889695",
    "latitude": "30.05882637719464",
    "geocoded_column": {
      "latitude": "30.05882637719464",
      "longitude": "-89.94951732889695"
    }
  },
  {
    "service_request": "2024-1142011",
    "request_type": "Trash/Recycling",
    "request_reason": "Replace Trash Cart",
    "date_created": "2024-10-17T16:35:00.000",
    "date_modified": "2024-10-17T16:35:01.000",
    "request_status": "Pending",
    "responsible_agency": "Department of Sanitation",
    "final_address": "3219 Martin Luther King, Jr. Blvd",
    "address_councildis": "B",
    "status": "Assigned to Contractor",
    "contractor": "IV Waste",
    "rowid": "1142011",
    "final_x": "3674315.8372",
    "final_y": "528701.025984",
    "longitude": "-90.09085187488368",
    "latitude": "29.947960612418697",
    "geocoded_column": {
      "latitude": "29.947960612418697",
      "longitude": "-90.09085187488368"
    }
  },
  {
    "service_request": "2024-1142010",
    "request_type": "Trash/Recycling",
    "request_reason": "Repair Trash Cart",
    "date_created": "2024-10-17T16:34:27.000",
    "date_modified": "2024-10-17T16:34:28.000",
    "request_status": "Pending",
    "responsible_agency": "Department of Sanitation",
    "final_address": "3203 Martin Luther King, Jr. Blvd",
    "address_councildis": "B",
    "status": "Assigned to Contractor",
    "contractor": "IV Waste",
    "rowid": "1142010",
    "final_x": "3674454.03572",
    "final_y": "528610.530304",
    "longitude": "-90.09041862542703",
    "latitude": "29.947707657974526",
    "geocoded_column": {
      "latitude": "29.947707657974526",
      "longitude": "-90.09041862542703"
    }
  },
  {
    "service_request": "2024-1142009",
    "request_type": "Roads and Streets",
    "request_reason": "Pothole",
    "date_created": "2024-10-17T16:33:14.000",
    "date_modified": "2024-10-17T16:33:14.000",
    "request_status": "Pending",
    "responsible_agency": "Department of Public Works",
    "final_address": "209 Red Allen Way",
    "address_councildis": "C",
    "status": "Pending",
    "rowid": "1142009",
    "final_x": "3685883.25199",
    "final_y": "528535.75104",
    "longitude": "-90.05433480062904",
    "latitude": "29.94715620234579",
    "geocoded_column": {
      "latitude": "29.94715620234579",
      "longitude": "-90.05433480062904"
    }
  },
  {
    "service_request": "2024-1142008",
    "request_type": "Trash/Recycling",
    "request_reason": "Repair Trash Cart",
    "date_created": "2024-10-17T16:31:49.000",
    "date_modified": "2024-10-17T16:31:50.000",
    "request_status": "Pending",
    "responsible_agency": "Department of Sanitation",
    "final_address": "1808 Iberville St",
    "address_councildis": "B",
    "status": "Assigned to Contractor",
    "contractor": "IV Waste",
    "rowid": "1142008",
    "final_x": "3678260.67918",
    "final_y": "533376.481284",
    "longitude": "-90.07823472246108",
    "latitude": "29.96069833594444",
    "geocoded_column": {
      "latitude": "29.96069833594444",
      "longitude": "-90.07823472246108"
    }
  },
  {
    "service_request": "2024-1142007",
    "request_type": "Safety & Permits",
    "request_reason": "Licenses & Permits",
    "date_created": "2024-10-17T16:30:53.000",
    "date_modified": "2024-10-17T16:30:53.000",
    "request_status": "Pending",
    "responsible_agency": "Safety and Permits",
    "final_address": "816 Adams St",
    "address_councildis": "A",
    "status": "Pending",
    "rowid": "1142007",
    "final_x": "3662211.40928",
    "final_y": "526509.678206",
    "longitude": "-90.12914332012828",
    "latitude": "29.942290458329726",
    "geocoded_column": {
      "latitude": "29.942290458329726",
      "longitude": "-90.12914332012828"
    }
  },
  {
    "service_request": "2024-1142006",
    "request_type": "Streetlights",
    "request_reason": "Streetlight Outage/Malfunction",
    "date_created": "2024-10-17T16:30:10.000",
    "date_modified": "2024-10-17T16:30:11.000",
    "request_status": "Pending",
    "responsible_agency": "Department of Public Works",
    "final_address": "1922 S Carrollton Ave",
    "address_councildis": "A",
    "status": "Pending",
    "contractor": "Legacy Professional Services",
    "rowid": "1142006",
    "final_x": "3663734.37709",
    "final_y": "530356.791618",
    "longitude": "-90.12420677985544",
    "latitude": "29.95282468629336",
    "geocoded_column": {
      "latitude": "29.95282468629336",
      "longitude": "-90.12420677985544"
    }
  },
  {
    "service_request": "2024-1142005",
    "request_type": "Property Maintenance",
    "request_reason": "Property Maintenance",
    "date_created": "2024-10-17T16:29:22.000",
    "date_modified": "2024-10-17T16:29:22.000",
    "request_status": "Pending",
    "responsible_agency": "Department of Code Enforcement",
    "final_address": "2127 Prytania St",
    "address_councildis": "B",
    "status": "Pending",
    "rowid": "1142005",
    "final_x": "3678027.66338",
    "final_y": "523409.185339",
    "longitude": "-90.07931500393829",
    "latitude": "29.933298607130887",
    "geocoded_column": {
      "latitude": "29.933298607130887",
      "longitude": "-90.07931500393829"
    }
  },
  {
    "service_request": "2024-1142004",
    "request_type": "Parks & Parkways",
    "request_reason": "Request Tree Service (Right of Way/Public Property)",
    "date_created": "2024-10-17T16:28:00.000",
    "date_modified": "2024-10-17T16:28:44.000",
    "request_status": "Pending",
    "responsible_agency": "Department of Parks & Parkway",
    "final_address": "5968 Marshal Foch St",
    "address_councildis": "A",
    "status": "Pending",
    "rowid": "1142004",
    "final_x": "3669718.60065",
    "final_y": "547061.639697",
    "longitude": "-90.10474565342642",
    "latitude": "29.998582392596557",
    "geocoded_column": {
      "latitude": "29.998582392596557",
      "longitude": "-90.10474565342642"
    }
  },
  {
    "service_request": "2024-1142003",
    "request_type": "Property Maintenance",
    "request_reason": "Property Maintenance",
    "date_created": "2024-10-17T16:26:55.000",
    "date_modified": "2024-10-17T16:26:55.000",
    "request_status": "Pending",
    "responsible_agency": "Department of Code Enforcement",
    "final_address": "1443 N Roman St",
    "address_councildis": "D",
    "status": "Pending",
    "rowid": "1142003",
    "final_x": "3680930.1604",
    "final_y": "537387.672392",
    "longitude": "-90.06966533643815",
    "latitude": "29.971647066052427",
    "geocoded_column": {
      "latitude": "29.971647066052427",
      "longitude": "-90.06966533643815"
    }
  },
  {
    "service_request": "2024-1142002",
    "request_type": "Road Striping",
    "request_reason": "Crosswalks",
    "date_created": "2024-10-17T16:25:32.000",
    "date_modified": "2024-10-17T16:25:32.000",
    "request_status": "Pending",
    "responsible_agency": "Department of Public Works",
    "final_address": "537 Verret St",
    "address_councildis": "C",
    "status": "Pending",
    "rowid": "1142002",
    "final_x": "3686983.72239",
    "final_y": "529582.922177",
    "longitude": "-90.05082320331647",
    "latitude": "29.95000174427931",
    "geocoded_column": {
      "latitude": "29.95000174427931",
      "longitude": "-90.05082320331647"
    }
  },
  {
    "service_request": "2024-1142001",
    "request_type": "Property Maintenance",
    "request_reason": "Property Maintenance",
    "date_created": "2024-10-17T16:22:48.000",
    "date_modified": "2024-10-17T16:22:48.000",
    "request_status": "Pending",
    "responsible_agency": "Department of Code Enforcement",
    "final_address": "1443 N Roman St",
    "address_councildis": "D",
    "status": "Pending",
    "rowid": "1142001",
    "final_x": "3680930.1604",
    "final_y": "537387.672392",
    "longitude": "-90.06966533643815",
    "latitude": "29.971647066052427",
    "geocoded_column": {
      "latitude": "29.971647066052427",
      "longitude": "-90.06966533643815"
    }
  },
  {
    "service_request": "2024-1142000",
    "request_type": "Drainage",
    "request_reason": "Drainage Manhole Cover Missing or Damaged",
    "date_created": "2024-10-17T16:20:59.000",
    "date_modified": "2024-10-17T16:21:00.000",
    "request_status": "Pending",
    "responsible_agency": "Department of Public Works",
    "final_address": "OAK ST & LEONIDAS ST",
    "address_councildis": "A",
    "status": "Pending",
    "rowid": "1142000",
    "final_x": "3660646.1",
    "final_y": "529568.08",
    "longitude": "-90.13398430636596",
    "latitude": "29.950745228402212",
    "geocoded_column": {
      "latitude": "29.950745228402212",
      "longitude": "-90.13398430636596"
    }
  },
  {
    "service_request": "2024-1141999",
    "request_type": "Property Maintenance",
    "request_reason": "Property Maintenance",
    "date_created": "2024-10-17T16:18:20.000",
    "date_modified": "2024-10-17T16:18:20.000",
    "request_status": "Pending",
    "responsible_agency": "Department of Code Enforcement",
    "final_address": "816 Adams St",
    "address_councildis": "A",
    "status": "Pending",
    "rowid": "1141999",
    "final_x": "3662211.40928",
    "final_y": "526509.678206",
    "longitude": "-90.12914332012828",
    "latitude": "29.942290458329726",
    "geocoded_column": {
      "latitude": "29.942290458329726",
      "longitude": "-90.12914332012828"
    }
  },
  {
    "service_request": "2024-1141998",
    "request_type": "Trash/Recycling",
    "request_reason": "Return Recycling Cart",
    "date_created": "2024-10-17T16:15:46.000",
    "date_modified": "2024-10-17T16:15:47.000",
    "request_status": "Pending",
    "responsible_agency": "Department of Sanitation",
    "final_address": "222 Bermuda St",
    "address_councildis": "C",
    "status": "Pending",
    "rowid": "1141998",
    "final_x": "3686189.28252",
    "final_y": "530959.197314",
    "longitude": "-90.05328306967309",
    "latitude": "29.953810456675818",
    "geocoded_column": {
      "latitude": "29.953810456675818",
      "longitude": "-90.05328306967309"
    }
  },
  {
    "service_request": "2024-1141997",
    "request_type": "Trash/Recycling",
    "request_reason": "Request a Large Item Pick Up",
    "date_created": "2024-10-17T16:11:11.000",
    "date_modified": "2024-10-17T16:11:13.000",
    "request_status": "Pending",
    "responsible_agency": "Department of Sanitation",
    "final_address": "2617 Memorial Park Dr",
    "address_councildis": "C",
    "status": "Assigned to Contractor",
    "contractor": "Richards Disposal",
    "rowid": "1141997",
    "final_x": "3692928.80029",
    "final_y": "520917.251769",
    "longitude": "-90.03236255892486",
    "latitude": "29.92598980962947",
    "geocoded_column": {
      "latitude": "29.92598980962947",
      "longitude": "-90.03236255892486"
    }
  },
  {
    "service_request": "2024-1141996",
    "request_type": "Street and Traffic Signs",
    "request_reason": "Additional Signage Request",
    "date_created": "2024-10-17T16:10:46.000",
    "date_modified": "2024-10-17T16:10:47.000",
    "request_status": "Pending",
    "responsible_agency": "Department of Public Works",
    "final_address": "12 Assumption Pl",
    "address_councildis": "E",
    "status": "Pending",
    "rowid": "1141996",
    "final_x": "3726104.82566",
    "final_y": "564457.614177",
    "longitude": "-89.92594900142967",
    "latitude": "30.044631380203818",
    "geocoded_column": {
      "latitude": "30.044631380203818",
      "longitude": "-89.92594900142967"
    }
  },
  {
    "service_request": "2024-1141995",
    "request_type": "Abandoned Vehicles",
    "request_reason": "Abandoned/Junk Vehicles",
    "date_created": "2024-10-17T16:05:47.000",
    "date_modified": "2024-10-17T16:05:47.000",
    "request_status": "Pending",
    "responsible_agency": "Department of Public Works",
    "final_address": "1700 BLK Lafitte Ave",
    "address_councildis": "D",
    "status": "Pending",
    "rowid": "1141995",
    "final_x": "3679409.48038",
    "final_y": "534489.344523",
    "longitude": "-90.07456842771663",
    "latitude": "29.963723681432015",
    "geocoded_column": {
      "latitude": "29.963723681432015",
      "longitude": "-90.07456842771663"
    }
  },
  {
    "service_request": "2024-1141994",
    "request_type": "Abandoned Vehicles",
    "request_reason": "Abandoned/Junk Vehicles",
    "date_created": "2024-10-17T16:05:36.000",
    "date_modified": "2024-10-17T16:07:43.000",
    "request_status": "Pending",
    "responsible_agency": "Department of Public Works",
    "final_address": "WABASH ST & IDAHO ST",
    "address_councildis": "C",
    "status": "Pending",
    "rowid": "1141994",
    "final_x": "3693363.6",
    "final_y": "521294.98",
    "longitude": "-90.03097647731916",
    "latitude": "29.927014853118624",
    "geocoded_column": {
      "latitude": "29.927014853118624",
      "longitude": "-90.03097647731916"
    }
  },
  {
    "service_request": "2024-1141993",
    "request_type": "Trash/Recycling",
    "request_reason": "MIssed Recycling Pick-Up",
    "date_created": "2024-10-17T16:03:30.000",
    "date_modified": "2024-10-17T16:03:31.000",
    "request_status": "Pending",
    "responsible_agency": "Department of Sanitation",
    "final_address": "4719 Virgilian St",
    "address_councildis": "D",
    "status": "Assigned to Contractor",
    "contractor": "Waste Pro",
    "rowid": "1141993",
    "final_x": "3697573.29437",
    "final_y": "553614.334103",
    "longitude": "-90.0165151768813",
    "latitude": "30.01574923102479",
    "geocoded_column": {
      "latitude": "30.01574923102479",
      "longitude": "-90.0165151768813"
    }
  },
  {
    "service_request": "2024-1141992",
    "request_type": "Trash/Recycling",
    "request_reason": "Request a Large Item Pick Up",
    "date_created": "2024-10-17T16:03:00.000",
    "date_modified": "2024-10-17T16:03:01.000",
    "request_status": "Pending",
    "responsible_agency": "Department of Sanitation",
    "final_address": "1410 Eighth St",
    "address_councildis": "B",
    "status": "Assigned to Contractor",
    "contractor": "IV Waste",
    "rowid": "1141992",
    "final_x": "3675448.38209",
    "final_y": "521126.241657",
    "longitude": "-90.08753600183209",
    "latitude": "29.92709861859927",
    "geocoded_column": {
      "latitude": "29.92709861859927",
      "longitude": "-90.08753600183209"
    }
  },
  {
    "service_request": "2024-1141991",
    "request_type": "Trash/Recycling",
    "request_reason": "Request a Large Item Pick Up",
    "date_created": "2024-10-17T16:02:30.000",
    "date_modified": "2024-10-17T16:02:31.000",
    "request_status": "Pending",
    "responsible_agency": "Department of Sanitation",
    "final_address": "2115 Tricou St",
    "address_councildis": "E",
    "status": "Assigned to Contractor",
    "contractor": "Waste Pro",
    "rowid": "1141991",
    "final_x": "3701662.04842",
    "final_y": "536732.059655",
    "longitude": "-90.00421537368537",
    "latitude": "29.969199407566283",
    "geocoded_column": {
      "latitude": "29.969199407566283",
      "longitude": "-90.00421537368537"
    }
  },
  {
    "service_request": "2024-1141990",
    "request_type": "General Services",
    "request_reason": "General Service Request",
    "date_created": "2024-10-17T16:00:59.000",
    "date_modified": "2024-10-17T16:00:59.000",
    "request_status": "Pending",
    "responsible_agency": "Orleans Parish Communication District",
    "final_address": "601 N Galvez St",
    "address_councildis": "D",
    "status": "Pending",
    "rowid": "1141990",
    "final_x": "3678066.69218",
    "final_y": "535420.859142",
    "longitude": "-90.07877661307997",
    "latitude": "29.966325522517494",
    "geocoded_column": {
      "latitude": "29.966325522517494",
      "longitude": "-90.07877661307997"
    }
  },
  {
    "service_request": "2024-1141989",
    "request_type": "Property Maintenance",
    "request_reason": "Property Maintenance",
    "date_created": "2024-10-17T15:58:46.000",
    "date_modified": "2024-10-17T15:58:47.000",
    "request_status": "Pending",
    "responsible_agency": "Department of Code Enforcement",
    "final_address": "5630 Wimbledon Ct",
    "address_councildis": "C",
    "status": "Pending",
    "rowid": "1141989",
    "final_x": "3704707.43895",
    "final_y": "519216.091255",
    "longitude": "-89.99524385813883",
    "latitude": "29.920939232774117",
    "geocoded_column": {
      "latitude": "29.920939232774117",
      "longitude": "-89.99524385813883"
    }
  },
  {
    "service_request": "2024-1141988",
    "request_type": "Traffic Signals",
    "request_reason": "Traffic Signal Malfunctioning or Damaged",
    "date_created": "2024-10-17T15:58:04.000",
    "date_modified": "2024-10-17T15:58:05.000",
    "request_status": "Pending",
    "responsible_agency": "Department of Public Works",
    "final_address": "2100 Earhart Blvd",
    "address_councildis": "B",
    "status": "Pending",
    "rowid": "1141988",
    "final_x": "3677815.67189",
    "final_y": "527761.723903",
    "longitude": "-90.07983393094398",
    "latitude": "29.945273029885946",
    "geocoded_column": {
      "latitude": "29.945273029885946",
      "longitude": "-90.07983393094398"
    }
  },
  {
    "service_request": "2024-1141987",
    "request_type": "Traffic Signals",
    "request_reason": "Traffic Signal Malfunctioning or Damaged",
    "date_created": "2024-10-17T15:56:32.000",
    "date_modified": "2024-10-17T15:56:32.000",
    "request_status": "Pending",
    "responsible_agency": "Department of Public Works",
    "final_address": "CANAL ST & S RAMPART ST",
    "address_councildis": "B",
    "status": "Pending",
    "rowid": "1141987",
    "final_x": "3679972.7",
    "final_y": "531544.98",
    "longitude": "-90.07289211617753",
    "latitude": "29.955610653469453",
    "geocoded_column": {
      "latitude": "29.955610653469453",
      "longitude": "-90.07289211617753"
    }
  },
  {
    "service_request": "2024-1141986",
    "request_type": "Trash/Recycling",
    "request_reason": "Request a Large Item Pick Up",
    "date_created": "2024-10-17T15:52:57.000",
    "date_modified": "2024-10-17T15:52:58.000",
    "request_status": "Pending",
    "responsible_agency": "Department of Sanitation",
    "final_address": "BAUDIN ST & S CORTEZ ST",
    "address_councildis": "B",
    "status": "Assigned to Contractor",
    "contractor": "IV Waste",
    "rowid": "1141986",
    "final_x": "3671102.8",
    "final_y": "536321.98",
    "longitude": "-90.10073790505922",
    "latitude": "29.96901111632304",
    "geocoded_column": {
      "latitude": "29.96901111632304",
      "longitude": "-90.10073790505922"
    }
  },
  {
    "service_request": "2024-1141985",
    "request_type": "Parks & Parkways",
    "request_reason": "Request Tree Service (Right of Way/Public Property)",
    "date_created": "2024-10-17T15:43:53.000",
    "date_modified": "2024-10-17T15:43:54.000",
    "request_status": "Pending",
    "responsible_agency": "Department of Parks & Parkway",
    "final_address": "S DERBIGNY ST & CANAL ST",
    "address_councildis": "B",
    "status": "Pending",
    "rowid": "1141985",
    "final_x": "3678080.3",
    "final_y": "532990.98",
    "longitude": "-90.07881765278768",
    "latitude": "29.959643769237577",
    "geocoded_column": {
      "latitude": "29.959643769237577",
      "longitude": "-90.07881765278768"
    }
  },
  {
    "service_request": "2024-1141984",
    "request_type": "Parks & Parkways",
    "request_reason": "Request Tree Service (Right of Way/Public Property)",
    "date_created": "2024-10-17T15:43:29.000",
    "date_modified": "2024-10-17T15:43:30.000",
    "request_status": "Pending",
    "responsible_agency": "Department of Parks & Parkway",
    "final_address": "3530 Rue Delphine",
    "address_councildis": "C",
    "status": "Pending",
    "rowid": "1141984",
    "final_x": "3703099.76298",
    "final_y": "517646.425398",
    "longitude": "-90.00037616316847",
    "latitude": "29.916674716567393",
    "geocoded_column": {
      "latitude": "29.916674716567393",
      "longitude": "-90.00037616316847"
    }
  },
  {
    "service_request": "2024-1141983",
    "request_type": "Drainage",
    "request_reason": "Catch Basin Clogged",
    "date_created": "2024-10-17T15:40:45.000",
    "date_modified": "2024-10-17T15:40:45.000",
    "request_status": "Pending",
    "responsible_agency": "Department of Public Works",
    "final_address": "2733 Urquhart St",
    "address_councildis": "C",
    "status": "Pending",
    "rowid": "1141983",
    "final_x": "3687871.30083",
    "final_y": "537090.87284",
    "longitude": "-90.04775474106192",
    "latitude": "29.97061866224472",
    "geocoded_column": {
      "latitude": "29.97061866224472",
      "longitude": "-90.04775474106192"
    }
  },
  {
    "service_request": "2024-1141982",
    "request_type": "Trash/Recycling",
    "request_reason": "Illegal Dumping",
    "date_created": "2024-10-17T15:39:45.000",
    "date_modified": "2024-10-17T15:39:46.000",
    "request_status": "Pending",
    "responsible_agency": "Department of Sanitation",
    "final_address": "240 Pacific Ave",
    "address_councildis": "C",
    "status": "Pending",
    "rowid": "1141982",
    "final_x": "3688588.22991",
    "final_y": "530817.07405",
    "longitude": "-90.04571325027493",
    "latitude": "29.95334575958422",
    "geocoded_column": {
      "latitude": "29.95334575958422",
      "longitude": "-90.04571325027493"
    }
  },
  {
    "service_request": "2024-1141981",
    "request_type": "Trash/Recycling",
    "request_reason": "Request a Large Item Pick Up",
    "date_created": "2024-10-17T15:39:14.000",
    "date_modified": "2024-10-17T15:39:25.000",
    "request_status": "Pending",
    "responsible_agency": "Department of Sanitation",
    "final_address": "3011 Sullen Pl",
    "address_councildis": "C",
    "status": "Assigned to Contractor",
    "contractor": "Richards Disposal",
    "rowid": "1141981",
    "final_x": "3707785.08331",
    "final_y": "519617.937592",
    "longitude": "-89.98551429608008",
    "latitude": "29.921944987773887",
    "geocoded_column": {
      "latitude": "29.921944987773887",
      "longitude": "-89.98551429608008"
    }
  },
  {
    "service_request": "2024-1141980",
    "request_type": "Property Maintenance",
    "request_reason": "Property Maintenance",
    "date_created": "2024-10-17T15:39:00.000",
    "date_modified": "2024-10-17T15:39:00.000",
    "request_status": "Pending",
    "responsible_agency": "Department of Code Enforcement",
    "final_address": "5845 Lafaye St",
    "address_councildis": "D",
    "status": "Pending",
    "rowid": "1141980",
    "final_x": "3687202.94198",
    "final_y": "554840.8694",
    "longitude": "-90.04923728967222",
    "latitude": "30.0194453683588",
    "geocoded_column": {
      "latitude": "30.0194453683588",
      "longitude": "-90.04923728967222"
    }
  },
  {
    "service_request": "2024-1141979",
    "request_type": "General Services",
    "request_reason": "General Service Request",
    "date_created": "2024-10-17T15:38:53.000",
    "date_modified": "2024-10-17T15:38:53.000",
    "request_status": "Pending",
    "responsible_agency": "Orleans Parish Communication District",
    "final_address": "3530 Rue Delphine",
    "address_councildis": "C",
    "status": "Pending",
    "rowid": "1141979",
    "final_x": "3703099.76298",
    "final_y": "517646.425398",
    "longitude": "-90.00037616316847",
    "latitude": "29.916674716567393",
    "geocoded_column": {
      "latitude": "29.916674716567393",
      "longitude": "-90.00037616316847"
    }
  },
  {
    "service_request": "2024-1141978",
    "request_type": "Abandoned Vehicles",
    "request_reason": "Abandoned/Junk Vehicles",
    "date_created": "2024-10-17T15:38:06.000",
    "date_modified": "2024-10-17T15:38:08.000",
    "request_status": "Pending",
    "responsible_agency": "Department of Public Works",
    "final_address": "CHESTNUT ST & 6TH ST",
    "address_councildis": "B",
    "status": "Pending",
    "rowid": "1141978",
    "final_x": "3676217.1",
    "final_y": "521158.98",
    "longitude": "-90.08510823",
    "latitude": "29.927165634912498",
    "geocoded_column": {
      "latitude": "29.927165634912498",
      "longitude": "-90.08510823"
    }
  },
  {
    "service_request": "2024-1141977",
    "request_type": "Trash/Recycling",
    "request_reason": "Request a Large Item Pick Up",
    "date_created": "2024-10-17T15:37:02.000",
    "date_modified": "2024-10-17T15:37:03.000",
    "request_status": "Pending",
    "responsible_agency": "Department of Sanitation",
    "final_address": "1921 Peniston St",
    "address_councildis": "B",
    "status": "Assigned to Contractor",
    "contractor": "IV Waste",
    "rowid": "1141977",
    "final_x": "3672635.61864",
    "final_y": "522359.34713",
    "longitude": "-90.09637316536005",
    "latitude": "29.93057305084078",
    "geocoded_column": {
      "latitude": "29.93057305084078",
      "longitude": "-90.09637316536005"
    }
  },
  {
    "service_request": "2024-1141976",
    "request_type": "Trash/Recycling",
    "request_reason": "Replace Trash Cart",
    "date_created": "2024-10-17T15:34:01.000",
    "date_modified": "2024-10-17T15:34:02.000",
    "request_status": "Pending",
    "responsible_agency": "Department of Sanitation",
    "final_address": "2331 Palmer Ave",
    "address_councildis": "A",
    "status": "Assigned to Contractor",
    "contractor": "IV Waste",
    "rowid": "1141976",
    "final_x": "3666367.82157",
    "final_y": "525451.066941",
    "longitude": "-90.11605605953281",
    "latitude": "29.93925885525511",
    "geocoded_column": {
      "latitude": "29.93925885525511",
      "longitude": "-90.11605605953281"
    }
  },
  {
    "service_request": "2024-1141975",
    "request_type": "Roads and Streets",
    "request_reason": "Street Subsidence (Sinking)",
    "date_created": "2024-10-17T15:33:29.000",
    "date_modified": "2024-10-17T15:33:30.000",
    "request_status": "Pending",
    "responsible_agency": "Department of Public Works",
    "final_address": "S ROBERTSON ST & THALIA ST",
    "address_councildis": "B",
    "status": "Pending",
    "rowid": "1141975",
    "final_x": "3676307.9",
    "final_y": "527719.68",
    "longitude": "-90.08459589480307",
    "latitude": "29.945202690959338",
    "geocoded_column": {
      "latitude": "29.945202690959338",
      "longitude": "-90.08459589480307"
    }
  },
  {
    "service_request": "2024-1141974",
    "request_type": "Healthy Homes",
    "request_reason": "Healthy Homes",
    "date_created": "2024-10-17T15:31:31.000",
    "date_modified": "2024-10-17T15:31:31.000",
    "request_status": "Pending",
    "responsible_agency": "Department of Code Enforcement",
    "final_address": "1942 Wilton Dr",
    "address_councildis": "D",
    "status": "Pending",
    "rowid": "1141974",
    "final_x": "3681807.66671",
    "final_y": "550993.684885",
    "longitude": "-90.06641893940545",
    "latitude": "30.009032155400305",
    "geocoded_column": {
      "latitude": "30.009032155400305",
      "longitude": "-90.06641893940545"
    }
  },
  {
    "service_request": "2024-1141973",
    "request_type": "Trash/Recycling",
    "request_reason": "Request a Large Item Pick Up",
    "date_created": "2024-10-17T15:30:52.000",
    "date_modified": "2024-10-17T15:30:53.000",
    "request_status": "Pending",
    "responsible_agency": "Department of Sanitation",
    "final_address": "1630 Eagle St",
    "address_councildis": "A",
    "status": "Assigned to Contractor",
    "contractor": "IV Waste",
    "rowid": "1141973",
    "final_x": "3661217.4903",
    "final_y": "531306.089218",
    "longitude": "-90.13212260845327",
    "latitude": "29.955507737348526",
    "geocoded_column": {
      "latitude": "29.955507737348526",
      "longitude": "-90.13212260845327"
    }
  },
  {
    "service_request": "2024-1141972",
    "request_type": "General Services",
    "request_reason": "General Service Request",
    "date_created": "2024-10-17T15:30:50.000",
    "date_modified": "2024-10-17T15:30:50.000",
    "request_status": "Pending",
    "responsible_agency": "Orleans Parish Communication District",
    "final_address": "6515 West End Blvd",
    "address_councildis": "A",
    "status": "Pending",
    "rowid": "1141972",
    "final_x": "3666700.14631",
    "final_y": "550995.565333",
    "longitude": "-90.11414877000122",
    "latitude": "30.009487970064455",
    "geocoded_column": {
      "latitude": "30.009487970064455",
      "longitude": "-90.11414877000122"
    }
  },
  {
    "service_request": "2024-1141971",
    "request_type": "Trash/Recycling",
    "request_reason": "Request a Large Item Pick Up",
    "date_created": "2024-10-17T15:29:35.000",
    "date_modified": "2024-10-17T15:29:36.000",
    "request_status": "Pending",
    "responsible_agency": "Department of Sanitation",
    "final_address": "1434 St Andrew St",
    "address_councildis": "B",
    "status": "Assigned to Contractor",
    "contractor": "IV Waste",
    "rowid": "1141971",
    "final_x": "3678618.71541",
    "final_y": "523589.703419",
    "longitude": "-90.07744284298361",
    "latitude": "29.93377717299945",
    "geocoded_column": {
      "latitude": "29.93377717299945",
      "longitude": "-90.07744284298361"
    }
  },
  {
    "service_request": "2024-1141970",
    "request_type": "Trash/Recycling",
    "request_reason": "Order Second Trash Cart",
    "date_created": "2024-10-17T15:29:34.000",
    "date_modified": "2024-10-17T15:29:35.000",
    "request_status": "Pending",
    "responsible_agency": "Department of Sanitation",
    "final_address": "3619 Herald St",
    "address_councildis": "C",
    "status": "Assigned to Contractor",
    "contractor": "Richards Disposal",
    "rowid": "1141970",
    "final_x": "3702147.02788",
    "final_y": "517750.127606",
    "longitude": "-90.00337956704409",
    "latitude": "29.9169903028119",
    "geocoded_column": {
      "latitude": "29.9169903028119",
      "longitude": "-90.00337956704409"
    }
  },
  {
    "service_request": "2024-1141969",
    "request_type": "Trash/Recycling",
    "request_reason": "Request a Large Item Pick Up",
    "date_created": "2024-10-17T15:28:20.000",
    "date_modified": "2024-10-17T15:28:21.000",
    "request_status": "Pending",
    "responsible_agency": "Department of Sanitation",
    "final_address": "324 Audubon St",
    "address_councildis": "A",
    "status": "Assigned to Contractor",
    "contractor": "IV Waste",
    "rowid": "1141969",
    "final_x": "3661668.99853",
    "final_y": "522305.39705",
    "longitude": "-90.13099512390407",
    "latitude": "29.930745675685742",
    "geocoded_column": {
      "latitude": "29.930745675685742",
      "longitude": "-90.13099512390407"
    }
  },
  {
    "service_request": "2024-1141968",
    "request_type": "Roads and Streets",
    "request_reason": "Street Subsidence (Sinking)",
    "date_created": "2024-10-17T15:27:21.000",
    "date_modified": "2024-10-17T15:27:23.000",
    "request_status": "Pending",
    "responsible_agency": "Department of Public Works",
    "final_address": "WALES ST & POMPANO ST",
    "address_councildis": "E",
    "status": "Pending",
    "rowid": "1141968",
    "final_x": "3700254.1",
    "final_y": "561422.78",
    "longitude": "-90.00775969029029",
    "latitude": "30.03713447132799",
    "geocoded_column": {
      "latitude": "30.03713447132799",
      "longitude": "-90.00775969029029"
    }
  },
  {
    "service_request": "2024-1141967",
    "request_type": "Streetlights",
    "request_reason": "Streetlight Outage/Malfunction",
    "date_created": "2024-10-17T15:27:11.000",
    "date_modified": "2024-10-17T15:27:12.000",
    "request_status": "Pending",
    "responsible_agency": "Department of Public Works",
    "final_address": "FELICITY ST & ANNUNCIATION ST",
    "address_councildis": "B",
    "status": "Pending",
    "contractor": "Legacy Professional Services",
    "rowid": "1141967",
    "final_x": "3680680.2",
    "final_y": "522364.58",
    "longitude": "-90.07097744561173",
    "latitude": "29.93034619831975",
    "geocoded_column": {
      "latitude": "29.93034619831975",
      "longitude": "-90.07097744561173"
    }
  },
  {
    "service_request": "2024-1141966",
    "request_type": "Trash/Recycling",
    "request_reason": "Request a Large Item Pick Up",
    "date_created": "2024-10-17T15:26:40.000",
    "date_modified": "2024-10-17T15:26:41.000",
    "request_status": "Pending",
    "responsible_agency": "Department of Sanitation",
    "final_address": "324 Audubon St",
    "address_councildis": "A",
    "status": "Assigned to Contractor",
    "contractor": "IV Waste",
    "rowid": "1141966",
    "final_x": "3661668.99853",
    "final_y": "522305.39705",
    "longitude": "-90.13099512390407",
    "latitude": "29.930745675685742",
    "geocoded_column": {
      "latitude": "29.930745675685742",
      "longitude": "-90.13099512390407"
    }
  },
  {
    "service_request": "2024-1141965",
    "request_type": "Trash/Recycling",
    "request_reason": "Return Trash Cart",
    "date_created": "2024-10-17T15:23:24.000",
    "date_modified": "2024-10-17T15:23:25.000",
    "request_status": "Pending",
    "responsible_agency": "Department of Sanitation",
    "final_address": "7006 Pritchard Pl Unit A",
    "address_councildis": "B",
    "status": "Assigned to Contractor",
    "contractor": "IV Waste",
    "rowid": "1141965",
    "final_x": "3667945.54343",
    "final_y": "531077.705602",
    "longitude": "-90.11088545905085",
    "latitude": "29.95468410351178",
    "geocoded_column": {
      "latitude": "29.95468410351178",
      "longitude": "-90.11088545905085"
    }
  },
  {
    "service_request": "2024-1141964",
    "request_type": "Abandoned Vehicles",
    "request_reason": "Abandoned/Junk Vehicles",
    "date_created": "2024-10-17T15:23:01.000",
    "date_modified": "2024-10-17T15:23:03.000",
    "request_status": "Pending",
    "responsible_agency": "Department of Public Works",
    "final_address": "1300 Pleasant St",
    "address_councildis": "B",
    "status": "Pending",
    "rowid": "1141964",
    "final_x": "3675155.94171",
    "final_y": "520564.352632",
    "longitude": "-90.08847843180045",
    "latitude": "29.92556234465641",
    "geocoded_column": {
      "latitude": "29.92556234465641",
      "longitude": "-90.08847843180045"
    }
  },
  {
    "service_request": "2024-1141963",
    "request_type": "Trash/Recycling",
    "request_reason": "Request a Large Item Pick Up",
    "date_created": "2024-10-17T15:22:34.000",
    "date_modified": "2024-10-17T15:22:35.000",
    "request_status": "Pending",
    "responsible_agency": "Department of Sanitation",
    "final_address": "2229 St Nick Dr",
    "address_councildis": "C",
    "status": "Assigned to Contractor",
    "contractor": "Richards Disposal",
    "rowid": "1141963",
    "final_x": "3699709.86903",
    "final_y": "522800.500539",
    "longitude": "-90.01088823965871",
    "latitude": "29.93095465268916",
    "geocoded_column": {
      "latitude": "29.93095465268916",
      "longitude": "-90.01088823965871"
    }
  },
  {
    "service_request": "2024-1141962",
    "request_type": "Trash/Recycling",
    "request_reason": "Request a Large Item Pick Up",
    "date_created": "2024-10-17T15:22:25.000",
    "date_modified": "2024-10-17T15:22:27.000",
    "request_status": "Pending",
    "responsible_agency": "Department of Sanitation",
    "final_address": "4890 Brittany Ct",
    "address_councildis": "E",
    "status": "Assigned to Contractor",
    "contractor": "Waste Pro",
    "rowid": "1141962",
    "final_x": "3726847.77088",
    "final_y": "562036.405215",
    "longitude": "-89.92369512446723",
    "latitude": "30.03794894902891",
    "geocoded_column": {
      "latitude": "30.03794894902891",
      "longitude": "-89.92369512446723"
    }
  },
  {
    "service_request": "2024-1141961",
    "request_type": "Trash/Recycling",
    "request_reason": "Return Trash Cart",
    "date_created": "2024-10-17T15:15:33.000",
    "date_modified": "2024-10-17T15:15:34.000",
    "request_status": "Pending",
    "responsible_agency": "Department of Sanitation",
    "final_address": "7320 Newcastle St",
    "address_councildis": "E",
    "status": "Assigned to Contractor",
    "contractor": "Waste Pro",
    "rowid": "1141961",
    "final_x": "3697420.99319",
    "final_y": "558433.3135",
    "longitude": "-90.01682144073364",
    "latitude": "30.029004403872733",
    "geocoded_column": {
      "latitude": "30.029004403872733",
      "longitude": "-90.01682144073364"
    }
  },
  {
    "service_request": "2024-1141960",
    "request_type": "Trash/Recycling",
    "request_reason": "Request a Large Item Pick Up",
    "date_created": "2024-10-17T15:14:28.000",
    "date_modified": "2024-10-17T15:14:29.000",
    "request_status": "Pending",
    "responsible_agency": "Department of Sanitation",
    "final_address": "4651 Francis Dr",
    "address_councildis": "D",
    "status": "Assigned to Contractor",
    "contractor": "Waste Pro",
    "rowid": "1141960",
    "final_x": "3698323.08189",
    "final_y": "553918.952728",
    "longitude": "-90.01413512093087",
    "latitude": "30.016563103004007",
    "geocoded_column": {
      "latitude": "30.016563103004007",
      "longitude": "-90.01413512093087"
    }
  },
  {
    "service_request": "2024-1141959",
    "request_type": "Roads and Streets",
    "request_reason": "Pothole",
    "date_created": "2024-10-17T15:13:40.000",
    "date_modified": "2024-10-17T15:13:40.000",
    "request_status": "Pending",
    "responsible_agency": "Department of Public Works",
    "final_address": "1108 S Gayoso St",
    "address_councildis": "B",
    "status": "Pending",
    "rowid": "1141959",
    "final_x": "3671503.99041",
    "final_y": "531785.505091",
    "longitude": "-90.09962516688239",
    "latitude": "29.956525451151407",
    "geocoded_column": {
      "latitude": "29.956525451151407",
      "longitude": "-90.09962516688239"
    }
  },
  {
    "service_request": "2024-1141958",
    "request_type": "Trash/Recycling",
    "request_reason": "Request a Large Item Pick Up",
    "date_created": "2024-10-17T15:13:33.000",
    "date_modified": "2024-10-17T15:13:34.000",
    "request_status": "Pending",
    "responsible_agency": "Department of Sanitation",
    "final_address": "7661 Wave Dr",
    "address_councildis": "E",
    "status": "Assigned to Contractor",
    "contractor": "Waste Pro",
    "rowid": "1141958",
    "final_x": "3714906.95352",
    "final_y": "568974.38167",
    "longitude": "-89.9611681134045",
    "latitude": "30.057424067034063",
    "geocoded_column": {
      "latitude": "30.057424067034063",
      "longitude": "-89.9611681134045"
    }
  },
  {
    "service_request": "2024-1141956",
    "request_type": "Trash/Recycling",
    "request_reason": "Request a Large Item Pick Up",
    "date_created": "2024-10-17T15:13:08.000",
    "date_modified": "2024-10-17T15:13:09.000",
    "request_status": "Pending",
    "responsible_agency": "Department of Sanitation",
    "final_address": "6500 E Hermes St",
    "address_councildis": "D",
    "status": "Assigned to Contractor",
    "contractor": "Waste Pro",
    "rowid": "1141956",
    "final_x": "3697907.28976",
    "final_y": "555275.345369",
    "longitude": "-90.01539954634733",
    "latitude": "30.020305824728084",
    "geocoded_column": {
      "latitude": "30.020305824728084",
      "longitude": "-90.01539954634733"
    }
  },
  {
    "service_request": "2024-1141955",
    "request_type": "Trash/Recycling",
    "request_reason": "Request a Large Item Pick Up",
    "date_created": "2024-10-17T15:11:49.000",
    "date_modified": "2024-10-17T15:11:50.000",
    "request_status": "Pending",
    "responsible_agency": "Department of Sanitation",
    "final_address": "4811 Lynhuber Dr",
    "address_councildis": "D",
    "status": "Assigned to Contractor",
    "contractor": "Waste Pro",
    "rowid": "1141955",
    "final_x": "3698060.2504",
    "final_y": "554680.27068",
    "longitude": "-90.01493787468135",
    "latitude": "30.01866475674183",
    "geocoded_column": {
      "latitude": "30.01866475674183",
      "longitude": "-90.01493787468135"
    }
  },
  {
    "service_request": "2024-1141954",
    "request_type": "Trash/Recycling",
    "request_reason": "Order Recycling Cart",
    "date_created": "2024-10-17T15:11:19.000",
    "date_modified": "2024-10-17T15:11:20.000",
    "request_status": "Pending",
    "responsible_agency": "Department of Sanitation",
    "final_address": "618 S Pierce St",
    "address_councildis": "B",
    "status": "Pending",
    "rowid": "1141954",
    "final_x": "3670195.56897",
    "final_y": "536306.615687",
    "longitude": "-90.10360353044769",
    "latitude": "29.968995672907717",
    "geocoded_column": {
      "latitude": "29.968995672907717",
      "longitude": "-90.10360353044769"
    }
  },
  {
    "service_request": "2024-1141953",
    "request_type": "Trash/Recycling",
    "request_reason": "Request a Large Item Pick Up",
    "date_created": "2024-10-17T15:11:12.000",
    "date_modified": "2024-10-17T15:11:13.000",
    "request_status": "Pending",
    "responsible_agency": "Department of Sanitation",
    "final_address": "4803 Lynhuber Dr",
    "address_councildis": "D",
    "status": "Assigned to Contractor",
    "contractor": "Waste Pro",
    "rowid": "1141953",
    "final_x": "3698065.72528",
    "final_y": "554626.51132",
    "longitude": "-90.01492253055115",
    "latitude": "30.018516765671976",
    "geocoded_column": {
      "latitude": "30.018516765671976",
      "longitude": "-90.01492253055115"
    }
  },
  {
    "service_request": "2024-1141952",
    "request_type": "Trash/Recycling",
    "request_reason": "Request a Large Item Pick Up",
    "date_created": "2024-10-17T15:11:03.000",
    "date_modified": "2024-10-17T15:11:04.000",
    "request_status": "Pending",
    "responsible_agency": "Department of Sanitation",
    "final_address": "622 Pacific Ave",
    "address_councildis": "C",
    "status": "Assigned to Contractor",
    "contractor": "Richards Disposal",
    "rowid": "1141952",
    "final_x": "3688516.90172",
    "final_y": "529245.743937",
    "longitude": "-90.0459942163588",
    "latitude": "29.949027345075823",
    "geocoded_column": {
      "latitude": "29.949027345075823",
      "longitude": "-90.0459942163588"
    }
  },
  {
    "service_request": "2024-1141951",
    "request_type": "Trash/Recycling",
    "request_reason": "Order Recycling Cart",
    "date_created": "2024-10-17T15:10:52.000",
    "date_modified": "2024-10-17T15:10:53.000",
    "request_status": "Pending",
    "responsible_agency": "Department of Sanitation",
    "final_address": "6425 N Galvez St",
    "address_councildis": "E",
    "status": "Pending",
    "rowid": "1141951",
    "final_x": "3702099.77399",
    "final_y": "536516.603335",
    "longitude": "-90.00284091474498",
    "latitude": "29.96859301234058",
    "geocoded_column": {
      "latitude": "29.96859301234058",
      "longitude": "-90.00284091474498"
    }
  },
  {
    "service_request": "2024-1141950",
    "request_type": "Roads and Streets",
    "request_reason": "Debris in Driving Lanes",
    "date_created": "2024-10-17T15:09:17.000",
    "date_modified": "2024-10-17T15:09:18.000",
    "request_status": "Pending",
    "responsible_agency": "Department of Public Works",
    "final_address": "10400 Old Gentilly Rd",
    "address_councildis": "E",
    "status": "Pending",
    "rowid": "1141950",
    "final_x": "3714663.55013",
    "final_y": "553701.824471",
    "longitude": "-89.96251499793892",
    "latitude": "30.01543868456762",
    "geocoded_column": {
      "latitude": "30.01543868456762",
      "longitude": "-89.96251499793892"
    }
  },
  {
    "service_request": "2024-1141949",
    "request_type": "Trash/Recycling",
    "request_reason": "Repair Trash Cart",
    "date_created": "2024-10-17T15:07:52.000",
    "date_modified": "2024-10-17T15:07:53.000",
    "request_status": "Pending",
    "responsible_agency": "Department of Sanitation",
    "final_address": "1420 Polymnia St",
    "address_councildis": "B",
    "status": "Assigned to Contractor",
    "contractor": "IV Waste",
    "rowid": "1141949",
    "final_x": "3679407.71144",
    "final_y": "524295.443004",
    "longitude": "-90.07492755127407",
    "latitude": "29.93569392226773",
    "geocoded_column": {
      "latitude": "29.93569392226773",
      "longitude": "-90.07492755127407"
    }
  },
  {
    "service_request": "2024-1141948",
    "request_type": "Drainage",
    "request_reason": "Street Flooding",
    "date_created": "2024-10-17T15:07:03.000",
    "date_modified": "2024-10-17T15:07:03.000",
    "request_status": "Pending",
    "responsible_agency": "Department of Public Works",
    "final_address": "564 Amethyst St",
    "address_councildis": "D",
    "status": "Pending",
    "rowid": "1141948",
    "final_x": "3668815.55578",
    "final_y": "556720.271898",
    "longitude": "-90.10727190608742",
    "latitude": "30.025166827984332",
    "geocoded_column": {
      "latitude": "30.025166827984332",
      "longitude": "-90.10727190608742"
    }
  },
  {
    "service_request": "2024-1141947",
    "request_type": "Trash/Recycling",
    "request_reason": "Order Second Trash Cart",
    "date_created": "2024-10-17T15:03:24.000",
    "date_modified": "2024-10-17T15:03:25.000",
    "request_status": "Pending",
    "responsible_agency": "Department of Sanitation",
    "final_address": "6425 N Galvez St",
    "address_councildis": "E",
    "status": "Assigned to Contractor",
    "contractor": "Waste Pro",
    "rowid": "1141947",
    "final_x": "3702099.77399",
    "final_y": "536516.603335",
    "longitude": "-90.00284091474498",
    "latitude": "29.96859301234058",
    "geocoded_column": {
      "latitude": "29.96859301234058",
      "longitude": "-90.00284091474498"
    }
  },
  {
    "service_request": "2024-1141946",
    "request_type": "Trash/Recycling",
    "request_reason": "Repair Trash Cart",
    "date_created": "2024-10-17T14:59:53.000",
    "date_modified": "2024-10-17T14:59:54.000",
    "request_status": "Pending",
    "responsible_agency": "Department of Sanitation",
    "final_address": "1938 Octavia St",
    "address_councildis": "A",
    "status": "Assigned to Contractor",
    "contractor": "IV Waste",
    "rowid": "1141946",
    "final_x": "3667293.7081",
    "final_y": "522999.339387",
    "longitude": "-90.11321533032879",
    "latitude": "29.932490310615204",
    "geocoded_column": {
      "latitude": "29.932490310615204",
      "longitude": "-90.11321533032879"
    }
  },
  {
    "service_request": "2024-1141945",
    "request_type": "Trash/Recycling",
    "request_reason": "Request a Large Item Pick Up",
    "date_created": "2024-10-17T14:58:24.000",
    "date_modified": "2024-10-17T14:58:26.000",
    "request_status": "Pending",
    "responsible_agency": "Department of Sanitation",
    "final_address": "1210 N Miro St",
    "address_councildis": "D",
    "status": "Assigned to Contractor",
    "contractor": "IV Waste",
    "rowid": "1141945",
    "final_x": "3679286.99765",
    "final_y": "537428.43924",
    "longitude": "-90.07485327840406",
    "latitude": "29.971808885921693",
    "geocoded_column": {
      "latitude": "29.971808885921693",
      "longitude": "-90.07485327840406"
    }
  },
  {
    "service_request": "2024-1141944",
    "request_type": "Street and Traffic Signs",
    "request_reason": "Street Name Sign Damaged or Missing",
    "date_created": "2024-10-17T14:55:20.000",
    "date_modified": "2024-10-17T14:55:20.000",
    "request_status": "Pending",
    "responsible_agency": "Department of Public Works",
    "final_address": "ST ANTHONY ST & N MIRO ST",
    "address_councildis": "D",
    "status": "Pending",
    "rowid": "1141944",
    "final_x": "3683189.0",
    "final_y": "540234.98",
    "longitude": "-90.06243185186685",
    "latitude": "29.979407479664467",
    "geocoded_column": {
      "latitude": "29.979407479664467",
      "longitude": "-90.06243185186685"
    }
  },
  {
    "service_request": "2024-1141943",
    "request_type": "Street and Traffic Signs",
    "request_reason": "Street Name Sign Damaged or Missing",
    "date_created": "2024-10-17T14:54:44.000",
    "date_modified": "2024-10-17T14:54:45.000",
    "request_status": "Pending",
    "responsible_agency": "Department of Public Works",
    "final_address": "N TONTI ST & ST ANTHONY ST",
    "address_councildis": "D",
    "status": "Pending",
    "rowid": "1141943",
    "final_x": "3683156.2",
    "final_y": "540604.68",
    "longitude": "-90.06252249706554",
    "latitude": "29.980425025519747",
    "geocoded_column": {
      "latitude": "29.980425025519747",
      "longitude": "-90.06252249706554"
    }
  },
  {
    "service_request": "2024-1141942",
    "request_type": "Trash/Recycling",
    "request_reason": "Request a Large Item Pick Up",
    "date_created": "2024-10-17T14:44:55.000",
    "date_modified": "2024-10-17T14:44:56.000",
    "request_status": "Pending",
    "responsible_agency": "Department of Sanitation",
    "final_address": "6221 Eastover Dr",
    "address_councildis": "E",
    "status": "Assigned to Contractor",
    "contractor": "Waste Pro",
    "rowid": "1141942",
    "final_x": "3717518.17656",
    "final_y": "564556.787169",
    "longitude": "-89.95308268083468",
    "latitude": "30.045191260159086",
    "geocoded_column": {
      "latitude": "30.045191260159086",
      "longitude": "-89.95308268083468"
    }
  },
  {
    "service_request": "2024-1141941",
    "request_type": "Trash/Recycling",
    "request_reason": "Request a Large Item Pick Up",
    "date_created": "2024-10-17T14:43:40.000",
    "date_modified": "2024-10-17T14:43:42.000",
    "request_status": "Pending",
    "responsible_agency": "Department of Sanitation",
    "final_address": "4935 Good Dr",
    "address_councildis": "E",
    "status": "Assigned to Contractor",
    "contractor": "Waste Pro",
    "rowid": "1141941",
    "final_x": "3714769.68959",
    "final_y": "557646.991259",
    "longitude": "-89.96203047492733",
    "latitude": "30.026282843143058",
    "geocoded_column": {
      "latitude": "30.026282843143058",
      "longitude": "-89.96203047492733"
    }
  },
  {
    "service_request": "2024-1141940",
    "request_type": "Abandoned Vehicles",
    "request_reason": "Abandoned/Junk Vehicles",
    "date_created": "2024-10-17T14:39:03.000",
    "date_modified": "2024-10-17T14:39:04.000",
    "request_status": "Pending",
    "responsible_agency": "Department of Public Works",
    "final_address": "1725 Hendee St",
    "address_councildis": "C",
    "status": "Pending",
    "rowid": "1141940",
    "final_x": "3690576.53961",
    "final_y": "524476.592188",
    "longitude": "-90.03966107594911",
    "latitude": "29.935850020610093",
    "geocoded_column": {
      "latitude": "29.935850020610093",
      "longitude": "-90.03966107594911"
    }
  },
  {
    "service_request": "2024-1141939",
    "request_type": "Trash/Recycling",
    "request_reason": "Illegal Dumping",
    "date_created": "2024-10-17T14:38:48.000",
    "date_modified": "2024-10-17T14:38:49.000",
    "request_status": "Pending",
    "responsible_agency": "Department of Code Enforcement",
    "final_address": "17400 Paris Rd",
    "address_councildis": "E",
    "status": "Pending",
    "rowid": "1141939",
    "final_x": "3721480.90322",
    "final_y": "571641.405672",
    "longitude": "-89.9402865164538",
    "latitude": "30.064539164783223",
    "geocoded_column": {
      "latitude": "30.064539164783223",
      "longitude": "-89.9402865164538"
    }
  },
  {
    "service_request": "2024-1141938",
    "request_type": "Roads and Streets",
    "request_reason": "Sidewalk Damaged or Missing",
    "date_created": "2024-10-17T14:30:04.000",
    "date_modified": "2024-10-17T14:30:05.000",
    "request_status": "Pending",
    "responsible_agency": "Department of Public Works",
    "final_address": "MARENGO ST & DRYADES ST",
    "address_councildis": "B",
    "status": "Pending",
    "rowid": "1141938",
    "final_x": "3671853.5",
    "final_y": "522059.98",
    "longitude": "-90.09885238488384",
    "latitude": "29.929773080256794",
    "geocoded_column": {
      "latitude": "29.929773080256794",
      "longitude": "-90.09885238488384"
    }
  },
  {
    "service_request": "2024-1141937",
    "request_type": "Trash/Recycling",
    "request_reason": "Repair Trash Cart",
    "date_created": "2024-10-17T14:28:18.000",
    "date_modified": "2024-10-17T14:28:19.000",
    "request_status": "Pending",
    "responsible_agency": "Department of Sanitation",
    "final_address": "1807 Audubon St",
    "address_councildis": "A",
    "status": "Assigned to Contractor",
    "contractor": "IV Waste",
    "rowid": "1141937",
    "final_x": "3665679.00461",
    "final_y": "528141.866431",
    "longitude": "-90.11814065656843",
    "latitude": "29.946677792143184",
    "geocoded_column": {
      "latitude": "29.946677792143184",
      "longitude": "-90.11814065656843"
    }
  },
  {
    "service_request": "2024-1141936",
    "request_type": "Parks & Parkways",
    "request_reason": "Request Grass Cutting Service (City Owned Property)",
    "date_created": "2024-10-17T14:25:35.000",
    "date_modified": "2024-10-17T14:25:35.000",
    "request_status": "Pending",
    "responsible_agency": "Department of Parks & Parkway",
    "final_address": "2127 Prytania St",
    "address_councildis": "B",
    "status": "Pending",
    "rowid": "1141936",
    "final_x": "3678027.66338",
    "final_y": "523409.185339",
    "longitude": "-90.07931500393829",
    "latitude": "29.933298607130887",
    "geocoded_column": {
      "latitude": "29.933298607130887",
      "longitude": "-90.07931500393829"
    }
  },
  {
    "service_request": "2024-1141935",
    "request_type": "Trash/Recycling",
    "request_reason": "Order Second Trash Cart",
    "date_created": "2024-10-17T14:25:01.000",
    "date_modified": "2024-10-17T14:25:02.000",
    "request_status": "Pending",
    "responsible_agency": "Department of Sanitation",
    "final_address": "2135 Painters St",
    "address_councildis": "D",
    "status": "Assigned to Contractor",
    "contractor": "IV Waste",
    "rowid": "1141935",
    "final_x": "3687275.41039",
    "final_y": "540495.151691",
    "longitude": "-90.04951617196161",
    "latitude": "29.979997601404044",
    "geocoded_column": {
      "latitude": "29.979997601404044",
      "longitude": "-90.04951617196161"
    }
  },
  {
    "service_request": "2024-1141934",
    "request_type": "Trash/Recycling",
    "request_reason": "Request a Large Item Pick Up",
    "date_created": "2024-10-17T14:24:41.000",
    "date_modified": "2024-10-17T14:25:26.000",
    "request_status": "Pending",
    "responsible_agency": "Department of Sanitation",
    "final_address": "7678 Forum Blvd",
    "address_councildis": "E",
    "status": "Assigned to Contractor",
    "contractor": "Waste Pro",
    "rowid": "1141934",
    "final_x": "3719784.03941",
    "final_y": "573247.472297",
    "longitude": "-89.9455889058327",
    "latitude": "30.069011786231687",
    "geocoded_column": {
      "latitude": "30.069011786231687",
      "longitude": "-89.9455889058327"
    }
  },
  {
    "service_request": "2024-1141933",
    "request_type": "Trash/Recycling",
    "request_reason": "Request a Large Item Pick Up",
    "date_created": "2024-10-17T14:21:19.000",
    "date_modified": "2024-10-17T14:21:20.000",
    "request_status": "Pending",
    "responsible_agency": "Department of Sanitation",
    "final_address": "7821 Allison Rd",
    "address_councildis": "E",
    "status": "Assigned to Contractor",
    "contractor": "Waste Pro",
    "rowid": "1141933",
    "final_x": "3699884.65335",
    "final_y": "561122.84963",
    "longitude": "-90.0089381728576",
    "latitude": "30.036321526039824",
    "geocoded_column": {
      "latitude": "30.036321526039824",
      "longitude": "-90.0089381728576"
    }
  },
  {
    "service_request": "2024-1141932",
    "request_type": "Trash/Recycling",
    "request_reason": "Repair Trash Cart",
    "date_created": "2024-10-17T14:17:41.000",
    "date_modified": "2024-10-17T14:17:42.000",
    "request_status": "Pending",
    "responsible_agency": "Department of Sanitation",
    "final_address": "3016 Frenchmen St",
    "address_councildis": "D",
    "status": "Assigned to Contractor",
    "contractor": "IV Waste",
    "rowid": "1141932",
    "final_x": "3683931.311",
    "final_y": "543782.745038",
    "longitude": "-90.05996281898912",
    "latitude": "29.98913992335731",
    "geocoded_column": {
      "latitude": "29.98913992335731",
      "longitude": "-90.05996281898912"
    }
  },
  {
    "service_request": "2024-1141931",
    "request_type": "Drainage",
    "request_reason": "Drainage Manhole Cover Missing or Damaged",
    "date_created": "2024-10-17T14:15:22.000",
    "date_modified": "2024-10-17T14:15:24.000",
    "request_status": "Pending",
    "responsible_agency": "Department of Public Works",
    "final_address": "ST CHARLES AVE & WALNUT ST",
    "address_councildis": "A",
    "status": "Pending",
    "rowid": "1141931",
    "final_x": "3663402.6",
    "final_y": "524303.18",
    "longitude": "-90.12545588462676",
    "latitude": "29.9361888147703",
    "geocoded_column": {
      "latitude": "29.9361888147703",
      "longitude": "-90.12545588462676"
    }
  },
  {
    "service_request": "2024-1141930",
    "request_type": "Property Maintenance",
    "request_reason": "Property Maintenance",
    "date_created": "2024-10-17T14:15:14.000",
    "date_modified": "2024-10-17T14:15:14.000",
    "request_status": "Pending",
    "responsible_agency": "Department of Code Enforcement",
    "final_address": "1124 Lesseps St",
    "address_councildis": "C",
    "status": "Pending",
    "rowid": "1141930",
    "final_x": "3692703.42147",
    "final_y": "535356.388934",
    "longitude": "-90.03255657854241",
    "latitude": "29.965699489842045",
    "geocoded_column": {
      "latitude": "29.965699489842045",
      "longitude": "-90.03255657854241"
    }
  },
  {
    "service_request": "2024-1141929",
    "request_type": "Roads and Streets",
    "request_reason": "Pothole",
    "date_created": "2024-10-17T14:14:56.000",
    "date_modified": "2024-10-17T14:14:56.000",
    "request_status": "Pending",
    "responsible_agency": "Department of Public Works",
    "final_address": "1827 Hamilton St",
    "address_councildis": "A",
    "status": "Pending",
    "rowid": "1141929",
    "final_x": "3660947.10778",
    "final_y": "532453.67802",
    "longitude": "-90.1329384217398",
    "latitude": "29.95867102706766",
    "geocoded_column": {
      "latitude": "29.95867102706766",
      "longitude": "-90.1329384217398"
    }
  },
  {
    "service_request": "2024-1141928",
    "request_type": "Trash/Recycling",
    "request_reason": "MIssed Recycling Pick-Up",
    "date_created": "2024-10-17T14:13:15.000",
    "date_modified": "2024-10-17T14:13:16.000",
    "request_status": "Pending",
    "responsible_agency": "Department of Sanitation",
    "final_address": "917 S Carrollton Ave",
    "address_councildis": "A",
    "status": "Assigned to Contractor",
    "contractor": "IV Waste",
    "rowid": "1141928",
    "final_x": "3661480.68326",
    "final_y": "527593.346111",
    "longitude": "-90.13141450825945",
    "latitude": "29.945291295623804",
    "geocoded_column": {
      "latitude": "29.945291295623804",
      "longitude": "-90.13141450825945"
    }
  },
  {
    "service_request": "2024-1141927",
    "request_type": "Streetlights",
    "request_reason": "Streetlight Outage/Malfunction",
    "date_created": "2024-10-17T14:08:58.000",
    "date_modified": "2024-10-17T14:08:59.000",
    "request_status": "Pending",
    "responsible_agency": "Department of Public Works",
    "final_address": "4525 Baudin St",
    "address_councildis": "A",
    "status": "Pending",
    "contractor": "Legacy Professional Services",
    "rowid": "1141927",
    "final_x": "3668568.61946",
    "final_y": "538301.421257",
    "longitude": "-90.10867423173123",
    "latitude": "29.97452863085868",
    "geocoded_column": {
      "latitude": "29.97452863085868",
      "longitude": "-90.10867423173123"
    }
  },
  {
    "service_request": "2024-1141926",
    "request_type": "Property Maintenance",
    "request_reason": "Property Maintenance",
    "date_created": "2024-10-17T14:08:29.000",
    "date_modified": "2024-10-17T14:08:30.000",
    "request_status": "Pending",
    "responsible_agency": "Department of Code Enforcement",
    "final_address": "4710 Knight Dr",
    "address_councildis": "E",
    "status": "Pending",
    "rowid": "1141926",
    "final_x": "3708084.16657",
    "final_y": "555317.888729",
    "longitude": "-89.98324245829785",
    "latitude": "30.02009702263712",
    "geocoded_column": {
      "latitude": "30.02009702263712",
      "longitude": "-89.98324245829785"
    }
  },
  {
    "service_request": "2024-1141925",
    "request_type": "Trash/Recycling",
    "request_reason": "Request a Large Item Pick Up",
    "date_created": "2024-10-17T14:08:08.000",
    "date_modified": "2024-10-17T14:08:10.000",
    "request_status": "Pending",
    "responsible_agency": "Department of Sanitation",
    "final_address": "3011 Sullen Pl",
    "address_councildis": "C",
    "status": "Assigned to Contractor",
    "contractor": "Richards Disposal",
    "rowid": "1141925",
    "final_x": "3707785.08331",
    "final_y": "519617.937592",
    "longitude": "-89.98551429608008",
    "latitude": "29.921944987773887",
    "geocoded_column": {
      "latitude": "29.921944987773887",
      "longitude": "-89.98551429608008"
    }
  },
  {
    "service_request": "2024-1141924",
    "request_type": "Health Related Request",
    "request_reason": "Homeless Encampment Complaint",
    "date_created": "2024-10-17T14:07:41.000",
    "date_modified": "2024-10-17T14:07:41.000",
    "request_status": "Pending",
    "responsible_agency": "Health Department",
    "final_address": "3233 St Bernard Ave",
    "address_councildis": "D",
    "rowid": "1141924",
    "final_x": "3678880.94984",
    "final_y": "544486.859279",
    "longitude": "-90.0758910135286",
    "latitude": "29.991229346777356",
    "geocoded_column": {
      "latitude": "29.991229346777356",
      "longitude": "-90.0758910135286"
    }
  },
  {
    "service_request": "2024-1141923",
    "request_type": "Trash/Recycling",
    "request_reason": "Replace Recycling Cart",
    "date_created": "2024-10-17T14:06:42.000",
    "date_modified": "2024-10-17T14:06:42.000",
    "request_status": "Pending",
    "responsible_agency": "Department of Sanitation",
    "final_address": "827 Homedale St",
    "address_councildis": "A",
    "status": "Pending",
    "rowid": "1141923",
    "final_x": "3669067.72558",
    "final_y": "544733.841231",
    "longitude": "-90.10688048518625",
    "latitude": "29.992200922571172",
    "geocoded_column": {
      "latitude": "29.992200922571172",
      "longitude": "-90.10688048518625"
    }
  },
  {
    "service_request": "2024-1141922",
    "request_type": "Roads and Streets",
    "request_reason": "Pothole",
    "date_created": "2024-10-17T14:06:06.000",
    "date_modified": "2024-10-17T14:06:06.000",
    "request_status": "Pending",
    "responsible_agency": "Department of Public Works",
    "final_address": "9000 BLK Hickory St",
    "address_councildis": "A",
    "status": "Pending",
    "rowid": "1141922",
    "final_x": "3660717.92525",
    "final_y": "532351.390465",
    "longitude": "-90.13366550633692",
    "latitude": "29.958396369159452",
    "geocoded_column": {
      "latitude": "29.958396369159452",
      "longitude": "-90.13366550633692"
    }
  },
  {
    "service_request": "2024-1141921",
    "request_type": "Trash/Recycling",
    "request_reason": "Request a Large Item Pick Up",
    "date_created": "2024-10-17T14:03:19.000",
    "date_modified": "2024-10-17T14:03:20.000",
    "request_status": "Pending",
    "responsible_agency": "Department of Sanitation",
    "final_address": "4010 General Ogden St",
    "address_councildis": "A",
    "status": "Assigned to Contractor",
    "contractor": "IV Waste",
    "rowid": "1141921",
    "final_x": "3666611.57133",
    "final_y": "537729.40212",
    "longitude": "-90.1148742977108",
    "latitude": "29.97301313785782",
    "geocoded_column": {
      "latitude": "29.97301313785782",
      "longitude": "-90.1148742977108"
    }
  },
  {
    "service_request": "2024-1141920",
    "request_type": "Property Maintenance",
    "request_reason": "Property Maintenance",
    "date_created": "2024-10-17T14:00:35.000",
    "date_modified": "2024-10-17T14:00:35.000",
    "request_status": "Pending",
    "responsible_agency": "Department of Code Enforcement",
    "final_address": "6131 Providence Pl",
    "address_councildis": "D",
    "status": "Pending",
    "rowid": "1141920",
    "final_x": "3688382.06851",
    "final_y": "555843.987993",
    "longitude": "-90.04547603225951",
    "latitude": "30.022167185284534",
    "geocoded_column": {
      "latitude": "30.022167185284534",
      "longitude": "-90.04547603225951"
    }
  },
  {
    "service_request": "2024-1141919",
    "request_type": "Trash/Recycling",
    "request_reason": "Repair Recycling Cart",
    "date_created": "2024-10-17T13:56:49.000",
    "date_modified": "2024-10-17T13:56:49.000",
    "request_status": "Pending",
    "responsible_agency": "Department of Sanitation",
    "final_address": "2525 Jena St",
    "address_councildis": "B",
    "status": "Pending",
    "rowid": "1141919",
    "final_x": "3670150.45633",
    "final_y": "524221.543868",
    "longitude": "-90.10415541254439",
    "latitude": "29.93576702736683",
    "geocoded_column": {
      "latitude": "29.93576702736683",
      "longitude": "-90.10415541254439"
    }
  },
  {
    "service_request": "2024-1141918",
    "request_type": "Roads and Streets",
    "request_reason": "Pothole",
    "date_created": "2024-10-17T13:55:14.000",
    "date_modified": "2024-10-17T13:55:14.000",
    "request_status": "Pending",
    "responsible_agency": "Department of Public Works",
    "final_address": "100 BLK Nashville Ave",
    "address_councildis": "A",
    "status": "Pending",
    "rowid": "1141918",
    "final_x": "3665042.67939",
    "final_y": "516819.405453",
    "longitude": "-90.1205281572945",
    "latitude": "29.915563149029442",
    "geocoded_column": {
      "latitude": "29.915563149029442",
      "longitude": "-90.1205281572945"
    }
  },
  {
    "service_request": "2024-1141917",
    "request_type": "Trash/Recycling",
    "request_reason": "Request a Large Item Pick Up",
    "date_created": "2024-10-17T13:50:57.000",
    "date_modified": "2024-10-17T13:50:58.000",
    "request_status": "Pending",
    "responsible_agency": "Department of Sanitation",
    "final_address": "6964 Canal Blvd",
    "address_councildis": "A",
    "status": "Assigned to Contractor",
    "contractor": "IV Waste",
    "rowid": "1141917",
    "final_x": "3668912.08775",
    "final_y": "553849.650199",
    "longitude": "-90.107063953249",
    "latitude": "30.01727079895317",
    "geocoded_column": {
      "latitude": "30.01727079895317",
      "longitude": "-90.107063953249"
    }
  },
  {
    "service_request": "2024-1141916",
    "request_type": "Property Maintenance",
    "request_reason": "Property Maintenance",
    "date_created": "2024-10-17T13:49:32.000",
    "date_modified": "2024-10-17T13:49:33.000",
    "request_status": "Pending",
    "responsible_agency": "Department of Code Enforcement",
    "final_address": "2600 Prancer St",
    "address_councildis": "C",
    "status": "Pending",
    "rowid": "1141916",
    "final_x": "3699654.9626",
    "final_y": "521407.926649",
    "longitude": "-90.01111229928902",
    "latitude": "29.92712729692456",
    "geocoded_column": {
      "latitude": "29.92712729692456",
      "longitude": "-90.01111229928902"
    }
  },
  {
    "service_request": "2024-1141915",
    "request_type": "Trash/Recycling",
    "request_reason": "Request a Large Item Pick Up",
    "date_created": "2024-10-17T13:47:25.000",
    "date_modified": "2024-10-17T13:47:26.000",
    "request_status": "Pending",
    "responsible_agency": "Department of Sanitation",
    "final_address": "3130 Hudson Pl",
    "address_councildis": "C",
    "status": "Assigned to Contractor",
    "contractor": "Richards Disposal",
    "rowid": "1141915",
    "final_x": "3703058.32849",
    "final_y": "519113.772343",
    "longitude": "-90.00045307088558",
    "latitude": "29.920710741109755",
    "geocoded_column": {
      "latitude": "29.920710741109755",
      "longitude": "-90.00045307088558"
    }
  },
  {
    "service_request": "2024-1141914",
    "request_type": "Abandoned Vehicles",
    "request_reason": "Abandoned/Junk Vehicles",
    "date_created": "2024-10-17T13:47:10.000",
    "date_modified": "2024-10-17T13:47:10.000",
    "request_status": "Pending",
    "responsible_agency": "Department of Public Works",
    "final_address": "2111 Dauphine St",
    "address_councildis": "C",
    "status": "Inspected",
    "rowid": "1141914",
    "final_x": "3684797.81999",
    "final_y": "535321.755014",
    "longitude": "-90.05752334930858",
    "latitude": "29.965848660190293",
    "geocoded_column": {
      "latitude": "29.965848660190293",
      "longitude": "-90.05752334930858"
    }
  },
  {
    "service_request": "2024-1141913",
    "request_type": "Health Related Request",
    "request_reason": "Homeless Encampment Complaint",
    "date_created": "2024-10-17T13:45:41.000",
    "date_modified": "2024-10-17T13:45:41.000",
    "request_status": "Pending",
    "responsible_agency": "Health Department",
    "final_address": "400 BLK Elysian Fields Ave",
    "address_councildis": "C",
    "status": "Pending",
    "rowid": "1141913",
    "final_x": "3685139.35508",
    "final_y": "533994.709357",
    "longitude": "-90.05649149338849",
    "latitude": "29.96218928237921",
    "geocoded_column": {
      "latitude": "29.96218928237921",
      "longitude": "-90.05649149338849"
    }
  },
  {
    "service_request": "2024-1141912",
    "request_type": "Abandoned Vehicles",
    "request_reason": "Abandoned/Junk Vehicles",
    "date_created": "2024-10-17T13:44:52.000",
    "date_modified": "2024-10-17T13:44:52.000",
    "request_status": "Pending",
    "responsible_agency": "Department of Public Works",
    "final_address": "4103 S Miro St",
    "address_councildis": "B",
    "status": "Pending",
    "rowid": "1141912",
    "final_x": "3670955.62823",
    "final_y": "527946.940799",
    "longitude": "-90.10148702661363",
    "latitude": "29.945986884312326",
    "geocoded_column": {
      "latitude": "29.945986884312326",
      "longitude": "-90.10148702661363"
    }
  },
  {
    "service_request": "2024-1141911",
    "request_type": "Drainage",
    "request_reason": "Drainage Manhole Cover Missing or Damaged",
    "date_created": "2024-10-17T13:40:38.000",
    "date_modified": "2024-10-17T13:40:39.000",
    "request_status": "Pending",
    "responsible_agency": "Department of Public Works",
    "final_address": "2610 Prancer St",
    "address_councildis": "C",
    "status": "Pending",
    "rowid": "1141911",
    "final_x": "3699650.11357",
    "final_y": "521349.996921",
    "longitude": "-90.0111297164841",
    "latitude": "29.926968163958133",
    "geocoded_column": {
      "latitude": "29.926968163958133",
      "longitude": "-90.0111297164841"
    }
  },
  {
    "service_request": "2024-1141910",
    "request_type": "Trash/Recycling",
    "request_reason": "Repair Trash Cart",
    "date_created": "2024-10-17T13:39:07.000",
    "date_modified": "2024-10-17T13:39:08.000",
    "request_status": "Pending",
    "responsible_agency": "Department of Sanitation",
    "final_address": "1718 Peniston St",
    "address_councildis": "B",
    "status": "Assigned to Contractor",
    "contractor": "IV Waste",
    "rowid": "1141910",
    "final_x": "3672693.12923",
    "final_y": "521702.540217",
    "longitude": "-90.0962139987705",
    "latitude": "29.928765336208063",
    "geocoded_column": {
      "latitude": "29.928765336208063",
      "longitude": "-90.0962139987705"
    }
  },
  {
    "service_request": "2024-1141909",
    "request_type": "Trash/Recycling",
    "request_reason": "Request a Large Item Pick Up",
    "date_created": "2024-10-17T13:38:36.000",
    "date_modified": "2024-10-17T13:38:37.000",
    "request_status": "Pending",
    "responsible_agency": "Department of Sanitation",
    "final_address": "7331 Beauvoir Ct",
    "address_councildis": "E",
    "status": "Assigned to Contractor",
    "contractor": "Waste Pro",
    "rowid": "1141909",
    "final_x": "3716054.63365",
    "final_y": "567975.436773",
    "longitude": "-89.95757840081707",
    "latitude": "30.05463954050383",
    "geocoded_column": {
      "latitude": "30.05463954050383",
      "longitude": "-89.95757840081707"
    }
  },
  {
    "service_request": "2024-1141908",
    "request_type": "Abandoned Vehicles",
    "request_reason": "Abandoned/Junk Vehicles",
    "date_created": "2024-10-17T13:38:13.000",
    "date_modified": "2024-10-17T13:38:13.000",
    "request_status": "Pending",
    "responsible_agency": "Department of Public Works",
    "final_address": "600 BLK N Rocheblave St",
    "address_councildis": "D",
    "status": "Inspected",
    "rowid": "1141908",
    "final_x": "3677293.19164",
    "final_y": "536019.563247",
    "longitude": "-90.0811986548511",
    "latitude": "29.967995019085013",
    "geocoded_column": {
      "latitude": "29.967995019085013",
      "longitude": "-90.0811986548511"
    }
  },
  {
    "service_request": "2024-1141907",
    "request_type": "Trash/Recycling",
    "request_reason": "Request a Large Item Pick Up",
    "date_created": "2024-10-17T13:32:29.000",
    "date_modified": "2024-10-17T13:32:31.000",
    "request_status": "Pending",
    "responsible_agency": "Department of Sanitation",
    "final_address": "2742 Dreux Ave",
    "address_councildis": "D",
    "status": "Assigned to Contractor",
    "contractor": "IV Waste",
    "rowid": "1141907",
    "final_x": "3687756.48956",
    "final_y": "552279.061974",
    "longitude": "-90.0475790977621",
    "latitude": "30.012384274740093",
    "geocoded_column": {
      "latitude": "30.012384274740093",
      "longitude": "-90.0475790977621"
    }
  },
  {
    "service_request": "2024-1141906",
    "request_type": "Drainage",
    "request_reason": "Catch Basin Clogged",
    "date_created": "2024-10-17T13:29:35.000",
    "date_modified": "2024-10-17T13:29:36.000",
    "request_status": "Pending",
    "responsible_agency": "Department of Public Works",
    "final_address": "217 S Solomon St",
    "address_councildis": "A",
    "status": "Pending",
    "rowid": "1141906",
    "final_x": "3670201.34881",
    "final_y": "538291.429321",
    "longitude": "-90.1035180017303",
    "latitude": "29.974453072765638",
    "geocoded_column": {
      "latitude": "29.974453072765638",
      "longitude": "-90.1035180017303"
    }
  },