[
  {
    "service_request": "2021-840690",
    "request_type": "Abandoned Vehicles",
    "request_reason": "Abandoned/Junk Vehicles",
    "date_created": "2021-11-08T23:13:02.000",
    "date_modified": "2021-11-09T00:01:20.000",
    "request_status": "Pending",
    "responsible_agency": "Department of Public Works",
    "final_address": "932 Harrison Ave",
    "address_councildis": "A",
    "status": "Pending",
    "rowid": "840690",
    "final_x": "3670225.90574",
    "final_y": "549040.399251",
    "longitude": "-90.10307595606615",
    "latitude": "30.0040083261583",
    "geocoded_column": {
      "latitude": "30.0040083261583",
      "longitude": "-90.10307595606615"
    }
  },
  {
    "service_request": "2021-840689",
    "request_type": "Trash/Recycling",
    "request_reason": "Replace Recycling Cart",
    "date_created": "2021-11-08T23:04:58.000",
    "date_modified": "2021-11-08T23:04:58.000",
    "request_status": "Pending",
    "responsible_agency": "Department of Sanitation",
    "final_address": "2636 Valence St",
    "address_councildis": "B",
    "status": "Pending",
    "rowid": "840689",
    "final_x": "3669311.40001",
    "final_y": "524579.39174",
    "longitude": "-90.10679224143358",
    "latitude": "29.936775716468127",
    "geocoded_column": {
      "latitude": "29.936775716468127",
      "longitude": "-90.10679224143358"
    }
  },
  {
    "service_request": "2021-840688",
    "request_type": "Trash/Recycling",
    "request_reason": "Replace Trash Cart",
    "date_created": "2021-11-08T23:01:53.000",
    "date_modified": "2021-11-08T23:01:54.000",
    "request_status": "Pending",
    "responsible_agency": "Department of Sanitation",
    "final_address": "2708 Valence St",
    "address_councildis": "B",
    "status": "Assigned to Contractor",
    "contractor": "Richards Disposal",
    "rowid": "840688",
    "final_x": "3669300.5954",
    "final_y": "524713.706172",
    "longitude": "-90.10682181329202",
    "latitude": "29.9371453559079",
    "geocoded_column": {
      "latitude": "29.9371453559079",
      "longitude": "-90.10682181329202"
    }
  },
  {
    "service_request": "2021-840687",
    "request_type": "Traffic Signals/Signs/Striping/Streetlights",
    "request_reason": "Traffic Sign Missing/Damaged",
    "date_created": "2021-11-08T22:57:23.000",
    "date_modified": "2021-11-08T22:57:23.000",
    "request_status": "Pending",
    "responsible_agency": "Department of Public Works",
    "final_address": "4701 Magnolia St",
    "address_councildis": "B",
    "status": "Pending",
    "rowid": "840687",
    "final_x": "3669305.31655",
    "final_y": "524653.009916",
    "longitude": "-90.1068089594455",
    "latitude": "29.93697832179854",
    "geocoded_column": {
      "latitude": "29.93697832179854",
      "longitude": "-90.1068089594455"
    }
  },
  {
    "service_request": "2021-840686",
    "request_type": "Trash/Recycling",
    "request_reason": "Illegal Dumping",
    "date_created": "2021-11-08T22:01:56.000",
    "date_modified": "2021-11-08T22:01:56.000",
    "request_status": "Pending",
    "responsible_agency": "Department of Sanitation",
    "final_address": "700 Josephine St",
    "address_councildis": "B",
    "status": "Pending",
    "rowid": "840686",
    "final_x": "3680003.51119",
    "final_y": "521171.031609",
    "longitude": "-90.07315508455672",
    "latitude": "29.927084812990657",
    "geocoded_column": {
      "latitude": "29.927084812990657",
      "longitude": "-90.07315508455672"
    }
  },
  {
    "service_request": "2021-840685",
    "request_type": "Traffic Signals/Signs/Striping/Streetlights",
    "request_reason": "Street Light Outage/Malfunction",
    "date_created": "2021-11-08T21:20:38.000",
    "date_modified": "2021-11-08T21:20:39.000",
    "request_status": "Pending",
    "responsible_agency": "Department of Public Works",
    "final_address": "5928 General Haig St",
    "address_councildis": "A",
    "status": "Pending",
    "contractor": "Royal Engineering",
    "rowid": "840685",
    "final_x": "3670435.13147",
    "final_y": "546685.038481",
    "longitude": "-90.10249490325195",
    "latitude": "29.997525725609407",
    "geocoded_column": {
      "latitude": "29.997525725609407",
      "longitude": "-90.10249490325195"
    }
  },
  {
    "service_request": "2021-840684",
    "request_type": "Abandoned Vehicles",
    "request_reason": "Abandoned/Junk Vehicles",
    "date_created": "2021-11-08T21:07:52.000",
    "date_modified": "2021-11-08T21:07:52.000",
    "request_status": "Pending",
    "responsible_agency": "Department of Public Works",
    "status": "Pending",
    "rowid": "840684",
    "longitude": "0.0",
    "latitude": "0.0",
    "geocoded_column": {
      "latitude": "0.0",
      "longitude": "0.0"
    }
  },
  {
    "service_request": "2021-840683",
    "request_type": "Health Related Questions",
    "request_reason": "Noise Ordinance Complaint",
    "date_created": "2021-11-08T21:01:58.000",
    "date_modified": "2021-11-08T22:01:39.000",
    "request_status": "Pending",
    "responsible_agency": "Health Department",
    "final_address": "5317 Saint Charles Ave, New Orleans, Louisiana, 70115",
    "status": "Pending",
    "rowid": "840683",
    "longitude": "0.0",
    "latitude": "0.0",
    "geocoded_column": {
      "latitude": "0.0",
      "longitude": "0.0"
    }
  },
  {
    "service_request": "2021-840682",
    "request_type": "Roads/Drainage",
    "request_reason": "Catch Basin - Clogged",
    "date_created": "2021-11-08T20:39:59.000",
    "date_modified": "2021-11-08T20:39:59.000",
    "request_status": "Pending",
    "responsible_agency": "Department of Public Works",
    "final_address": "PRYTANIA ST & LOUISIANA AVE",
    "address_councildis": "B",
    "status": "Pending",
    "rowid": "840682",
    "final_x": "3674402.4",
    "final_y": "521036.18",
    "longitude": "-90.09084098464633",
    "latitude": "29.92688220672283",
    "geocoded_column": {
      "latitude": "29.92688220672283",
      "longitude": "-90.09084098464633"
    }
  },
  {
    "service_request": "2021-840681",
    "request_type": "Trash/Recycling",
    "request_reason": "Request a Large Item Pick Up",
    "date_created": "2021-11-08T20:39:51.000",
    "date_modified": "2021-11-08T20:39:52.000",
    "request_status": "Pending",
    "responsible_agency": "Department of Sanitation",
    "final_address": "7905 Cohn St",
    "address_councildis": "A",
    "status": "Assigned to Contractor",
    "contractor": "Richards Disposal",
    "rowid": "840681",
    "final_x": "3664166.91149",
    "final_y": "529729.026689",
    "longitude": "-90.12286196254351",
    "latitude": "29.951085978618316",
    "geocoded_column": {
      "latitude": "29.951085978618316",
      "longitude": "-90.12286196254351"
    }
  },
  {
    "service_request": "2021-840680",
    "request_type": "Abandoned Vehicles",
    "request_reason": "Abandoned/Junk Vehicles",
    "date_created": "2021-11-08T20:13:45.000",
    "date_modified": "2021-11-08T20:13:45.000",
    "request_status": "Pending",
    "responsible_agency": "Department of Public Works",
    "final_address": "4137 Gibson St",
    "address_councildis": "D",
    "status": "Pending",
    "rowid": "840680",
    "final_x": "3678772.49998",
    "final_y": "547588.758994",
    "longitude": "-90.07612607684402",
    "latitude": "29.999761748591496",
    "geocoded_column": {
      "latitude": "29.999761748591496",
      "longitude": "-90.07612607684402"
    }
  },
  {
    "service_request": "2021-840679",
    "request_type": "Traffic Signals/Signs/Striping/Streetlights",
    "request_reason": "Street Light Outage/Malfunction",
    "date_created": "2021-11-08T19:55:57.000",
    "date_modified": "2021-11-08T19:55:58.000",
    "request_status": "Pending",
    "responsible_agency": "Department of Public Works",
    "final_address": "BELLAIRE DR & ACADEMY DR",
    "address_councildis": "A",
    "status": "Pending",
    "contractor": "Royal Engineering",
    "rowid": "840679",
    "final_x": "3664152.2",
    "final_y": "545718.58",
    "longitude": "-90.12237485156511",
    "latitude": "29.995052372101675",
    "geocoded_column": {
      "latitude": "29.995052372101675",
      "longitude": "-90.12237485156511"
    }
  },
  {
    "service_request": "2021-840678",
    "request_type": "Trash/Recycling",
    "request_reason": "Start Trash Service",
    "date_created": "2021-11-08T19:46:00.000",
    "date_modified": "2021-11-08T20:02:37.000",
    "request_status": "Pending",
    "responsible_agency": "Department of Sanitation",
    "final_address": "4835 Shalimar Dr",
    "address_councildis": "D",
    "status": "Assigned to Contractor",
    "contractor": "Metro Disposal",
    "rowid": "840678",
    "final_x": "3697172.74903",
    "final_y": "554743.870552",
    "longitude": "-90.01773973659797",
    "latitude": "30.018867680395214",
    "geocoded_column": {
      "latitude": "30.018867680395214",
      "longitude": "-90.01773973659797"
    }
  },
  {
    "service_request": "2021-840677",
    "request_type": "Trash/Recycling",
    "request_reason": "Order Trash Cart",
    "date_created": "2021-11-08T19:38:41.000",
    "date_modified": "2021-11-08T20:02:40.000",
    "request_status": "Pending",
    "responsible_agency": "Department of Sanitation",
    "final_address": "New Orleans,LA",
    "status": "Assigned to Contractor",
    "rowid": "840677",
    "longitude": "0.0",
    "latitude": "0.0",
    "geocoded_column": {
      "latitude": "0.0",
      "longitude": "0.0"
    }
  },
  {
    "service_request": "2021-840676",
    "request_type": "Traffic Signals/Signs/Striping/Streetlights",
    "request_reason": "Street Light Outage/Malfunction",
    "date_created": "2021-11-08T19:02:18.000",
    "date_modified": "2021-11-08T19:02:18.000",
    "request_status": "Pending",
    "responsible_agency": "Department of Public Works",
    "final_address": "5670 Rosemary Pl",
    "address_councildis": "A",
    "status": "Pending",
    "contractor": "Royal Engineering",
    "rowid": "840676",
    "final_x": "3667117.12986",
    "final_y": "545258.179535",
    "longitude": "-90.11302441326724",
    "latitude": "29.993699937158567",
    "geocoded_column": {
      "latitude": "29.993699937158567",
      "longitude": "-90.11302441326724"
    }
  },
  {
    "service_request": "2021-840675",
    "request_type": "Trash/Recycling",
    "request_reason": "Request a Large Item Pick Up",
    "date_created": "2021-11-08T18:53:59.000",
    "date_modified": "2021-11-08T18:54:00.000",
    "request_status": "Pending",
    "responsible_agency": "Department of Sanitation",
    "final_address": "519 Belleville St",
    "address_councildis": "C",
    "status": "Assigned to Contractor",
    "contractor": "Richards Disposal",
    "rowid": "840675",
    "final_x": "3687795.75855",
    "final_y": "529760.587905",
    "longitude": "-90.04825294201349",
    "latitude": "29.95046524777245",
    "geocoded_column": {
      "latitude": "29.95046524777245",
      "longitude": "-90.04825294201349"
    }
  },
  {
    "service_request": "2021-840674",
    "request_type": "Mosquito, Termite & Rodent Control",
    "request_reason": "Non-Rodent Complaint (Mice, Possums, Snakes)",
    "date_created": "2021-11-08T18:51:31.000",
    "date_modified": "2021-11-08T18:51:31.000",
    "request_status": "Pending",
    "responsible_agency": "Mosquito, Termite & Rodent Control Board",
    "final_address": "4000 Prytania St",
    "address_councildis": "B",
    "status": "Pending",
    "rowid": "840674",
    "final_x": "3672337.46235",
    "final_y": "520424.18028",
    "longitude": "-90.09738029716965",
    "latitude": "29.925260810600854",
    "geocoded_column": {
      "latitude": "29.925260810600854",
      "longitude": "-90.09738029716965"
    }
  },
  {
    "service_request": "2021-840673",
    "request_type": "Traffic Signals/Signs/Striping/Streetlights",
    "request_reason": "Street Light Outage/Malfunction",
    "date_created": "2021-11-08T18:42:55.000",
    "date_modified": "2021-11-08T19:01:43.000",
    "request_status": "Pending",
    "responsible_agency": "Department of Public Works",
    "final_address": "5464 Patio Way",
    "address_councildis": "E",
    "status": "Pending",
    "contractor": "Royal Engineering",
    "rowid": "840673",
    "final_x": "3725680.05126",
    "final_y": "563929.456545",
    "longitude": "-89.92731194745909",
    "latitude": "30.04319350482201",
    "geocoded_column": {
      "latitude": "30.04319350482201",
      "longitude": "-89.92731194745909"
    }
  },
  {
    "service_request": "2021-840672",
    "request_type": "Trash/Recycling",
    "request_reason": "Illegal Dumping",
    "date_created": "2021-11-08T18:35:41.000",
    "date_modified": "2021-11-08T18:35:41.000",
    "request_status": "Pending",
    "responsible_agency": "Department of Sanitation",
    "final_address": "1652 N Johnson St",
    "address_councildis": "D",
    "status": "Pending",
    "rowid": "840672",
    "final_x": "3681358.58268",
    "final_y": "539003.28321",
    "longitude": "-90.0682559821155",
    "latitude": "29.976076438118238",
    "geocoded_column": {
      "latitude": "29.976076438118238",
      "longitude": "-90.0682559821155"
    }
  },
  {
    "service_request": "2021-840671",
    "request_type": "Traffic Signals/Signs/Striping/Streetlights",
    "request_reason": "Street Light Outage/Malfunction",
    "date_created": "2021-11-08T18:16:19.000",
    "date_modified": "2021-11-08T19:01:46.000",
    "request_status": "Pending",
    "responsible_agency": "Department of Public Works",
    "final_address": "913 Navarre St",
    "address_councildis": "A",
    "status": "Pending",
    "contractor": "Royal Engineering",
    "rowid": "840671",
    "final_x": "3669644.4571",
    "final_y": "543785.70747",
    "longitude": "-90.10509080294862",
    "latitude": "29.989576893944314",
    "geocoded_column": {
      "latitude": "29.989576893944314",
      "longitude": "-90.10509080294862"
    }
  },
  {
    "service_request": "2021-840670",
    "request_type": "Trash/Recycling",
    "request_reason": "Missed Trash Pick-Up",
    "date_created": "2021-11-08T18:05:32.000",
    "date_modified": "2021-11-08T19:01:48.000",
    "request_status": "Pending",
    "responsible_agency": "Department of Sanitation",
    "final_address": "1238 Broadway St",
    "address_councildis": "A",
    "status": "Assigned to Contractor",
    "contractor": "Richards Disposal",
    "rowid": "840670",
    "final_x": "3664296.55239",
    "final_y": "526772.964286",
    "longitude": "-90.12255124736728",
    "latitude": "29.942953991816836",
    "geocoded_column": {
      "latitude": "29.942953991816836",
      "longitude": "-90.12255124736728"
    }
  },
  {
    "service_request": "2021-840669",
    "request_type": "Traffic Signals/Signs/Striping/Streetlights",
    "request_reason": "Request for Stop Sign",
    "date_created": "2021-11-08T18:04:55.000",
    "date_modified": "2021-11-08T19:01:50.000",
    "request_status": "Pending",
    "responsible_agency": "Department of Public Works",
    "final_address": "LAUREL ST & JOSEPH ST",
    "address_councildis": "A",
    "status": "Pending",
    "rowid": "840669",
    "final_x": "3665900.2",
    "final_y": "517884.48",
    "longitude": "-90.11778582540775",
    "latitude": "29.918466786627036",
    "geocoded_column": {
      "latitude": "29.918466786627036",
      "longitude": "-90.11778582540775"
    }
  },
  {
    "service_request": "2021-840668",
    "request_type": "Traffic Signals/Signs/Striping/Streetlights",
    "request_reason": "Street Light Outage/Malfunction",
    "date_created": "2021-11-08T17:54:13.000",
    "date_modified": "2021-11-08T17:54:14.000",
    "request_status": "Pending",
    "responsible_agency": "Department of Public Works",
    "final_address": "5825 S Robertson St",
    "address_councildis": "A",
    "status": "Pending",
    "contractor": "Royal Engineering",
    "rowid": "840668",
    "final_x": "3666780.60321",
    "final_y": "524780.603324",
    "longitude": "-90.11477536170202",
    "latitude": "29.937403231002165",
    "geocoded_column": {
      "latitude": "29.937403231002165",
      "longitude": "-90.11477536170202"
    }
  },
  {
    "service_request": "2021-840667",
    "request_type": "Traffic Signals/Signs/Striping/Streetlights",
    "request_reason": "Street Light Outage/Malfunction",
    "date_created": "2021-11-08T17:51:17.000",
    "date_modified": "2021-11-08T18:01:26.000",
    "request_status": "Pending",
    "responsible_agency": "Department of Public Works",
    "final_address": "4801 Babylon St",
    "address_councildis": "D",
    "status": "Pending",
    "contractor": "Royal Engineering",
    "rowid": "840667",
    "final_x": "3696715.07882",
    "final_y": "554431.109848",
    "longitude": "-90.01919713832015",
    "latitude": "30.01802214726825",
    "geocoded_column": {
      "latitude": "30.01802214726825",
      "longitude": "-90.01919713832015"
    }
  },
  {
    "service_request": "2021-840666",
    "request_type": "Traffic Signals/Signs/Striping/Streetlights",
    "request_reason": "Street Light Outage/Malfunction",
    "date_created": "2021-11-08T17:45:44.000",
    "date_modified": "2021-11-08T18:01:28.000",
    "request_status": "Pending",
    "responsible_agency": "Department of Public Works",
    "final_address": "LARK ST & MARIGNY ST",
    "address_councildis": "D",
    "status": "Pending",
    "contractor": "Royal Engineering",
    "rowid": "840666",
    "final_x": "3683638.7",
    "final_y": "557771.28",
    "longitude": "-90.06039622242679",
    "latitude": "30.027612263428093",
    "geocoded_column": {
      "latitude": "30.027612263428093",
      "longitude": "-90.06039622242679"
    }
  },
  {
    "service_request": "2021-840665",
    "request_type": "Traffic Signals/Signs/Striping/Streetlights",
    "request_reason": "Traffic Signal Malfunctioning/Damaged",
    "date_created": "2021-11-08T17:20:44.000",
    "date_modified": "2021-11-08T17:20:44.000",
    "request_status": "Pending",
    "responsible_agency": "Department of Public Works",
    "final_address": "S PETERS ST & CANAL ST",
    "address_councildis": "B",
    "status": "Pending",
    "rowid": "840665",
    "final_x": "3682201.9",
    "final_y": "529828.18",
    "longitude": "-90.06591306598288",
    "latitude": "29.950822420912697",
    "geocoded_column": {
      "latitude": "29.950822420912697",
      "longitude": "-90.06591306598288"
    }
  },
  {
    "service_request": "2021-840664",
    "request_type": "Traffic Signals/Signs/Striping/Streetlights",
    "request_reason": "Traffic Signal Malfunctioning/Damaged",
    "date_created": "2021-11-08T17:17:09.000",
    "date_modified": "2021-11-08T18:01:30.000",
    "request_status": "Pending",
    "responsible_agency": "Department of Public Works",
    "final_address": "5342 St Charles Ave",
    "address_councildis": "B",
    "status": "Pending",
    "rowid": "840664",
    "final_x": "3667415.0025",
    "final_y": "521133.692857",
    "longitude": "-90.11289514447338",
    "latitude": "29.927356823944127",
    "geocoded_column": {
      "latitude": "29.927356823944127",
      "longitude": "-90.11289514447338"
    }
  },
  {
    "service_request": "2021-840663",
    "request_type": "Traffic Signals/Signs/Striping/Streetlights",
    "request_reason": "Street Light Outage/Malfunction",
    "date_created": "2021-11-08T17:13:57.000",
    "date_modified": "2021-11-08T18:01:32.000",
    "request_status": "Pending",
    "responsible_agency": "Department of Public Works",
    "final_address": "6000 St Charles Ave",
    "address_councildis": "A",
    "status": "Pending",
    "contractor": "Royal Engineering",
    "rowid": "840663",
    "final_x": "3665637.85568",
    "final_y": "522382.40153",
    "longitude": "-90.1184633815831",
    "latitude": "29.930842305352986",
    "geocoded_column": {
      "latitude": "29.930842305352986",
      "longitude": "-90.1184633815831"
    }
  },
  {
    "service_request": "2021-840662",
    "request_type": "Trash/Recycling",
    "request_reason": "MIssed Recycling Pick-Up",
    "date_created": "2021-11-08T17:09:48.000",
    "date_modified": "2021-11-08T17:09:49.000",
    "request_status": "Pending",
    "responsible_agency": "Department of Sanitation",
    "final_address": "2737 Amelia St",
    "address_councildis": "B",
    "status": "Assigned to Contractor",
    "contractor": "Richards Disposal",
    "rowid": "840662",
    "final_x": "3672144.70196",
    "final_y": "525274.596541",
    "longitude": "-90.09782368759977",
    "latitude": "29.938603606485994",
    "geocoded_column": {
      "latitude": "29.938603606485994",
      "longitude": "-90.09782368759977"
    }
  },
  {
    "service_request": "2021-840661",
    "request_type": "Traffic Signals/Signs/Striping/Streetlights",
    "request_reason": "Street Light Outage/Malfunction",
    "date_created": "2021-11-08T17:07:59.000",
    "date_modified": "2021-11-08T18:01:34.000",
    "request_status": "Pending",
    "responsible_agency": "Department of Public Works",
    "final_address": "7802 Haney Dr",
    "address_councildis": "E",
    "status": "Pending",
    "contractor": "Royal Engineering",
    "rowid": "840661",
    "final_x": "3712251.37637",
    "final_y": "567737.11594",
    "longitude": "-89.96960850035641",
    "latitude": "30.054109264712544",
    "geocoded_column": {
      "latitude": "30.054109264712544",
      "longitude": "-89.96960850035641"
    }
  },
  {
    "service_request": "2021-840660",
    "request_type": "Trash/Recycling",
    "request_reason": "Request a Large Item Pick Up",
    "date_created": "2021-11-08T17:05:49.000",
    "date_modified": "2021-11-08T17:05:50.000",
    "request_status": "Pending",
    "responsible_agency": "Department of Sanitation",
    "final_address": "5023 Annunciation St",
    "address_councildis": "B",
    "status": "Assigned to Contractor",
    "contractor": "Richards Disposal",
    "rowid": "840660",
    "final_x": "3668414.30663",
    "final_y": "517589.14623",
    "longitude": "-90.10986005467784",
    "latitude": "29.917581136881925",
    "geocoded_column": {
      "latitude": "29.917581136881925",
      "longitude": "-90.10986005467784"
    }
  },
  {
    "service_request": "2021-840659",
    "request_type": "Roads/Drainage",
    "request_reason": "Street Subsidence (Sinking)",
    "date_created": "2021-11-08T16:56:59.000",
    "date_modified": "2021-11-08T16:56:59.000",
    "request_status": "Pending",
    "responsible_agency": "Department of Public Works",
    "final_address": "7918 Colapissa St",
    "address_councildis": "B",
    "status": "Pending",
    "rowid": "840659",
    "final_x": "3666936.78785",
    "final_y": "532899.681028",
    "longitude": "-90.11400951112105",
    "latitude": "29.959723492027273",
    "geocoded_column": {
      "latitude": "29.959723492027273",
      "longitude": "-90.11400951112105"
    }
  },
  {
    "service_request": "2021-840657",
    "request_type": "Trash/Recycling",
    "request_reason": "Illegal Dumping",
    "date_created": "2021-11-08T16:49:40.000",
    "date_modified": "2021-11-08T16:49:40.000",
    "request_status": "Pending",
    "responsible_agency": "Department of Sanitation",
    "final_address": "6060 General Meyer Ave",
    "address_councildis": "C",
    "status": "Pending",
    "rowid": "840657",
    "final_x": "3706290.11172",
    "final_y": "521284.721081",
    "longitude": "-89.99017157801757",
    "latitude": "29.926576328851077",
    "geocoded_column": {
      "latitude": "29.926576328851077",
      "longitude": "-89.99017157801757"
    }
  },
  {
    "service_request": "2021-840656",
    "request_type": "Property Maintenance",
    "request_reason": "Property Maintenance",
    "date_created": "2021-11-08T16:48:40.000",
    "date_modified": "2021-11-08T16:48:40.000",
    "request_status": "Pending",
    "responsible_agency": "Department of Code Enforcement",
    "final_address": "5820 Louis Xiv St",
    "address_councildis": "A",
    "status": "Pending",
    "rowid": "840656",
    "final_x": "3667916.88148",
    "final_y": "546260.137296",
    "longitude": "-90.11046433195173",
    "latitude": "29.996431532831036",
    "geocoded_column": {
      "latitude": "29.996431532831036",
      "longitude": "-90.11046433195173"
    }
  },
  {
    "service_request": "2021-840655",
    "request_type": "Trash/Recycling",
    "request_reason": "Missed Trash Pick-Up",
    "date_created": "2021-11-08T16:42:01.000",
    "date_modified": "2021-11-08T17:01:15.000",
    "request_status": "Pending",
    "responsible_agency": "Department of Sanitation",
    "final_address": "4910 Laurel St, New Orleans, Louisiana, 70115",
    "address_councildis": "B",
    "status": "Assigned to Contractor",
    "contractor": "Richards Disposal",
    "rowid": "840655",
    "final_x": "3668853.26362",
    "final_y": "517752.459062",
    "longitude": "-90.1084689983005",
    "latitude": "29.91801730078855",
    "geocoded_column": {
      "latitude": "29.91801730078855",
      "longitude": "-90.1084689983005"
    }
  },
  {
    "service_request": "2021-840654",
    "request_type": "Trash/Recycling",
    "request_reason": "Replace Trash Cart",
    "date_created": "2021-11-08T16:30:53.000",
    "date_modified": "2021-11-08T16:30:54.000",
    "request_status": "Pending",
    "responsible_agency": "Department of Sanitation",
    "final_address": "4521 Elba St",
    "address_councildis": "B",
    "status": "Assigned to Contractor",
    "contractor": "Richards Disposal",
    "rowid": "840654",
    "final_x": "3669372.17633",
    "final_y": "530685.914434",
    "longitude": "-90.10639393633625",
    "latitude": "29.953564879133587",
    "geocoded_column": {
      "latitude": "29.953564879133587",
      "longitude": "-90.10639393633625"
    }
  },
  {
    "service_request": "2021-840653",
    "request_type": "Trash/Recycling",
    "request_reason": "Order Recycling Cart",
    "date_created": "2021-11-08T16:26:32.000",
    "date_modified": "2021-11-08T17:01:17.000",
    "case_close_date": "2019-06-18T19:00:00.000",
    "request_status": "Pending",
    "responsible_agency": "Department of Sanitation",
    "final_address": "4204 Clio St",
    "address_councildis": "B",
    "status": "Pending",
    "contractor": "Richards Disposal",
    "rowid": "840653",
    "final_x": "3671525.64923",
    "final_y": "531472.353987",
    "longitude": "-90.09956742233162",
    "latitude": "29.95566374805834",
    "geocoded_column": {
      "latitude": "29.95566374805834",
      "longitude": "-90.09956742233162"
    }
  },
  {
    "service_request": "2021-840652",
    "request_type": "Trash/Recycling",
    "request_reason": "Order Trash Cart",
    "date_created": "2021-11-08T16:25:46.000",
    "date_modified": "2021-11-08T17:01:20.000",
    "case_close_date": "2019-06-18T19:00:00.000",
    "request_status": "Pending",
    "responsible_agency": "Department of Sanitation",
    "final_address": "4204 Clio St",
    "address_councildis": "B",
    "status": "Assigned to Contractor",
    "contractor": "Richards Disposal",
    "rowid": "840652",
    "final_x": "3671525.64923",
    "final_y": "531472.353987",
    "longitude": "-90.09956742233162",
    "latitude": "29.95566374805834",
    "geocoded_column": {
      "latitude": "29.95566374805834",
      "longitude": "-90.09956742233162"
    }
  },
  {
    "service_request": "2021-840651",
    "request_type": "Trash/Recycling",
    "request_reason": "Start Trash Service",
    "date_created": "2021-11-08T16:25:15.000",
    "date_modified": "2021-11-08T17:01:21.000",
    "case_close_date": "2019-06-18T19:00:00.000",
    "request_status": "Pending",
    "responsible_agency": "Department of Sanitation",
    "final_address": "4204 Clio St",
    "address_councildis": "B",
    "status": "Assigned to Contractor",
    "contractor": "Richards Disposal",
    "rowid": "840651",
    "final_x": "3671525.64923",
    "final_y": "531472.353987",
    "longitude": "-90.09956742233162",
    "latitude": "29.95566374805834",
    "geocoded_column": {
      "latitude": "29.95566374805834",
      "longitude": "-90.09956742233162"
    }
  },
  {
    "service_request": "2021-840650",
    "request_type": "Trash/Recycling",
    "request_reason": "Replace Trash Cart",
    "date_created": "2021-11-08T16:24:53.000",
    "date_modified": "2021-11-08T17:01:23.000",
    "request_status": "Pending",
    "responsible_agency": "Department of Sanitation",
    "final_address": "3566 Mimosa Ct",
    "address_councildis": "C",
    "status": "Assigned to Contractor",
    "contractor": "Richards Disposal",
    "rowid": "840650",
    "final_x": "3703274.58878",
    "final_y": "513089.290033",
    "longitude": "-89.99999172435552",
    "latitude": "29.904138556638376",
    "geocoded_column": {
      "latitude": "29.904138556638376",
      "longitude": "-89.99999172435552"
    }
  },
  {
    "service_request": "2021-840648",
    "request_type": "Trash/Recycling",
    "request_reason": "Request a Large Item Pick Up",
    "date_created": "2021-11-08T16:20:30.000",
    "date_modified": "2021-11-08T17:01:25.000",
    "request_status": "Pending",
    "responsible_agency": "Department of Sanitation",
    "final_address": "2462 Mendez St",
    "address_councildis": "D",
    "status": "Assigned to Contractor",
    "contractor": "Metro Disposal",
    "rowid": "840648",
    "final_x": "3685688.01513",
    "final_y": "553525.000087",
    "longitude": "-90.05407035932107",
    "latitude": "30.01587380605924",
    "geocoded_column": {
      "latitude": "30.01587380605924",
      "longitude": "-90.05407035932107"
    }
  },
  {
    "service_request": "2021-840647",
    "request_type": "Abandoned Vehicles",
    "request_reason": "Abandoned/Junk Vehicles",
    "date_created": "2021-11-08T16:19:50.000",
    "date_modified": "2021-11-08T16:19:50.000",
    "request_status": "Pending",
    "responsible_agency": "Department of Public Works",
    "final_address": "4200 BLK Buchanan St",
    "address_councildis": "D",
    "status": "Pending",
    "rowid": "840647",
    "final_x": "3677241.47586",
    "final_y": "547717.906648",
    "longitude": "-90.08095818876563",
    "latitude": "30.00016295945808",
    "geocoded_column": {
      "latitude": "30.00016295945808",
      "longitude": "-90.08095818876563"
    }
  },
  {
    "service_request": "2021-840645",
    "request_type": "Trash/Recycling",
    "request_reason": "Replace Trash Cart",
    "date_created": "2021-11-08T16:14:55.000",
    "date_modified": "2021-11-08T17:01:28.000",
    "request_status": "Pending",
    "responsible_agency": "Department of Sanitation",
    "final_address": "3514 S Miro St",
    "address_councildis": "B",
    "status": "Assigned to Contractor",
    "contractor": "Richards Disposal",
    "rowid": "840645",
    "final_x": "3671188.893",
    "final_y": "527920.405823",
    "longitude": "-90.10075143009779",
    "latitude": "29.945907024304038",
    "geocoded_column": {
      "latitude": "29.945907024304038",
      "longitude": "-90.10075143009779"
    }
  },
  {
    "service_request": "2021-840644",
    "request_type": "Traffic Signals/Signs/Striping/Streetlights",
    "request_reason": "Traffic Signal Malfunctioning/Damaged",
    "date_created": "2021-11-08T16:09:51.000",
    "date_modified": "2021-11-08T16:09:51.000",
    "request_status": "Pending",
    "responsible_agency": "Department of Public Works",
    "final_address": "OLD GENTILLY RD & LOUISA ST",
    "address_councildis": "D",
    "status": "Pending",
    "rowid": "840644",
    "final_x": "3691562.7",
    "final_y": "549283.78",
    "longitude": "-90.03566081991953",
    "latitude": "30.004030369093243",
    "geocoded_column": {
      "latitude": "30.004030369093243",
      "longitude": "-90.03566081991953"
    }
  },
  {
    "service_request": "2021-840643",
    "request_type": "Trash/Recycling",
    "request_reason": "Request a Large Item Pick Up",
    "date_created": "2021-11-08T16:09:25.000",
    "date_modified": "2021-11-08T17:01:29.000",
    "request_status": "Pending",
    "responsible_agency": "Department of Sanitation",
    "final_address": "6566 General Haig St",
    "address_councildis": "A",
    "status": "Assigned to Contractor",
    "contractor": "Metro Disposal",
    "rowid": "840643",
    "final_x": "3670834.01025",
    "final_y": "550982.483541",
    "longitude": "-90.10108886189863",
    "latitude": "30.009330409734932",
    "geocoded_column": {
      "latitude": "30.009330409734932",
      "longitude": "-90.10108886189863"
    }
  },
  {
    "service_request": "2021-840642",
    "request_type": "Trash/Recycling",
    "request_reason": "Return Recycling Cart",
    "date_created": "2021-11-08T16:07:46.000",
    "date_modified": "2021-11-08T17:01:31.000",
    "request_status": "Pending",
    "responsible_agency": "Department of Sanitation",
    "final_address": "6566 General Haig St",
    "address_councildis": "A",
    "status": "Pending",
    "rowid": "840642",
    "final_x": "3670834.01025",
    "final_y": "550982.483541",
    "longitude": "-90.10108886189863",
    "latitude": "30.009330409734932",
    "geocoded_column": {
      "latitude": "30.009330409734932",
      "longitude": "-90.10108886189863"
    }
  },
  {
    "service_request": "2021-840641",
    "request_type": "Parks & Parkways",
    "request_reason": "Tree Stump (removal, grind)",
    "date_created": "2021-11-08T16:03:18.000",
    "date_modified": "2021-11-08T16:03:18.000",
    "request_status": "Pending",
    "responsible_agency": "Department of Parks & Parkway",
    "final_address": "58 Yosemite Dr",
    "address_councildis": "C",
    "status": "Pending",
    "rowid": "840641",
    "final_x": "3699783.27274",
    "final_y": "516541.041653",
    "longitude": "-90.01088457419131",
    "latitude": "29.913740954896877",
    "geocoded_column": {
      "latitude": "29.913740954896877",
      "longitude": "-90.01088457419131"
    }
  },
  {
    "service_request": "2021-840639",
    "request_type": "Trash/Recycling",
    "request_reason": "Replace Trash Cart",
    "date_created": "2021-11-08T15:59:35.000",
    "date_modified": "2021-11-08T15:59:36.000",
    "request_status": "Pending",
    "responsible_agency": "Department of Sanitation",
    "final_address": "30 Lakewood Estates Dr",
    "address_councildis": "C",
    "status": "Assigned to Contractor",
    "contractor": "Richards Disposal",
    "rowid": "840639",
    "final_x": "3701210.03089",
    "final_y": "513068.386225",
    "longitude": "-90.00650822096165",
    "latitude": "29.904146974850537",
    "geocoded_column": {
      "latitude": "29.904146974850537",
      "longitude": "-90.00650822096165"
    }
  },
  {
    "service_request": "2021-840638",
    "request_type": "Abandoned Vehicles",
    "request_reason": "Abandoned/Junk Vehicles",
    "date_created": "2021-11-08T15:54:55.000",
    "date_modified": "2021-11-08T15:54:55.000",
    "request_status": "Pending",
    "responsible_agency": "Department of Public Works",
    "final_address": "6 Marywood Ct",
    "address_councildis": "E",
    "status": "Pending",
    "rowid": "840638",
    "final_x": "3712752.09227",
    "final_y": "566385.221091",
    "longitude": "-89.96807678509569",
    "latitude": "30.05037570930936",
    "geocoded_column": {
      "latitude": "30.05037570930936",
      "longitude": "-89.96807678509569"
    }
  },
  {
    "service_request": "2021-840637",
    "request_type": "Trash/Recycling",
    "request_reason": "Request a Large Item Pick Up",
    "date_created": "2021-11-08T15:48:13.000",
    "date_modified": "2021-11-08T15:48:14.000",
    "request_status": "Pending",
    "responsible_agency": "Department of Sanitation",
    "final_address": "432 14Th St",
    "address_councildis": "A",
    "status": "Assigned to Contractor",
    "contractor": "Metro Disposal",
    "rowid": "840637",
    "final_x": "3664494.42266",
    "final_y": "548120.031954",
    "longitude": "-90.12121355506527",
    "latitude": "30.001645593735713",
    "geocoded_column": {
      "latitude": "30.001645593735713",
      "longitude": "-90.12121355506527"
    }
  },
  {
    "service_request": "2021-840636",
    "request_type": "Parks & Parkways",
    "request_reason": "Request Tree Service (Right of Way/Public Property)",
    "date_created": "2021-11-08T15:48:03.000",
    "date_modified": "2021-11-08T16:01:22.000",
    "request_status": "Pending",
    "responsible_agency": "Department of Parks & Parkway",
    "final_address": "3702 Pauger St",
    "address_councildis": "D",
    "status": "Pending",
    "rowid": "840636",
    "final_x": "3683201.9997",
    "final_y": "543618.689294",
    "longitude": "-90.06227224363757",
    "latitude": "29.98871109336009",
    "geocoded_column": {
      "latitude": "29.98871109336009",
      "longitude": "-90.06227224363757"
    }
  },
  {
    "service_request": "2021-840635",
    "request_type": "Trash/Recycling",
    "request_reason": "Illegal Dumping",
    "date_created": "2021-11-08T15:47:57.000",
    "date_modified": "2021-11-08T15:47:57.000",
    "request_status": "Pending",
    "responsible_agency": "Department of Sanitation",
    "final_address": "5233 Marigny St",
    "address_councildis": "D",
    "status": "Pending",
    "rowid": "840635",
    "final_x": "3684305.9302",
    "final_y": "552353.506774",
    "longitude": "-90.05847830251423",
    "latitude": "30.012694982470993",
    "geocoded_column": {
      "latitude": "30.012694982470993",
      "longitude": "-90.05847830251423"
    }
  },
  {
    "service_request": "2021-840633",
    "request_type": "Trash/Recycling",
    "request_reason": "Illegal Dumping",
    "date_created": "2021-11-08T15:45:52.000",
    "date_modified": "2021-11-08T15:45:52.000",
    "request_status": "Pending",
    "responsible_agency": "Department of Sanitation",
    "final_address": "4763 Pecan St",
    "address_councildis": "E",
    "status": "Pending",
    "rowid": "840633",
    "final_x": "3701875.23498",
    "final_y": "554441.117208",
    "longitude": "-90.00289275596802",
    "latitude": "30.017885929509458",
    "geocoded_column": {
      "latitude": "30.017885929509458",
      "longitude": "-90.00289275596802"
    }
  },
  {
    "service_request": "2021-840632",
    "request_type": "Property Maintenance",
    "request_reason": "Property Maintenance",
    "date_created": "2021-11-08T15:45:03.000",
    "date_modified": "2021-11-08T16:01:24.000",
    "request_status": "Pending",
    "responsible_agency": "Department of Code Enforcement",
    "final_address": "DWYER RD & READ BLVD",
    "address_councildis": "E",
    "status": "Pending",
    "rowid": "840632",
    "final_x": "3712559.5",
    "final_y": "557858.48",
    "longitude": "-89.96900638108654",
    "latitude": "30.026936898070552",
    "geocoded_column": {
      "latitude": "30.026936898070552",
      "longitude": "-89.96900638108654"
    }
  },
  {
    "service_request": "2021-840631",
    "request_type": "Property Maintenance",
    "request_reason": "Property Maintenance",
    "date_created": "2021-11-08T15:42:41.000",
    "date_modified": "2021-11-08T15:42:41.000",
    "request_status": "Pending",
    "responsible_agency": "Department of Code Enforcement",
    "final_address": "DREUX AVE & TULIP ST",
    "address_councildis": "E",
    "status": "Pending",
    "rowid": "840631",
    "final_x": "3702056.5",
    "final_y": "554515.38",
    "longitude": "-90.00231730671757",
    "latitude": "30.018084335465222",
    "geocoded_column": {
      "latitude": "30.018084335465222",
      "longitude": "-90.00231730671757"
    }
  },
  {
    "service_request": "2021-840630",
    "request_type": "Trash/Recycling",
    "request_reason": "Missed Trash Pick-Up",
    "date_created": "2021-11-08T15:41:14.000",
    "date_modified": "2021-11-08T15:41:14.000",
    "case_close_date": "2021-07-22T19:00:00.000",
    "request_status": "Pending",
    "responsible_agency": "Department of Sanitation",
    "final_address": "2411 Athis St",
    "address_councildis": "D",
    "status": "Assigned to Contractor",
    "contractor": "Metro Disposal",
    "rowid": "840630",
    "final_x": "3685190.14345",
    "final_y": "554397.869976",
    "longitude": "-90.05561265472681",
    "latitude": "30.018289151870206",
    "geocoded_column": {
      "latitude": "30.018289151870206",
      "longitude": "-90.05561265472681"
    }
  },
  {
    "service_request": "2021-840629",
    "request_type": "Trash/Recycling",
    "request_reason": "Request a Large Item Pick Up",
    "date_created": "2021-11-08T15:39:11.000",
    "date_modified": "2021-11-08T15:39:11.000",
    "request_status": "Pending",
    "responsible_agency": "Department of Sanitation",
    "final_address": "2305 Carondelet St",
    "address_councildis": "B",
    "status": "Assigned to Contractor",
    "contractor": "Richards Disposal",
    "rowid": "840629",
    "final_x": "3676862.84078",
    "final_y": "523657.371771",
    "longitude": "-90.08298372922299",
    "latitude": "29.934016039860413",
    "geocoded_column": {
      "latitude": "29.934016039860413",
      "longitude": "-90.08298372922299"
    }
  },
  {
    "service_request": "2021-840628",
    "request_type": "Abandoned Vehicles",
    "request_reason": "Abandoned/Junk Vehicles",
    "date_created": "2021-11-08T15:38:44.000",
    "date_modified": "2021-11-08T16:01:25.000",
    "request_status": "Pending",
    "responsible_agency": "Department of Public Works",
    "final_address": "3057 Orleans Ave",
    "address_councildis": "A",
    "status": "Pending",
    "rowid": "840628",
    "final_x": "3675401.59278",
    "final_y": "538119.525385",
    "longitude": "-90.08710026992637",
    "latitude": "29.973825902790754",
    "geocoded_column": {
      "latitude": "29.973825902790754",
      "longitude": "-90.08710026992637"
    }
  },
  {
    "service_request": "2021-840627",
    "request_type": "Trash/Recycling",
    "request_reason": "Missed Trash Pick-Up",
    "date_created": "2021-11-08T15:35:30.000",
    "date_modified": "2021-11-08T16:01:28.000",
    "request_status": "Pending",
    "responsible_agency": "Department of Sanitation",
    "final_address": "1218 Race St",
    "address_councildis": "B",
    "status": "Assigned to Contractor",
    "contractor": "Richards Disposal",
    "rowid": "840627",
    "final_x": "3679562.20181",
    "final_y": "523954.95238",
    "longitude": "-90.07445163294042",
    "latitude": "29.93475301917532",
    "geocoded_column": {
      "latitude": "29.93475301917532",
      "longitude": "-90.07445163294042"
    }
  },
  {
    "service_request": "2021-840626",
    "request_type": "Abandoned Vehicles",
    "request_reason": "Abandoned/Junk Vehicles",
    "date_created": "2021-11-08T15:32:41.000",
    "date_modified": "2021-11-08T16:01:29.000",
    "request_status": "Pending",
    "responsible_agency": "Department of Public Works",
    "final_address": "3057 Orleans Ave",
    "address_councildis": "A",
    "status": "Pending",
    "rowid": "840626",
    "final_x": "3675401.59278",
    "final_y": "538119.525385",
    "longitude": "-90.08710026992637",
    "latitude": "29.973825902790754",
    "geocoded_column": {
      "latitude": "29.973825902790754",
      "longitude": "-90.08710026992637"
    }
  },
  {
    "service_request": "2021-840625",
    "request_type": "Trash/Recycling",
    "request_reason": "Order Trash Cart",
    "date_created": "2021-11-08T15:29:55.000",
    "date_modified": "2021-11-08T16:01:31.000",
    "request_status": "Pending",
    "responsible_agency": "Department of Sanitation",
    "final_address": "1929 Delachaise St",
    "address_councildis": "B",
    "status": "Assigned to Contractor",
    "contractor": "Richards Disposal",
    "rowid": "840625",
    "final_x": "3673329.87912",
    "final_y": "522642.508282",
    "longitude": "-90.09417181724247",
    "latitude": "29.931331026276997",
    "geocoded_column": {
      "latitude": "29.931331026276997",
      "longitude": "-90.09417181724247"
    }
  },
  {
    "service_request": "2021-840624",
    "request_type": "Trash/Recycling",
    "request_reason": "Order Recycling Cart",
    "date_created": "2021-11-08T15:25:53.000",
    "date_modified": "2021-11-08T16:01:34.000",
    "request_status": "Pending",
    "responsible_agency": "Department of Sanitation",
    "final_address": "New Orleans,LA",
    "address_councildis": "B",
    "rowid": "840624",
    "final_x": "3673329.87912",
    "final_y": "522642.508282",
    "longitude": "-90.09417181724247",
    "latitude": "29.931331026276997",
    "geocoded_column": {
      "latitude": "29.931331026276997",
      "longitude": "-90.09417181724247"
    }
  },
  {
    "service_request": "2021-840623",
    "request_type": "Traffic Signals/Signs/Striping/Streetlights",
    "request_reason": "Additional signage",
    "date_created": "2021-11-08T15:25:13.000",
    "date_modified": "2021-11-08T16:01:35.000",
    "request_status": "Pending",
    "responsible_agency": "Department of Public Works",
    "final_address": "New Orleans,LA",
    "address_councildis": "A",
    "rowid": "840623",
    "final_x": "3667142.0",
    "final_y": "554095.38",
    "longitude": "-90.11264846390114",
    "latitude": "30.017998437827995",
    "geocoded_column": {
      "latitude": "30.017998437827995",
      "longitude": "-90.11264846390114"
    }
  },
  {
    "service_request": "2021-840622",
    "request_type": "Traffic Signals/Signs/Striping/Streetlights",
    "request_reason": "Street Light Outage/Malfunction",
    "date_created": "2021-11-08T15:24:51.000",
    "date_modified": "2021-11-08T16:01:38.000",
    "request_status": "Pending",
    "responsible_agency": "Department of Public Works",
    "final_address": "6315 Cartier Dr",
    "address_councildis": "D",
    "status": "Pending",
    "contractor": "Royal Engineering",
    "rowid": "840622",
    "final_x": "3677658.146",
    "final_y": "556128.090522",
    "longitude": "-90.07935114801901",
    "latitude": "30.023275419030103",
    "geocoded_column": {
      "latitude": "30.023275419030103",
      "longitude": "-90.07935114801901"
    }
  },
  {
    "service_request": "2021-840621",
    "request_type": "Abandoned Vehicles",
    "request_reason": "Abandoned/Junk Vehicles",
    "date_created": "2021-11-08T15:24:37.000",
    "date_modified": "2021-11-08T15:24:37.000",
    "request_status": "Pending",
    "responsible_agency": "Department of Public Works",
    "final_address": "91 Camellia Trce",
    "address_councildis": "C",
    "status": "Pending",
    "rowid": "840621",
    "final_x": "3697103.95639",
    "final_y": "523370.172155",
    "longitude": "-90.01909407813771",
    "latitude": "29.932603494393366",
    "geocoded_column": {
      "latitude": "29.932603494393366",
      "longitude": "-90.01909407813771"
    }
  },
  {
    "service_request": "2021-840620",
    "request_type": "Property Maintenance",
    "request_reason": "Property Maintenance",
    "date_created": "2021-11-08T15:20:38.000",
    "date_modified": "2021-11-08T15:20:38.000",
    "request_status": "Pending",
    "responsible_agency": "Department of Code Enforcement",
    "final_address": "5769 Cameron Blvd",
    "address_councildis": "D",
    "status": "Pending",
    "rowid": "840620",
    "final_x": "3682530.48943",
    "final_y": "554648.600408",
    "longitude": "-90.06400738767712",
    "latitude": "30.019059848432168",
    "geocoded_column": {
      "latitude": "30.019059848432168",
      "longitude": "-90.06400738767712"
    }
  },
  {
    "service_request": "2021-840618",
    "request_type": "Abandoned Vehicles",
    "request_reason": "Abandoned/Junk Vehicles",
    "date_created": "2021-11-08T15:20:05.000",
    "date_modified": "2021-11-08T15:20:05.000",
    "request_status": "Pending",
    "responsible_agency": "Department of Public Works",
    "final_address": "56 Camellia Trce",
    "address_councildis": "C",
    "status": "Pending",
    "rowid": "840618",
    "final_x": "3697289.38295",
    "final_y": "523361.649723",
    "longitude": "-90.0185090141104",
    "latitude": "29.932574211404138",
    "geocoded_column": {
      "latitude": "29.932574211404138",
      "longitude": "-90.0185090141104"
    }
  },
  {
    "service_request": "2021-840617",
    "request_type": "Roads/Drainage",
    "request_reason": "Accessibility Ramps, Curbs and Sidewalk Repair",
    "date_created": "2021-11-08T15:17:31.000",
    "date_modified": "2021-11-08T16:01:42.000",
    "request_status": "Pending",
    "responsible_agency": "Department of Public Works",
    "final_address": "5647 Albany Ct",
    "address_councildis": "C",
    "status": "Pending",
    "rowid": "840617",
    "final_x": "3704561.55588",
    "final_y": "521433.177145",
    "longitude": "-89.99562263943751",
    "latitude": "29.927040132560784",
    "geocoded_column": {
      "latitude": "29.927040132560784",
      "longitude": "-89.99562263943751"
    }
  },
  {
    "service_request": "2021-840616",
    "request_type": "Trash/Recycling",
    "request_reason": "Repair Trash Cart",
    "date_created": "2021-11-08T15:15:09.000",
    "date_modified": "2021-11-08T15:15:09.000",
    "request_status": "Pending",
    "responsible_agency": "Department of Sanitation",
    "final_address": "6562 Bellaire Dr",
    "address_councildis": "A",
    "status": "Assigned to Contractor",
    "contractor": "Metro Disposal",
    "rowid": "840616",
    "final_x": "3664381.82042",
    "final_y": "551786.33903",
    "longitude": "-90.12144677995296",
    "latitude": "30.0117299452553",
    "geocoded_column": {
      "latitude": "30.0117299452553",
      "longitude": "-90.12144677995296"
    }
  },
  {
    "service_request": "2021-840615",
    "request_type": "Trash/Recycling",
    "request_reason": "Order Recycling Cart",
    "date_created": "2021-11-08T15:13:29.000",
    "date_modified": "2021-11-08T15:13:29.000",
    "request_status": "Pending",
    "responsible_agency": "Department of Sanitation",
    "final_address": "6562 Bellaire Dr",
    "address_councildis": "A",
    "status": "Pending",
    "rowid": "840615",
    "final_x": "3664381.82042",
    "final_y": "551786.33903",
    "longitude": "-90.12144677995296",
    "latitude": "30.0117299452553",
    "geocoded_column": {
      "latitude": "30.0117299452553",
      "longitude": "-90.12144677995296"
    }
  },
  {
    "service_request": "2021-840614",
    "request_type": "Trash/Recycling",
    "request_reason": "Request a Large Item Pick Up",
    "date_created": "2021-11-08T15:13:05.000",
    "date_modified": "2021-11-08T16:01:44.000",
    "request_status": "Pending",
    "responsible_agency": "Department of Sanitation",
    "final_address": "5647 Albany Ct",
    "address_councildis": "C",
    "status": "Assigned to Contractor",
    "contractor": "Richards Disposal",
    "rowid": "840614",
    "final_x": "3704561.55588",
    "final_y": "521433.177145",
    "longitude": "-89.99562263943751",
    "latitude": "29.927040132560784",
    "geocoded_column": {
      "latitude": "29.927040132560784",
      "longitude": "-89.99562263943751"
    }
  },
  {
    "service_request": "2021-840613",
    "request_type": "Trash/Recycling",
    "request_reason": "Order Trash Cart",
    "date_created": "2021-11-08T15:12:44.000",
    "date_modified": "2021-11-08T15:12:45.000",
    "request_status": "Pending",
    "responsible_agency": "Department of Sanitation",
    "final_address": "6562 Bellaire Dr",
    "address_councildis": "A",
    "status": "Assigned to Contractor",
    "contractor": "Metro Disposal",
    "rowid": "840613",
    "final_x": "3664381.82042",
    "final_y": "551786.33903",
    "longitude": "-90.12144677995296",
    "latitude": "30.0117299452553",
    "geocoded_column": {
      "latitude": "30.0117299452553",
      "longitude": "-90.12144677995296"
    }
  },
  {
    "service_request": "2021-840612",
    "request_type": "Trash/Recycling",
    "request_reason": "Order Recycling Cart",
    "date_created": "2021-11-08T15:11:50.000",
    "date_modified": "2021-11-08T16:01:45.000",
    "request_status": "Pending",
    "responsible_agency": "Department of Sanitation",
    "final_address": "1824 Spain St",
    "address_councildis": "D",
    "status": "Pending",
    "contractor": "Metro Disposal",
    "rowid": "840612",
    "final_x": "3685875.01858",
    "final_y": "539208.379018",
    "longitude": "-90.05398455896075",
    "latitude": "29.97650249739526",
    "geocoded_column": {
      "latitude": "29.97650249739526",
      "longitude": "-90.05398455896075"
    }
  },
  {
    "service_request": "2021-840611",
    "request_type": "Trash/Recycling",
    "request_reason": "Order Trash Cart",
    "date_created": "2021-11-08T15:11:22.000",
    "date_modified": "2021-11-08T16:01:46.000",
    "request_status": "Pending",
    "responsible_agency": "Department of Sanitation",
    "final_address": "1824 Spain St",
    "address_councildis": "D",
    "status": "Assigned to Contractor",
    "contractor": "Metro Disposal",
    "rowid": "840611",
    "final_x": "3685875.01858",
    "final_y": "539208.379018",
    "longitude": "-90.05398455896075",
    "latitude": "29.97650249739526",
    "geocoded_column": {
      "latitude": "29.97650249739526",
      "longitude": "-90.05398455896075"
    }
  },
  {
    "service_request": "2021-840610",
    "request_type": "Trash/Recycling",
    "request_reason": "Start Trash Service",
    "date_created": "2021-11-08T15:11:00.000",
    "date_modified": "2021-11-08T16:01:48.000",
    "request_status": "Pending",
    "responsible_agency": "Department of Sanitation",
    "final_address": "1824 Spain St",
    "address_councildis": "D",
    "status": "Assigned to Contractor",
    "contractor": "Metro Disposal",
    "rowid": "840610",
    "final_x": "3685875.01858",
    "final_y": "539208.379018",
    "longitude": "-90.05398455896075",
    "latitude": "29.97650249739526",
    "geocoded_column": {
      "latitude": "29.97650249739526",
      "longitude": "-90.05398455896075"
    }
  },
  {
    "service_request": "2021-840609",
    "request_type": "Trash/Recycling",
    "request_reason": "Repair Trash Cart",
    "date_created": "2021-11-08T15:09:26.000",
    "date_modified": "2021-11-08T16:01:49.000",
    "request_status": "Pending",
    "responsible_agency": "Department of Sanitation",
    "final_address": "5701 Albany Ct",
    "address_councildis": "C",
    "status": "Assigned to Contractor",
    "contractor": "Richards Disposal",
    "rowid": "840609",
    "final_x": "3704621.89822",
    "final_y": "521411.059001",
    "longitude": "-89.99543297112317",
    "latitude": "29.926977378185867",
    "geocoded_column": {
      "latitude": "29.926977378185867",
      "longitude": "-89.99543297112317"
    }
  },
  {
    "service_request": "2021-840608",
    "request_type": "Traffic Signals/Signs/Striping/Streetlights",
    "request_reason": "Street Light Outage/Malfunction",
    "date_created": "2021-11-08T15:09:25.000",
    "date_modified": "2021-11-08T15:09:26.000",
    "request_status": "Pending",
    "responsible_agency": "Department of Public Works",
    "final_address": "GENERAL OGDEN ST & FORSHEY ST",
    "address_councildis": "A",
    "status": "Pending",
    "contractor": "Royal Engineering",
    "rowid": "840608",
    "final_x": "3664918.2",
    "final_y": "535818.18",
    "longitude": "-90.12028621657238",
    "latitude": "29.967807314423464",
    "geocoded_column": {
      "latitude": "29.967807314423464",
      "longitude": "-90.12028621657238"
    }
  },
  {
    "service_request": "2021-840607",
    "request_type": "Trash/Recycling",
    "request_reason": "Request a Large Item Pick Up",
    "date_created": "2021-11-08T15:06:54.000",
    "date_modified": "2021-11-08T16:01:50.000",
    "request_status": "Pending",
    "responsible_agency": "Department of Sanitation",
    "final_address": "9303 Palm St",
    "address_councildis": "A",
    "status": "Assigned to Contractor",
    "contractor": "Richards Disposal",
    "rowid": "840607",
    "final_x": "3664610.07002",
    "final_y": "537632.462728",
    "longitude": "-90.12119869376794",
    "latitude": "29.972804957246773",
    "geocoded_column": {
      "latitude": "29.972804957246773",
      "longitude": "-90.12119869376794"
    }
  },
  {
    "service_request": "2021-840606",
    "request_type": "Trash/Recycling",
    "request_reason": "Repair Trash Cart",
    "date_created": "2021-11-08T15:04:50.000",
    "date_modified": "2021-11-08T15:06:48.000",
    "request_status": "Pending",
    "responsible_agency": "Department of Sanitation",
    "final_address": "5611 Abbey Dr",
    "address_councildis": "C",
    "status": "Assigned to Contractor",
    "contractor": "Richards Disposal",
    "rowid": "840606",
    "final_x": "3704350.84478",
    "final_y": "521206.431673",
    "longitude": "-89.99629614643311",
    "latitude": "29.92642342378097",
    "geocoded_column": {
      "latitude": "29.92642342378097",
      "longitude": "-89.99629614643311"
    }
  },
  {
    "service_request": "2021-840605",
    "request_type": "Abandoned Vehicles",
    "request_reason": "Vehicle Blocking Your Driveway",
    "date_created": "2021-11-08T15:04:40.000",
    "date_modified": "2021-11-08T15:04:40.000",
    "request_status": "Pending",
    "responsible_agency": "Department of Public Works",
    "final_address": "CLEMATIS AVE & MONTPELIER ST & LAVENDER ST",
    "address_councildis": "D",
    "status": "Pending",
    "rowid": "840605",
    "final_x": "3685905.8",
    "final_y": "546862.78",
    "longitude": "-90.05361734788968",
    "latitude": "29.9975484353928",
    "geocoded_column": {
      "latitude": "29.9975484353928",
      "longitude": "-90.05361734788968"
    }
  },
  {
    "service_request": "2021-840604",
    "request_type": "Trash/Recycling",
    "request_reason": "Request a Large Item Pick Up",
    "date_created": "2021-11-08T15:04:36.000",
    "date_modified": "2021-11-08T16:01:53.000",
    "request_status": "Pending",
    "responsible_agency": "Department of Sanitation",
    "final_address": "326 Belleville St",
    "address_councildis": "C",
    "status": "Assigned to Contractor",
    "contractor": "Richards Disposal",
    "rowid": "840604",
    "final_x": "3687933.49167",
    "final_y": "530540.267714",
    "longitude": "-90.04779043379752",
    "latitude": "29.95260485169471",
    "geocoded_column": {
      "latitude": "29.95260485169471",
      "longitude": "-90.04779043379752"
    }
  },
  {
    "service_request": "2021-840603",
    "request_type": "Trash/Recycling",
    "request_reason": "Request a Large Item Pick Up",
    "date_created": "2021-11-08T15:02:46.000",
    "date_modified": "2021-11-08T16:01:56.000",
    "request_status": "Pending",
    "responsible_agency": "Department of Sanitation",
    "final_address": "2326 Benefit St",
    "address_councildis": "D",
    "status": "Assigned to Contractor",
    "contractor": "Metro Disposal",
    "rowid": "840603",
    "final_x": "3685346.54761",
    "final_y": "544441.314895",
    "longitude": "-90.05546931359649",
    "latitude": "29.99090743498784",
    "geocoded_column": {
      "latitude": "29.99090743498784",
      "longitude": "-90.05546931359649"
    }
  },
  {
    "service_request": "2021-840599",
    "request_type": "Trash/Recycling",
    "request_reason": "Order Trash Cart",
    "date_created": "2021-11-08T14:54:23.000",
    "date_modified": "2021-11-08T14:54:24.000",
    "request_status": "Pending",
    "responsible_agency": "Department of Sanitation",
    "final_address": "10218 Hillwood St",
    "address_councildis": "E",
    "status": "Assigned to Contractor",
    "contractor": "Metro Disposal",
    "rowid": "840599",
    "final_x": "3713269.34072",
    "final_y": "556618.073178",
    "longitude": "-89.96681012244365",
    "latitude": "30.02350301122172",
    "geocoded_column": {
      "latitude": "30.02350301122172",
      "longitude": "-89.96681012244365"
    }
  },
  {
    "service_request": "2021-840598",
    "request_type": "Property Maintenance",
    "request_reason": "Property Maintenance",
    "date_created": "2021-11-08T14:48:10.000",
    "date_modified": "2021-11-08T14:49:34.000",
    "request_status": "Pending",
    "responsible_agency": "Department of Code Enforcement",
    "final_address": "5820 Louis Xiv St",
    "address_councildis": "A",
    "status": "Pending",
    "rowid": "840598",
    "final_x": "3667916.88148",
    "final_y": "546260.137296",
    "longitude": "-90.11046433195173",
    "latitude": "29.996431532831036",
    "geocoded_column": {
      "latitude": "29.996431532831036",
      "longitude": "-90.11046433195173"
    }
  },
  {
    "service_request": "2021-840597",
    "request_type": "Trash/Recycling",
    "request_reason": "Request a Large Item Pick Up",
    "date_created": "2021-11-08T14:44:43.000",
    "date_modified": "2021-11-08T14:44:44.000",
    "request_status": "Pending",
    "responsible_agency": "Department of Sanitation",
    "final_address": "4942 Dreux Ave",
    "address_councildis": "D",
    "status": "Assigned to Contractor",
    "contractor": "Metro Disposal",
    "rowid": "840597",
    "final_x": "3691713.32169",
    "final_y": "553191.340311",
    "longitude": "-90.03504511082541",
    "latitude": "30.014770024397155",
    "geocoded_column": {
      "latitude": "30.014770024397155",
      "longitude": "-90.03504511082541"
    }
  },
  {
    "service_request": "2021-840596",
    "request_type": "Parks & Parkways",
    "request_reason": "Request Tree Service (Right of Way/Public Property)",
    "date_created": "2021-11-08T14:43:40.000",
    "date_modified": "2021-11-08T15:01:46.000",
    "request_status": "Pending",
    "responsible_agency": "Department of Parks & Parkway",
    "final_address": "4412 Perlita St",
    "address_councildis": "D",
    "status": "Pending",
    "rowid": "840596",
    "final_x": "3678706.23854",
    "final_y": "548687.753939",
    "longitude": "-90.07629731268244",
    "latitude": "30.002785593221333",
    "geocoded_column": {
      "latitude": "30.002785593221333",
      "longitude": "-90.07629731268244"
    }
  },
  {
    "service_request": "2021-840595",
    "request_type": "Roads/Drainage",
    "request_reason": "Catch Basin - Clogged",
    "date_created": "2021-11-08T14:40:34.000",
    "date_modified": "2021-11-08T15:01:47.000",
    "request_status": "Pending",
    "responsible_agency": "Department of Public Works",
    "final_address": "4412 Perlita St",
    "address_councildis": "D",
    "status": "Pending",
    "rowid": "840595",
    "final_x": "3678706.23854",
    "final_y": "548687.753939",
    "longitude": "-90.07629731268244",
    "latitude": "30.002785593221333",
    "geocoded_column": {
      "latitude": "30.002785593221333",
      "longitude": "-90.07629731268244"
    }
  },
  {
    "service_request": "2021-840594",
    "request_type": "Property Maintenance",
    "request_reason": "Property Maintenance",
    "date_created": "2021-11-08T14:29:08.000",
    "date_modified": "2021-11-08T14:29:08.000",
    "request_status": "Pending",
    "responsible_agency": "Department of Code Enforcement",
    "final_address": "1728 Governor Nicholls St",
    "address_councildis": "D",
    "status": "Pending",
    "rowid": "840594",
    "final_x": "3680609.274",
    "final_y": "536220.561031",
    "longitude": "-90.07071935920432",
    "latitude": "29.9684476379753",
    "geocoded_column": {
      "latitude": "29.9684476379753",
      "longitude": "-90.07071935920432"
    }
  },
  {
    "service_request": "2021-840593",
    "request_type": "Traffic Signals/Signs/Striping/Streetlights",
    "request_reason": "Traffic Sign Missing/Damaged",
    "date_created": "2021-11-08T14:26:18.000",
    "date_modified": "2021-11-08T14:26:18.000",
    "request_status": "Pending",
    "responsible_agency": "Department of Public Works",
    "final_address": "4301 Elysian Fields Ave",
    "address_councildis": "D",
    "status": "Pending",
    "rowid": "840593",
    "final_x": "3684168.49756",
    "final_y": "548536.593234",
    "longitude": "-90.05904662524222",
    "latitude": "30.002204057057323",
    "geocoded_column": {
      "latitude": "30.002204057057323",
      "longitude": "-90.05904662524222"
    }
  },
  {
    "service_request": "2021-840592",
    "request_type": "Roads/Drainage",
    "request_reason": "Catch Basin - Broken/Damage",
    "date_created": "2021-11-08T14:25:52.000",
    "date_modified": "2021-11-08T14:25:52.000",
    "request_status": "Pending",
    "responsible_agency": "Department of Public Works",
    "final_address": "3604 Tulane Ave",
    "address_councildis": "B",
    "status": "Pending",
    "rowid": "840592",
    "final_x": "3671085.36398",
    "final_y": "535320.448774",
    "longitude": "-90.1008269906526",
    "latitude": "29.966257756875873",
    "geocoded_column": {
      "latitude": "29.966257756875873",
      "longitude": "-90.1008269906526"
    }
  },
  {
    "service_request": "2021-840591",
    "request_type": "Traffic Signals/Signs/Striping/Streetlights",
    "request_reason": "Request for Traffic Calming due to Speeding",
    "date_created": "2021-11-08T14:23:50.000",
    "date_modified": "2021-11-08T14:23:50.000",
    "request_status": "Pending",
    "responsible_agency": "Department of Public Works",
    "final_address": "6069 Wingate Dr",
    "address_councildis": "D",
    "status": "Pending",
    "rowid": "840591",
    "final_x": "3681251.25314",
    "final_y": "555471.873817",
    "longitude": "-90.0680206024088",
    "latitude": "30.021362452435348",
    "geocoded_column": {
      "latitude": "30.021362452435348",
      "longitude": "-90.0680206024088"
    }
  },
  {
    "service_request": "2021-840590",
    "request_type": "Roads/Drainage",
    "request_reason": "Street Subsidence (Sinking)",
    "date_created": "2021-11-08T14:22:43.000",
    "date_modified": "2021-11-08T14:22:43.000",
    "request_status": "Pending",
    "responsible_agency": "Department of Public Works",
    "final_address": "3604 Tulane Ave",
    "address_councildis": "B",
    "status": "Pending",
    "rowid": "840590",
    "final_x": "3671085.36398",
    "final_y": "535320.448774",
    "longitude": "-90.1008269906526",
    "latitude": "29.966257756875873",
    "geocoded_column": {
      "latitude": "29.966257756875873",
      "longitude": "-90.1008269906526"
    }
  },
  {
    "service_request": "2021-840589",
    "request_type": "Trash/Recycling",
    "request_reason": "Illegal Dumping",
    "date_created": "2021-11-08T14:19:49.000",
    "date_modified": "2021-11-08T15:01:49.000",
    "request_status": "Pending",
    "responsible_agency": "Department of Code Enforcement",
    "final_address": "ABUNDANCE ST & ST FERDINAND ST",
    "address_councildis": "D",
    "status": "Pending",
    "rowid": "840589",
    "final_x": "3689649.7",
    "final_y": "543844.88",
    "longitude": "-90.0418979619371",
    "latitude": "29.98913479729448",
    "geocoded_column": {
      "latitude": "29.98913479729448",
      "longitude": "-90.0418979619371"
    }
  },
  {
    "service_request": "2021-840588",
    "request_type": "Roads/Drainage",
    "request_reason": "Pothole",
    "date_created": "2021-11-08T14:17:55.000",
    "date_modified": "2021-11-08T14:17:55.000",
    "request_status": "Pending",
    "responsible_agency": "Department of Public Works",
    "final_address": "LOUISIANA AVE & TOLEDANO ST",
    "address_councildis": "B",
    "status": "Pending",
    "rowid": "840588",
    "final_x": "3672533.3",
    "final_y": "525336.38",
    "longitude": "-90.09659473482564",
    "latitude": "29.93876196382858",
    "geocoded_column": {
      "latitude": "29.93876196382858",
      "longitude": "-90.09659473482564"
    }
  },
  {
    "service_request": "2021-840585",
    "request_type": "Parks & Parkways",
    "request_reason": "Request Tree Service (Right of Way/Public Property)",
    "date_created": "2021-11-08T14:16:59.000",
    "date_modified": "2021-11-08T14:16:59.000",
    "request_status": "Pending",
    "responsible_agency": "Department of Parks & Parkway",
    "final_address": "4520 Knight Dr",
    "address_councildis": "E",
    "status": "Pending",
    "rowid": "840585",
    "final_x": "3708195.50084",
    "final_y": "554194.185304",
    "longitude": "-89.98293252420224",
    "latitude": "30.017003666816976",
    "geocoded_column": {
      "latitude": "30.017003666816976",
      "longitude": "-89.98293252420224"
    }
  },
  {
    "service_request": "2021-840584",
    "request_type": "Roads/Drainage",
    "request_reason": "Pothole",
    "date_created": "2021-11-08T14:16:39.000",
    "date_modified": "2021-11-08T14:16:39.000",
    "request_status": "Pending",
    "responsible_agency": "Department of Public Works",
    "final_address": "CURRAN BLVD & DANIEL DR",
    "address_councildis": "E",
    "status": "Pending",
    "rowid": "840584",
    "final_x": "3705005.2",
    "final_y": "563000.78",
    "longitude": "-89.99268691932542",
    "latitude": "30.041321364431553",
    "geocoded_column": {
      "latitude": "30.041321364431553",
      "longitude": "-89.99268691932542"
    }
  },
  {
    "service_request": "2021-840583",
    "request_type": "Trash/Recycling",
    "request_reason": "Request a Large Item Pick Up",
    "date_created": "2021-11-08T14:14:05.000",
    "date_modified": "2021-11-08T15:01:55.000",
    "request_status": "Pending",
    "responsible_agency": "Department of Sanitation",
    "final_address": "5831 Vicksburg St",
    "address_councildis": "A",
    "status": "Assigned to Contractor",
    "contractor": "Metro Disposal",
    "rowid": "840583",
    "final_x": "3668862.36916",
    "final_y": "546177.249232",
    "longitude": "-90.1074803891596",
    "latitude": "29.99617584009648",
    "geocoded_column": {
      "latitude": "29.99617584009648",
      "longitude": "-90.1074803891596"
    }
  },
  {
    "service_request": "2021-840582",
    "request_type": "Trash/Recycling",
    "request_reason": "Order Trash Cart",
    "date_created": "2021-11-08T14:13:47.000",
    "date_modified": "2021-11-08T15:01:59.000",
    "request_status": "Pending",
    "responsible_agency": "Department of Sanitation",
    "final_address": "1155 Eagle St",
    "address_councildis": "A",
    "status": "Assigned to Contractor",
    "contractor": "Richards Disposal",
    "rowid": "840582",
    "final_x": "3660102.93216",
    "final_y": "529810.155969",
    "longitude": "-90.13569137375498",
    "latitude": "29.951426481453346",
    "geocoded_column": {
      "latitude": "29.951426481453346",
      "longitude": "-90.13569137375498"
    }
  },
  {
    "service_request": "2021-840581",
    "request_type": "Roads/Drainage",
    "request_reason": "Damaged Sidewalk",
    "date_created": "2021-11-08T14:13:03.000",
    "date_modified": "2021-11-08T15:02:01.000",
    "request_status": "Pending",
    "responsible_agency": "Department of Public Works",
    "final_address": "2903 Pocahontas St",
    "address_councildis": "D",
    "status": "Pending",
    "rowid": "840581",
    "final_x": "3688927.11132",
    "final_y": "548390.964434",
    "longitude": "-90.04401882184649",
    "latitude": "30.00165726028263",
    "geocoded_column": {
      "latitude": "30.00165726028263",
      "longitude": "-90.04401882184649"
    }
  },
  {
    "service_request": "2021-840580",
    "request_type": "Trash/Recycling",
    "request_reason": "Repair Trash Cart",
    "date_created": "2021-11-08T14:12:46.000",
    "date_modified": "2021-11-08T15:02:08.000",
    "request_status": "Pending",
    "responsible_agency": "Department of Sanitation",
    "final_address": "325 N Rocheblave St",
    "address_councildis": "B",
    "status": "Assigned to Contractor",
    "contractor": "Richards Disposal",
    "rowid": "840580",
    "final_x": "3676731.66734",
    "final_y": "535348.848134",
    "longitude": "-90.08299508294012",
    "latitude": "29.966167640658256",
    "geocoded_column": {
      "latitude": "29.966167640658256",
      "longitude": "-90.08299508294012"
    }
  },
  {
    "service_request": "2021-840579",
    "request_type": "Traffic Signals/Signs/Striping/Streetlights",
    "request_reason": "Street Light Outage/Malfunction",
    "date_created": "2021-11-08T14:12:35.000",
    "date_modified": "2021-11-08T15:02:09.000",
    "request_status": "Pending",
    "responsible_agency": "Department of Public Works",
    "final_address": "4323 Downman Rd",
    "address_councildis": "D",
    "status": "Pending",
    "contractor": "Royal Engineering",
    "rowid": "840579",
    "final_x": "3696207.92855",
    "final_y": "553046.302999",
    "longitude": "-90.02084964972676",
    "latitude": "30.014230432858835",
    "geocoded_column": {
      "latitude": "30.014230432858835",
      "longitude": "-90.02084964972676"
    }
  },
  {
    "service_request": "2021-840578",
    "request_type": "Trash/Recycling",
    "request_reason": "Order Recycling Cart",
    "date_created": "2021-11-08T14:12:34.000",
    "date_modified": "2021-11-08T15:02:11.000",
    "request_status": "Pending",
    "responsible_agency": "Department of Sanitation",
    "final_address": "1155 Eagle St",
    "address_councildis": "A",
    "status": "Pending",
    "rowid": "840578",
    "final_x": "3660102.93216",
    "final_y": "529810.155969",
    "longitude": "-90.13569137375498",
    "latitude": "29.951426481453346",
    "geocoded_column": {
      "latitude": "29.951426481453346",
      "longitude": "-90.13569137375498"
    }
  },
  {
    "service_request": "2021-840577",
    "request_type": "Traffic Signals/Signs/Striping/Streetlights",
    "request_reason": "Street Light Outage/Malfunction",
    "date_created": "2021-11-08T14:12:02.000",
    "date_modified": "2021-11-08T14:12:03.000",
    "request_status": "Pending",
    "responsible_agency": "Department of Public Works",
    "final_address": "5648 Rosemary Pl",
    "address_councildis": "A",
    "status": "Pending",
    "contractor": "Royal Engineering",
    "rowid": "840577",
    "final_x": "3667097.57101",
    "final_y": "545062.961167",
    "longitude": "-90.1130927640143",
    "latitude": "29.993163726223155",
    "geocoded_column": {
      "latitude": "29.993163726223155",
      "longitude": "-90.1130927640143"
    }
  },
  {
    "service_request": "2021-840576",
    "request_type": "Trash/Recycling",
    "request_reason": "Missed Trash Pick-Up",
    "date_created": "2021-11-08T14:11:39.000",
    "date_modified": "2021-11-08T15:02:13.000",
    "request_status": "Pending",
    "responsible_agency": "Department of Sanitation",
    "final_address": "325 N Rocheblave St",
    "address_councildis": "B",
    "status": "Assigned to Contractor",
    "contractor": "Richards Disposal",
    "rowid": "840576",
    "final_x": "3676731.66734",
    "final_y": "535348.848134",
    "longitude": "-90.08299508294012",
    "latitude": "29.966167640658256",
    "geocoded_column": {
      "latitude": "29.966167640658256",
      "longitude": "-90.08299508294012"
    }
  },
  {
    "service_request": "2021-840575",
    "request_type": "Traffic Signals/Signs/Striping/Streetlights",
    "request_reason": "Street Light Outage/Malfunction",
    "date_created": "2021-11-08T14:10:22.000",
    "date_modified": "2021-11-08T15:02:14.000",
    "request_status": "Pending",
    "responsible_agency": "Department of Public Works",
    "final_address": "1241 Belleville St",
    "address_councildis": "C",
    "status": "Pending",
    "contractor": "Royal Engineering",
    "rowid": "840575",
    "final_x": "3687671.96905",
    "final_y": "526878.383614",
    "longitude": "-90.04874582850444",
    "latitude": "29.94254398528013",
    "geocoded_column": {
      "latitude": "29.94254398528013",
      "longitude": "-90.04874582850444"
    }
  },
  {
    "service_request": "2021-840574",
    "request_type": "Traffic Signals/Signs/Striping/Streetlights",
    "request_reason": "Traffic Sign Missing/Damaged",
    "date_created": "2021-11-08T14:09:58.000",
    "date_modified": "2021-11-08T14:11:22.000",
    "request_status": "Pending",
    "responsible_agency": "Department of Public Works",
    "final_address": "MAGAZINE ST & POYDRAS ST",
    "address_councildis": "B",
    "status": "Pending",
    "rowid": "840574",
    "final_x": "3681500.2",
    "final_y": "529133.68",
    "longitude": "-90.06815288928289",
    "latitude": "29.94893410289717",
    "geocoded_column": {
      "latitude": "29.94893410289717",
      "longitude": "-90.06815288928289"
    }
  },
  {
    "service_request": "2021-840573",
    "request_type": "Trash/Recycling",
    "request_reason": "Repair Trash Cart",
    "date_created": "2021-11-08T14:08:35.000",
    "date_modified": "2021-11-08T15:02:16.000",
    "request_status": "Pending",
    "responsible_agency": "Department of Sanitation",
    "final_address": "New Orleans,LA",
    "address_councildis": "C",
    "status": "Assigned to Contractor",
    "rowid": "840573",
    "final_x": "3687090.33225",
    "final_y": "537509.382856",
    "longitude": "-90.05020632581719",
    "latitude": "29.971793487971166",
    "geocoded_column": {
      "latitude": "29.971793487971166",
      "longitude": "-90.05020632581719"
    }
  },
  {
    "service_request": "2021-840572",
    "request_type": "Traffic Signals/Signs/Striping/Streetlights",
    "request_reason": "Street Light Knocked Down/Leaning",
    "date_created": "2021-11-08T14:07:36.000",
    "date_modified": "2021-11-08T15:02:18.000",
    "request_status": "Pending",
    "responsible_agency": "Department of Public Works",
    "final_address": "2219 Benton St",
    "address_councildis": "E",
    "status": "Pending",
    "contractor": "Royal Engineering",
    "rowid": "840572",
    "final_x": "3700490.18839",
    "final_y": "537614.451784",
    "longitude": "-90.0078839348032",
    "latitude": "29.971662991177197",
    "geocoded_column": {
      "latitude": "29.971662991177197",
      "longitude": "-90.0078839348032"
    }
  },
  {
    "service_request": "2021-840571",
    "request_type": "Roads/Drainage",
    "request_reason": "Street Subsidence (Sinking)",
    "date_created": "2021-11-08T14:03:49.000",
    "date_modified": "2021-11-08T14:03:49.000",
    "request_status": "Pending",
    "responsible_agency": "Department of Public Works",
    "final_address": "7531 Poitevent Ave",
    "address_councildis": "E",
    "status": "Pending",
    "rowid": "840571",
    "final_x": "3707132.38052",
    "final_y": "563934.689185",
    "longitude": "-89.98592961983952",
    "latitude": "30.043820638376996",
    "geocoded_column": {
      "latitude": "30.043820638376996",
      "longitude": "-89.98592961983952"
    }
  },
  {
    "service_request": "2021-840570",
    "request_type": "Property Maintenance",
    "request_reason": "Property Maintenance",
    "date_created": "2021-11-08T14:02:46.000",
    "date_modified": "2021-11-08T14:02:46.000",
    "request_status": "Pending",
    "responsible_agency": "Department of Code Enforcement",
    "final_address": "5820 Louis Xiv St",
    "address_councildis": "A",
    "status": "Pending",
    "rowid": "840570",
    "final_x": "3667916.88148",
    "final_y": "546260.137296",
    "longitude": "-90.11046433195173",
    "latitude": "29.996431532831036",
    "geocoded_column": {
      "latitude": "29.996431532831036",
      "longitude": "-90.11046433195173"
    }
  },
  {
    "service_request": "2021-840569",
    "request_type": "Property Maintenance",
    "request_reason": "Property Maintenance",
    "date_created": "2021-11-08T14:02:46.000",
    "date_modified": "2021-11-08T14:02:46.000",
    "request_status": "Pending",
    "responsible_agency": "Department of Code Enforcement",
    "final_address": "5820 Louis Xiv St",
    "address_councildis": "A",
    "status": "Pending",
    "rowid": "840569",
    "final_x": "3667916.88148",
    "final_y": "546260.137296",
    "longitude": "-90.11046433195173",
    "latitude": "29.996431532831036",
    "geocoded_column": {
      "latitude": "29.996431532831036",
      "longitude": "-90.11046433195173"
    }
  },
  {
    "service_request": "2021-840568",
    "request_type": "Trash/Recycling",
    "request_reason": "MIssed Recycling Pick-Up",
    "date_created": "2021-11-08T13:59:57.000",
    "date_modified": "2021-11-08T13:59:58.000",
    "request_status": "Pending",
    "responsible_agency": "Department of Sanitation",
    "final_address": "5416 Marais St B",
    "address_councildis": "E",
    "status": "Assigned to Contractor",
    "contractor": "Metro Disposal",
    "rowid": "840568",
    "final_x": "3697475.54813",
    "final_y": "534227.271557",
    "longitude": "-90.0175274113707",
    "latitude": "29.962444996478837",
    "geocoded_column": {
      "latitude": "29.962444996478837",
      "longitude": "-90.0175274113707"
    }
  },
  {
    "service_request": "2021-840567",
    "request_type": "Trash/Recycling",
    "request_reason": "Order Trash Cart",
    "date_created": "2021-11-08T13:58:55.000",
    "date_modified": "2021-11-08T13:58:56.000",
    "request_status": "Pending",
    "responsible_agency": "Department of Sanitation",
    "final_address": "5416 Marais St B",
    "address_councildis": "E",
    "status": "Assigned to Contractor",
    "contractor": "Metro Disposal",
    "rowid": "840567",
    "final_x": "3697475.54813",
    "final_y": "534227.271557",
    "longitude": "-90.0175274113707",
    "latitude": "29.962444996478837",
    "geocoded_column": {
      "latitude": "29.962444996478837",
      "longitude": "-90.0175274113707"
    }
  },
  {
    "service_request": "2021-840566",
    "request_type": "Trash/Recycling",
    "request_reason": "Illegal Dumping",
    "date_created": "2021-11-08T13:57:02.000",
    "date_modified": "2021-11-08T13:57:03.000",
    "request_status": "Pending",
    "responsible_agency": "Department of Sanitation",
    "final_address": "7TH ST & LOYOLA AVE",
    "address_councildis": "B",
    "status": "Pending",
    "rowid": "840566",
    "final_x": "3674066.2",
    "final_y": "523870.98",
    "longitude": "-90.09180532040499",
    "latitude": "29.934687008956473",
    "geocoded_column": {
      "latitude": "29.934687008956473",
      "longitude": "-90.09180532040499"
    }
  },
  {
    "service_request": "2021-840564",
    "request_type": "Parks & Parkways",
    "request_reason": "Tree Stump (removal, grind)",
    "date_created": "2021-11-08T13:53:44.000",
    "date_modified": "2021-11-08T13:53:44.000",
    "request_status": "Pending",
    "responsible_agency": "Department of Parks & Parkway",
    "final_address": "5820 Louis Xiv St",
    "address_councildis": "A",
    "status": "Pending",
    "rowid": "840564",
    "final_x": "3667916.88148",
    "final_y": "546260.137296",
    "longitude": "-90.11046433195173",
    "latitude": "29.996431532831036",
    "geocoded_column": {
      "latitude": "29.996431532831036",
      "longitude": "-90.11046433195173"
    }
  },
  {
    "service_request": "2021-840562",
    "request_type": "Traffic Signals/Signs/Striping/Streetlights",
    "request_reason": "Traffic Signal Malfunctioning/Damaged",
    "date_created": "2021-11-08T13:52:19.000",
    "date_modified": "2021-11-08T13:52:19.000",
    "request_status": "Pending",
    "responsible_agency": "Department of Public Works",
    "final_address": "ALMONASTER AVE & LOUISA ST",
    "address_councildis": "D",
    "status": "Pending",
    "rowid": "840562",
    "final_x": "3691620.4",
    "final_y": "548541.28",
    "longitude": "-90.03550510438399",
    "latitude": "30.00198696956321",
    "geocoded_column": {
      "latitude": "30.00198696956321",
      "longitude": "-90.03550510438399"
    }
  },
  {
    "service_request": "2021-840561",
    "request_type": "Abandoned Vehicles",
    "request_reason": "Abandoned/Junk Vehicles",
    "date_created": "2021-11-08T13:52:11.000",
    "date_modified": "2021-11-08T13:52:11.000",
    "request_status": "Pending",
    "responsible_agency": "Department of Public Works",
    "final_address": "832 France St",
    "address_councildis": "C",
    "status": "Pending",
    "rowid": "840561",
    "final_x": "3692139.15638",
    "final_y": "534289.274949",
    "longitude": "-90.03437670176581",
    "latitude": "29.962782902671737",
    "geocoded_column": {
      "latitude": "29.962782902671737",
      "longitude": "-90.03437670176581"
    }
  },
  {
    "service_request": "2021-840559",
    "request_type": "Trash/Recycling",
    "request_reason": "Repair Trash Cart",
    "date_created": "2021-11-08T13:49:22.000",
    "date_modified": "2021-11-08T14:01:33.000",
    "request_status": "Pending",
    "responsible_agency": "Department of Sanitation",
    "final_address": "4 Virginia Ct",
    "address_councildis": "A",
    "status": "Assigned to Contractor",
    "contractor": "Metro Disposal",
    "rowid": "840559",
    "final_x": "3668784.8361",
    "final_y": "542357.785869",
    "longitude": "-90.10785435120131",
    "latitude": "29.985675905357756",
    "geocoded_column": {
      "latitude": "29.985675905357756",
      "longitude": "-90.10785435120131"
    }
  },
  {
    "service_request": "2021-840558",
    "request_type": "Traffic Signals/Signs/Striping/Streetlights",
    "request_reason": "Street Name Sign Damaged or Missing",
    "date_created": "2021-11-08T13:43:21.000",
    "date_modified": "2021-11-08T13:43:21.000",
    "request_status": "Pending",
    "responsible_agency": "Department of Public Works",
    "final_address": "DREUX AVE & PECAN ST",
    "address_councildis": "E",
    "status": "Pending",
    "rowid": "840558",
    "final_x": "3701789.1",
    "final_y": "554481.78",
    "longitude": "-90.00316341598281",
    "latitude": "30.01800048632271",
    "geocoded_column": {
      "latitude": "30.01800048632271",
      "longitude": "-90.00316341598281"
    }
  },
  {
    "service_request": "2021-840557",
    "request_type": "Trash/Recycling",
    "request_reason": "Order Trash Cart",
    "date_created": "2021-11-08T13:42:33.000",
    "date_modified": "2021-11-08T13:42:34.000",
    "request_status": "Pending",
    "responsible_agency": "Department of Sanitation",
    "final_address": "2669 Acacia St",
    "address_councildis": "D",
    "status": "Assigned to Contractor",
    "contractor": "Metro Disposal",
    "rowid": "840557",
    "final_x": "3687700.9007",
    "final_y": "546446.544465",
    "longitude": "-90.04796144135877",
    "latitude": "29.996348689984142",
    "geocoded_column": {
      "latitude": "29.996348689984142",
      "longitude": "-90.04796144135877"
    }
  },
  {
    "service_request": "2021-840556",
    "request_type": "Traffic Signals/Signs/Striping/Streetlights",
    "request_reason": "Street Light Outage/Malfunction",
    "date_created": "2021-11-08T13:42:18.000",
    "date_modified": "2021-11-08T13:42:19.000",
    "request_status": "Pending",
    "responsible_agency": "Department of Public Works",
    "final_address": "DREUX AVE & PECAN ST",
    "address_councildis": "E",
    "status": "Pending",
    "contractor": "Royal Engineering",
    "rowid": "840556",
    "final_x": "3701789.1",
    "final_y": "554481.78",
    "longitude": "-90.00316341598281",
    "latitude": "30.01800048632271",
    "geocoded_column": {
      "latitude": "30.01800048632271",
      "longitude": "-90.00316341598281"
    }
  },
  {
    "service_request": "2021-840554",
    "request_type": "Safety & Permits",
    "request_reason": "Licenses & Permits",
    "date_created": "2021-11-08T13:38:59.000",
    "date_modified": "2021-11-08T13:38:59.000",
    "request_status": "Pending",
    "responsible_agency": "Safety and Permits",
    "final_address": "2218 St Thomas St",
    "address_councildis": "B",
    "status": "Pending",
    "rowid": "840554",
    "final_x": "3679823.69653",
    "final_y": "520490.448952",
    "longitude": "-90.07374632974997",
    "latitude": "29.925218869557916",
    "geocoded_column": {
      "latitude": "29.925218869557916",
      "longitude": "-90.07374632974997"
    }
  },
  {
    "service_request": "2021-840552",
    "request_type": "Traffic Signals/Signs/Striping/Streetlights",
    "request_reason": "Street Light Outage/Malfunction",
    "date_created": "2021-11-08T13:31:03.000",
    "date_modified": "2021-11-08T13:31:04.000",
    "request_status": "Pending",
    "responsible_agency": "Department of Public Works",
    "final_address": "6167 Catina St",
    "address_councildis": "A",
    "status": "Pending",
    "contractor": "Royal Engineering",
    "rowid": "840552",
    "final_x": "3666934.58433",
    "final_y": "548888.354771",
    "longitude": "-90.11347897020205",
    "latitude": "30.003687012956757",
    "geocoded_column": {
      "latitude": "30.003687012956757",
      "longitude": "-90.11347897020205"
    }
  },
  {
    "service_request": "2021-840551",
    "request_type": "Roads/Drainage",
    "request_reason": "Catch Basin - Broken/Damage",
    "date_created": "2021-11-08T13:30:49.000",
    "date_modified": "2021-11-08T14:01:38.000",
    "request_status": "Pending",
    "responsible_agency": "Department of Public Works",
    "final_address": "6136 General Haig St",
    "address_councildis": "A",
    "status": "Pending",
    "rowid": "840551",
    "final_x": "3670572.18804",
    "final_y": "548102.458514",
    "longitude": "-90.10201382831825",
    "latitude": "30.001419088996084",
    "geocoded_column": {
      "latitude": "30.001419088996084",
      "longitude": "-90.10201382831825"
    }
  },
  {
    "service_request": "2021-840547",
    "request_type": "Trash/Recycling",
    "request_reason": "Request a Large Item Pick Up",
    "date_created": "2021-11-08T13:24:46.000",
    "date_modified": "2021-11-08T14:01:42.000",
    "request_status": "Pending",
    "responsible_agency": "Department of Sanitation",
    "final_address": "3490 Vespasian St",
    "address_councildis": "C",
    "status": "Assigned to Contractor",
    "contractor": "Richards Disposal",
    "rowid": "840547",
    "final_x": "3696167.36093",
    "final_y": "522689.657594",
    "longitude": "-90.02207540022494",
    "latitude": "29.930761817414755",
    "geocoded_column": {
      "latitude": "29.930761817414755",
      "longitude": "-90.02207540022494"
    }
  },
  {
    "service_request": "2021-840546",
    "request_type": "Traffic Signals/Signs/Striping/Streetlights",
    "request_reason": "Street Light Outage/Malfunction",
    "date_created": "2021-11-08T13:24:41.000",
    "date_modified": "2021-11-08T13:24:42.000",
    "request_status": "Pending",
    "responsible_agency": "Department of Public Works",
    "final_address": "100 French St",
    "address_councildis": "A",
    "status": "Pending",
    "contractor": "Royal Engineering",
    "rowid": "840546",
    "final_x": "3666616.27092",
    "final_y": "548919.861459",
    "longitude": "-90.11448351993904",
    "latitude": "30.003782959446237",
    "geocoded_column": {
      "latitude": "30.003782959446237",
      "longitude": "-90.11448351993904"
    }
  },
  {
    "service_request": "2021-840545",
    "request_type": "Trash/Recycling",
    "request_reason": "Order Recycling Cart",
    "date_created": "2021-11-08T13:24:34.000",
    "date_modified": "2021-11-08T13:24:34.000",
    "request_status": "Pending",
    "responsible_agency": "Department of Sanitation",
    "final_address": "2920 St Ann St",
    "address_councildis": "A",
    "status": "Pending",
    "rowid": "840545",
    "final_x": "3676021.41269",
    "final_y": "537858.876041",
    "longitude": "-90.0851517075272",
    "latitude": "29.97309065542811",
    "geocoded_column": {
      "latitude": "29.97309065542811",
      "longitude": "-90.0851517075272"
    }
  },
  {
    "service_request": "2021-840543",
    "request_type": "Trash/Recycling",
    "request_reason": "Missed Trash Pick-Up",
    "date_created": "2021-11-08T13:22:53.000",
    "date_modified": "2021-11-08T13:22:53.000",
    "request_status": "Pending",
    "responsible_agency": "Department of Sanitation",
    "final_address": "3741 Socrates St",
    "address_councildis": "C",
    "status": "Assigned to Contractor",
    "contractor": "Richards Disposal",
    "rowid": "840543",
    "final_x": "3697812.94775",
    "final_y": "526063.662078",
    "longitude": "-90.01675816407094",
    "latitude": "29.939987281267374",
    "geocoded_column": {
      "latitude": "29.939987281267374",
      "longitude": "-90.01675816407094"
    }
  },
  {
    "service_request": "2021-840542",
    "request_type": "Traffic Signals/Signs/Striping/Streetlights",
    "request_reason": "Street Light Outage/Malfunction",
    "date_created": "2021-11-08T13:22:42.000",
    "date_modified": "2021-11-08T14:01:46.000",
    "request_status": "Pending",
    "responsible_agency": "Department of Public Works",
    "final_address": "5731 Laurel St",
    "address_councildis": "A",
    "status": "Pending",
    "contractor": "Royal Engineering",
    "rowid": "840542",
    "final_x": "3665425.2082",
    "final_y": "518014.449462",
    "longitude": "-90.11928078162629",
    "latitude": "29.918838008808834",
    "geocoded_column": {
      "latitude": "29.918838008808834",
      "longitude": "-90.11928078162629"
    }
  },
  {
    "service_request": "2021-840539",
    "request_type": "Parks & Parkways",
    "request_reason": "Request Tree Service (Right of Way/Public Property)",
    "date_created": "2021-11-08T13:19:10.000",
    "date_modified": "2021-11-08T14:01:48.000",
    "request_status": "Pending",
    "responsible_agency": "Department of Parks & Parkway",
    "final_address": "MORRISON RD & WRIGHT RD",
    "address_councildis": "E",
    "status": "Pending",
    "rowid": "840539",
    "final_x": "3711407.5",
    "final_y": "565075.08",
    "longitude": "-89.97237570338713",
    "latitude": "30.04681733326063",
    "geocoded_column": {
      "latitude": "30.04681733326063",
      "longitude": "-89.97237570338713"
    }
  },
  {
    "service_request": "2021-840537",
    "request_type": "Trash/Recycling",
    "request_reason": "Order Recycling Cart",
    "date_created": "2021-11-08T13:17:50.000",
    "date_modified": "2021-11-08T13:17:51.000",
    "request_status": "Pending",
    "responsible_agency": "Department of Sanitation",
    "final_address": "2428 Pine St",
    "address_councildis": "A",
    "status": "Pending",
    "contractor": "Richards Disposal",
    "rowid": "840537",
    "final_x": "3666458.0601",
    "final_y": "530588.210946",
    "longitude": "-90.11559880156258",
    "latitude": "29.953381704377158",
    "geocoded_column": {
      "latitude": "29.953381704377158",
      "longitude": "-90.11559880156258"
    }
  },
  {
    "service_request": "2021-840536",
    "request_type": "Trash/Recycling",
    "request_reason": "Repair Trash Cart",
    "date_created": "2021-11-08T13:15:37.000",
    "date_modified": "2021-11-08T13:15:37.000",
    "request_status": "Pending",
    "responsible_agency": "Department of Sanitation",
    "final_address": "2428 Pine St",
    "address_councildis": "A",
    "status": "Assigned to Contractor",
    "contractor": "Richards Disposal",
    "rowid": "840536",
    "final_x": "3666458.0601",
    "final_y": "530588.210946",
    "longitude": "-90.11559880156258",
    "latitude": "29.953381704377158",
    "geocoded_column": {
      "latitude": "29.953381704377158",
      "longitude": "-90.11559880156258"
    }
  },
  {
    "service_request": "2021-840533",
    "request_type": "Parks & Parkways",
    "request_reason": "Request Tree Service (Right of Way/Public Property)",
    "date_created": "2021-11-08T13:12:32.000",
    "date_modified": "2021-11-08T13:12:33.000",
    "request_status": "Pending",
    "responsible_agency": "Department of Parks & Parkway",
    "final_address": "2428 Pine St",
    "address_councildis": "A",
    "status": "Pending",
    "rowid": "840533",
    "final_x": "3666458.0601",
    "final_y": "530588.210946",
    "longitude": "-90.11559880156258",
    "latitude": "29.953381704377158",
    "geocoded_column": {
      "latitude": "29.953381704377158",
      "longitude": "-90.11559880156258"
    }
  },
  {
    "service_request": "2021-840532",
    "request_type": "Trash/Recycling",
    "request_reason": "Illegal Dumping",
    "date_created": "2021-11-08T13:04:11.000",
    "date_modified": "2021-11-08T13:04:34.000",
    "case_close_date": "2021-11-08T07:04:34.000",
    "request_status": "Closed",
    "responsible_agency": "Department of Sanitation",
    "final_address": "9000 BLK Wendy Ln",
    "address_councildis": "E",
    "status": "Resolved",
    "rowid": "840532",
    "final_x": "3707220.85389",
    "final_y": "559128.233565",
    "longitude": "-89.98582864705826",
    "latitude": "30.030601925294434",
    "geocoded_column": {
      "latitude": "30.030601925294434",
      "longitude": "-89.98582864705826"
    }
  },
  {
    "service_request": "2021-840530",
    "request_type": "Trash/Recycling",
    "request_reason": "Replace Trash Cart",
    "date_created": "2021-11-08T12:58:48.000",
    "date_modified": "2021-11-08T13:01:27.000",
    "request_status": "Pending",
    "responsible_agency": "Department of Sanitation",
    "final_address": "7540 Hansbrough Ave",
    "address_councildis": "E",
    "status": "Assigned to Contractor",
    "contractor": "Metro Disposal",
    "rowid": "840530",
    "final_x": "3707686.23652",
    "final_y": "564302.050721",
    "longitude": "-89.9841655380408",
    "latitude": "30.04481281653057",
    "geocoded_column": {
      "latitude": "30.04481281653057",
      "longitude": "-89.9841655380408"
    }
  },
  {
    "service_request": "2021-840527",
    "request_type": "Parks & Parkways",
    "request_reason": "Request Tree Service (Right of Way/Public Property)",
    "date_created": "2021-11-08T12:50:31.000",
    "date_modified": "2021-11-08T13:01:31.000",
    "request_status": "Pending",
    "responsible_agency": "Department of Parks & Parkway",
    "final_address": "3320 De Soto St",
    "address_councildis": "A",
    "status": "Pending",
    "rowid": "840527",
    "final_x": "3675485.45109",
    "final_y": "540116.982667",
    "longitude": "-90.0867667970577",
    "latitude": "29.979315718384054",
    "geocoded_column": {
      "latitude": "29.979315718384054",
      "longitude": "-90.0867667970577"
    }
  },
  {
    "service_request": "2021-840526",
    "request_type": "Trash/Recycling",
    "request_reason": "Repair Trash Cart",
    "date_created": "2021-11-08T12:48:41.000",
    "date_modified": "2021-11-08T13:01:34.000",
    "request_status": "Pending",
    "responsible_agency": "Department of Sanitation",
    "final_address": "190 Danny Dr",
    "address_councildis": "C",
    "status": "Assigned to Contractor",
    "contractor": "Richards Disposal",
    "rowid": "840526",
    "final_x": "3702308.63511",
    "final_y": "523740.407995",
    "longitude": "-90.00264989062137",
    "latitude": "29.933456344215056",
    "geocoded_column": {
      "latitude": "29.933456344215056",
      "longitude": "-90.00264989062137"
    }
  },
  {
    "service_request": "2021-840525",
    "request_type": "Trash/Recycling",
    "request_reason": "Request a Large Item Pick Up",
    "date_created": "2021-11-08T12:47:58.000",
    "date_modified": "2021-11-08T12:47:58.000",
    "request_status": "Pending",
    "responsible_agency": "Department of Sanitation",
    "final_address": "426 S Gayoso St",
    "address_councildis": "B",
    "status": "Assigned to Contractor",
    "contractor": "Richards Disposal",
    "rowid": "840525",
    "final_x": "3673489.21934",
    "final_y": "534677.84007",
    "longitude": "-90.09325761175919",
    "latitude": "29.964419482870234",
    "geocoded_column": {
      "latitude": "29.964419482870234",
      "longitude": "-90.09325761175919"
    }
  },