[
  {
    "service_request": "2025-1206767",
    "request_type": "Trash/Recycling",
    "request_reason": "Missed Trash Pick-Up",
    "date_created": "2025-07-06T23:21:24.000",
    "date_modified": "2025-07-06T23:21:25.000",
    "request_status": "Pending",
    "responsible_agency": "Department of Sanitation",
    "final_address": "7051 Curran Rd",
    "address_councildis": "E",
    "status": "Assigned to Contractor",
    "contractor": "Waste Pro",
    "rowid": "1206767",
    "final_x": "3699165.61853",
    "final_y": "560442.258846",
    "longitude": "-90.0112352686101",
    "latitude": "30.03447299712617",
    "geocoded_column": {
      "latitude": "30.03447299712617",
      "longitude": "-90.0112352686101"
    }
  },
  {
    "service_request": "2025-1206766",
    "request_type": "Trash/Recycling",
    "request_reason": "Missed Trash Pick-Up",
    "date_created": "2025-07-06T23:21:23.000",
    "date_modified": "2025-07-06T23:21:25.000",
    "request_status": "Pending",
    "responsible_agency": "Department of Sanitation",
    "final_address": "7051 Curran Rd",
    "address_councildis": "E",
    "status": "Assigned to Contractor",
    "contractor": "Waste Pro",
    "rowid": "1206766",
    "final_x": "3699165.61853",
    "final_y": "560442.258846",
    "longitude": "-90.0112352686101",
    "latitude": "30.03447299712617",
    "geocoded_column": {
      "latitude": "30.03447299712617",
      "longitude": "-90.0112352686101"
    }
  },
  {
    "service_request": "2025-1206765",
    "request_type": "Streetlights",
    "request_reason": "Streetlight Outage/Malfunction",
    "date_created": "2025-07-06T22:46:12.000",
    "date_modified": "2025-07-06T22:46:13.000",
    "request_status": "Pending",
    "responsible_agency": "Department of Public Works",
    "final_address": "100 BLK Interstate 610",
    "address_councildis": "D",
    "status": "Pending",
    "contractor": "Legacy Professional Services",
    "rowid": "1206765",
    "final_x": "3686842.53671",
    "final_y": "544840.725395",
    "longitude": "-90.0507297306942",
    "latitude": "29.991959712179042",
    "geocoded_column": {
      "latitude": "29.991959712179042",
      "longitude": "-90.0507297306942"
    }
  },
  {
    "service_request": "2025-1206764",
    "request_type": "Abandoned Vehicles",
    "request_reason": "Abandoned/Junk Vehicles",
    "date_created": "2025-07-06T22:44:05.000",
    "date_modified": "2025-07-06T22:44:08.000",
    "request_status": "Pending",
    "responsible_agency": "Department of Public Works",
    "final_address": "2273 N Galvez St",
    "address_councildis": "D",
    "status": "Pending",
    "rowid": "1206764",
    "final_x": "3685436.61986",
    "final_y": "540083.818635",
    "longitude": "-90.0553383151599",
    "latitude": "29.97892310064981",
    "geocoded_column": {
      "latitude": "29.97892310064981",
      "longitude": "-90.0553383151599"
    }
  },
  {
    "service_request": "2025-1206763",
    "request_type": "Graffiti Removal",
    "request_reason": "Graffiti Removal",
    "date_created": "2025-07-06T22:40:50.000",
    "date_modified": "2025-07-06T22:40:52.000",
    "request_status": "Pending",
    "responsible_agency": "Department of Code Enforcement",
    "final_address": "4200 Chef Menteur Hwy",
    "address_councildis": "D",
    "status": "Pending",
    "rowid": "1206763",
    "final_x": "3690386.55062",
    "final_y": "549170.992787",
    "longitude": "-90.03938049417991",
    "latitude": "30.003756818258015",
    "geocoded_column": {
      "latitude": "30.003756818258015",
      "longitude": "-90.03938049417991"
    }
  },
  {
    "service_request": "2025-1206762",
    "request_type": "Abandoned Vehicles",
    "request_reason": "Abandoned/Junk Vehicles",
    "date_created": "2025-07-06T22:37:04.000",
    "date_modified": "2025-07-06T22:37:06.000",
    "request_status": "Pending",
    "responsible_agency": "Department of Public Works",
    "final_address": "2273 N Galvez St",
    "address_councildis": "D",
    "status": "Pending",
    "rowid": "1206762",
    "final_x": "3685436.61986",
    "final_y": "540083.818635",
    "longitude": "-90.0553383151599",
    "latitude": "29.97892310064981",
    "geocoded_column": {
      "latitude": "29.97892310064981",
      "longitude": "-90.0553383151599"
    }
  },
  {
    "service_request": "2025-1206761",
    "request_type": "Streetlights",
    "request_reason": "Streetlight Outage/Malfunction",
    "date_created": "2025-07-06T22:23:13.000",
    "date_modified": "2025-07-06T22:23:15.000",
    "request_status": "Pending",
    "responsible_agency": "Department of Public Works",
    "final_address": "6156 Milne Blvd",
    "address_councildis": "A",
    "status": "Pending",
    "contractor": "Legacy Professional Services",
    "rowid": "1206761",
    "final_x": "3667034.20724",
    "final_y": "548627.802451",
    "longitude": "-90.11317300897724",
    "latitude": "30.002967667758124",
    "geocoded_column": {
      "latitude": "30.002967667758124",
      "longitude": "-90.11317300897724"
    }
  },
  {
    "service_request": "2025-1206760",
    "request_type": "Trash/Recycling",
    "request_reason": "Request a Large Item Pick Up",
    "date_created": "2025-07-06T22:14:39.000",
    "date_modified": "2025-07-06T22:14:41.000",
    "request_status": "Pending",
    "responsible_agency": "Department of Sanitation",
    "final_address": "209 26Th St",
    "address_councildis": "A",
    "status": "Assigned to Contractor",
    "contractor": "IV Waste",
    "rowid": "1206760",
    "final_x": "3665682.66292",
    "final_y": "549950.205588",
    "longitude": "-90.11739841524482",
    "latitude": "30.006643322657716",
    "geocoded_column": {
      "latitude": "30.006643322657716",
      "longitude": "-90.11739841524482"
    }
  },
  {
    "service_request": "2025-1206759",
    "request_type": "Drainage",
    "request_reason": "Catch Basin Clogged",
    "date_created": "2025-07-06T22:09:56.000",
    "date_modified": "2025-07-06T22:09:58.000",
    "request_status": "Pending",
    "responsible_agency": "Sewerage & Water Board",
    "final_address": "1466 Mandolin St",
    "address_councildis": "D",
    "status": "Pending",
    "rowid": "1206759",
    "final_x": "3678449.30818",
    "final_y": "547956.031314",
    "longitude": "-90.07713433354566",
    "latitude": "30.00078136363834",
    "geocoded_column": {
      "latitude": "30.00078136363834",
      "longitude": "-90.07713433354566"
    }
  },
  {
    "service_request": "2025-1206758",
    "request_type": "Graffiti Removal",
    "request_reason": "Graffiti Removal",
    "date_created": "2025-07-06T22:08:01.000",
    "date_modified": "2025-07-06T22:08:03.000",
    "request_status": "Pending",
    "responsible_agency": "Department of Code Enforcement",
    "final_address": "4515 Old Gentilly Rd",
    "address_councildis": "D",
    "status": "Pending",
    "rowid": "1206758",
    "final_x": "3691057.06844",
    "final_y": "549098.380371",
    "longitude": "-90.03726481836739",
    "latitude": "30.00353632370383",
    "geocoded_column": {
      "latitude": "30.00353632370383",
      "longitude": "-90.03726481836739"
    }
  },
  {
    "service_request": "2025-1206757",
    "request_type": "Trash/Recycling",
    "request_reason": "Illegal Dumping",
    "date_created": "2025-07-06T22:05:34.000",
    "date_modified": "2025-07-06T22:05:37.000",
    "request_status": "Pending",
    "responsible_agency": "Department of Sanitation",
    "final_address": "4719 St Anthony Ave",
    "address_councildis": "D",
    "status": "Pending",
    "rowid": "1206757",
    "final_x": "3682475.30242",
    "final_y": "550001.503444",
    "longitude": "-90.06434437203417",
    "latitude": "30.006283700435123",
    "geocoded_column": {
      "latitude": "30.006283700435123",
      "longitude": "-90.06434437203417"
    }
  },
  {
    "service_request": "2025-1206756",
    "request_type": "Trash/Recycling",
    "request_reason": "Return Recycling Cart",
    "date_created": "2025-07-06T22:02:06.000",
    "date_modified": "2025-07-06T22:02:08.000",
    "request_status": "Pending",
    "responsible_agency": "Department of Sanitation",
    "final_address": "6235 Louisville St",
    "address_councildis": "A",
    "status": "Pending",
    "rowid": "1206756",
    "final_x": "3667985.49473",
    "final_y": "548926.209427",
    "longitude": "-90.11015768262465",
    "latitude": "30.00376029540787",
    "geocoded_column": {
      "latitude": "30.00376029540787",
      "longitude": "-90.11015768262465"
    }
  },
  {
    "service_request": "2025-1206755",
    "request_type": "Abandoned Vehicles",
    "request_reason": "Abandoned/Junk Vehicles",
    "date_created": "2025-07-06T21:53:50.000",
    "date_modified": "2025-07-06T21:53:51.000",
    "request_status": "Pending",
    "responsible_agency": "Department of Public Works",
    "final_address": "3701 Napoleon Ave",
    "address_councildis": "B",
    "status": "Pending",
    "rowid": "1206755",
    "final_x": "3670212.17415",
    "final_y": "528205.00416",
    "longitude": "-90.10382562664194",
    "latitude": "29.94671843033207",
    "geocoded_column": {
      "latitude": "29.94671843033207",
      "longitude": "-90.10382562664194"
    }
  },
  {
    "service_request": "2025-1206754",
    "request_type": "Trash/Recycling",
    "request_reason": "Request a Large Item Pick Up",
    "date_created": "2025-07-06T21:52:57.000",
    "date_modified": "2025-07-06T21:52:59.000",
    "request_status": "Pending",
    "responsible_agency": "Department of Sanitation",
    "final_address": "600 BLK N Saint Patrick St",
    "address_councildis": "A",
    "status": "Assigned to Contractor",
    "contractor": "IV Waste",
    "rowid": "1206754",
    "final_x": "3670304.38147",
    "final_y": "541404.831676",
    "longitude": "-90.10308702703527",
    "latitude": "29.98301083280706",
    "geocoded_column": {
      "latitude": "29.98301083280706",
      "longitude": "-90.10308702703527"
    }
  },
  {
    "service_request": "2025-1206753",
    "request_type": "Trash/Recycling",
    "request_reason": "Order Recycling Cart",
    "date_created": "2025-07-06T21:48:15.000",
    "date_modified": "2025-07-06T21:48:17.000",
    "request_status": "Pending",
    "responsible_agency": "Department of Sanitation",
    "final_address": "1933 Washington Ave",
    "address_councildis": "B",
    "status": "Pending",
    "rowid": "1206753",
    "final_x": "3675198.538",
    "final_y": "523697.783419",
    "longitude": "-90.08823648725087",
    "latitude": "29.934176990577708",
    "geocoded_column": {
      "latitude": "29.934176990577708",
      "longitude": "-90.08823648725087"
    }
  },
  {
    "service_request": "2025-1206752",
    "request_type": "Trash/Recycling",
    "request_reason": "Order Trash Cart",
    "date_created": "2025-07-06T21:47:17.000",
    "date_modified": "2025-07-06T21:47:19.000",
    "request_status": "Pending",
    "responsible_agency": "Department of Sanitation",
    "final_address": "1933 Washington Ave",
    "address_councildis": "B",
    "status": "Assigned to Contractor",
    "contractor": "IV Waste",
    "rowid": "1206752",
    "final_x": "3675198.538",
    "final_y": "523697.783419",
    "longitude": "-90.08823648725087",
    "latitude": "29.934176990577708",
    "geocoded_column": {
      "latitude": "29.934176990577708",
      "longitude": "-90.08823648725087"
    }
  },
  {
    "service_request": "2025-1206751",
    "request_type": "Abandoned Vehicles",
    "request_reason": "Abandoned/Junk Vehicles",
    "date_created": "2025-07-06T21:00:11.000",
    "date_modified": "2025-07-06T21:00:19.000",
    "request_status": "Pending",
    "responsible_agency": "Department of Public Works",
    "final_address": "3701 Napoleon Ave",
    "address_councildis": "B",
    "status": "Pending",
    "rowid": "1206751",
    "final_x": "3670212.17415",
    "final_y": "528205.00416",
    "longitude": "-90.10382562664194",
    "latitude": "29.94671843033207",
    "geocoded_column": {
      "latitude": "29.94671843033207",
      "longitude": "-90.10382562664194"
    }
  },
  {
    "service_request": "2025-1206750",
    "request_type": "Street and Traffic Signs",
    "request_reason": "Street Name Sign Damaged or Missing",
    "date_created": "2025-07-06T20:30:11.000",
    "date_modified": "2025-07-06T20:30:13.000",
    "request_status": "Pending",
    "responsible_agency": "Department of Public Works",
    "final_address": "N CLAIBORNE AVE & TUPELO ST",
    "address_councildis": "E",
    "status": "Pending",
    "rowid": "1206750",
    "final_x": "3700196.4",
    "final_y": "535047.78",
    "longitude": "-90.00890544988259",
    "latitude": "29.964614908925387",
    "geocoded_column": {
      "latitude": "29.964614908925387",
      "longitude": "-90.00890544988259"
    }
  },
  {
    "service_request": "2025-1206749",
    "request_type": "Safety & Permits",
    "request_reason": "Zoning Enforcement",
    "date_created": "2025-07-06T20:18:32.000",
    "date_modified": "2025-07-06T20:18:34.000",
    "request_status": "Pending",
    "responsible_agency": "Safety and Permits",
    "final_address": "6125 Pines Blvd",
    "address_councildis": "D",
    "status": "Pending",
    "rowid": "1206749",
    "final_x": "3696572.62506",
    "final_y": "556310.77513",
    "longitude": "-90.01957914226281",
    "latitude": "30.02319500647701",
    "geocoded_column": {
      "latitude": "30.02319500647701",
      "longitude": "-90.01957914226281"
    }
  },
  {
    "service_request": "2025-1206748",
    "request_type": "Safety & Permits",
    "request_reason": "Zoning Enforcement",
    "date_created": "2025-07-06T20:15:02.000",
    "date_modified": "2025-07-06T20:15:14.000",
    "request_status": "Pending",
    "responsible_agency": "Safety and Permits",
    "final_address": "6201 Dorothea St",
    "address_councildis": "D",
    "status": "Pending",
    "rowid": "1206748",
    "final_x": "3696323.69098",
    "final_y": "557561.837275",
    "longitude": "-90.02032041774478",
    "latitude": "30.026642796973817",
    "geocoded_column": {
      "latitude": "30.026642796973817",
      "longitude": "-90.02032041774478"
    }
  },
  {
    "service_request": "2025-1206747",
    "request_type": "Property Maintenance",
    "request_reason": "Property Maintenance",
    "date_created": "2025-07-06T20:05:08.000",
    "date_modified": "2025-07-06T20:05:10.000",
    "request_status": "Pending",
    "responsible_agency": "Department of Code Enforcement",
    "final_address": "1335 Atlantic Ave",
    "address_councildis": "C",
    "status": "Pending",
    "rowid": "1206747",
    "final_x": "3688596.60015",
    "final_y": "526442.147198",
    "longitude": "-90.04584203931907",
    "latitude": "29.94131594822395",
    "geocoded_column": {
      "latitude": "29.94131594822395",
      "longitude": "-90.04584203931907"
    }
  },
  {
    "service_request": "2025-1206746",
    "request_type": "Healthy Homes",
    "request_reason": "Healthy Homes",
    "date_created": "2025-07-06T20:02:37.000",
    "date_modified": "2025-07-06T20:02:39.000",
    "request_status": "Pending",
    "responsible_agency": "Department of Code Enforcement",
    "final_address": "5655 Woodlawn Pl",
    "address_councildis": "A",
    "status": "Pending",
    "rowid": "1206746",
    "final_x": "3667605.97575",
    "final_y": "545117.768463",
    "longitude": "-90.11148494707139",
    "latitude": "29.993299530663293",
    "geocoded_column": {
      "latitude": "29.993299530663293",
      "longitude": "-90.11148494707139"
    }
  },
  {
    "service_request": "2025-1206745",
    "request_type": "Property Maintenance",
    "request_reason": "Property Maintenance",
    "date_created": "2025-07-06T20:00:07.000",
    "date_modified": "2025-07-06T20:00:10.000",
    "request_status": "Pending",
    "responsible_agency": "Department of Code Enforcement",
    "final_address": "3600 White Oak Ave",
    "address_councildis": "C",
    "status": "Pending",
    "rowid": "1206745",
    "final_x": "3703608.94833",
    "final_y": "514406.507699",
    "longitude": "-89.99888807424152",
    "latitude": "29.907749754742866",
    "geocoded_column": {
      "latitude": "29.907749754742866",
      "longitude": "-89.99888807424152"
    }
  },
  {
    "service_request": "2025-1206744",
    "request_type": "Abandoned Vehicles",
    "request_reason": "Abandoned/Junk Vehicles",
    "date_created": "2025-07-06T19:58:33.000",
    "date_modified": "2025-07-06T19:58:34.000",
    "request_status": "Pending",
    "responsible_agency": "Department of Public Works",
    "final_address": "1512 Bodenger Blvd",
    "address_councildis": "C",
    "status": "Pending",
    "rowid": "1206744",
    "final_x": "3688560.33628",
    "final_y": "526047.339902",
    "longitude": "-90.04597053529994",
    "latitude": "29.940231482545556",
    "geocoded_column": {
      "latitude": "29.940231482545556",
      "longitude": "-90.04597053529994"
    }
  },
  {
    "service_request": "2025-1206743",
    "request_type": "Trash/Recycling",
    "request_reason": "Request a Large Item Pick Up",
    "date_created": "2025-07-06T19:56:37.000",
    "date_modified": "2025-07-06T19:56:52.000",
    "request_status": "Pending",
    "responsible_agency": "Department of Sanitation",
    "final_address": "2505 Orleans Ave",
    "address_councildis": "D",
    "status": "Assigned to Contractor",
    "contractor": "IV Waste",
    "rowid": "1206743",
    "final_x": "3677571.09819",
    "final_y": "536495.938567",
    "longitude": "-90.08030456427089",
    "latitude": "29.96929653553761",
    "geocoded_column": {
      "latitude": "29.96929653553761",
      "longitude": "-90.08030456427089"
    }
  },
  {
    "service_request": "2025-1206742",
    "request_type": "Trash/Recycling",
    "request_reason": "Request a Large Item Pick Up",
    "date_created": "2025-07-06T19:55:29.000",
    "date_modified": "2025-07-06T19:55:32.000",
    "request_status": "Pending",
    "responsible_agency": "Department of Sanitation",
    "final_address": "2505 Orleans Ave",
    "address_councildis": "D",
    "status": "Assigned to Contractor",
    "contractor": "IV Waste",
    "rowid": "1206742",
    "final_x": "3677571.09819",
    "final_y": "536495.938567",
    "longitude": "-90.08030456427089",
    "latitude": "29.96929653553761",
    "geocoded_column": {
      "latitude": "29.96929653553761",
      "longitude": "-90.08030456427089"
    }
  },
  {
    "service_request": "2025-1206741",
    "request_type": "Trash/Recycling",
    "request_reason": "Request a Large Item Pick Up",
    "date_created": "2025-07-06T19:55:12.000",
    "date_modified": "2025-07-06T19:55:14.000",
    "request_status": "Pending",
    "responsible_agency": "Department of Sanitation",
    "final_address": "1506 Treasure St",
    "address_councildis": "D",
    "status": "Assigned to Contractor",
    "contractor": "IV Waste",
    "rowid": "1206741",
    "final_x": "3679739.69365",
    "final_y": "543625.05531",
    "longitude": "-90.07320837648611",
    "latitude": "29.98883374847517",
    "geocoded_column": {
      "latitude": "29.98883374847517",
      "longitude": "-90.07320837648611"
    }
  },
  {
    "service_request": "2025-1206740",
    "request_type": "Trash/Recycling",
    "request_reason": "Request a Large Item Pick Up",
    "date_created": "2025-07-06T19:54:31.000",
    "date_modified": "2025-07-06T19:54:32.000",
    "request_status": "Pending",
    "responsible_agency": "Department of Sanitation",
    "final_address": "2505 Orleans Ave",
    "address_councildis": "D",
    "status": "Assigned to Contractor",
    "contractor": "IV Waste",
    "rowid": "1206740",
    "final_x": "3677571.09819",
    "final_y": "536495.938567",
    "longitude": "-90.08030456427089",
    "latitude": "29.96929653553761",
    "geocoded_column": {
      "latitude": "29.96929653553761",
      "longitude": "-90.08030456427089"
    }
  },
  {
    "service_request": "2025-1206739",
    "request_type": "Trash/Recycling",
    "request_reason": "Request a Large Item Pick Up",
    "date_created": "2025-07-06T19:53:35.000",
    "date_modified": "2025-07-06T19:53:37.000",
    "request_status": "Pending",
    "responsible_agency": "Department of Sanitation",
    "final_address": "2505 Orleans Ave",
    "address_councildis": "D",
    "status": "Assigned to Contractor",
    "contractor": "IV Waste",
    "rowid": "1206739",
    "final_x": "3677571.09819",
    "final_y": "536495.938567",
    "longitude": "-90.08030456427089",
    "latitude": "29.96929653553761",
    "geocoded_column": {
      "latitude": "29.96929653553761",
      "longitude": "-90.08030456427089"
    }
  },
  {
    "service_request": "2025-1206738",
    "request_type": "Trash/Recycling",
    "request_reason": "Request a Large Item Pick Up",
    "date_created": "2025-07-06T19:52:26.000",
    "date_modified": "2025-07-06T19:52:27.000",
    "request_status": "Pending",
    "responsible_agency": "Department of Sanitation",
    "final_address": "2505 Orleans Ave",
    "address_councildis": "D",
    "status": "Assigned to Contractor",
    "contractor": "IV Waste",
    "rowid": "1206738",
    "final_x": "3677571.09819",
    "final_y": "536495.938567",
    "longitude": "-90.08030456427089",
    "latitude": "29.96929653553761",
    "geocoded_column": {
      "latitude": "29.96929653553761",
      "longitude": "-90.08030456427089"
    }
  },
  {
    "service_request": "2025-1206737",
    "request_type": "Trash/Recycling",
    "request_reason": "Request a Large Item Pick Up",
    "date_created": "2025-07-06T19:33:54.000",
    "date_modified": "2025-07-06T19:33:56.000",
    "request_status": "Pending",
    "responsible_agency": "Department of Sanitation",
    "final_address": "456 Crystal St",
    "address_councildis": "D",
    "status": "Assigned to Contractor",
    "contractor": "IV Waste",
    "rowid": "1206737",
    "final_x": "3668218.1218",
    "final_y": "556169.58857",
    "longitude": "-90.10917830166784",
    "latitude": "30.023670208997654",
    "geocoded_column": {
      "latitude": "30.023670208997654",
      "longitude": "-90.10917830166784"
    }
  },
  {
    "service_request": "2025-1206735",
    "request_type": "General Services",
    "request_reason": "General Service Request",
    "date_created": "2025-07-06T19:14:04.000",
    "date_modified": "2025-07-06T19:14:06.000",
    "request_status": "Pending",
    "responsible_agency": "Orleans Parish Communication District",
    "final_address": "6972 Colbert St",
    "address_councildis": "A",
    "status": "Pending",
    "rowid": "1206735",
    "final_x": "3667947.23892",
    "final_y": "554044.317848",
    "longitude": "-90.11010592964402",
    "latitude": "30.01783442297683",
    "geocoded_column": {
      "latitude": "30.01783442297683",
      "longitude": "-90.11010592964402"
    }
  },
  {
    "service_request": "2025-1206734",
    "request_type": "Street and Traffic Signs",
    "request_reason": "Additional Signage Request",
    "date_created": "2025-07-06T19:12:26.000",
    "date_modified": "2025-07-06T19:12:28.000",
    "request_status": "Pending",
    "responsible_agency": "Department of Public Works",
    "final_address": "3700 Post Oak Ave",
    "address_councildis": "C",
    "status": "Pending",
    "rowid": "1206734",
    "final_x": "3704148.61668",
    "final_y": "514414.556403",
    "longitude": "-89.99718452785675",
    "latitude": "29.907754593277513",
    "geocoded_column": {
      "latitude": "29.907754593277513",
      "longitude": "-89.99718452785675"
    }
  },
  {
    "service_request": "2025-1206733",
    "request_type": "Property Maintenance",
    "request_reason": "Property Maintenance",
    "date_created": "2025-07-06T19:09:07.000",
    "date_modified": "2025-07-06T19:09:10.000",
    "request_status": "Pending",
    "responsible_agency": "Department of Code Enforcement",
    "final_address": "3901 Third St",
    "address_councildis": "B",
    "status": "Pending",
    "rowid": "1206733",
    "final_x": "3672005.28807",
    "final_y": "529642.533953",
    "longitude": "-90.09811517591974",
    "latitude": "29.950618138221646",
    "geocoded_column": {
      "latitude": "29.950618138221646",
      "longitude": "-90.09811517591974"
    }
  },
  {
    "service_request": "2025-1206732",
    "request_type": "General Services",
    "request_reason": "General Service Request",
    "date_created": "2025-07-06T19:03:18.000",
    "date_modified": "2025-07-06T19:03:20.000",
    "request_status": "Pending",
    "responsible_agency": "Orleans Parish Communication District",
    "final_address": "3500 BLK Pin Oak Ave",
    "address_councildis": "C",
    "status": "Pending",
    "rowid": "1206732",
    "final_x": "3703704.50397",
    "final_y": "514904.352853",
    "longitude": "-89.9985681872604",
    "latitude": "29.909115598831168",
    "geocoded_column": {
      "latitude": "29.909115598831168",
      "longitude": "-89.9985681872604"
    }
  },
  {
    "service_request": "2025-1206731",
    "request_type": "Streetlights",
    "request_reason": "Streetlight Outage/Malfunction",
    "date_created": "2025-07-06T18:59:20.000",
    "date_modified": "2025-07-06T18:59:22.000",
    "request_status": "Pending",
    "responsible_agency": "Department of Public Works",
    "final_address": "6215 Pasteur Blvd",
    "address_councildis": "D",
    "status": "Pending",
    "contractor": "Legacy Professional Services",
    "rowid": "1206731",
    "final_x": "3682807.53109",
    "final_y": "555911.254489",
    "longitude": "-90.06308780632628",
    "latitude": "30.022523242278567",
    "geocoded_column": {
      "latitude": "30.022523242278567",
      "longitude": "-90.06308780632628"
    }
  },
  {
    "service_request": "2025-1206730",
    "request_type": "Trash/Recycling",
    "request_reason": "Request a Large Item Pick Up",
    "date_created": "2025-07-06T18:55:13.000",
    "date_modified": "2025-07-06T18:55:14.000",
    "request_status": "Pending",
    "responsible_agency": "Department of Sanitation",
    "final_address": "6215 Pasteur Blvd",
    "address_councildis": "D",
    "status": "Assigned to Contractor",
    "contractor": "IV Waste",
    "rowid": "1206730",
    "final_x": "3682807.53109",
    "final_y": "555911.254489",
    "longitude": "-90.06308780632628",
    "latitude": "30.022523242278567",
    "geocoded_column": {
      "latitude": "30.022523242278567",
      "longitude": "-90.06308780632628"
    }
  },
  {
    "service_request": "2025-1206729",
    "request_type": "Trash/Recycling",
    "request_reason": "Request a Large Item Pick Up",
    "date_created": "2025-07-06T18:47:01.000",
    "date_modified": "2025-07-06T18:47:03.000",
    "request_status": "Pending",
    "responsible_agency": "Department of Sanitation",
    "final_address": "2301 Magazine St",
    "address_councildis": "B",
    "status": "Assigned to Contractor",
    "contractor": "IV Waste",
    "rowid": "1206729",
    "final_x": "3678487.91016",
    "final_y": "521851.003578",
    "longitude": "-90.07791592815494",
    "latitude": "29.929000259503336",
    "geocoded_column": {
      "latitude": "29.929000259503336",
      "longitude": "-90.07791592815494"
    }
  },
  {
    "service_request": "2025-1206728",
    "request_type": "Parks & Parkways",
    "request_reason": "Park Maintenance/Clean Up",
    "date_created": "2025-07-06T18:24:18.000",
    "date_modified": "2025-07-06T18:24:19.000",
    "request_status": "Pending",
    "responsible_agency": "Department of Parks & Parkway",
    "final_address": "5147 Wildair Dr",
    "address_councildis": "D",
    "status": "Pending",
    "rowid": "1206728",
    "final_x": "3681670.01557",
    "final_y": "551295.277077",
    "longitude": "-90.06684329353844",
    "latitude": "30.009865609136885",
    "geocoded_column": {
      "latitude": "30.009865609136885",
      "longitude": "-90.06684329353844"
    }
  },
  {
    "service_request": "2025-1206727",
    "request_type": "Trash/Recycling",
    "request_reason": "Order Trash Cart",
    "date_created": "2025-07-06T18:23:29.000",
    "date_modified": "2025-07-06T18:23:32.000",
    "request_status": "Pending",
    "responsible_agency": "Department of Sanitation",
    "final_address": "800 Baronne St",
    "address_councildis": "B",
    "status": "Assigned to Contractor",
    "contractor": "IV Waste",
    "rowid": "1206727",
    "final_x": "3679629.39983",
    "final_y": "528154.097152",
    "longitude": "-90.07409380407206",
    "latitude": "29.946297243500503",
    "geocoded_column": {
      "latitude": "29.946297243500503",
      "longitude": "-90.07409380407206"
    }
  },
  {
    "service_request": "2025-1206726",
    "request_type": "Street and Traffic Signs",
    "request_reason": "Street Name Sign Damaged or Missing",
    "date_created": "2025-07-06T18:04:24.000",
    "date_modified": "2025-07-06T18:04:25.000",
    "request_status": "Pending",
    "responsible_agency": "Department of Public Works",
    "final_address": "7631 Avon Park Blvd",
    "address_councildis": "E",
    "status": "Pending",
    "rowid": "1206726",
    "final_x": "3719536.63833",
    "final_y": "572670.696169",
    "longitude": "-89.94639305861058",
    "latitude": "30.067434131072968",
    "geocoded_column": {
      "latitude": "30.067434131072968",
      "longitude": "-89.94639305861058"
    }
  },
  {
    "service_request": "2025-1206725",
    "request_type": "Trash/Recycling",
    "request_reason": "Replace Trash Cart",
    "date_created": "2025-07-06T17:51:14.000",
    "date_modified": "2025-07-06T17:51:16.000",
    "request_status": "Pending",
    "responsible_agency": "Department of Sanitation",
    "final_address": "546 Warrington Dr",
    "address_councildis": "D",
    "status": "Assigned to Contractor",
    "contractor": "IV Waste",
    "rowid": "1206725",
    "final_x": "3681077.34965",
    "final_y": "549219.164499",
    "longitude": "-90.06878812513858",
    "latitude": "30.00417504485718",
    "geocoded_column": {
      "latitude": "30.00417504485718",
      "longitude": "-90.06878812513858"
    }
  },
  {
    "service_request": "2025-1206724",
    "request_type": "Trash/Recycling",
    "request_reason": "Start Trash Service",
    "date_created": "2025-07-06T17:39:32.000",
    "date_modified": "2025-07-06T17:39:34.000",
    "request_status": "Pending",
    "responsible_agency": "Department of Sanitation",
    "final_address": "12921 Chanelle Ct",
    "address_councildis": "E",
    "status": "Assigned to Contractor",
    "contractor": "Waste Pro",
    "rowid": "1206724",
    "final_x": "3716997.56735",
    "final_y": "567457.633956",
    "longitude": "-89.954617723339",
    "latitude": "30.053184633058464",
    "geocoded_column": {
      "latitude": "30.053184633058464",
      "longitude": "-89.954617723339"
    }
  },
  {
    "service_request": "2025-1206723",
    "request_type": "General Services",
    "request_reason": "General Service Request",
    "date_created": "2025-07-06T17:32:46.000",
    "date_modified": "2025-07-06T17:32:49.000",
    "request_status": "Pending",
    "responsible_agency": "Orleans Parish Communication District",
    "final_address": "4701 Eunice Dr",
    "address_councildis": "E",
    "status": "Pending",
    "rowid": "1206723",
    "final_x": "3710646.766",
    "final_y": "555484.127321",
    "longitude": "-89.97513930469799",
    "latitude": "30.020470842761245",
    "geocoded_column": {
      "latitude": "30.020470842761245",
      "longitude": "-89.97513930469799"
    }
  },
  {
    "service_request": "2025-1206722",
    "request_type": "Parks & Parkways",
    "request_reason": "Request Tree Service (Right of Way/Public Property)",
    "date_created": "2025-07-06T17:06:19.000",
    "date_modified": "2025-07-06T17:06:21.000",
    "request_status": "Pending",
    "responsible_agency": "Department of Parks & Parkway",
    "final_address": "1300 BLK N Broad St",
    "address_councildis": "D",
    "status": "Pending",
    "rowid": "1206722",
    "final_x": "3678095.64016",
    "final_y": "538769.277236",
    "longitude": "-90.07856940149249",
    "latitude": "29.975531654718296",
    "geocoded_column": {
      "latitude": "29.975531654718296",
      "longitude": "-90.07856940149249"
    }
  },
  {
    "service_request": "2025-1206721",
    "request_type": "General Services",
    "request_reason": "General Service Request",
    "date_created": "2025-07-06T16:41:27.000",
    "date_modified": "2025-07-06T16:41:29.000",
    "request_status": "Pending",
    "responsible_agency": "Orleans Parish Communication District",
    "final_address": "4701 Eunice Dr",
    "address_councildis": "E",
    "status": "Pending",
    "rowid": "1206721",
    "final_x": "3710646.766",
    "final_y": "555484.127321",
    "longitude": "-89.97513930469799",
    "latitude": "30.020470842761245",
    "geocoded_column": {
      "latitude": "30.020470842761245",
      "longitude": "-89.97513930469799"
    }
  },
  {
    "service_request": "2025-1206720",
    "request_type": "Trash/Recycling",
    "request_reason": "Replace Trash Cart",
    "date_created": "2025-07-06T16:13:46.000",
    "date_modified": "2025-07-06T16:13:48.000",
    "request_status": "Pending",
    "responsible_agency": "Department of Sanitation",
    "final_address": "3722 Red Cypress Dr",
    "address_councildis": "C",
    "status": "Assigned to Contractor",
    "contractor": "Richards Disposal",
    "rowid": "1206720",
    "final_x": "3703129.14327",
    "final_y": "512292.060657",
    "longitude": "-90.00048001634853",
    "latitude": "29.901951098785116",
    "geocoded_column": {
      "latitude": "29.901951098785116",
      "longitude": "-90.00048001634853"
    }
  },
  {
    "service_request": "2025-1206719",
    "request_type": "Trash/Recycling",
    "request_reason": "Request a Large Item Pick Up",
    "date_created": "2025-07-06T16:12:24.000",
    "date_modified": "2025-07-06T16:12:26.000",
    "request_status": "Pending",
    "responsible_agency": "Department of Sanitation",
    "final_address": "7713 Redfish St",
    "address_councildis": "E",
    "status": "Assigned to Contractor",
    "contractor": "Waste Pro",
    "rowid": "1206719",
    "final_x": "3698778.14557",
    "final_y": "560533.836702",
    "longitude": "-90.01245639422453",
    "latitude": "30.03473708801126",
    "geocoded_column": {
      "latitude": "30.03473708801126",
      "longitude": "-90.01245639422453"
    }
  },
  {
    "service_request": "2025-1206718",
    "request_type": "Trash/Recycling",
    "request_reason": "Request a Large Item Pick Up",
    "date_created": "2025-07-06T15:58:50.000",
    "date_modified": "2025-07-06T15:58:52.000",
    "request_status": "Pending",
    "responsible_agency": "Department of Sanitation",
    "final_address": "4437 Iberville St",
    "address_councildis": "A",
    "status": "Assigned to Contractor",
    "contractor": "IV Waste",
    "rowid": "1206718",
    "final_x": "3670040.00666",
    "final_y": "539744.892106",
    "longitude": "-90.10397831074602",
    "latitude": "29.978454364878385",
    "geocoded_column": {
      "latitude": "29.978454364878385",
      "longitude": "-90.10397831074602"
    }
  },
  {
    "service_request": "2025-1206717",
    "request_type": "Healthy Homes",
    "request_reason": "Healthy Homes",
    "date_created": "2025-07-06T15:37:43.000",
    "date_modified": "2025-07-06T15:37:46.000",
    "request_status": "Pending",
    "responsible_agency": "Department of Code Enforcement",
    "final_address": "6737 Catina St",
    "address_councildis": "A",
    "status": "Pending",
    "rowid": "1206717",
    "final_x": "3667090.72897",
    "final_y": "552471.977366",
    "longitude": "-90.11286509549976",
    "latitude": "30.01353615353998",
    "geocoded_column": {
      "latitude": "30.01353615353998",
      "longitude": "-90.11286509549976"
    }
  },
  {
    "service_request": "2025-1206716",
    "request_type": "Parks & Parkways",
    "request_reason": "Request Tree Service (Right of Way/Public Property)",
    "date_created": "2025-07-06T15:20:32.000",
    "date_modified": "2025-07-06T15:20:34.000",
    "request_status": "Pending",
    "responsible_agency": "Department of Parks & Parkway",
    "final_address": "2540 Esplanade Ave",
    "address_councildis": "D",
    "status": "Pending",
    "rowid": "1206716",
    "final_x": "3678320.94197",
    "final_y": "538729.288009",
    "longitude": "-90.0778592202657",
    "latitude": "29.975414912265574",
    "geocoded_column": {
      "latitude": "29.975414912265574",
      "longitude": "-90.0778592202657"
    }
  },
  {
    "service_request": "2025-1206715",
    "request_type": "Trash/Recycling",
    "request_reason": "Request a Large Item Pick Up",
    "date_created": "2025-07-06T15:19:24.000",
    "date_modified": "2025-07-06T15:19:26.000",
    "request_status": "Pending",
    "responsible_agency": "Department of Sanitation",
    "final_address": "2412 Audubon St",
    "address_councildis": "A",
    "status": "Assigned to Contractor",
    "contractor": "IV Waste",
    "rowid": "1206715",
    "final_x": "3666880.68026",
    "final_y": "530067.337601",
    "longitude": "-90.1142818404694",
    "latitude": "29.951937115941544",
    "geocoded_column": {
      "latitude": "29.951937115941544",
      "longitude": "-90.1142818404694"
    }
  },
  {
    "service_request": "2025-1206714",
    "request_type": "Roads and Streets",
    "request_reason": "Sidewalk Damaged or Missing",
    "date_created": "2025-07-06T15:09:07.000",
    "date_modified": "2025-07-06T15:09:09.000",
    "request_status": "Pending",
    "responsible_agency": "Department of Public Works",
    "final_address": "6125 Dauphine St",
    "address_councildis": "E",
    "status": "Pending",
    "rowid": "1206714",
    "final_x": "3699285.53303",
    "final_y": "532232.959939",
    "longitude": "-90.01188439756717",
    "latitude": "29.956904074567028",
    "geocoded_column": {
      "latitude": "29.956904074567028",
      "longitude": "-90.01188439756717"
    }
  },
  {
    "service_request": "2025-1206713",
    "request_type": "Trash/Recycling",
    "request_reason": "Order Trash Cart",
    "date_created": "2025-07-06T15:00:43.000",
    "date_modified": "2025-07-06T15:00:45.000",
    "request_status": "Pending",
    "responsible_agency": "Department of Sanitation",
    "final_address": "5243 E Nemours St",
    "address_councildis": "E",
    "status": "Assigned to Contractor",
    "contractor": "Waste Pro",
    "rowid": "1206713",
    "final_x": "3726985.66726",
    "final_y": "563303.461856",
    "longitude": "-89.92321006652557",
    "latitude": "30.041428164190844",
    "geocoded_column": {
      "latitude": "30.041428164190844",
      "longitude": "-89.92321006652557"
    }
  },
  {
    "service_request": "2025-1206712",
    "request_type": "Trash/Recycling",
    "request_reason": "Request a Large Item Pick Up",
    "date_created": "2025-07-06T14:56:20.000",
    "date_modified": "2025-07-06T14:56:22.000",
    "request_status": "Pending",
    "responsible_agency": "Department of Sanitation",
    "final_address": "5243 E Nemours St",
    "address_councildis": "E",
    "status": "Assigned to Contractor",
    "contractor": "Waste Pro",
    "rowid": "1206712",
    "final_x": "3726985.66726",
    "final_y": "563303.461856",
    "longitude": "-89.92321006652557",
    "latitude": "30.041428164190844",
    "geocoded_column": {
      "latitude": "30.041428164190844",
      "longitude": "-89.92321006652557"
    }
  },
  {
    "service_request": "2025-1206711",
    "request_type": "Property Maintenance",
    "request_reason": "Property Maintenance",
    "date_created": "2025-07-06T14:47:16.000",
    "date_modified": "2025-07-06T14:47:19.000",
    "request_status": "Pending",
    "responsible_agency": "Department of Code Enforcement",
    "final_address": "1802 Tennessee St",
    "address_councildis": "E",
    "status": "Pending",
    "rowid": "1206711",
    "final_x": "3696379.54141",
    "final_y": "536999.738312",
    "longitude": "-90.02088814826544",
    "latitude": "29.970102854284725",
    "geocoded_column": {
      "latitude": "29.970102854284725",
      "longitude": "-90.02088814826544"
    }
  },
  {
    "service_request": "2025-1206710",
    "request_type": "Trash/Recycling",
    "request_reason": "Replace Trash Cart",
    "date_created": "2025-07-06T14:41:14.000",
    "date_modified": "2025-07-06T14:41:16.000",
    "request_status": "Pending",
    "responsible_agency": "Department of Sanitation",
    "final_address": "1900 River tree Ct New Orleans 70131",
    "status": "Assigned to Contractor",
    "rowid": "1206710",
    "longitude": "0.0",
    "latitude": "0.0",
    "geocoded_column": {
      "latitude": "0.0",
      "longitude": "0.0"
    }
  },
  {
    "service_request": "2025-1206709",
    "request_type": "Roads and Streets",
    "request_reason": "Debris in Driving Lanes",
    "date_created": "2025-07-06T14:17:56.000",
    "date_modified": "2025-07-06T14:17:58.000",
    "request_status": "Pending",
    "responsible_agency": "Department of Public Works",
    "final_address": "1 Almonaster Ave",
    "address_councildis": "D",
    "status": "Pending",
    "rowid": "1206709",
    "final_x": "3688053.015",
    "final_y": "540761.172875",
    "longitude": "-90.04705074841057",
    "latitude": "29.98070508640901",
    "geocoded_column": {
      "latitude": "29.98070508640901",
      "longitude": "-90.04705074841057"
    }
  },
  {
    "service_request": "2025-1206708",
    "request_type": "Alley Ways",
    "request_reason": "Alley Way Regrading",
    "date_created": "2025-07-06T14:00:39.000",
    "date_modified": "2025-07-06T14:00:41.000",
    "request_status": "Pending",
    "responsible_agency": "Department of Public Works",
    "final_address": "513 Arabella St",
    "address_councildis": "A",
    "status": "Pending",
    "rowid": "1206708",
    "final_x": "3665662.03885",
    "final_y": "518046.946614",
    "longitude": "-90.11853213980099",
    "latitude": "29.918920463942538",
    "geocoded_column": {
      "latitude": "29.918920463942538",
      "longitude": "-90.11853213980099"
    }
  },
  {
    "service_request": "2025-1206707",
    "request_type": "Trash/Recycling",
    "request_reason": "Request a Large Item Pick Up",
    "date_created": "2025-07-06T13:59:57.000",
    "date_modified": "2025-07-06T13:59:59.000",
    "request_status": "Pending",
    "responsible_agency": "Department of Sanitation",
    "final_address": "4659 Hauck Dr",
    "address_councildis": "E",
    "status": "Assigned to Contractor",
    "contractor": "Waste Pro",
    "rowid": "1206707",
    "final_x": "3714669.2764",
    "final_y": "556353.78441",
    "longitude": "-89.96239665629446",
    "latitude": "30.02273034090729",
    "geocoded_column": {
      "latitude": "30.02273034090729",
      "longitude": "-89.96239665629446"
    }
  },
  {
    "service_request": "2025-1206706",
    "request_type": "Abandoned Vehicles",
    "request_reason": "Abandoned/Junk Vehicles",
    "date_created": "2025-07-06T13:52:29.000",
    "date_modified": "2025-07-06T13:52:30.000",
    "request_status": "Pending",
    "responsible_agency": "Department of Public Works",
    "final_address": "3120 Industrial Ct",
    "address_councildis": "D",
    "status": "Pending",
    "rowid": "1206706",
    "final_x": "3689807.96995",
    "final_y": "538362.082377",
    "longitude": "-90.04159327235887",
    "latitude": "29.974054152147843",
    "geocoded_column": {
      "latitude": "29.974054152147843",
      "longitude": "-90.04159327235887"
    }
  },
  {
    "service_request": "2025-1206705",
    "request_type": "General Services",
    "request_reason": "General Service Request",
    "date_created": "2025-07-06T13:41:32.000",
    "date_modified": "2025-07-06T13:41:34.000",
    "request_status": "Pending",
    "responsible_agency": "Orleans Parish Communication District",
    "final_address": "2514 Cambronne St",
    "address_councildis": "A",
    "status": "Pending",
    "rowid": "1206705",
    "final_x": "3664380.24896",
    "final_y": "532691.168772",
    "longitude": "-90.12208947807493",
    "latitude": "29.959224708177018",
    "geocoded_column": {
      "latitude": "29.959224708177018",
      "longitude": "-90.12208947807493"
    }
  },
  {
    "service_request": "2025-1206704",
    "request_type": "Trash/Recycling",
    "request_reason": "Order Recycling Cart",
    "date_created": "2025-07-06T13:38:43.000",
    "date_modified": "2025-07-06T13:38:45.000",
    "request_status": "Pending",
    "responsible_agency": "Department of Sanitation",
    "final_address": "2103 Baronne St",
    "address_councildis": "B",
    "status": "Pending",
    "rowid": "1206704",
    "final_x": "3677259.61998",
    "final_y": "524722.60198",
    "longitude": "-90.08169437831921",
    "latitude": "29.93693316231773",
    "geocoded_column": {
      "latitude": "29.93693316231773",
      "longitude": "-90.08169437831921"
    }
  },
  {
    "service_request": "2025-1206703",
    "request_type": "Trash/Recycling",
    "request_reason": "Request a Large Item Pick Up",
    "date_created": "2025-07-06T13:29:12.000",
    "date_modified": "2025-07-06T13:29:13.000",
    "request_status": "Pending",
    "responsible_agency": "Department of Sanitation",
    "final_address": "1834 Cadiz St",
    "address_councildis": "B",
    "status": "Assigned to Contractor",
    "contractor": "IV Waste",
    "rowid": "1206703",
    "final_x": "3669964.06407",
    "final_y": "521805.78809",
    "longitude": "-90.10482562558167",
    "latitude": "29.92912997096781",
    "geocoded_column": {
      "latitude": "29.92912997096781",
      "longitude": "-90.10482562558167"
    }
  },
  {
    "service_request": "2025-1206702",
    "request_type": "Trash/Recycling",
    "request_reason": "Request a Large Item Pick Up",
    "date_created": "2025-07-06T13:27:51.000",
    "date_modified": "2025-07-06T13:27:53.000",
    "request_status": "Pending",
    "responsible_agency": "Department of Sanitation",
    "final_address": "4538 Constance St",
    "address_councildis": "B",
    "status": "Assigned to Contractor",
    "contractor": "IV Waste",
    "rowid": "1206702",
    "final_x": "3670386.55316",
    "final_y": "518312.25919",
    "longitude": "-90.10361026349695",
    "latitude": "29.919511416800685",
    "geocoded_column": {
      "latitude": "29.919511416800685",
      "longitude": "-90.10361026349695"
    }
  },
  {
    "service_request": "2025-1206701",
    "request_type": "Safety & Permits",
    "request_reason": "Zoning Enforcement",
    "date_created": "2025-07-06T12:55:05.000",
    "date_modified": "2025-07-06T12:55:06.000",
    "request_status": "Pending",
    "responsible_agency": "Safety and Permits",
    "final_address": "1401 Delachaise St",
    "address_councildis": "B",
    "status": "Pending",
    "rowid": "1206701",
    "final_x": "3674272.8763",
    "final_y": "520501.820088",
    "longitude": "-90.09126814211663",
    "latitude": "29.92541675039665",
    "geocoded_column": {
      "latitude": "29.92541675039665",
      "longitude": "-90.09126814211663"
    }
  },
  {
    "service_request": "2025-1206700",
    "request_type": "Safety & Permits",
    "request_reason": "Zoning Enforcement",
    "date_created": "2025-07-06T12:39:25.000",
    "date_modified": "2025-07-06T12:39:27.000",
    "request_status": "Pending",
    "responsible_agency": "Safety and Permits",
    "final_address": "1401 Delachaise St",
    "address_councildis": "B",
    "status": "Pending",
    "rowid": "1206700",
    "final_x": "3674272.8763",
    "final_y": "520501.820088",
    "longitude": "-90.09126814211663",
    "latitude": "29.92541675039665",
    "geocoded_column": {
      "latitude": "29.92541675039665",
      "longitude": "-90.09126814211663"
    }
  },
  {
    "service_request": "2025-1206699",
    "request_type": "Abandoned Vehicles",
    "request_reason": "Abandoned/Junk Vehicles",
    "date_created": "2025-07-06T12:17:46.000",
    "date_modified": "2025-07-06T12:17:48.000",
    "request_status": "Pending",
    "responsible_agency": "Department of Public Works",
    "final_address": "2112 Lapeyrouse St",
    "address_councildis": "D",
    "status": "Pending",
    "rowid": "1206699",
    "final_x": "3680631.55496",
    "final_y": "538897.059529",
    "longitude": "-90.07055584362588",
    "latitude": "29.975806410757414",
    "geocoded_column": {
      "latitude": "29.975806410757414",
      "longitude": "-90.07055584362588"
    }
  },
  {
    "service_request": "2025-1206698",
    "request_type": "Healthy Homes",
    "request_reason": "Healthy Homes",
    "date_created": "2025-07-06T12:15:05.000",
    "date_modified": "2025-07-06T12:15:07.000",
    "request_status": "Pending",
    "responsible_agency": "Department of Code Enforcement",
    "final_address": "1124 N Robertson St",
    "address_councildis": "C",
    "status": "Pending",
    "rowid": "1206698",
    "final_x": "3681112.77736",
    "final_y": "535681.666503",
    "longitude": "-90.06914804771814",
    "latitude": "29.96695059799113",
    "geocoded_column": {
      "latitude": "29.96695059799113",
      "longitude": "-90.06914804771814"
    }
  },
  {
    "service_request": "2025-1206697",
    "request_type": "Trash/Recycling",
    "request_reason": "Repair Trash Cart",
    "date_created": "2025-07-06T12:10:12.000",
    "date_modified": "2025-07-06T12:10:15.000",
    "request_status": "Pending",
    "responsible_agency": "Department of Sanitation",
    "final_address": "1921 Audubon St",
    "address_councildis": "A",
    "status": "Assigned to Contractor",
    "contractor": "IV Waste",
    "rowid": "1206697",
    "final_x": "3665920.62074",
    "final_y": "528509.002688",
    "longitude": "-90.1173654829568",
    "latitude": "29.94768025024792",
    "geocoded_column": {
      "latitude": "29.94768025024792",
      "longitude": "-90.1173654829568"
    }
  },
  {
    "service_request": "2025-1206696",
    "request_type": "Trash/Recycling",
    "request_reason": "Missed Trash Pick-Up",
    "date_created": "2025-07-06T12:05:08.000",
    "date_modified": "2025-07-06T12:05:11.000",
    "request_status": "Pending",
    "responsible_agency": "Department of Sanitation",
    "final_address": "4701 Viola St",
    "address_councildis": "E",
    "status": "Assigned to Contractor",
    "contractor": "Waste Pro",
    "rowid": "1206696",
    "final_x": "3704051.17246",
    "final_y": "554937.395864",
    "longitude": "-89.99599938313024",
    "latitude": "30.019180856422736",
    "geocoded_column": {
      "latitude": "30.019180856422736",
      "longitude": "-89.99599938313024"
    }
  },
  {
    "service_request": "2025-1206695",
    "request_type": "Trash/Recycling",
    "request_reason": "Order Recycling Cart",
    "date_created": "2025-07-06T12:01:46.000",
    "date_modified": "2025-07-06T12:01:48.000",
    "request_status": "Pending",
    "responsible_agency": "Department of Sanitation",
    "final_address": "165 Alix St",
    "address_councildis": "C",
    "status": "Pending",
    "rowid": "1206695",
    "final_x": "3686084.65142",
    "final_y": "529673.714689",
    "longitude": "-90.05365878186868",
    "latitude": "29.950279032170513",
    "geocoded_column": {
      "latitude": "29.950279032170513",
      "longitude": "-90.05365878186868"
    }
  },
  {
    "service_request": "2025-1206694",
    "request_type": "Trash/Recycling",
    "request_reason": "Order Recycling Cart",
    "date_created": "2025-07-06T12:01:45.000",
    "date_modified": "2025-07-06T12:01:47.000",
    "request_status": "Pending",
    "responsible_agency": "Department of Sanitation",
    "final_address": "165 Alix St",
    "address_councildis": "C",
    "status": "Pending",
    "rowid": "1206694",
    "final_x": "3686084.65142",
    "final_y": "529673.714689",
    "longitude": "-90.05365878186868",
    "latitude": "29.950279032170513",
    "geocoded_column": {
      "latitude": "29.950279032170513",
      "longitude": "-90.05365878186868"
    }
  },
  {
    "service_request": "2025-1206693",
    "request_type": "Trash/Recycling",
    "request_reason": "Request a Large Item Pick Up",
    "date_created": "2025-07-06T11:57:27.000",
    "date_modified": "2025-07-06T11:57:29.000",
    "request_status": "Pending",
    "responsible_agency": "Department of Sanitation",
    "final_address": "4919 Perelli Dr",
    "address_councildis": "E",
    "status": "Assigned to Contractor",
    "contractor": "Waste Pro",
    "rowid": "1206693",
    "final_x": "3711693.59627",
    "final_y": "557097.012058",
    "longitude": "-89.97177111551093",
    "latitude": "30.0248714821004",
    "geocoded_column": {
      "latitude": "30.0248714821004",
      "longitude": "-89.97177111551093"
    }
  },
  {
    "service_request": "2025-1206692",
    "request_type": "Abandoned Vehicles",
    "request_reason": "Abandoned/Junk Vehicles",
    "date_created": "2025-07-06T11:31:13.000",
    "date_modified": "2025-07-06T11:31:15.000",
    "request_status": "Pending",
    "responsible_agency": "Department of Public Works",
    "final_address": "2000 BLK Canal St",
    "address_councildis": "B",
    "status": "Pending",
    "rowid": "1206692",
    "final_x": "3677378.02185",
    "final_y": "533523.783462",
    "longitude": "-90.0810168995579",
    "latitude": "29.961129921951756",
    "geocoded_column": {
      "latitude": "29.961129921951756",
      "longitude": "-90.0810168995579"
    }
  },
  {
    "service_request": "2025-1206691",
    "request_type": "Trash/Recycling",
    "request_reason": "Order Trash Cart",
    "date_created": "2025-07-06T11:18:36.000",
    "date_modified": "2025-07-06T11:18:37.000",
    "request_status": "Pending",
    "responsible_agency": "Department of Sanitation",
    "final_address": "3003 Touro St 70122 New Orleans La",
    "status": "Assigned to Contractor",
    "rowid": "1206691",
    "longitude": "0.0",
    "latitude": "0.0",
    "geocoded_column": {
      "latitude": "0.0",
      "longitude": "0.0"
    }
  },
  {
    "service_request": "2025-1206690",
    "request_type": "Roads and Streets",
    "request_reason": "Pothole",
    "date_created": "2025-07-06T11:11:49.000",
    "date_modified": "2025-07-06T11:11:51.000",
    "request_status": "Pending",
    "responsible_agency": "Department of Public Works",
    "final_address": "5328 Eastern St",
    "address_councildis": "D",
    "status": "Pending",
    "rowid": "1206690",
    "final_x": "3687813.01161",
    "final_y": "552550.995798",
    "longitude": "-90.04739087807874",
    "latitude": "30.013130248712788",
    "geocoded_column": {
      "latitude": "30.013130248712788",
      "longitude": "-90.04739087807874"
    }
  },
  {
    "service_request": "2025-1206689",
    "request_type": "Abandoned Vehicles",
    "request_reason": "Abandoned/Junk Vehicles",
    "date_created": "2025-07-06T10:50:03.000",
    "date_modified": "2025-07-06T10:50:05.000",
    "request_status": "Pending",
    "responsible_agency": "Department of Public Works",
    "final_address": "8035 Green St",
    "address_councildis": "A",
    "status": "Pending",
    "rowid": "1206689",
    "final_x": "3663293.29229",
    "final_y": "529561.615681",
    "longitude": "-90.12562599993187",
    "latitude": "29.950650999980024",
    "geocoded_column": {
      "latitude": "29.950650999980024",
      "longitude": "-90.12562599993187"
    }
  },
  {
    "service_request": "2025-1206688",
    "request_type": "Trash/Recycling",
    "request_reason": "Replace Recycling Cart",
    "date_created": "2025-07-06T10:41:36.000",
    "date_modified": "2025-07-06T10:41:38.000",
    "request_status": "Pending",
    "responsible_agency": "Department of Sanitation",
    "final_address": "4123 N Rampart St",
    "address_councildis": "C",
    "status": "Pending",
    "rowid": "1206688",
    "final_x": "3692199.27203",
    "final_y": "534772.880198",
    "longitude": "-90.03416955000782",
    "latitude": "29.964110773256415",
    "geocoded_column": {
      "latitude": "29.964110773256415",
      "longitude": "-90.03416955000782"
    }
  },
  {
    "service_request": "2025-1206687",
    "request_type": "Trash/Recycling",
    "request_reason": "Order Trash Cart",
    "date_created": "2025-07-06T09:47:52.000",
    "date_modified": "2025-07-06T09:47:54.000",
    "request_status": "Pending",
    "responsible_agency": "Department of Sanitation",
    "final_address": "3218 Bienville Ave",
    "address_councildis": "B",
    "status": "Assigned to Contractor",
    "contractor": "IV Waste",
    "rowid": "1206687",
    "final_x": "3674175.63713",
    "final_y": "536906.62836",
    "longitude": "-90.09101364477009",
    "latitude": "29.97052745385892",
    "geocoded_column": {
      "latitude": "29.97052745385892",
      "longitude": "-90.09101364477009"
    }
  },
  {
    "service_request": "2025-1206686",
    "request_type": "Trash/Recycling",
    "request_reason": "Request a Large Item Pick Up",
    "date_created": "2025-07-06T09:38:33.000",
    "date_modified": "2025-07-06T09:38:35.000",
    "request_status": "Pending",
    "responsible_agency": "Department of Sanitation",
    "final_address": "3049 Burgundy St",
    "address_councildis": "C",
    "status": "Assigned to Contractor",
    "contractor": "IV Waste",
    "rowid": "1206686",
    "final_x": "3688623.96239",
    "final_y": "535288.808966",
    "longitude": "-90.04544172013118",
    "latitude": "29.965640376380243",
    "geocoded_column": {
      "latitude": "29.965640376380243",
      "longitude": "-90.04544172013118"
    }
  },
  {
    "service_request": "2025-1206685",
    "request_type": "Trash/Recycling",
    "request_reason": "Missed Trash Pick-Up",
    "date_created": "2025-07-06T09:22:11.000",
    "date_modified": "2025-07-06T11:59:41.000",
    "case_close_date": "2025-07-06T06:59:40.000",
    "request_status": "Closed",
    "responsible_agency": "Department of Sanitation",
    "final_address": "1528 Harmony St",
    "address_councildis": "B",
    "status": "Invalid Request",
    "contractor": "IV Waste",
    "contractor_action": "Invalid Request",
    "rowid": "1206685",
    "final_x": "3674953.61685",
    "final_y": "521579.146745",
    "longitude": "-90.08908232491245",
    "latitude": "29.92835874308816",
    "geocoded_column": {
      "latitude": "29.92835874308816",
      "longitude": "-90.08908232491245"
    }
  },
  {
    "service_request": "2025-1206684",
    "request_type": "Streetlights",
    "request_reason": "Streetlight Outage/Malfunction",
    "date_created": "2025-07-06T09:09:25.000",
    "date_modified": "2025-07-06T09:09:28.000",
    "request_status": "Pending",
    "responsible_agency": "Department of Public Works",
    "final_address": "6500 BLK Prentiss Ave",
    "address_councildis": "E",
    "status": "Pending",
    "contractor": "Legacy Professional Services",
    "rowid": "1206684",
    "final_x": "3698666.95302",
    "final_y": "554617.581169",
    "longitude": "-90.0130232068002",
    "latitude": "30.01847317614564",
    "geocoded_column": {
      "latitude": "30.01847317614564",
      "longitude": "-90.0130232068002"
    }
  },
  {
    "service_request": "2025-1206683",
    "request_type": "Drainage",
    "request_reason": "Catch Basin Clogged",
    "date_created": "2025-07-06T07:48:16.000",
    "date_modified": "2025-07-06T07:48:17.000",
    "request_status": "Pending",
    "responsible_agency": "Sewerage & Water Board",
    "final_address": "8700 Apricot St",
    "address_councildis": "A",
    "status": "Pending",
    "rowid": "1206683",
    "final_x": "3664170.33543",
    "final_y": "534074.321477",
    "longitude": "-90.1227061909471",
    "latitude": "29.963034025438528",
    "geocoded_column": {
      "latitude": "29.963034025438528",
      "longitude": "-90.1227061909471"
    }
  },
  {
    "service_request": "2025-1206682",
    "request_type": "General Services",
    "request_reason": "General Service Request",
    "date_created": "2025-07-06T07:47:14.000",
    "date_modified": "2025-07-06T07:47:17.000",
    "request_status": "Pending",
    "responsible_agency": "Orleans Parish Communication District",
    "final_address": "8001 Fig St",
    "address_councildis": "B",
    "status": "Pending",
    "rowid": "1206682",
    "final_x": "3666658.75649",
    "final_y": "532921.957508",
    "longitude": "-90.11488672649722",
    "latitude": "29.959792877303094",
    "geocoded_column": {
      "latitude": "29.959792877303094",
      "longitude": "-90.11488672649722"
    }
  },
  {
    "service_request": "2025-1206681",
    "request_type": "Trash/Recycling",
    "request_reason": "Request a Large Item Pick Up",
    "date_created": "2025-07-06T07:25:28.000",
    "date_modified": "2025-07-06T07:25:29.000",
    "request_status": "Pending",
    "responsible_agency": "Department of Sanitation",
    "final_address": "5728 Royal St",
    "address_councildis": "E",
    "status": "Assigned to Contractor",
    "contractor": "Waste Pro",
    "rowid": "1206681",
    "final_x": "3698152.85239",
    "final_y": "532085.250243",
    "longitude": "-90.01546638907543",
    "latitude": "29.956533794555778",
    "geocoded_column": {
      "latitude": "29.956533794555778",
      "longitude": "-90.01546638907543"
    }
  },
  {
    "service_request": "2025-1206680",
    "request_type": "Trash/Recycling",
    "request_reason": "Request a Large Item Pick Up",
    "date_created": "2025-07-06T07:25:25.000",
    "date_modified": "2025-07-06T07:25:27.000",
    "request_status": "Pending",
    "responsible_agency": "Department of Sanitation",
    "final_address": "5728 Royal St",
    "address_councildis": "E",
    "status": "Assigned to Contractor",
    "contractor": "Waste Pro",
    "rowid": "1206680",
    "final_x": "3698152.85239",
    "final_y": "532085.250243",
    "longitude": "-90.01546638907543",
    "latitude": "29.956533794555778",
    "geocoded_column": {
      "latitude": "29.956533794555778",
      "longitude": "-90.01546638907543"
    }
  },
  {
    "service_request": "2025-1206679",
    "request_type": "Roads and Streets",
    "request_reason": "Street Subsidence (Sinking)",
    "date_created": "2025-07-06T06:45:19.000",
    "date_modified": "2025-07-06T06:45:21.000",
    "request_status": "Pending",
    "responsible_agency": "Department of Public Works",
    "final_address": "CHEF MENTEUR HWY & LOUISA ST",
    "address_councildis": "D",
    "status": "Pending",
    "rowid": "1206679",
    "final_x": "3691347.4",
    "final_y": "549732.88",
    "longitude": "-90.03632492843472",
    "latitude": "30.00527193180098",
    "geocoded_column": {
      "latitude": "30.00527193180098",
      "longitude": "-90.03632492843472"
    }
  },
  {
    "service_request": "2025-1206678",
    "request_type": "Trash/Recycling",
    "request_reason": "Request a Large Item Pick Up",
    "date_created": "2025-07-06T03:12:36.000",
    "date_modified": "2025-07-06T03:12:38.000",
    "request_status": "Pending",
    "responsible_agency": "Department of Sanitation",
    "final_address": "7741 Shubert St",
    "address_councildis": "E",
    "status": "Assigned to Contractor",
    "contractor": "Waste Pro",
    "rowid": "1206678",
    "final_x": "3695651.64963",
    "final_y": "559268.75126",
    "longitude": "-90.02238227689813",
    "latitude": "30.031357316537708",
    "geocoded_column": {
      "latitude": "30.031357316537708",
      "longitude": "-90.02238227689813"
    }
  },
  {
    "service_request": "2025-1206677",
    "request_type": "General Services",
    "request_reason": "General Service Request",
    "date_created": "2025-07-06T00:45:29.000",
    "date_modified": "2025-07-06T00:45:31.000",
    "request_status": "Pending",
    "responsible_agency": "Orleans Parish Communication District",
    "final_address": "540 Burgundy St",
    "address_councildis": "C",
    "status": "Pending",
    "rowid": "1206677",
    "final_x": "3681428.20802",
    "final_y": "532730.959428",
    "longitude": "-90.06825479779992",
    "latitude": "29.958827589490276",
    "geocoded_column": {
      "latitude": "29.958827589490276",
      "longitude": "-90.06825479779992"
    }
  },
  {
    "service_request": "2025-1206675",
    "request_type": "Property Maintenance",
    "request_reason": "Property Maintenance",
    "date_created": "2025-07-06T00:10:06.000",
    "date_modified": "2025-07-06T00:10:14.000",
    "request_status": "Pending",
    "responsible_agency": "Department of Code Enforcement",
    "final_address": "41 Winners Cir",
    "address_councildis": "E",
    "status": "Pending",
    "rowid": "1206675",
    "final_x": "3715781.78943",
    "final_y": "570200.939879",
    "longitude": "-89.95835638172908",
    "latitude": "30.060767760390632",
    "geocoded_column": {
      "latitude": "30.060767760390632",
      "longitude": "-89.95835638172908"
    }
  },
  {
    "service_request": "2025-1206674",
    "request_type": "Roads and Streets",
    "request_reason": "Pothole",
    "date_created": "2025-07-06T00:02:19.000",
    "date_modified": "2025-07-06T00:02:23.000",
    "request_status": "Pending",
    "responsible_agency": "Department of Public Works",
    "final_address": "41 Winners Cir",
    "address_councildis": "E",
    "status": "Pending",
    "rowid": "1206674",
    "final_x": "3715781.78943",
    "final_y": "570200.939879",
    "longitude": "-89.95835638172908",
    "latitude": "30.060767760390632",
    "geocoded_column": {
      "latitude": "30.060767760390632",
      "longitude": "-89.95835638172908"
    }
  },
  {
    "service_request": "2025-1206673",
    "request_type": "Trash/Recycling",
    "request_reason": "Order Recycling Cart",
    "date_created": "2025-07-05T23:32:37.000",
    "date_modified": "2025-07-05T23:32:43.000",
    "request_status": "Pending",
    "responsible_agency": "Department of Sanitation",
    "final_address": "2048 Mercedes Blvd",
    "address_councildis": "C",
    "status": "Pending",
    "rowid": "1206673",
    "final_x": "3698190.50071",
    "final_y": "523257.583739",
    "longitude": "-90.01566805674325",
    "latitude": "29.932259603215613",
    "geocoded_column": {
      "latitude": "29.932259603215613",
      "longitude": "-90.01566805674325"
    }
  },
  {
    "service_request": "2025-1206672",
    "request_type": "Abandoned Vehicles",
    "request_reason": "Abandoned/Junk Vehicles",
    "date_created": "2025-07-05T22:40:02.000",
    "date_modified": "2025-07-05T22:40:04.000",
    "request_status": "Pending",
    "responsible_agency": "Department of Public Works",
    "final_address": "600 Upperline St",
    "address_councildis": "B",
    "status": "Pending",
    "rowid": "1206672",
    "final_x": "3668919.04314",
    "final_y": "517569.145718",
    "longitude": "-90.10826755387765",
    "latitude": "29.917511313181475",
    "geocoded_column": {
      "latitude": "29.917511313181475",
      "longitude": "-90.10826755387765"
    }
  },
  {
    "service_request": "2025-1206671",
    "request_type": "Abandoned Vehicles",
    "request_reason": "Abandoned/Junk Vehicles",
    "date_created": "2025-07-05T22:28:53.000",
    "date_modified": "2025-07-05T22:28:55.000",
    "request_status": "Pending",
    "responsible_agency": "Department of Public Works",
    "final_address": "3129 Nashville Ave",
    "address_councildis": "A",
    "status": "Pending",
    "rowid": "1206671",
    "final_x": "3667911.07681",
    "final_y": "527411.255679",
    "longitude": "-90.11111778090468",
    "latitude": "29.94460357134664",
    "geocoded_column": {
      "latitude": "29.94460357134664",
      "longitude": "-90.11111778090468"
    }
  },
  {
    "service_request": "2025-1206670",
    "request_type": "Trash/Recycling",
    "request_reason": "Request a Large Item Pick Up",
    "date_created": "2025-07-05T22:26:35.000",
    "date_modified": "2025-07-05T22:26:37.000",
    "request_status": "Pending",
    "responsible_agency": "Department of Sanitation",
    "final_address": "1129 Fourth St",
    "address_councildis": "B",
    "status": "Assigned to Contractor",
    "contractor": "IV Waste",
    "rowid": "1206670",
    "final_x": "3677227.54971",
    "final_y": "521221.942329",
    "longitude": "-90.08191632658591",
    "latitude": "29.927308455509323",
    "geocoded_column": {
      "latitude": "29.927308455509323",
      "longitude": "-90.08191632658591"
    }
  },
  {
    "service_request": "2025-1206669",
    "request_type": "Abandoned Vehicles",
    "request_reason": "Abandoned/Junk Vehicles",
    "date_created": "2025-07-05T22:16:47.000",
    "date_modified": "2025-07-05T22:16:49.000",
    "request_status": "Pending",
    "responsible_agency": "Department of Public Works",
    "final_address": "1616 Spain St",
    "address_councildis": "D",
    "status": "Pending",
    "rowid": "1206669",
    "final_x": "3685944.60162",
    "final_y": "538376.898057",
    "longitude": "-90.0537941197977",
    "latitude": "29.9742140798663",
    "geocoded_column": {
      "latitude": "29.9742140798663",
      "longitude": "-90.0537941197977"
    }
  },
  {
    "service_request": "2025-1206668",
    "request_type": "Trash/Recycling",
    "request_reason": "Dead Animal Pick Up",
    "date_created": "2025-07-05T22:12:48.000",
    "date_modified": "2025-07-06T11:06:21.000",
    "request_status": "Pending",
    "responsible_agency": "Department of Sanitation",
    "final_address": "1616 Spain St",
    "address_councildis": "D",
    "status": "Assigned to Contractor",
    "contractor": "IV Waste",
    "rowid": "1206668",
    "final_x": "3685944.60162",
    "final_y": "538376.898057",
    "longitude": "-90.0537941197977",
    "latitude": "29.9742140798663",
    "geocoded_column": {
      "latitude": "29.9742140798663",
      "longitude": "-90.0537941197977"
    }
  },
  {
    "service_request": "2025-1206667",
    "request_type": "Streetlights",
    "request_reason": "New Streetlight Request",
    "date_created": "2025-07-05T21:54:04.000",
    "date_modified": "2025-07-05T21:54:06.000",
    "request_status": "Pending",
    "responsible_agency": "Department of Public Works",
    "final_address": "4948 Rhodes Dr",
    "address_councildis": "E",
    "status": "Pending",
    "contractor": "Legacy Professional Services",
    "rowid": "1206667",
    "final_x": "3702363.29175",
    "final_y": "555474.920089",
    "longitude": "-90.00131272400237",
    "latitude": "30.02071290052674",
    "geocoded_column": {
      "latitude": "30.02071290052674",
      "longitude": "-90.00131272400237"
    }
  },
  {
    "service_request": "2025-1206666",
    "request_type": "Streetlights",
    "request_reason": "Streetlight Outage/Malfunction",
    "date_created": "2025-07-05T21:35:28.000",
    "date_modified": "2025-07-05T21:35:30.000",
    "request_status": "Pending",
    "responsible_agency": "Department of Public Works",
    "final_address": "5313 Wildair Dr",
    "address_councildis": "D",
    "status": "Pending",
    "contractor": "Legacy Professional Services",
    "rowid": "1206666",
    "final_x": "3681706.99042",
    "final_y": "552508.085462",
    "longitude": "-90.06668411988002",
    "latitude": "30.013199269319504",
    "geocoded_column": {
      "latitude": "30.013199269319504",
      "longitude": "-90.06668411988002"
    }
  },
  {
    "service_request": "2025-1206665",
    "request_type": "Abandoned Vehicles",
    "request_reason": "Abandoned/Junk Vehicles",
    "date_created": "2025-07-05T21:27:50.000",
    "date_modified": "2025-07-05T21:27:52.000",
    "request_status": "Pending",
    "responsible_agency": "Department of Public Works",
    "final_address": "4300 St Anthony Ave",
    "address_councildis": "D",
    "status": "Pending",
    "rowid": "1206665",
    "final_x": "3682410.59708",
    "final_y": "548389.114898",
    "longitude": "-90.06460519444556",
    "latitude": "30.001852181733472",
    "geocoded_column": {
      "latitude": "30.001852181733472",
      "longitude": "-90.06460519444556"
    }
  },
  {
    "service_request": "2025-1206664",
    "request_type": "Mosquito, Termite & Rodent Control",
    "request_reason": "Termite Complaint",
    "date_created": "2025-07-05T21:11:53.000",
    "date_modified": "2025-07-05T21:11:55.000",
    "request_status": "Pending",
    "responsible_agency": "Mosquito, Termite & Rodent Control Board",
    "final_address": "3535 Havana St",
    "address_councildis": "D",
    "status": "Pending",
    "rowid": "1206664",
    "final_x": "3680873.43464",
    "final_y": "545524.812624",
    "longitude": "-90.06956105259181",
    "latitude": "29.994023078873784",
    "geocoded_column": {
      "latitude": "29.994023078873784",
      "longitude": "-90.06956105259181"
    }
  },
  {
    "service_request": "2025-1206663",
    "request_type": "Property Maintenance",
    "request_reason": "Property Maintenance",
    "date_created": "2025-07-05T20:53:14.000",
    "date_modified": "2025-07-05T20:53:16.000",
    "request_status": "Pending",
    "responsible_agency": "Department of Code Enforcement",
    "final_address": "1827 S Carrollton Ave",
    "address_councildis": "A",
    "status": "Pending",
    "rowid": "1206663",
    "final_x": "3663676.79431",
    "final_y": "529991.862849",
    "longitude": "-90.12440075882559",
    "latitude": "29.951822920815157",
    "geocoded_column": {
      "latitude": "29.951822920815157",
      "longitude": "-90.12440075882559"
    }
  },
  {
    "service_request": "2025-1206662",
    "request_type": "Streetlights",
    "request_reason": "Streetlight Outage/Malfunction",
    "date_created": "2025-07-05T20:48:34.000",
    "date_modified": "2025-07-05T20:48:36.000",
    "request_status": "Pending",
    "responsible_agency": "Department of Public Works",
    "final_address": "7340 Trapier Ave",
    "address_councildis": "E",
    "status": "Pending",
    "contractor": "Legacy Professional Services",
    "rowid": "1206662",
    "final_x": "3706843.77086",
    "final_y": "562936.083424",
    "longitude": "-89.98687883040066",
    "latitude": "30.041084197943448",
    "geocoded_column": {
      "latitude": "30.041084197943448",
      "longitude": "-89.98687883040066"
    }
  },
  {
    "service_request": "2025-1206661",
    "request_type": "Abandoned Vehicles",
    "request_reason": "Abandoned/Junk Vehicles",
    "date_created": "2025-07-05T20:08:28.000",
    "date_modified": "2025-07-05T20:08:30.000",
    "request_status": "Pending",
    "responsible_agency": "Department of Public Works",
    "final_address": "228 Jewel St",
    "address_councildis": "D",
    "status": "Pending",
    "rowid": "1206661",
    "final_x": "3667315.96845",
    "final_y": "555737.788313",
    "longitude": "-90.11204347703837",
    "latitude": "30.02250938218727",
    "geocoded_column": {
      "latitude": "30.02250938218727",
      "longitude": "-90.11204347703837"
    }
  },
  {
    "service_request": "2025-1206660",
    "request_type": "Trash/Recycling",
    "request_reason": "Change Size of Trash Cart",
    "date_created": "2025-07-05T20:04:32.000",
    "date_modified": "2025-07-05T20:04:34.000",
    "request_status": "Pending",
    "responsible_agency": "Department of Sanitation",
    "final_address": "6381 Eastover Dr",
    "address_councildis": "E",
    "status": "Assigned to Contractor",
    "contractor": "Waste Pro",
    "rowid": "1206660",
    "final_x": "3718235.65874",
    "final_y": "563560.61296",
    "longitude": "-89.9508531063115",
    "latitude": "30.04242840456935",
    "geocoded_column": {
      "latitude": "30.04242840456935",
      "longitude": "-89.9508531063115"
    }
  },
  {
    "service_request": "2025-1206659",
    "request_type": "Abandoned Vehicles",
    "request_reason": "Abandoned/Junk Vehicles",
    "date_created": "2025-07-05T20:03:28.000",
    "date_modified": "2025-07-05T20:03:29.000",
    "request_status": "Pending",
    "responsible_agency": "Department of Public Works",
    "final_address": "228 Jewel St",
    "address_councildis": "D",
    "status": "Pending",
    "rowid": "1206659",
    "final_x": "3667315.96845",
    "final_y": "555737.788313",
    "longitude": "-90.11204347703837",
    "latitude": "30.02250938218727",
    "geocoded_column": {
      "latitude": "30.02250938218727",
      "longitude": "-90.11204347703837"
    }
  },
  {
    "service_request": "2025-1206658",
    "request_type": "Trash/Recycling",
    "request_reason": "Request a Large Item Pick Up",
    "date_created": "2025-07-05T19:57:07.000",
    "date_modified": "2025-07-05T19:57:09.000",
    "request_status": "Pending",
    "responsible_agency": "Department of Sanitation",
    "final_address": "6225 Cartier Dr",
    "address_councildis": "D",
    "status": "Assigned to Contractor",
    "contractor": "IV Waste",
    "rowid": "1206658",
    "final_x": "3677678.31694",
    "final_y": "555774.017689",
    "longitude": "-90.07929965647656",
    "latitude": "30.022301240489288",
    "geocoded_column": {
      "latitude": "30.022301240489288",
      "longitude": "-90.07929965647656"
    }
  },
  {
    "service_request": "2025-1206657",
    "request_type": "Abandoned Vehicles",
    "request_reason": "Abandoned/Junk Vehicles",
    "date_created": "2025-07-05T19:54:44.000",
    "date_modified": "2025-07-05T19:54:46.000",
    "request_status": "Pending",
    "responsible_agency": "Department of Public Works",
    "final_address": "228 Jewel St",
    "address_councildis": "D",
    "status": "Pending",
    "rowid": "1206657",
    "final_x": "3667315.96845",
    "final_y": "555737.788313",
    "longitude": "-90.11204347703837",
    "latitude": "30.02250938218727",
    "geocoded_column": {
      "latitude": "30.02250938218727",
      "longitude": "-90.11204347703837"
    }
  },
  {
    "service_request": "2025-1206656",
    "request_type": "Abandoned Vehicles",
    "request_reason": "Abandoned/Junk Vehicles",
    "date_created": "2025-07-05T19:52:08.000",
    "date_modified": "2025-07-05T19:52:10.000",
    "request_status": "Pending",
    "responsible_agency": "Department of Public Works",
    "final_address": "2717 S Prieur St",
    "address_councildis": "B",
    "status": "Pending",
    "rowid": "1206656",
    "final_x": "3672695.90113",
    "final_y": "527708.915519",
    "longitude": "-90.09600049961581",
    "latitude": "29.945280834698035",
    "geocoded_column": {
      "latitude": "29.945280834698035",
      "longitude": "-90.09600049961581"
    }
  },
  {
    "service_request": "2025-1206655",
    "request_type": "Trash/Recycling",
    "request_reason": "Repair Trash Cart",
    "date_created": "2025-07-05T19:45:19.000",
    "date_modified": "2025-07-05T19:45:21.000",
    "request_status": "Pending",
    "responsible_agency": "Department of Sanitation",
    "final_address": "28 Killdeer St",
    "address_councildis": "D",
    "status": "Assigned to Contractor",
    "contractor": "IV Waste",
    "rowid": "1206655",
    "final_x": "3675712.0315",
    "final_y": "556136.263898",
    "longitude": "-90.08550017859528",
    "latitude": "30.02335631057402",
    "geocoded_column": {
      "latitude": "30.02335631057402",
      "longitude": "-90.08550017859528"
    }
  },
  {
    "service_request": "2025-1206654",
    "request_type": "Parks & Parkways",
    "request_reason": "Request Tree Service (Right of Way/Public Property)",
    "date_created": "2025-07-05T19:12:38.000",
    "date_modified": "2025-07-05T19:13:04.000",
    "request_status": "Pending",
    "responsible_agency": "Department of Parks & Parkway",
    "final_address": "4335 Plum Orchard St",
    "address_councildis": "E",
    "status": "Pending",
    "rowid": "1206654",
    "final_x": "3701931.5242",
    "final_y": "552609.363798",
    "longitude": "-90.00278211088688",
    "latitude": "30.012847508478025",
    "geocoded_column": {
      "latitude": "30.012847508478025",
      "longitude": "-90.00278211088688"
    }
  },
  {
    "service_request": "2025-1206653",
    "request_type": "Trash/Recycling",
    "request_reason": "Replace Trash Cart",
    "date_created": "2025-07-05T18:29:07.000",
    "date_modified": "2025-07-05T18:29:09.000",
    "request_status": "Pending",
    "responsible_agency": "Department of Sanitation",
    "final_address": "1031 Henriette Delille St, New Orleans, Louisiana, 70116",
    "address_councildis": "C",
    "status": "Assigned to Contractor",
    "contractor": "IV Waste",
    "rowid": "1206653",
    "final_x": "3681851.85519",
    "final_y": "534737.509574",
    "longitude": "-90.0668469959105",
    "latitude": "29.964332048849617",
    "geocoded_column": {
      "latitude": "29.964332048849617",
      "longitude": "-90.0668469959105"
    }
  },
  {
    "service_request": "2025-1206652",
    "request_type": "Drainage",
    "request_reason": "Drainage Manhole Cover Missing or Damaged",
    "date_created": "2025-07-05T18:19:14.000",
    "date_modified": "2025-07-05T18:19:16.000",
    "request_status": "Pending",
    "responsible_agency": "Sewerage & Water Board",
    "final_address": "1265 Foy St",
    "address_councildis": "D",
    "status": "Pending",
    "rowid": "1206652",
    "final_x": "3677159.06824",
    "final_y": "546457.531473",
    "longitude": "-90.08126202631274",
    "latitude": "29.99669984859133",
    "geocoded_column": {
      "latitude": "29.99669984859133",
      "longitude": "-90.08126202631274"
    }
  },
  {
    "service_request": "2025-1206651",
    "request_type": "Trash/Recycling",
    "request_reason": "Request a Large Item Pick Up",
    "date_created": "2025-07-05T18:17:50.000",
    "date_modified": "2025-07-05T18:17:52.000",
    "request_status": "Pending",
    "responsible_agency": "Department of Sanitation",
    "final_address": "6733 Colbert St",
    "address_councildis": "A",
    "status": "Assigned to Contractor",
    "contractor": "IV Waste",
    "rowid": "1206651",
    "final_x": "3667961.01351",
    "final_y": "552364.620374",
    "longitude": "-90.11011906285809",
    "latitude": "30.01321544259928",
    "geocoded_column": {
      "latitude": "30.01321544259928",
      "longitude": "-90.11011906285809"
    }
  },
  {
    "service_request": "2025-1206650",
    "request_type": "Trash/Recycling",
    "request_reason": "Order Recycling Cart",
    "date_created": "2025-07-05T17:54:19.000",
    "date_modified": "2025-07-05T17:54:20.000",
    "request_status": "Pending",
    "responsible_agency": "Department of Sanitation",
    "final_address": "5139 Pratt Dr",
    "address_councildis": "D",
    "status": "Pending",
    "rowid": "1206650",
    "final_x": "3680553.99195",
    "final_y": "551437.130453",
    "longitude": "-90.07036427400666",
    "latitude": "30.010289525312842",
    "geocoded_column": {
      "latitude": "30.010289525312842",
      "longitude": "-90.07036427400666"
    }
  },
  {
    "service_request": "2025-1206649",
    "request_type": "Trash/Recycling",
    "request_reason": "Order Trash Cart",
    "date_created": "2025-07-05T17:53:03.000",
    "date_modified": "2025-07-05T17:53:05.000",
    "request_status": "Pending",
    "responsible_agency": "Department of Sanitation",
    "final_address": "1413 Prentiss Ave",
    "address_councildis": "D",
    "status": "Assigned to Contractor",
    "contractor": "IV Waste",
    "rowid": "1206649",
    "final_x": "3677642.45499",
    "final_y": "553454.892567",
    "longitude": "-90.07949315698998",
    "latitude": "30.015925564944673",
    "geocoded_column": {
      "latitude": "30.015925564944673",
      "longitude": "-90.07949315698998"
    }
  },
  {
    "service_request": "2025-1206648",
    "request_type": "Trash/Recycling",
    "request_reason": "Order Recycling Cart",
    "date_created": "2025-07-05T17:45:52.000",
    "date_modified": "2025-07-05T17:45:54.000",
    "request_status": "Pending",
    "responsible_agency": "Department of Sanitation",
    "final_address": "1323 Reynes St",
    "address_councildis": "E",
    "status": "Pending",
    "rowid": "1206648",
    "final_x": "3696319.25367",
    "final_y": "535181.327558",
    "longitude": "-90.02114430631744",
    "latitude": "29.9651047714193",
    "geocoded_column": {
      "latitude": "29.9651047714193",
      "longitude": "-90.02114430631744"
    }
  },
  {
    "service_request": "2025-1206647",
    "request_type": "Trash/Recycling",
    "request_reason": "Request a Large Item Pick Up",
    "date_created": "2025-07-05T17:32:04.000",
    "date_modified": "2025-07-05T17:32:07.000",
    "request_status": "Pending",
    "responsible_agency": "Department of Sanitation",
    "final_address": "5717 Wickfield Dr",
    "address_councildis": "D",
    "status": "Assigned to Contractor",
    "contractor": "IV Waste",
    "rowid": "1206647",
    "final_x": "3681089.49077",
    "final_y": "553883.522519",
    "longitude": "-90.06858712236067",
    "latitude": "30.016999976526424",
    "geocoded_column": {
      "latitude": "30.016999976526424",
      "longitude": "-90.06858712236067"
    }
  },
  {
    "service_request": "2025-1206646",
    "request_type": "Trash/Recycling",
    "request_reason": "Missed Trash Pick-Up",
    "date_created": "2025-07-05T17:08:30.000",
    "date_modified": "2025-07-06T06:55:54.000",
    "case_close_date": "2025-07-06T01:55:52.000",
    "request_status": "Closed",
    "responsible_agency": "Department of Sanitation",
    "final_address": "528 S Rocheblave St",
    "address_councildis": "B",
    "status": "Invalid Request",
    "contractor": "IV Waste",
    "contractor_action": "Invalid Request",
    "rowid": "1206646",
    "final_x": "3675055.8987",
    "final_y": "533026.620484",
    "longitude": "-90.08836680911038",
    "latitude": "29.95983247010194",
    "geocoded_column": {
      "latitude": "29.95983247010194",
      "longitude": "-90.08836680911038"
    }
  },
  {
    "service_request": "2025-1206645",
    "request_type": "Trash/Recycling",
    "request_reason": "Order Recycling Cart",
    "date_created": "2025-07-05T16:56:10.000",
    "date_modified": "2025-07-05T16:56:12.000",
    "request_status": "Pending",
    "responsible_agency": "Department of Sanitation",
    "final_address": "1506 Treasure St",
    "address_councildis": "D",
    "status": "Pending",
    "rowid": "1206645",
    "final_x": "3679739.69365",
    "final_y": "543625.05531",
    "longitude": "-90.07320837648611",
    "latitude": "29.98883374847517",
    "geocoded_column": {
      "latitude": "29.98883374847517",
      "longitude": "-90.07320837648611"
    }
  },
  {
    "service_request": "2025-1206644",
    "request_type": "Trash/Recycling",
    "request_reason": "Missed Trash Pick-Up",
    "date_created": "2025-07-05T16:19:58.000",
    "date_modified": "2025-07-05T16:20:00.000",
    "request_status": "Pending",
    "responsible_agency": "Department of Sanitation",
    "final_address": "7130 Lake Willow Dr NOLA 70126",
    "status": "Assigned to Contractor",
    "rowid": "1206644",
    "longitude": "0.0",
    "latitude": "0.0",
    "geocoded_column": {
      "latitude": "0.0",
      "longitude": "0.0"
    }
  },
  {
    "service_request": "2025-1206643",
    "request_type": "General Services",
    "request_reason": "General Service Request",
    "date_created": "2025-07-05T16:12:35.000",
    "date_modified": "2025-07-05T16:12:37.000",
    "request_status": "Pending",
    "responsible_agency": "Orleans Parish Communication District",
    "final_address": "611 OKeefe Ave",
    "address_councildis": "B",
    "status": "Pending",
    "rowid": "1206643",
    "final_x": "3679355.91375",
    "final_y": "529017.045504",
    "longitude": "-90.07492737207814",
    "latitude": "29.948678324365698",
    "geocoded_column": {
      "latitude": "29.948678324365698",
      "longitude": "-90.07492737207814"
    }
  },
  {
    "service_request": "2025-1206642",
    "request_type": "Trash/Recycling",
    "request_reason": "Replace Trash Cart",
    "date_created": "2025-07-05T16:06:49.000",
    "date_modified": "2025-07-05T16:06:50.000",
    "request_status": "Pending",
    "responsible_agency": "Department of Sanitation",
    "final_address": "1700 BLK S Rampart St",
    "address_councildis": "B",
    "status": "Assigned to Contractor",
    "contractor": "IV Waste",
    "rowid": "1206642",
    "final_x": "3677368.66622",
    "final_y": "525837.052772",
    "longitude": "-90.08131166923667",
    "latitude": "29.939994259362653",
    "geocoded_column": {
      "latitude": "29.939994259362653",
      "longitude": "-90.08131166923667"
    }
  },
  {
    "service_request": "2025-1206641",
    "request_type": "Trash/Recycling",
    "request_reason": "Request a Large Item Pick Up",
    "date_created": "2025-07-05T16:06:05.000",
    "date_modified": "2025-07-05T16:06:07.000",
    "request_status": "Pending",
    "responsible_agency": "Department of Sanitation",
    "final_address": "6388 Bellaire Dr",
    "address_councildis": "A",
    "status": "Assigned to Contractor",
    "contractor": "IV Waste",
    "rowid": "1206641",
    "final_x": "3664353.04602",
    "final_y": "550385.743636",
    "longitude": "-90.12158448682703",
    "latitude": "30.007879630807555",
    "geocoded_column": {
      "latitude": "30.007879630807555",
      "longitude": "-90.12158448682703"
    }
  },
  {
    "service_request": "2025-1206640",
    "request_type": "Trash/Recycling",
    "request_reason": "Order Recycling Cart",
    "date_created": "2025-07-05T15:55:39.000",
    "date_modified": "2025-07-05T15:55:42.000",
    "request_status": "Pending",
    "responsible_agency": "Department of Sanitation",
    "final_address": "4824 Burgundy St",
    "address_councildis": "E",
    "status": "Pending",
    "rowid": "1206640",
    "final_x": "3695043.92157",
    "final_y": "533632.126277",
    "longitude": "-90.02522756488253",
    "latitude": "29.960885112079815",
    "geocoded_column": {
      "latitude": "29.960885112079815",
      "longitude": "-90.02522756488253"
    }
  },
  {
    "service_request": "2025-1206639",
    "request_type": "Abandoned Vehicles",
    "request_reason": "Abandoned/Junk Vehicles",
    "date_created": "2025-07-05T15:41:09.000",
    "date_modified": "2025-07-05T15:41:10.000",
    "request_status": "Pending",
    "responsible_agency": "Department of Public Works",
    "final_address": "925 Poeyfarre St",
    "address_councildis": "B",
    "status": "Pending",
    "rowid": "1206639",
    "final_x": "3681425.42767",
    "final_y": "526497.902526",
    "longitude": "-90.06848084445863",
    "latitude": "29.94168886816464",
    "geocoded_column": {
      "latitude": "29.94168886816464",
      "longitude": "-90.06848084445863"
    }
  },
  {
    "service_request": "2025-1206638",
    "request_type": "Abandoned Vehicles",
    "request_reason": "Abandoned/Junk Vehicles",
    "date_created": "2025-07-05T15:40:34.000",
    "date_modified": "2025-07-05T15:40:36.000",
    "request_status": "Pending",
    "responsible_agency": "Department of Public Works",
    "final_address": "925 Poeyfarre St",
    "address_councildis": "B",
    "status": "Pending",
    "rowid": "1206638",
    "final_x": "3681425.42767",
    "final_y": "526497.902526",
    "longitude": "-90.06848084445863",
    "latitude": "29.94168886816464",
    "geocoded_column": {
      "latitude": "29.94168886816464",
      "longitude": "-90.06848084445863"
    }
  },
  {
    "service_request": "2025-1206637",
    "request_type": "Property Maintenance",
    "request_reason": "Property Maintenance",
    "date_created": "2025-07-05T15:39:47.000",
    "date_modified": "2025-07-05T15:39:48.000",
    "request_status": "Pending",
    "responsible_agency": "Department of Code Enforcement",
    "final_address": "523 Brooks St",
    "address_councildis": "A",
    "status": "Pending",
    "rowid": "1206637",
    "final_x": "3667925.5938",
    "final_y": "546715.073041",
    "longitude": "-90.110421472426",
    "latitude": "29.997682193711515",
    "geocoded_column": {
      "latitude": "29.997682193711515",
      "longitude": "-90.110421472426"
    }
  },
  {
    "service_request": "2025-1206636",
    "request_type": "Abandoned Vehicles",
    "request_reason": "Abandoned/Junk Vehicles",
    "date_created": "2025-07-05T15:38:48.000",
    "date_modified": "2025-07-05T15:38:49.000",
    "request_status": "Pending",
    "responsible_agency": "Department of Public Works",
    "final_address": "925 Poeyfarre St",
    "address_councildis": "B",
    "status": "Pending",
    "rowid": "1206636",
    "final_x": "3681425.42767",
    "final_y": "526497.902526",
    "longitude": "-90.06848084445863",
    "latitude": "29.94168886816464",
    "geocoded_column": {
      "latitude": "29.94168886816464",
      "longitude": "-90.06848084445863"
    }
  },
  {
    "service_request": "2025-1206635",
    "request_type": "Trash/Recycling",
    "request_reason": "Request a Large Item Pick Up",
    "date_created": "2025-07-05T15:35:35.000",
    "date_modified": "2025-07-05T15:35:37.000",
    "request_status": "Pending",
    "responsible_agency": "Department of Sanitation",
    "final_address": "7712 Morris St, Metairie, Louisiana, 70003",
    "status": "Assigned to Contractor",
    "rowid": "1206635",
    "longitude": "0.0",
    "latitude": "0.0",
    "geocoded_column": {
      "latitude": "0.0",
      "longitude": "0.0"
    }
  },
  {
    "service_request": "2025-1206634",
    "request_type": "Abandoned Vehicles",
    "request_reason": "Abandoned/Junk Vehicles",
    "date_created": "2025-07-05T15:17:28.000",
    "date_modified": "2025-07-05T15:17:29.000",
    "request_status": "Pending",
    "responsible_agency": "Department of Public Works",
    "final_address": "3701 Napoleon Ave",
    "address_councildis": "B",
    "status": "Pending",
    "rowid": "1206634",
    "final_x": "3670212.17415",
    "final_y": "528205.00416",
    "longitude": "-90.10382562664194",
    "latitude": "29.94671843033207",
    "geocoded_column": {
      "latitude": "29.94671843033207",
      "longitude": "-90.10382562664194"
    }
  },
  {
    "service_request": "2025-1206633",
    "request_type": "Trash/Recycling",
    "request_reason": "Replace Trash Cart",
    "date_created": "2025-07-05T15:16:50.000",
    "date_modified": "2025-07-05T15:16:53.000",
    "request_status": "Pending",
    "responsible_agency": "Department of Sanitation",
    "final_address": "731 Bartholomew St",
    "address_councildis": "C",
    "status": "Assigned to Contractor",
    "contractor": "IV Waste",
    "rowid": "1206633",
    "final_x": "3691517.9688",
    "final_y": "534050.259013",
    "longitude": "-90.03634686769857",
    "latitude": "29.96214504090383",
    "geocoded_column": {
      "latitude": "29.96214504090383",
      "longitude": "-90.03634686769857"
    }
  },
  {
    "service_request": "2025-1206632",
    "request_type": "Roads and Streets",
    "request_reason": "Sidewalk Damaged or Missing",
    "date_created": "2025-07-05T15:04:31.000",
    "date_modified": "2025-07-05T15:04:32.000",
    "request_status": "Pending",
    "responsible_agency": "Department of Public Works",
    "final_address": "1111 Gravier St",
    "address_councildis": "B",
    "status": "Pending",
    "rowid": "1206632",
    "final_x": "3679519.89135",
    "final_y": "530682.39341",
    "longitude": "-90.07435185120141",
    "latitude": "29.953252519253937",
    "geocoded_column": {
      "latitude": "29.953252519253937",
      "longitude": "-90.07435185120141"
    }
  },
  {
    "service_request": "2025-1206631",
    "request_type": "Trash/Recycling",
    "request_reason": "Request a Large Item Pick Up",
    "date_created": "2025-07-05T14:31:33.000",
    "date_modified": "2025-07-05T14:31:35.000",
    "request_status": "Pending",
    "responsible_agency": "Department of Sanitation",
    "final_address": "3420 Jefferson Ave",
    "address_councildis": "A",
    "status": "Assigned to Contractor",
    "contractor": "IV Waste",
    "rowid": "1206631",
    "final_x": "3668704.81089",
    "final_y": "527797.469695",
    "longitude": "-90.10859868665702",
    "latitude": "29.945642230854013",
    "geocoded_column": {
      "latitude": "29.945642230854013",
      "longitude": "-90.10859868665702"
    }
  },
  {
    "service_request": "2025-1206630",
    "request_type": "Trash/Recycling",
    "request_reason": "Request a Large Item Pick Up",
    "date_created": "2025-07-05T14:15:03.000",
    "date_modified": "2025-07-05T14:15:05.000",
    "request_status": "Pending",
    "responsible_agency": "Department of Sanitation",
    "final_address": "4333 S Prieur St",
    "address_councildis": "B",
    "status": "Assigned to Contractor",
    "contractor": "IV Waste",
    "rowid": "1206630",
    "final_x": "3670477.94951",
    "final_y": "526973.460542",
    "longitude": "-90.10302822602175",
    "latitude": "29.94332424265749",
    "geocoded_column": {
      "latitude": "29.94332424265749",
      "longitude": "-90.10302822602175"
    }
  },
  {
    "service_request": "2025-1206629",
    "request_type": "Property Maintenance",
    "request_reason": "Property Maintenance",
    "date_created": "2025-07-05T14:06:02.000",
    "date_modified": "2025-07-05T14:06:04.000",
    "request_status": "Pending",
    "responsible_agency": "Department of Code Enforcement",
    "final_address": "1450 Poydras St Ste 2280",
    "address_councildis": "B",
    "status": "Pending",
    "rowid": "1206629",
    "final_x": "3678279.06485",
    "final_y": "529831.025857",
    "longitude": "-90.07829929181551",
    "latitude": "29.950948972896743",
    "geocoded_column": {
      "latitude": "29.950948972896743",
      "longitude": "-90.07829929181551"
    }
  },
  {
    "service_request": "2025-1206628",
    "request_type": "Trash/Recycling",
    "request_reason": "Replace Trash Cart",
    "date_created": "2025-07-05T13:38:35.000",
    "date_modified": "2025-07-05T13:38:37.000",
    "request_status": "Pending",
    "responsible_agency": "Department of Sanitation",
    "final_address": "1937 S Lopez St",
    "address_councildis": "B",
    "status": "Assigned to Contractor",
    "contractor": "IV Waste",
    "rowid": "1206628",
    "final_x": "3669439.09076",
    "final_y": "529819.822913",
    "longitude": "-90.10621193559756",
    "latitude": "29.95118144116747",
    "geocoded_column": {
      "latitude": "29.95118144116747",
      "longitude": "-90.10621193559756"
    }
  },
  {
    "service_request": "2025-1206627",
    "request_type": "Trash/Recycling",
    "request_reason": "Request a Large Item Pick Up",
    "date_created": "2025-07-05T13:28:22.000",
    "date_modified": "2025-07-05T13:28:23.000",
    "request_status": "Pending",
    "responsible_agency": "Department of Sanitation",
    "final_address": "5701 Albany Ct",
    "address_councildis": "C",
    "status": "Assigned to Contractor",
    "contractor": "Richards Disposal",
    "rowid": "1206627",
    "final_x": "3704621.89822",
    "final_y": "521411.059001",
    "longitude": "-89.99543297112317",
    "latitude": "29.926977378185867",
    "geocoded_column": {
      "latitude": "29.926977378185867",
      "longitude": "-89.99543297112317"
    }
  },
  {
    "service_request": "2025-1206626",
    "request_type": "Abandoned Vehicles",
    "request_reason": "Abandoned/Junk Vehicles",
    "date_created": "2025-07-05T13:16:51.000",
    "date_modified": "2025-07-05T13:16:52.000",
    "request_status": "Pending",
    "responsible_agency": "Department of Public Works",
    "final_address": "800 Pelican Ave",
    "address_councildis": "C",
    "status": "Pending",
    "rowid": "1206626",
    "final_x": "3687938.65775",
    "final_y": "530802.250818",
    "longitude": "-90.04776484071024",
    "latitude": "29.953325055858134",
    "geocoded_column": {
      "latitude": "29.953325055858134",
      "longitude": "-90.04776484071024"
    }
  },